     2.11           OBSERVATION DATA    G (GPS)             RINEX VERSION / TYPE
teqc  2019Feb25                         20230813 10:44:42UTCPGM / RUN BY / DATE
Linux 2.6.32-573.12.1.x86_64|x86_64|gcc|Linux 64|=+         COMMENT
teqc  2019Feb25                         20230813 10:44:42UTCCOMMENT
     2.11           OBSERVATION DATA    M (MIXED)           COMMENT
teqc  2019Feb25     IGN-RGP             20230809 15:04:25UTCCOMMENT
teqc  2019Feb25     Administrateur RGP  20230809 15:04:25UTCCOMMENT
teqc  2019Feb25     IGN-RGP             20230809 15:04:24UTCCOMMENT
teqc  2019Feb25     IGN-RGP             20230809 15:04:23UTCCOMMENT
BIT 2 OF LLI FLAGS DATA COLLECTED UNDER A/S CONDITION       COMMENT
PANA                                                        MARKER NAME
10001M008                                                   MARKER NUMBER
Automatic           Lycee Dorian - Paris 11                 OBSERVER / AGENCY
1700671             LEICA GR10          2.00/4.007          REC # / TYPE / VERS
11311010            LEIAS10         NONE                    ANT # / TYPE
  4201030.6890   175603.7900  4780030.2470                  APPROX POSITION XYZ
        0.0000        0.0000        0.0000                  ANTENNA: DELTA H/E/N
     1     1                                                WAVELENGTH FACT L1/2
    21    L1    L2    C1    P1    P2    D1    D2    S1    S2# / TYPES OF OBSERV
          L5    C5    D5    S5    L7    C7    D7    S7    L8# / TYPES OF OBSERV
          C8    D8    S8                                    # / TYPES OF OBSERV
    30.0000                                                 INTERVAL
DefaultJobName                                              COMMENT
DefaultUserDiscription                                      COMMENT
Project creator:                                            COMMENT
 SNR is mapped to RINEX snr flag value [0-9]                COMMENT
  L1 & L2: min(max(int(snr_dBHz/6), 0), 9)                  COMMENT
    18                                                      LEAP SECONDS
Forced Modulo Decimation to 30 seconds                      COMMENT
teqc_2019 edited: all GLONASS satellites excluded           COMMENT
teqc_2019 edited: all SBAS satellites excluded              COMMENT
teqc_2019 edited: all Galileo satellites excluded           COMMENT
  2023     8     9    14     0    0.0000000     GPS         TIME OF FIRST OBS
                                                            END OF HEADER
 23  8  9 14  0  0.0000000  0  9G03G04G06G07G09G11G17G19G31
 116213708.161 7  90556145.103 7  22114730.460                    22114729.340
                                        47.250          45.250



 107358468.382 8  83655967.023 8  20429625.040                    20429621.820
                                        49.550          49.800



 109085894.724 8  85002016.736 8  20758349.860                    20758348.240
                                        50.350          48.850



 129797162.645 6 101140627.905 6  24699579.060                    24699578.860
                                        40.500          38.550



 107419230.103 8  83703324.525 8  20441188.360                    20441185.900
                                        50.450          49.350



 125616912.107 7  97883301.916 7  23904099.600                    23904097.900
                                        45.250          45.000



 124280629.814 7  96842038.494 7  23649818.980                    23649816.300
                                        44.800          43.150



 118646514.968 7  92451818.64847  22577679.040                    22577673.540
                                        46.150          43.100



 125561221.966 7  97839925.785 6  23893500.840                    23893498.520
                                        42.250          41.400



 23  8  9 14  0 30.0000000  0  9G03G04G06G07G09G11G17G19G31
 116291302.060 7  90616607.840 7  22129496.140                    22129494.960
                                        47.500          45.300



 107383902.095 8  83675785.492 8  20434464.920                    20434461.720
                                        49.750          49.900



 109046863.644 8  84971602.911 8  20750922.500                    20750920.880
                                        50.550          48.750



 129696656.526 6 101062311.741 6  24680453.120                    24680452.880
                                        40.200          38.500



 107382471.661 8  83674681.601 8  20434193.460                    20434191.000
                                        50.550          49.200



 125516088.353 7  97804738.041 7  23884913.440                    23884911.700
                                        45.300          45.100



 124371723.258 7  96913020.283 7  23667153.560                    23667150.960
                                        45.150          43.000



 118727333.296 7  92514793.89747  22593058.300                    22593052.840
                                        46.050          42.250



 125631610.757 7  97894774.128 6  23906895.400                    23906893.120
                                        42.450          41.050



 23  8  9 14  1  0.0000000  0  9G03G04G06G07G09G11G17G19G31
 116369115.341 7  90677241.504 7  22144303.600                    22144302.340
                                        47.050          46.050



 107409818.395 8  83695979.994 8  20439396.640                    20439393.460
                                        49.450          49.900



 109008345.430 8  84941588.714 8  20743592.740                    20743591.140
                                        50.300          48.600



 129596164.990 6 100984006.910 6  24661329.900                    24661329.740
                                        39.550          39.650



 107346200.342 8  83646418.236 8  20427291.240                    20427288.800
                                        50.250          49.300



 125415451.786 7  97726319.996 7  23865762.900                    23865761.120
                                        44.750          45.100



 124462987.385 7  96984135.040 7  23684520.680                    23684518.160
                                        44.850          43.150



 118808561.677 7  92578088.68847  22608515.560                    22608510.180
                                        46.000          42.200



 125702485.334 7  97950001.020 6  23920382.400                    23920380.160
                                        42.300          41.250



 23  8  9 14  1 30.0000000  0  9G03G04G06G07G09G11G17G19G31
 116447148.077 7  90738046.166 7  22159152.780                    22159151.520
                                        47.150          46.850



 107436216.816 8  83716550.194 8  20444420.100                    20444416.940
                                        49.250          49.850



 108970342.713 8  84911976.218 8  20736361.060                    20736359.460
                                        50.050          48.350



 129495691.528 6 100905716.157 6  24642210.100                    24642210.060
                                        40.400          39.450



 107310417.350 8  83618535.403 8  20420481.920                    20420479.520
                                        50.400          49.250



 125315005.679 7  97648050.375 7  23846648.600                    23846646.780
                                        44.250          44.800



 124554420.995 7  97055381.874 7  23701920.040                    23701917.580
                                        44.300          42.150



 118890197.760 7  92641701.15547  22624050.420                    22624045.120
                                        46.000          42.700



 125773844.091 6  98005605.183 6  23933961.560                    23933959.340
                                        41.500          40.900



 23  8  9 14  2  0.0000000  0  9G03G04G06G07G09G11G17G19G31
 116525396.598 7  90799018.974 7  22174043.020                    22174041.800
                                        47.050          46.550



 107463093.164 8  83737492.793 8  20449534.520                    20449531.360
                                        49.050          49.600



 108932854.375 8  84882764.534 8  20729227.260                    20729225.660
                                        50.000          48.250



 129395235.401 6 100827438.852 6  24623093.700                    24623093.740
                                        40.500          38.700



 107275120.162 8  83591031.107 8  20413765.060                    20413762.680
                                        50.500          49.150



 125214749.566 7  97569928.792 7  23827570.460                    23827568.580
                                        44.250          44.300



 124646017.191 7  97126755.423 7  23719350.320                    23719347.920
                                        44.250          42.600



 118972235.506 7  92705626.63247  22639661.660                    22639656.460
                                        45.750          42.050



 125845681.655 6  98061582.434 6  23947631.840                    23947629.640
                                        40.950          40.400



 23  8  9 14  2 30.0000000  0  9G03G04G06G07G09G11G17G19G31
 116603864.714 7  90860162.900 7  22188975.060                    22188973.840
                                        47.400          46.550



 107490450.729 8  83758810.371 8  20454740.480                    20454737.360
                                        49.450          49.600



 108895886.772 8  84853958.614 8  20722192.540                    20722190.940
                                        50.200          48.550



 129294803.614 7 100749180.499 6  24603982.000                    24603982.040
                                        42.200          40.400



 107240313.747 8  83563909.250 8  20407141.600                    20407139.220
                                        50.650          49.400



 125114690.569 7  97491960.791 7  23808529.820                    23808527.900
                                        44.950          44.650



 124737778.161 7  97198257.365 6  23736811.960                    23736809.620
                                        44.150          40.800



 119054676.177 7  92769866.07147  22655349.600                    22655344.460
                                        45.950          42.250



 125918000.571 6  98117934.774 6  23961393.700                    23961391.540
                                        40.100          40.950



 23  8  9 14  3  0.0000000  0  9G03G04G06G07G09G11G17G19G31
 116682546.692 7  90921473.460 7  22203947.780                    22203946.600
                                        46.950          46.600



 107518283.171 8  83780497.982 8  20460036.820                    20460033.700
                                        49.350          49.500



 108859436.664 8  84825555.932 8  20715256.320                    20715254.720
                                        50.250          48.700



 129194394.209 6 100670939.568 6  24584874.620                    24584874.620
                                        41.500          40.300



 107205993.484 8  83537166.206 8  20400610.640                    20400608.280
                                        50.600          49.200



 125014826.127 7  97414144.412 7  23789526.220                    23789524.240
                                        45.100          44.850



 124829695.957 7  97269881.476 6  23754303.460                    23754301.180
                                        43.350          41.550



 119137511.968 7  92834413.40246  22671112.720                    22671107.640
                                        46.300          41.250



 125990793.356 6  98174656.337 6  23975245.720                    23975243.600
                                        41.100          40.950



 23  8  9 14  3 30.0000000  0  9G03G04G06G07G09G11G17G19G31
 116761444.804 7  90982952.434 7  22218961.620                    22218960.500
                                        46.350          46.800



 107546592.173 8  83802556.941 8  20465423.840                    20465420.740
                                        49.150          49.300



 108823508.801 8  84797560.188 8  20708419.480                    20708417.880
                                        50.350          48.450



 129094012.209 6 100592720.003 6  24565772.440                    24565772.420
                                        41.100          38.950



 107172162.661 8  83510804.538 8  20394172.840                    20394170.480
                                        50.600          49.350



 124915161.665 7  97336483.868 7  23770560.660                    23770558.620
                                        44.900          45.100



 124921770.792 7  97341627.967 6  23771824.840                    23771822.580
                                        44.150          40.750



 119220742.381 7  92899268.20646  22686950.940                    22686945.900
                                        46.100          41.900



 126064060.556 6  98231747.588 6  23989188.020                    23989185.960
                                        41.150          40.600



 23  8  9 14  4  0.0000000  0  9G03G04G06G07G09G11G17G19G31
 116840557.424 7  91044598.562 7  22234016.260                    22234015.220
                                        46.000          46.750



 107575375.589 8  83824985.579 8  20470901.120                    20470898.020
                                        49.150          49.100



 108788104.087 8  84769972.120 8  20701682.160                    20701680.560
                                        50.350          48.300



 128993659.280 6 100514523.069 6  24546675.800                    24546675.760
                                        41.250          39.600



 107138820.804 8  83484823.882 8  20387828.060                    20387825.720
                                        50.750          49.700



 124815698.915 7  97258980.480 7  23751633.500                    23751631.420
                                        45.450          44.650



 125013999.250 7  97413494.216 6  23789375.400                    23789373.160
                                        44.550          40.700



 119304363.246 7  92964427.28446  22702863.460                    22702858.440
                                        46.150          41.150



 126137798.916 6  98289205.975 6  24003219.960                    24003217.960
                                        41.950          40.500



 23  8  9 14  4 30.0000000  0  9G03G04G06G07G09G11G17G19G31
 116919882.208 7  91106410.015 7  22249111.260                    22249110.320
                                        46.650          46.200



 107604630.498 8  83847781.597 8  20476468.120                    20476465.040
                                        49.200          48.700



 108753222.678 8  84742791.816 8  20695044.440                    20695042.820
                                        50.350          48.600



 128893336.677 6 100436349.750 6  24527584.920                    24527584.880
                                        39.700          38.850



 107105966.650 8  83459223.266 8  20381576.100                    20381573.780
                                        50.650          49.650



 124716438.802 7  97181635.001 7  23732744.900                    23732742.760
                                        44.300          44.650



 125106376.954 7  97485476.714 6  23806954.420                    23806952.200
                                        44.300          40.300



 119388370.099 7  93029887.09846  22718849.480                    22718844.460
                                        46.000          40.000



 126212004.468 7  98347028.417 6  24017340.840                    24017338.880
                                        43.100          40.050



 23  8  9 14  5  0.0000000  0  9G03G04G06G07G09G11G17G19G31
 116999418.560 7  91168386.315 7  22264246.540                    22264245.680
                                        46.950          46.000



 107634355.658 8  83870944.037 8  20482124.640                    20482121.520
                                        49.250          48.850



 108718866.357 8  84716020.661 8  20688506.660                    20688505.020
                                        50.500          48.750



 128793046.808 6 100358201.931 6  24508500.260                    24508500.220
                                        40.750          38.550



 107073600.600 8  83434002.965 8  20375417.040                    20375414.780
                                        50.700          49.650



 124617383.827 7  97104449.369 7  23713895.320                    23713893.140
                                        44.750          44.200



 125198901.168 7  97557573.387 6  23824561.300                    23824559.100
                                        45.350          40.500



 119472759.870 7  93095645.30646  22734908.340                    22734903.320
                                        46.150          40.500



 126286674.986 7  98405213.148 6  24031550.220                    24031548.280
                                        43.250          40.150



 23  8  9 14  5 30.0000000  0  9G03G04G06G07G09G11G17G19G31
 117079167.094 7  91230527.975 7  22279422.200                    22279421.400
                                        47.350          45.550



 107664551.042 8  83894472.910 8  20487870.620                    20487867.480
                                        49.300          49.050



 108685038.238 8  84689661.098 8  20682069.380                    20682067.740
                                        50.150          48.950



 128692793.648 6 100280082.698 6  24489422.620                    24489422.560
                                        39.600          38.650



 107041724.346 8  83409164.328 8  20369351.180                    20369348.960
                                        50.750          49.450



 124518537.987 7  97027426.670 7  23695085.580                    23695083.360
                                        44.650          44.500



 125291569.953 7  97629782.703 6  23842195.700                    23842193.500
                                        44.800          41.700



 119557530.615 7  93161700.36746  22751039.740                    22751034.700
                                        45.400          40.400



 126361809.383 7  98463759.344 6  24045847.880                    24045845.960
                                        43.700          40.100



 23  8  9 14  6  0.0000000  0  9G03G04G06G07G09G11G17G19G31
 117159126.342 7  91292833.819 7  22294637.980                    22294637.220
                                        47.250          45.800



 107695214.568 8  83918366.581 8  20493705.680                    20493702.540
                                        49.350          49.200



 108651739.251 8  84663713.845 8  20675732.800                    20675731.140
                                        50.300          49.050



 128592578.863 6 100201993.348 6  24470352.320                    24470352.220
                                        41.800          40.050



 107010337.401 8  83384706.964 8  20363378.460                    20363376.260
                                        50.600          49.550



 124419902.997 7  96950568.305 7  23676315.940                    23676313.640
                                        43.800          45.400



 125384379.775 7  97702101.918 6  23859856.940                    23859854.780
                                        45.300          41.600



 119642678.433 7  93228049.28746  22767242.880                    22767237.800
                                        45.000          40.600



 126437404.600 7  98522664.618 6  24060233.280                    24060231.320
                                        43.500          40.750



 23  8  9 14  6 30.0000000  0  9G03G04G06G07G09G11G17G19G31
 117239297.699 7  91355304.945 7  22309894.140                    22309893.400
                                        47.400          45.900



 107726347.017 8  83942625.626 8  20499630.000                    20499626.840
                                        49.550          49.100



 108618973.193 8  84638181.865 8  20669497.620                    20669495.980
                                        50.250          49.100



 128492407.141 7 100123937.521 6  24451290.240                    24451290.100
                                        42.600          39.700



 106979442.202 8  83360632.793 8  20357499.300                    20357497.100
                                        50.550          49.600



 124321483.532 7  96873877.885 7  23657587.300                    23657584.960
                                        44.500          44.800



 125477330.223 7  97774530.703 6  23877544.960                    23877542.800
                                        45.650          41.400



 119728202.280 7  93294691.17246  22783517.600                    22783512.500
                                        45.200          41.000



 126513460.151 7  98581928.587 6  24074706.280                    24074704.320
                                        43.500          40.650



 23  8  9 14  7  0.0000000  0  9G03G04G06G07G09G11G17G19G31
 117319679.063 7  91417939.710 7  22325190.280                    22325189.540
                                        47.250          45.300



 107757945.550 8  83967247.854 8  20505643.020                    20505639.840
                                        49.600          49.150



 108586740.343 8  84613065.364 8  20663363.900                    20663362.280
                                        50.250          48.850



 128392279.445 7 100045916.067 6  24432236.520                    24432236.320
                                        42.850          41.500



 106949037.604 8  83336940.899 8  20351713.500                    20351711.340
                                        50.800          49.650



 124223280.721 7  96797356.263 7  23638899.900                    23638897.540
                                        44.200          44.850



 125570417.293 7  97847065.960 6  23895258.960                    23895256.780
                                        46.100          41.800



 119814097.604 7  93361622.50546  22799863.020                    22799857.920
                                        45.050          41.700



 126589972.117 7  98641548.225 6  24089266.100                    24089264.160
                                        43.700          40.400



 23  8  9 14  7 30.0000000  0  9G03G04G06G07G09G11G17G19G31
 117400269.105 7  91480737.094 7  22340526.100                    22340525.380
                                        47.050          45.000



 107790008.259 8  83992231.772 8  20511744.360                    20511741.160
                                        49.250          49.350



 108555041.779 8  84588365.195 8  20657331.860                    20657330.240
                                        50.300          48.900



 128292198.088 7  99967930.688 6  24413191.640                    24413191.400
                                        42.400          41.200



 106919123.289 8  83313631.040 8  20346020.980                    20346018.860
                                        50.750          49.650



 124125296.573 7  96721005.038 7  23620254.100                    23620251.720
                                        44.100          45.100



 125663637.484 7  97919704.920 7  23912998.320                    23912996.120
                                        45.450          42.600



 119900360.545 7  93428840.32046  22816278.360                    22816273.260
                                        45.650          41.050



 126666937.673 7  98701521.333 6  24103912.240                    24103910.300
                                        43.600          40.250



 23  8  9 14  8  0.0000000  0  9G03G04G06G07G09G11G17G19G31
 117481067.990 7  91543697.215 7  22355901.660                    22355900.940
                                        46.450          45.100



 107822534.663 8  84017577.026 8  20517933.920                    20517930.740
                                        49.450          49.400



 108523880.034 8  84564083.328 8  20651401.980                    20651400.340
                                        50.150          48.750



 128192166.257 7  99889983.916 7  24394156.140                    24394155.880
                                        42.300          42.350



 106889700.390 8  83290704.116 8  20340421.980                    20340419.900
                                        50.850          49.600



 124027534.484 7  96644826.848 7  23601650.540                    23601648.140
                                        44.250          45.400



 125756988.654 7  97992445.975 6  23930762.560                    23930760.360
                                        45.300          41.900



 119986988.822 7  93496342.81046  22832763.240                    22832758.140
                                        46.250          41.400



 126744355.416 7  98761846.770 6  24118644.420                    24118642.500
                                        43.900          40.750



 23  8  9 14  8 30.0000000  0  9G03G04G06G07G09G11G17G19G31
 117562071.805 7  91606816.997 7  22371316.220                    22371315.500
                                        46.200          45.350



 107855520.095 8  84043279.958 8  20524210.840                    20524207.660
                                        49.650          49.350



 108493253.514 8  84540218.507 8  20645573.940                    20645572.300
                                        50.100          48.700



 128092183.466 7  99812075.342 6  24375130.000                    24375129.720
                                        42.550          41.900



 106860765.873 8  83268157.746 8  20334915.920                    20334913.860
                                        51.100          49.100



 123929993.836 7  96568821.182 7  23583089.140                    23583086.720
                                        45.600          45.700



 125850464.852 7  98065284.458 6  23948550.580                    23948548.400
                                        45.300          41.500



 120073976.105 7  93564125.04246  22849316.440                    22849311.320
                                        46.650          41.250



 126822219.394 7  98822519.921 6  24133461.520                    24133459.600
                                        44.250          41.150



 23  8  9 14  9  0.0000000  0  9G03G04G06G07G09G11G17G19G31
 117643282.760 7  91670098.198 7  22386770.200                    22386769.480
                                        45.250          45.700



 107888966.071 8  84069341.761 8  20530575.400                    20530572.240
                                        49.550          49.050



 108463166.741 8  84516774.266 8  20639848.620                    20639846.960
                                        50.050          48.750



 127992255.065 6  99734209.186 6  24356114.200                    24356113.880
                                        41.600          41.650



 106832322.957 8  83245994.451 8  20329503.400                    20329501.320
                                        50.850          48.450



 123832680.078 7  96492992.330 7  23564570.920                    23564568.480
                                        44.900          45.600



 125944066.051 7  98138220.322 6  23966362.400                    23966360.220
                                        44.850          40.950



 120161321.983 7  93632186.67646  22865937.900                    22865932.780
                                        46.150          41.250



 126900529.938 7  98883541.060 6  24148363.580                    24148361.700
                                        43.850          41.000



 23  8  9 14  9 30.0000000  0  9G03G04G06G07G09G11G17G19G31
 117724699.083 7  91733539.400 7  22402263.260                    22402262.540
                                        45.400          45.600



 107922870.146 8  84095760.511 8  20537027.140                    20537024.000
                                        49.300          49.000



 108433620.238 8  84493751.028 8  20634226.080                    20634224.400
                                        49.800          48.650



 127892382.619 6  99656386.597 6  24337109.060                    24337108.700
                                        41.500          40.850



 106804370.706 8  83224213.504 8  20324184.260                    20324182.120
                                        50.550          48.200



 123735594.730 7  96417341.481 7  23546096.160                    23546093.700
                                        44.350          46.000



 126037788.584 7  98211250.767 6  23984197.280                    23984195.080
                                        43.900          40.350



 120249022.132 7  93700524.38546  22882626.740                    22882621.640
                                        45.250          41.550



 126979283.531 7  98944907.439 6  24163349.960                    24163348.080
                                        43.650          39.750



 23  8  9 14 10  0.0000000  0  9G03G04G06G07G09G11G17G19G31
 117806320.714 7  91797140.579 7  22417795.380                    22417794.680
                                        46.050          45.050



 107957231.596 8  84122535.644 8  20543565.940                    20543562.780
                                        49.350          49.050



 108404616.334 8  84471150.583 8  20628706.800                    20628705.120
                                        50.000          48.950



 127792569.264 6  99578610.065 6  24318115.160                    24318114.760
                                        41.100          41.550



 106776910.029 8  83202815.583 7  20318958.660                    20318956.440
                                        50.650          47.750



 123638741.063 7  96341871.143 7  23527665.500                    23527663.020
                                        44.900          45.200



 126131630.445 7  98284374.171 6  24002054.880                    24002052.680
                                        43.100          40.100



 120337074.135 7  93769136.24946  22899382.540                    22899377.480
                                        46.350          39.650



 127058478.419 7  99006617.653 6  24178420.320                    24178418.460
                                        43.000          40.700



 23  8  9 14 10 30.0000000  0  9G03G04G06G07G09G11G17G19G31
 117888145.957 7  91860900.435 7  22433366.240                    22433365.540
                                        46.650          45.350



 107992048.000 8  84149665.310 8  20550191.280                    20550188.120
                                        49.400          49.550



 108376155.566 8  84448973.373 8  20623290.860                    20623289.200
                                        50.100          49.250



 127692816.496 7  99500880.752 6  24299132.760                    24299132.340
                                        42.450          41.150



 106749940.115 8  83181800.080 7  20313826.440                    20313824.120
                                        50.700          47.800



 123542120.643 7  96266582.555 7  23509279.220                    23509276.740
                                        44.700          45.200



 126225587.955 7  98357587.661 6  24019934.480                    24019932.300
                                        43.200          40.650



 120425473.732 7  93838018.99046  22916204.480                    22916199.420
                                        45.200          39.550



 127138111.256 7  99068669.169 6  24193573.980                    24193572.140
                                        43.550          40.850



 23  8  9 14 11  0.0000000  0  9G03G04G06G07G09G11G17G19G31
 117970173.243 7  91924817.726 7  22448975.560                    22448974.840
                                        47.100          45.250



 108027317.018 8  84177147.652 8  20556902.760                    20556899.620
                                        49.550          49.500



 108348238.616 8  84427219.914 8  20617978.420                    20617976.760
                                        50.200          48.900



 127593125.980 7  99423199.960 6  24280162.180                    24280161.740
                                        43.250          40.700



 106723460.244 8  83161166.438 7  20308787.460                    20308785.040
                                        50.800          47.400



 123445735.205 7  96191477.073 7  23490937.640                    23490935.140
                                        45.000          45.050



 126319657.491 7  98430888.456 6  24037835.380                    24037833.220
                                        42.100          39.400



 120514216.788 7  93907169.37246  22933091.720                    22933086.700
                                        44.150          39.550



 127218178.797 7  99131059.387 6  24208810.380                    24208808.560
                                        43.950          40.200



 23  8  9 14 11 30.0000000  0  9G03G04G06G07G09G11G17G19G31
 118052403.089 7  91988892.854 7  22464623.460                    22464622.700
                                        47.100          45.350



 108063038.432 8  84204982.509 8  20563700.340                    20563697.200
                                        49.400          49.300



 108320868.242 8  84405892.360 8  20612769.980                    20612768.340
                                        49.950          48.350



 127493501.690 7  99345570.735 6  24261204.240                    24261203.780
                                        42.100          40.050



 106697471.784 8  83140915.707 8  20303842.000                    20303839.460
                                        50.600          48.350



 123349588.543 7  96116557.634 7  23472641.520                    23472639.000
                                        44.150          45.050



 126413836.786 6  98504274.775 6  24055757.160                    24055755.060
                                        41.900          39.350



 120603301.195 7  93976585.70946  22950043.960                    22950038.960
                                        43.400          38.200



 127298679.406 7  99193787.063 6  24224129.200                    24224127.400
                                        43.900          40.100



 23  8  9 14 12  0.0000000  0  9G03G04G06G07G09G11G17G19G31
 118134833.003 7  92053123.886 7  22480309.420                    22480308.640
                                        47.350          45.300



 108099209.054 8  84233167.403 8  20570583.380                    20570580.280
                                        49.600          49.250



 108294044.208 8  84384990.527 8  20607665.520                    20607663.860
                                        49.900          48.600



 127393944.315 7  99267993.689 6  24242258.980                    24242258.500
                                        42.600          40.200



 106671973.096 8  83121046.621 8  20298989.740                    20298987.160
                                        50.650          49.350



 123253681.544 7  96041824.976 7  23454390.980                    23454388.440
                                        44.700          45.600



 126508121.639 6  98577743.363 6  24073699.040                    24073696.960
                                        41.500          39.400



 120692722.003 7  94046264.19646  22967060.160                    22967055.240
                                        43.100          38.800



 127379609.054 7  99256849.049 6  24239529.660                    24239527.880
                                        44.050          40.100



 23  8  9 14 12 30.0000000  0  9G03G04G06G07G09G11G17G19G31
 118217463.406 7  92117511.164 7  22496033.520                    22496032.700
                                        46.800          45.350



 108135828.498 8  84261702.029 8  20577551.860                    20577548.760
                                        49.400          48.900



 108267769.162 8  84364516.482 8  20602665.520                    20602663.860
                                        50.050          48.350



 127294457.752 6  99190471.862 6  24223327.180                    24223326.660
                                        41.300          40.300



 106646965.449 8  83101560.135 8  20294230.940                    20294228.360
                                        50.600          49.950



 123158017.864 7  95967281.912 7  23436186.760                    23436184.180
                                        44.150          45.000



 126602510.450 7  98651292.934 6  24091660.720                    24091658.680
                                        42.000          39.200



 120782477.092 7  94116203.15446  22984139.980                    22984135.160
                                        43.150          40.600



 127460966.105 7  99320244.075 6  24255011.480                    24255009.700
                                        43.800          40.150



 23  8  9 14 13  0.0000000  0  9G03G04G06G07G09G11G17G19G31
 118300294.742 7  92182054.998 7  22511795.840                    22511795.040
                                        45.950          45.250



 108172896.475 8  84290586.163 8  20584605.660                    20584602.600
                                        49.350          49.100



 108242045.679 8  84344472.204 8  20597770.500                    20597768.840
                                        50.000          49.300



 127195045.311 6  99113007.728 6  24204409.540                    24204408.980
                                        41.850          39.850



 106622450.054 8  83082457.218 8  20289565.820                    20289563.320
                                        50.950          50.500



 123062601.253 7  95892931.371 7  23418029.540                    23418026.960
                                        44.550          45.550



 126697001.692 7  98724922.328 6  24109641.900                    24109639.900
                                        43.800          39.400



 120872564.422 7  94186400.98446  23001283.040                    23001278.320
                                        43.500          41.550



 127542749.278 7  99383971.150 6  24270574.380                    24270572.620
                                        43.950          40.300



 23  8  9 14 13 30.0000000  0  9G03G04G06G07G09G11G17G19G31
 118383324.906 7  92246753.775 7  22527595.980                    22527595.180
                                        45.200          44.900



 108210410.137 8  84319817.584 8  20591744.300                    20591741.220
                                        49.250          48.900



 108216873.862 8  84324857.803 8  20592980.440                    20592978.800
                                        50.050          49.100



 127095708.453 6  99035602.553 6  24185506.240                    24185505.620
                                        41.150          39.650



 106598425.661 8  83063736.909 8  20284994.120                    20284991.740
                                        50.850          50.250



 122967432.965 7  95818774.323 7  23399919.580                    23399916.980
                                        45.350          45.750



 126791590.996 7  98798628.144 6  24127641.740                    24127639.780
                                        43.300          38.200



 120962979.386 7  94256854.13347  23018488.440                    23018483.820
                                        43.000          42.300



 127624954.450 7  99448027.036 6  24286217.580                    24286215.820
                                        43.750          40.100



 23  8  9 14 14  0.0000000  0  9G03G04G06G07G09G11G17G19G31
 118466553.359 7  92311607.039 7  22543433.860                    22543433.100
                                        44.850          45.250



 108248368.107 8  84349395.210 8  20598967.480                    20598964.420
                                        49.250          48.900



 108192255.361 8  84305674.557 8  20588295.680                    20588294.080
                                        50.250          49.150



 126996449.759 7  98958258.246 6  24166617.840                    24166617.160
                                        42.050          39.550



 106574892.466 8  83045399.351 8  20280515.900                    20280513.640
                                        51.000          50.000



 122872515.734 7  95744812.900 7  23381857.400                    23381854.800
                                        45.350          46.350



 126886275.870 7  98872408.408 6  24145659.760                    24145657.860
                                        43.050          39.250



 121053718.677 7  94327560.00046  23035755.520                    23035751.040
                                        43.600          41.750



 127707579.472 7  99512410.080 6  24301940.700                    24301938.960
                                        43.550          40.000



 23  8  9 14 14 30.0000000  0  9G03G04G06G07G09G11G17G19G31
 118549980.573 7  92376615.172 7  22559309.540                    22559308.860
                                        44.250          45.300



 108286770.114 8  84379318.828 8  20606275.160                    20606272.120
                                        49.200          48.900



 108168192.767 8  84286924.490 8  20583716.720                    20583715.120
                                        50.150          48.950



 126897272.846 7  98880977.648 6  24147745.020                    24147744.280
                                        42.350          39.400



 106551851.758 8  83027445.551 8  20276131.420                    20276129.220
                                        51.050          49.500



 122777853.367 7  95671050.084 7  23363843.720                    23363841.120
                                        44.900          46.300



 126981054.615 7  98946261.854 6  24163695.620                    24163693.780
                                        42.750          39.800



 121144780.202 7  94398516.95346  23053083.960                    23053079.600
                                        44.800          41.850



 127790622.848 7  99577119.106 6  24317743.420                    24317741.700
                                        43.500          39.800



 23  8  9 14 15  0.0000000  0  9G03G04G06G07G09G11G17G19G31
 118633601.853 7  92441774.498 7  22575222.160                    22575221.580
                                        44.050          44.950



 108325610.602 8  84409584.118 8  20613666.300                    20613663.240
                                        49.150          48.850



 108144683.475 8  84268605.553 8  20579243.060                    20579241.480
                                        50.200          48.900



 126798176.427 7  98803759.764 6  24128887.520                    24128886.700
                                        43.650          39.050



 106529299.545 8  83009872.401 8  20271839.880                    20271837.720
                                        51.100          48.850



 122683444.479 7  95597484.770 7  23345878.280                    23345875.680
                                        45.800          45.850



 127075920.468 7  99020183.112 6  24181748.100                    24181746.320
                                        43.600          40.100



 121236156.627 7  94469719.25546  23070472.340                    23070468.100
                                        44.250          41.250



 127874077.738 7  99642148.792 6  24333624.420                    24333622.760
                                        43.800          39.850



 23  8  9 14 15 30.0000000  0  9G03G04G06G07G09G11G17G19G31
 118717418.765 7  92507086.279 7  22591171.980                    22591171.500
                                        44.300          45.050



 108364890.420 8  84440191.748 8  20621141.000                    20621137.960
                                        48.950          48.750



 108121731.211 8  84250720.670 8  20574875.380                    20574873.820
                                        49.950          49.100



 126699165.455 7  98726608.465 6  24110046.280                    24110045.380
                                        43.100          39.200



 106507238.173 8  82992681.749 8  20267641.740                    20267639.540
                                        50.900          48.850



 122589293.989 7  95524120.809 7  23327962.000                    23327959.380
                                        44.950          46.200



 127170872.870 7  99094171.860 6  24199817.000                    24199815.300
                                        43.650          40.300



 121327847.035 7  94541166.27746  23087920.460                    23087916.260
                                        44.100          41.850



 127957944.118 7  99707499.130 6  24349583.740                    24349582.100
                                        43.400          39.900



 23  8  9 14 16  0.0000000  0  9G03G04G06G07G09G11G17G19G31
 118801430.297 7  92572549.725 7  22607158.840                    22607158.440
                                        44.900          45.050



 108404607.711 8  84471140.266 8  20628698.960                    20628695.920
                                        49.050          48.350



 108099337.035 8  84233270.663 8  20570613.900                    20570612.340
                                        50.300          48.850



 126600242.571 7  98649525.788 6  24091221.800                    24091220.840
                                        43.500          39.700



 106485667.392 8  82975873.377 8  20263536.940                    20263534.700
                                        50.950          49.150



 122495404.186 7  95450959.979 7  23310095.320                    23310092.700
                                        44.850          45.650



 127265908.836 7  99168225.704 6  24217901.820                    24217900.200
                                        43.700          40.150



 121419848.357 7  94612855.52746  23105427.800                    23105423.620
                                        44.250          41.050



 128042219.104 7  99773167.857 6  24365620.780                    24365619.180
                                        43.300          39.300



 23  8  9 14 16 30.0000000  0  9G03G04G06G07G09G11G17G19G31
 118885636.952 7  92638165.219 7  22623182.840                    22623182.520
                                        45.050          45.650



 108444762.196 8  84502429.459 8  20636340.100                    20636337.080
                                        49.100          48.450



 108077503.506 8  84216257.519 8  20566459.120                    20566457.580
                                        50.400          48.950



 126501410.914 7  98572514.181 6  24072414.700                    24072413.680
                                        42.550          38.750



 106464588.378 8  82959448.188 8  20259525.740                    20259523.440
                                        51.050          49.600



 122401778.927 7  95378005.303 7  23292278.980                    23292276.340
                                        44.800          44.900



 127361026.828 7  99242343.453 6  24236002.240                    24236000.720
                                        43.600          40.200



 121512157.821 7  94684784.89846  23122993.800                    23122989.620
                                        44.200          40.000



 128126901.304 7  99839153.904 6  24381735.320                    24381733.740
                                        43.350          38.750



 23  8  9 14 17  0.0000000  0  9G03G04G06G07G09G11G17G19G31
 118970036.129 7  92703930.751 7  22639243.480                    22639243.240
                                        45.400          46.100



 108485350.448 8  84534056.654 8  20644063.780                    20644060.760
                                        49.250          48.850



 108056230.153 8  84199680.880 8  20562410.940                    20562409.400
                                        50.350          49.300



 126402671.094 6  98495574.148 6  24053625.040                    24053623.980
                                        41.850          40.550



 106443999.278 8  82943404.745 8  20255607.780                    20255605.460
                                        51.050          49.800



 122308418.973 7  95305257.332 7  23274513.140                    23274510.480
                                        44.700          44.950



 127456222.571 7  99316521.809 6  24254117.480                    24254116.020
                                        43.650          39.650



 121604770.593 7  94756950.60846  23140617.520                    23140613.360
                                        44.350          41.450



 128211986.191 7  99905453.756 6  24397926.480                    24397924.880
                                        42.800          38.950



 23  8  9 14 17 30.0000000  0  9G03G04G06G07G09G11G17G19G31
 119054627.184 7  92769845.801 7  22655340.660                    22655340.480
                                        46.050          46.050



 108526370.971 8  84566020.677 8  20651869.740                    20651866.740
                                        49.800          48.900



 108035518.190 8  84183541.682 8  20558469.620                    20558468.060
                                        50.300          49.300



 126304026.214 7  98418708.132 6  24034853.440                    24034852.340
                                        42.300          41.500



 106423900.129 8  82927743.052 8  20251783.060                    20251780.760
                                        50.950          49.650



 122215326.989 7  95232718.183 7  23256798.260                    23256795.580
                                        44.950          45.600



 127551492.667 7  99390758.092 6  24272246.880                    24272245.460
                                        43.700          39.700



 121697683.556 7  94829350.24847  23158298.360                    23158294.220
                                        44.900          42.400



 128297471.164 7  99972065.341 6  24414193.760                    24414192.160
                                        42.700          39.300



 23  8  9 14 18  0.0000000  0  9G03G04G06G07G09G11G17G19G31
 119139408.884 7  92835909.396 7  22671474.120                    22671474.020
                                        46.100          46.100



 108567821.671 8  84598319.904 8  20659757.560                    20659754.580
                                        49.900          48.950



 108015368.608 8  84167840.705 8  20554635.280                    20554633.740
                                        50.150          49.000



 126205478.124 7  98341917.542 6  24016100.240                    24016099.120
                                        43.050          41.800



 106404290.291 8  82912462.661 8  20248051.460                    20248049.140
                                        50.900          49.300



 122122505.051 7  95160389.445 7  23239134.800                    23239132.100
                                        45.050          45.400



 127646834.371 7  99465050.150 6  24290389.920                    24290388.560
                                        42.650          39.350



 121790893.119 7  94901981.00046  23176035.640                    23176031.520
                                        45.050          40.650



 128383353.507 7 100038986.572 6  24430536.640                    24430535.060
                                        43.050          38.950



 23  8  9 14 18 30.0000000  0  9G03G04G06G07G09G11G17G19G31
 119224382.939 7  92902122.871 7  22687644.220                    22687644.200
                                        45.750          46.100



 108609703.426 8  84630955.009 8  20667727.460                    20667724.460
                                        49.950          48.900



 107995785.011 8  84152580.768 8  20550908.660                    20550907.120
                                        50.500          49.250



 126107031.761 7  98265206.176 7  23997366.460                    23997365.300
                                        42.500          42.750



 106385172.212 8  82897565.465 8  20244413.400                    20244411.100
                                        50.900          49.050



 122029958.225 7  95088275.086 7  23221523.680                    23221520.980
                                        44.500          46.050



 127742246.892 6  99539397.422 6  24308546.420                    24308545.080
                                        41.550          40.000



 121884397.599 7  94974841.54847  23193829.060                    23193824.960
                                        45.650          42.250



 128469632.471 7 100106216.848 6  24446955.020                    24446953.440
                                        43.750          39.250



 23  8  9 14 19  0.0000000  0  9G03G04G06G07G09G11G17G19G31
 119309546.598 7  92968484.082 7  22703850.380                    22703850.440
                                        45.550          46.000



 108652012.626 8  84663923.192 8  20675778.680                    20675775.680
                                        49.600          48.850



 107976766.670 8  84137761.271 8  20547289.600                    20547288.060
                                        50.300          49.600



 126008687.622 7  98188574.508 7  23978652.100                    23978650.920
                                        43.800          43.100



 106366543.718 8  82883049.780 8  20240868.500                    20240866.200
                                        51.100          49.100



 121937687.112 7  95016375.567 7  23203965.020                    23203962.320
                                        45.200          46.500



 127837725.394 6  99613796.028 6  24326715.500                    24326714.240
                                        41.700          39.700



 121978191.551 7  95047927.63447  23211677.580                    23211673.520
                                        45.000          42.250



 128556303.133 7 100173752.356 6  24463447.940                    24463446.360
                                        43.900          39.250



 23  8  9 14 19 30.0000000  0  9G03G04G06G07G09G11G17G19G31
 119394899.110 7  93034992.455 7  22720092.500                    22720092.620
                                        44.800          44.900



 108694747.728 8  84697223.247 8  20683910.940                    20683907.920
                                        49.400          48.600



 107958314.758 8  84123383.146 8  20543778.340                    20543776.800
                                        50.400          49.200



 125910448.373 7  98112024.542 7  23959957.740                    23959956.540
                                        42.400          42.200



 106348404.720 8  82868915.498 8  20237416.760                    20237414.460
                                        50.900          49.100



 121845694.316 7  94944692.920 7  23186459.300                    23186456.640
                                        45.100          46.100



 127933267.515 6  99688244.231 6  24344896.640                    24344895.500
                                        41.550          39.950



 122072272.653 7  95121237.53047  23229580.720                    23229576.660
                                        45.350          42.100



 128643363.487 7 100241591.513 6  24480015.060                    24480013.460
                                        43.900          39.350



 23  8  9 14 20  0.0000000  0  9G03G04G06G07G09G11G17G19G31
 119480438.425 7  93101646.404 7  22736370.120                    22736370.280
                                        44.550          44.700



 108737905.768 8  84730852.874 8  20692123.660                    20692120.640
                                        49.350          48.300



 107940429.177 8  84109446.343 8  20540374.820                    20540373.280
                                        50.500          48.950



 125812315.081 7  98035557.153 6  23941283.540                    23941282.300
                                        42.800          41.650



 106330753.829 8  82855161.554 8  20234057.920                    20234055.600
                                        50.950          49.350



 121753981.114 7  94873228.126 7  23169006.800                    23169004.180
                                        45.350          45.800



 128028868.726 6  99762738.488 6  24363089.020                    24363087.980
                                        41.950          39.750



 122166635.509 7  95194766.91247  23247537.520                    23247533.500
                                        44.350          42.300



 128730809.195 7 100309730.940 6  24496655.520                    24496653.900
                                        42.800          38.850



 23  8  9 14 20 30.0000000  0  9G03G04G06G07G09G11G17G19G31
 119566166.830 7  93168447.676 7  22752683.760                    22752683.920
                                        44.100          44.950



 108781488.131 8  84764813.141 8  20700417.120                    20700414.100
                                        49.550          48.150



 107923114.114 8  84095954.100 8  20537079.880                    20537078.300
                                        50.500          49.150



 125714293.593 7  97959176.844 6  23922630.640                    23922629.380
                                        43.450          40.500



 106313593.894 8  82841790.170 8  20230792.500                    20230790.160
                                        51.050          49.200



 121662553.145 7  94801985.604 7  23151608.560                    23151605.980
                                        45.300          46.000



 128124529.510 6  99837279.181 6  24381292.740                    24381291.760
                                        41.750          39.250



 122261279.967 7  95268515.75046  23265547.900                    23265543.900
                                        44.500          41.000



 128818640.292 7 100378170.680 6  24513369.320                    24513367.660
                                        42.800          37.900



 23  8  9 14 21  0.0000000  0  9G03G04G06G07G09G11G17G19G31
 119652082.001 7  93235394.463 7  22769032.940                    22769033.120
                                        43.950          44.850



 108825491.670 8  84799101.600 8  20708790.740                    20708787.680
                                        49.400          48.000



 107906369.172 8  84082906.092 8  20533893.460                    20533891.840
                                        50.400          49.200



 125616384.507 7  97882884.134 6  23903999.140                    23903997.820
                                        44.400          39.250



 106296923.193 8  82828800.007 8  20227620.180                    20227617.820
                                        51.050          48.850



 121571411.510 7  94730966.200 7  23134264.820                    23134262.260
                                        45.050          46.050



 128220245.569 6  99911862.929 6  24399507.000                    24399506.060
                                        40.650          37.950



 122356201.232 7  95342480.25346  23283610.980                    23283607.000
                                        43.950          41.100



 128906852.873 7 100446907.644 6  24530155.720                    24530154.060
                                        42.850          38.000



 23  8  9 14 21 30.0000000  0  9G03G04G06G07G09G11G17G19G31
 119738184.943 7  93302487.574 7  22785417.820                    22785418.020
                                        44.250          44.850



 108869916.463 8  84833718.310 8  20717244.500                    20717241.440
                                        49.250          48.350



 107890197.228 8  84070304.583 8  20530816.060                    20530814.420
                                        50.350          49.250



 125518592.078 7  97806682.295 6  23885389.860                    23885388.480
                                        44.300          40.000



 106280743.275 8  82816192.275 8  20224541.260                    20224538.880
                                        50.800          49.050



 121480560.457 7  94660173.223 7  23116976.380                    23116973.840
                                        45.250          45.800



 128316015.845 6  99986488.911 6  24417731.600                    24417730.660
                                        39.400          37.350



 122451397.523 7  95416659.08346  23301726.360                    23301722.420
                                        44.950          40.150



 128995446.144 7 100515941.249 6  24547014.560                    24547012.900
                                        42.450          38.200



 23  8  9 14 22  0.0000000  0  9G03G04G06G07G09G11G17G19G31
 119824473.069 7  93369724.995 7  22801837.940                    22801838.160
                                        44.350          44.750



 108914759.057 8  84868660.575 8  20725777.780                    20725774.700
                                        49.250          48.550



 107874597.500 8  84058148.958 8  20527847.540                    20527845.900
                                        50.500          49.550



 125420916.996 7  97730571.921 6  23866802.900                    23866801.440
                                        44.600          41.750



 106265052.128 8  82803965.420 8  20221555.320                    20221552.920
                                        50.750          49.300



 121390000.767 7  94589607.286 7  23099743.380                    23099740.880
                                        45.850          45.900



 128411835.534 6 100061153.425 6  24435965.580                    24435964.640
                                        36.650          37.950



 122546863.485 7  95491048.08346  23319893.040                    23319889.120
                                        44.750          39.900



 129084415.269 6 100585267.719 6  24563944.900                    24563943.240
                                        41.400          36.300



 23  8  9 14 22 30.0000000  0  9G03G04G06G07G09G11G17G19G31
 119910944.794 7  93437105.486 7  22818293.000                    22818293.220
                                        44.750          44.550



 108960017.036 8  84903926.522 7  20734390.080                    20734387.020
                                        49.250          47.950



 107859570.390 8  84046439.519 8  20524988.000                    20524986.360
                                        50.350          49.150



 125323361.236 7  97654554.556 6  23848238.620                    23848237.080
                                        43.900          41.400



 106249848.790 8  82792118.677 8  20218662.200                    20218659.780
                                        50.800          49.100



 121299734.316 7  94519269.849 7  23082566.200                    23082563.680
                                        46.050          45.650



 128507700.973 6 100135853.501 6  24454208.280                    24454207.420
                                        38.000          38.550



 122642595.302 7  95565644.24446  23338110.280                    23338106.420
                                        45.550          41.850



 129173756.747 6 100654884.400 6  24580946.060                    24580944.400
                                        41.850          37.100



 23  8  9 14 23  0.0000000  0  8G03G04G06G07G09G11G19G31
 119997595.184 7  93504625.205 7  22834782.060                    22834782.300
                                        45.750          45.000



 109005684.527 8  84939511.565 7  20743080.340                    20743077.280
                                        49.350          47.750



 107845112.689 8  84035173.778 8  20522236.800                    20522235.160
                                        50.450          49.300



 125225923.088 7  97578628.808 7  23829696.700                    23829695.160
                                        44.050          42.850



 106235128.836 8  82780648.575 8  20215861.080                    20215858.680
                                        50.700          49.350



 121209759.501 7  94449159.650 7  23065444.520                    23065442.000
                                        46.150          46.300



 122738585.277 7  95640441.52647  23356376.660                    23356372.900
                                        44.000          42.950



 129263463.781 6 100724785.885 6  24598016.760                    24598015.100
                                        41.900          37.700



 23  8  9 14 23 30.0000000  0  8G03G04G06G07G09G11G19G31
 120084432.388 7  93572290.495 7  22851306.680                    22851306.920
                                        46.400          45.000



 109051768.726 8  84975421.314 7  20751849.880                    20751846.800
                                        49.450          47.500



 107831234.388 8  84024359.517 8  20519595.860                    20519594.220
                                        50.350          49.250



 125128613.962 7  97502803.618 7  23811179.320                    23811177.760
                                        44.000          42.500



 106220900.938 8  82769561.903 8  20213153.580                    20213151.180
                                        50.850          49.300



 121120087.794 7  94379285.638 7  23048380.540                    23048378.000
                                        46.150          46.400



 122834838.993 7  95715444.34747  23374693.180                    23374689.500
                                        43.700          42.450



 129353542.448 6 100794976.964 6  24615158.200                    24615156.540
                                        41.800          38.100



 23  8  9 14 24  0.0000000  0  8G03G04G06G07G09G11G19G31
 120171451.640 7  93640097.631 7  22867866.000                    22867866.240
                                        46.200          45.550



 109098263.971 8  85011651.371 7  20760697.660                    20760694.540
                                        49.350          47.650



 107817932.461 8  84013994.383 8  20517064.600                    20517062.940
                                        50.300          49.150



 125031432.197 7  97427077.672 7  23792686.160                    23792684.600
                                        43.050          42.350



 106207160.820 8  82758855.322 8  20210538.920                    20210536.520
                                        50.950          49.100



 121030717.781 7  94309646.708 7  23031373.980                    23031371.420
                                        46.100          46.400



 122931348.936 6  95790646.81446  23393058.460                    23393054.880
                                        41.850          41.550



 129443985.989 7 100865452.393 6  24632369.080                    24632367.400
                                        42.350          38.350



 23  8  9 14 24 30.0000000  0  8G03G04G06G07G09G11G19G31
 120258651.932 7  93708045.827 7  22884459.800                    22884460.020
                                        46.350          45.300



 109145168.381 8  85048200.238 7  20769623.300                    20769620.140
                                        49.300          47.650



 107805207.729 8  84004078.993 8  20514643.180                    20514641.500
                                        50.350          49.300



 124934380.155 7  97351452.796 6  23774217.680                    23774216.140
                                        43.600          41.800



 106193907.968 8  82748528.428 8  20208016.980                    20208014.560
                                        51.200          49.150



 120941651.882 7  94240244.754 7  23014425.280                    23014422.680
                                        46.600          46.150



 123028111.990 6  95866046.43346  23411471.920                    23411468.460
                                        39.100          38.800



 129534791.373 7 100936209.755 6  24649648.820                    24649647.140
                                        42.400          39.650



 23  8  9 14 25  0.0000000  0  7G03G04G06G07G09G11G19
 120346035.713 7  93776137.004 7  22901088.480                    22901088.700
                                        45.750          45.600



 109192483.428 8  85085069.093 7  20778627.060                    20778623.900
                                        49.250          47.750



 107793064.309 8  83994616.582 8  20512332.360                    20512330.680
                                        50.250          49.550



 124837463.415 7  97275933.360 6  23755774.940                    23755773.400
                                        43.850          41.150



 106181145.310 8  82738583.500 8  20205588.340                    20205585.900
                                        51.050          49.400



 120852895.820 7  94171084.229 7  22997535.560                    22997532.920
                                        47.700          46.400



 123125127.501 6  95941642.84346  23429933.320                    23429930.000
                                        38.000          36.900



 23  8  9 14 25 30.0000000  0  7G03G04G06G07G09G11G19
 120433596.617 7  93844366.186 7  22917750.880                    22917751.120
                                        45.350          44.750



 109240201.867 8  85122252.268 7  20787707.600                    20787704.420
                                        48.950          47.500



 107781497.592 8  83985603.560 8  20510131.280                    20510129.600
                                        50.250          49.250



 124740679.427 7  97200517.370 7  23737357.460                    23737355.920
                                        44.000          42.800



 106168866.970 8  82729015.968 8  20203251.860                    20203249.400
                                        50.900          49.150



 120764446.658 7  94102162.855 7  22980704.220                    22980701.540
                                        47.250          46.500



 123222386.455 6  96017428.87346  23448441.040                    23448437.900
                                        39.600          39.250



 23  8  9 14 26  0.0000000  0  7G03G04G06G07G09G11G19
 120521333.801 7  93912732.731 7  22934446.820                    22934447.060
                                        44.750          44.000



 109288321.880 8  85159748.357 7  20796864.560                    20796861.360
                                        49.250          47.300



 107770508.464 8  83977040.599 8  20508040.120                    20508038.420
                                        50.300          49.050



 124644030.091 7  97125206.325 7  23718965.620                    23718964.040
                                        43.800          42.300



 106157072.544 8  82719825.513 8  20201007.460                    20201004.980
                                        51.250          49.050



 120676306.857 7  94033482.546 7  22963931.760                    22963929.040
                                        47.100          46.200



 123319885.264 7  96093401.86646  23466994.380                    23466991.380
                                        42.200          41.550



 23  8  9 14 26 30.0000000  0  7G03G04G06G07G09G11G19
 120609248.308 7  93981237.462 7  22951176.460                    22951176.720
                                        45.300          43.900



 109336843.635 8  85197557.501 7  20806097.940                    20806094.720
                                        49.150          47.150



 107760099.639 8  83968929.827 8  20506059.380                    20506057.660
                                        50.400          49.400



 124547519.710 7  97050003.532 7  23700600.240                    23700598.640
                                        43.300          42.900



 106145763.564 8  82711013.326 8  20198855.440                    20198852.940
                                        51.250          48.900



 120588480.889 7  93965046.782 7  22947219.040                    22947216.260
                                        47.050          46.950



 123417622.854 6  96169560.95046  23485593.160                    23485590.260
                                        41.450          41.150



 23  8  9 14 27  0.0000000  0  7G03G04G06G07G09G11G19
 120697342.251 7  94049882.028 7  22967940.240                    22967940.500
                                        44.900          44.100



 109385768.249 8  85235680.560 7  20815408.000                    20815404.760
                                        49.050          47.350



 107750274.878 8  83961274.164 8  20504189.800                    20504188.060
                                        50.150          49.400



 124451153.721 7  96974913.293 7  23682262.280                    23682260.680
                                        42.900          43.650



 106134942.521 8  82702581.341 8  20196796.300                    20196793.740
                                        50.950          49.150



 120500974.204 7  93896859.818 7  22930567.060                    22930564.240
                                        46.900          46.650



 123515598.369 7  96245905.41046  23504237.280                    23504234.420
                                        43.400          40.750



 23  8  9 14 27 30.0000000  0  7G03G04G06G07G09G11G19
 120785611.408 7  94118663.103 7  22984737.380                    22984737.660
                                        44.950          44.550



 109435090.622 8  85274113.574 7  20824793.740                    20824790.480
                                        49.200          47.350



 107741031.630 8  83954071.627 8  20502430.860                    20502429.140
                                        50.650          49.450



 124354931.191 7  96899934.819 7  23663951.620                    23663950.060
                                        43.600          43.300



 106124605.674 8  82694526.663 8  20194829.280                    20194826.680
                                        51.000          49.500



 120413786.005 7  93828921.015 7  22913975.680                    22913972.820
                                        46.900          46.450



 123613805.092 7  96322430.00946  23522925.420                    23522922.620
                                        42.000          38.350



 23  8  9 14 28  0.0000000  0  7G03G04G06G07G09G11G19
 120874056.201 7  94187581.015 7  23001567.940                    23001568.240
                                        44.350          45.000



 109484810.181 8  85312856.069 7  20834255.080                    20834251.820
                                        49.050          47.100



 107732371.910 8  83947323.797 8  20500782.980                    20500781.240
                                        50.600          49.650



 124258855.961 7  96825071.138 7  23645668.980                    23645667.460
                                        44.150          43.250



 106114753.796 8  82686849.871 8  20192954.540                    20192951.940
                                        50.850          49.600



 120326919.985 7  93761233.261 7  22897445.620                    22897442.720
                                        46.950          46.500



 123712240.911 7  96399133.16646  23541657.140                    23541654.340
                                        43.250          37.050



 23  8  9 14 28 30.0000000  0  7G03G04G06G07G09G11G19
 120962674.544 7  94256634.169 7  23018431.500                    23018431.880
                                        45.550          45.000



 109534923.910 8  85351905.707 7  20843791.420                    20843788.140
                                        48.950          47.150



 107724295.270 8  83941030.314 8  20499246.060                    20499244.300
                                        50.450          49.450



 124162929.033 7  96750323.003 7  23627414.560                    23627413.100
                                        43.950          42.600



 106105385.187 8  82679549.651 8  20191171.760                    20191169.160
                                        50.600          49.500



 120240377.484 7  93693797.578 7  22880977.120                    22880974.220
                                        46.900          46.600



 123810901.196 7  96476011.21446  23560431.600                    23560428.800
                                        42.100          39.050



 23  8  9 14 29  0.0000000  0  7G03G04G06G07G09G11G19
 121051466.064 7  94325822.272 7  23035328.040                    23035328.460
                                        45.850          45.100



 109585430.505 8  85391261.469 7  20853402.520                    20853399.240
                                        48.900          47.200



 107716802.900 8  83935192.102 8  20497820.320                    20497818.540
                                        50.550          49.350



 124067153.646 7  96675692.945 7  23609188.980                    23609187.580
                                        43.200          42.200



 106096499.947 8  82672626.099 8  20189480.920                    20189478.360
                                        50.650          49.150



 120154161.514 7  93626616.344 7  22864570.760                    22864567.820
                                        47.200          46.200



 123909782.928 7  96553061.78246  23579248.240                    23579245.480
                                        43.400          37.550



 23  8  9 14 29 30.0000000  0  8G03G04G06G07G09G11G19G20
 121140430.181 7  94395144.860 7  23052257.440                    23052257.900
                                        46.050          45.050



 109636328.393 8  85430922.132 7  20863088.100                    20863084.800
                                        48.900          47.600



 107709895.774 8  83929809.923 8  20496505.960                    20496504.160
                                        50.300          49.550



 123971532.083 7  96601182.760 7  23590992.660                    23590991.300
                                        43.700          42.450



 106088097.858 8  82666079.022 8  20187882.040                    20187879.500
                                        50.850          49.400



 120068274.854 7  93559691.706 7  22848227.060                    22848224.100
                                        47.500          46.600



 124008882.818 7  96630282.44445  23598106.380                    23598103.580
                                        43.100          35.000



 129617765.550 6 101000851.83445  24665440.520                    24665439.060
                                        41.100          35.200



 23  8  9 14 30  0.0000000  0  8G03G04G06G07G09G11G19G20
 121229565.018 7  94464600.489 7  23069219.360                    23069219.800
                                        46.400          45.300



 109687614.749 8  85470885.504 7  20872847.580                    20872844.280
                                        48.900          47.900



 107703573.543 8  83924883.503 8  20495302.900                    20495301.080
                                        50.600          49.600



 123876065.832 7  96526793.619 7  23572825.880                    23572824.540
                                        44.000          42.750



 106080177.297 8  82659907.161 8  20186374.780                    20186372.280
                                        50.850          49.600



 119982718.943 7  93493024.802 7  22831946.300                    22831943.320
                                        47.800          46.500



 124108196.206 7  96707669.33946  23617005.260                    23617002.460
                                        42.800          36.800



 129517990.394 6 100923105.04145  24646454.020                    24646451.820
                                        41.000          34.850



 23  8  9 14 30 30.0000000  0  8G03G04G06G07G09G11G19G20
 121318870.822 7  94534189.325 7  23086213.820                    23086214.260
                                        46.050          44.500



 109739288.866 8  85511151.033 7  20882680.860                    20882677.560
                                        48.650          47.650



 107697838.019 8  83920414.260 8  20494211.480                    20494209.640
                                        50.400          49.500



 123780758.331 7  96452528.183 7  23554689.300                    23554687.980
                                        43.650          43.300



 106072738.981 8  82654111.065 8  20184959.320                    20184956.820
                                        50.900          49.050



 119897497.478 7  93426618.490 7  22815729.200                    22815726.200
                                        47.800          46.400



 124207720.679 7  96785220.75345  23635944.320                    23635941.460
                                        43.300          35.950



 129418226.980 6 100845367.37146  24627469.640                    24627467.260
                                        41.500          37.150



 23  8  9 14 31  0.0000000  0  8G03G04G06G07G09G11G19G20
 121408350.481 7  94603913.628 7  23103241.380                    23103241.780
                                        45.750          44.350



 109791352.641 8  85551720.184 7  20892588.280                    20892585.000
                                        48.650          47.750



 107692693.536 8  83916405.555 8  20493232.540                    20493230.700
                                        50.550          49.650



 123685615.751 7  96378391.245 7  23536584.120                    23536582.820
                                        44.750          43.200



 106065786.046 8  82648693.181 8  20183636.220                    20183633.740
                                        51.200          49.200



 119812616.653 7  93360477.640 7  22799576.920                    22799573.860
                                        47.600          46.950



 124307457.012 7  96862937.30445  23654923.680                    23654920.720
                                        42.700          35.850



 129318479.909 6 100767642.45645  24608488.520                    24608485.940
                                        41.800          32.950



 23  8  9 14 31 30.0000000  0  8G03G04G06G07G09G11G19G20
 121497999.242 7  94673769.703 7  23120301.100                    23120301.460
                                        44.750          44.350



 109843800.372 8  85592588.512 7  20902568.760                    20902565.520
                                        48.350          47.400



 107688136.879 8  83912854.914 8  20492365.460                    20492363.620
                                        50.500          49.350



 123590636.634 7  96304381.677 7  23518510.040                    23518508.780
                                        45.000          43.050



 106059314.102 8  82643650.112 8  20182404.660                    20182402.160
                                        51.000          49.050



 119728075.106 7  93294601.155 7  22783489.180                    22783486.120
                                        47.200          47.100



 124407397.426 7  96940812.80646  23673941.900                    23673938.860
                                        42.800          40.700



 129218746.301 6 100689928.01045  24589509.980                    24589507.300
                                        41.800          34.650



 23  8  9 14 32  0.0000000  0  8G03G04G06G07G09G11G19G20
 121587818.035 7  94743758.277 7  23137393.140                    23137393.480
                                        44.800          44.050



 109896632.003 8  85633755.991 7  20912622.300                    20912619.080
                                        48.600          47.400



 107684170.352 8  83909764.113 8  20491610.660                    20491608.820
                                        50.650          49.300



 123495825.242 7  96230502.797 6  23500467.920                    23500466.660
                                        44.350          41.750



 106053324.373 8  82638982.793 8  20181264.860                    20181262.340
                                        51.150          49.150



 119643877.123 7  93228992.380 7  22767466.820                    22767463.760
                                        47.100          46.800



 124507540.401 7  97018846.15046  23692998.620                    23692995.560
                                        44.000          39.700



 129119028.905 7 100612226.21146  24570534.440                    24570531.820
                                        42.000          36.800



 23  8  9 14 32 30.0000000  0  8G03G04G06G07G09G11G19G20
 121677807.680 7  94813879.986 7  23154517.680                    23154518.020
                                        44.500          44.000



 109949847.340 8  85675222.474 7  20922748.820                    20922745.620
                                        48.350          47.700



 107680796.233 8  83907134.928 8  20490968.580                    20490966.760
                                        50.350          49.600



 123401185.576 7  96156757.722 7  23482458.480                    23482457.200
                                        43.900          42.200



 106047817.937 8  82634692.071 8  20180217.040                    20180214.480
                                        50.900          49.150



 119560026.860 7  93163654.552 7  22751510.620                    22751507.560
                                        47.150          47.100



 124607884.237 7  97097036.02546  23712093.540                    23712090.460
                                        44.000          40.650



 129019330.664 6 100534539.33945  24551562.460                    24551559.960
                                        41.050          34.500



 23  8  9 14 33  0.0000000  0  8G03G04G06G07G09G11G19G20
 121767962.046 7  94884130.037 7  23171673.540                    23171673.900
                                        45.300          44.000



 110003439.306 8  85716982.425 8  20932947.040                    20932943.860
                                        48.650          48.050



 107678009.803 8  83904963.671 8  20490438.340                    20490436.540
                                        50.250          49.700



 123306714.790 7  96083144.257 6  23464481.160                    23464479.860
                                        43.650          41.300



 106042788.989 8  82630773.410 8  20179260.080                    20179257.500
                                        50.900          49.300



 119476521.577 7  93098585.549 7  22735620.060                    22735617.020
                                        47.300          47.000



 124708419.996 7  97175375.44146  23731224.960                    23731221.880
                                        45.050          41.550



 128919647.331 6 100456864.03545  24532593.280                    24532590.940
                                        41.700          34.200



 23  8  9 14 33 30.0000000  0  8G03G04G06G07G09G11G19G20
 121858281.077 7  94954508.414 7  23188860.760                    23188861.100
                                        45.700          44.000



 110057406.899 8  85759035.074 7  20943216.740                    20943213.600
                                        48.750          47.900



 107675812.436 8  83903251.439 8  20490020.180                    20490018.400
                                        50.550          49.450



 123212416.024 7  96009664.793 6  23446536.600                    23446535.300
                                        43.750          41.500



 106038237.789 8  82627227.025 8  20178394.020                    20178391.440
                                        51.000          49.150



 119393364.655 7  93033787.989 7  22719795.780                    22719792.780
                                        47.100          46.650



 124809145.143 7  97253862.43246  23750392.400                    23750389.380
                                        46.500          41.150



 128819980.439 7 100379201.57945  24513627.120                    24513624.940
                                        42.350          30.900



 23  8  9 14 34  0.0000000  0  8G03G04G06G07G09G11G19G20
 121948763.925 7  95025014.423 7  23206079.160                    23206079.500
                                        45.300          43.850



 110111748.243 8  85801378.944 7  20953557.560                    20953554.460
                                        48.100          47.750



 107674204.611 8  83901998.576 8  20489714.220                    20489712.480
                                        50.200          49.550



 123118291.793 7  95936321.342 7  23428625.260                    23428623.920
                                        44.300          42.300



 106034163.713 8  82624052.412 8  20177618.740                    20177616.160
                                        50.800          49.150



 119310558.549 7  92969263.781 7  22704038.280                    22704035.300
                                        46.900          46.200



 124910056.296 7  97332494.38546  23769595.260                    23769592.240
                                        46.350          40.700



 128720331.256 7 100301552.88645  24494664.400                    24494662.240
                                        42.950          33.400



 23  8  9 14 34 30.0000000  0  8G03G04G06G07G09G11G19G20
 122039410.475 7  95095648.015 7  23223328.720                    23223329.040
                                        45.250          43.400



 110166462.275 8  85844013.219 7  20963969.300                    20963966.240
                                        48.000          47.500



 107673187.617 8  83901206.103 8  20489520.700                    20489518.960
                                        50.200          49.350



 123024345.012 7  95863116.162 7  23410747.720                    23410746.320
                                        44.850          42.200



 106030566.909 8  82621249.706 8  20176934.280                    20176931.720
                                        50.900          49.150



 119228106.510 7  92905015.467 7  22688348.160                    22688345.180
                                        47.200          46.200



 125011150.695 7  97411269.14446  23788832.980                    23788829.960
                                        47.100          39.400



 128620701.632 7 100223919.45245  24475705.420                    24475703.180
                                        42.750          34.500



 23  8  9 14 35  0.0000000  0  8G03G04G06G07G09G11G19G20
 122130223.061 7  95166410.991 7  23240609.860                    23240610.160
                                        44.350          44.250



 110221550.305 7  85886938.916 7  20974452.220                    20974449.180
                                        47.850          47.450



 107672765.012 8  83900876.795 8  20489440.260                    20489438.560
                                        50.200          49.250



 122930581.485 7  95790053.745 7  23392905.080                    23392903.620
                                        45.100          42.750



 106027449.895 8  82618820.864 8  20176341.120                    20176338.560
                                        50.850          49.250



 119146014.179 7  92841047.463 7  22672726.480                    22672723.480
                                        47.050          46.200



 125112427.925 7  97490186.34546  23808105.540                    23808102.480
                                        46.550          39.750



 128521095.698 6 100146304.46145  24456751.020                    24456748.680
                                        41.750          34.700



 23  8  9 14 35 30.0000000  0  8G03G04G06G07G09G11G19G20
 122221199.591 7  95237301.687 7  23257922.200                    23257922.540
                                        44.550          43.950



 110277009.245 8  85930153.652 7  20985005.720                    20985002.680
                                        48.350          47.300



 107672936.098 8  83901010.096 8  20489472.820                    20489471.120
                                        50.050          49.100



 122837002.252 7  95717134.931 7  23375097.520                    23375096.000
                                        45.400          42.300



 106024810.895 8  82616764.484 8  20175838.940                    20175836.380
                                        50.850          48.850



 119064282.912 7  92777360.792 7  22657173.500                    22657170.520
                                        47.100          45.650



 125213883.531 7  97569242.50846  23827412.100                    23827408.960
                                        45.350          38.000



 128421513.412 6 100068707.88445  24437801.140                    24437798.740
                                        40.750          33.750



 23  8  9 14 36  0.0000000  0  8G03G04G06G07G09G11G19G20
 122312339.345 7  95308319.579 7  23275265.600                    23275265.980
                                        44.850          44.250



 110332837.420 8  85973656.098 7  20995629.480                    20995626.440
                                        48.900          47.500



 107673701.446 8  83901606.463 8  20489618.460                    20489616.780
                                        50.300          49.300



 122743609.958 7  95644361.751 7  23357325.560                    23357324.000
                                        45.850          42.200



 106022649.376 8  82615080.181 8  20175427.620                    20175425.060
                                        51.050          48.950



 118982915.288 7  92713957.473 7  22641689.740                    22641686.740
                                        47.000          45.950



 125315514.220 7  97648435.16845  23846751.920                    23846748.680
                                        44.700          34.500



 128321955.677 6  99991130.52945  24418855.860                    24418853.460
                                        40.350          35.050



 23  8  9 14 36 30.0000000  0  8G03G04G06G07G09G11G19G20
 122403639.963 7  95379462.830 7  23292639.580                    23292640.040
                                        45.050          44.400



 110389031.462 8  86017443.642 7  21006322.880                    21006319.840
                                        48.600          47.600



 107675059.923 8  83902665.024 8  20489876.960                    20489875.280
                                        50.650          49.250



 122650405.625 7  95571735.061 7  23339589.340                    23339587.720
                                        45.100          42.150



 106020963.213 8  82613766.294 8  20175106.740                    20175104.160
                                        51.050          49.350



 118901912.359 7  92650838.322 7  22626275.360                    22626272.360
                                        46.700          46.850



 125417314.809 7  97727760.19845  23866124.100                    23866120.700
                                        42.300          35.350



 128222422.549 6  99913572.32746  24399915.260                    24399912.880
                                        41.450          36.550



 23  8  9 14 37  0.0000000  0  8G03G04G06G07G09G11G19G20
 122495102.534 7  95450732.267 7  23310044.420                    23310044.920
                                        44.950          44.300



 110445591.453 8  86061516.326 7  21017085.920                    21017082.880
                                        48.550          47.350



 107677013.879 8  83904187.573 8  20490248.820                    20490247.120
                                        50.500          49.300



 122557392.960 7  95499257.719 7  23321889.600                    23321887.920
                                        44.600          42.850



 106019753.657 8  82612823.778 8  20174876.580                    20174874.000
                                        50.950          49.400



 118821278.527 7  92588006.793 7  22610931.220                    22610928.240
                                        46.850          46.650



 125519283.995 7  97807216.52345  23885528.380                    23885524.880
                                        42.450          34.800



 128122916.818 7  99836035.44345  24380979.900                    24380977.560
                                        42.850          34.850



 23  8  9 14 37 30.0000000  0  8G03G04G06G07G09G11G19G20
 122586722.637 7  95522124.447 7  23327479.220                    23327479.780
                                        45.150          44.500



 110502511.990 8  86105869.962 7  21027917.580                    21027914.540
                                        48.600          47.000



 107679560.083 8  83906171.618 8  20490733.360                    20490731.660
                                        50.400          49.200



 122464571.177 7  95426929.141 7  23304226.140                    23304224.440
                                        45.050          42.850



 106019016.464 8  82612249.341 8  20174736.300                    20174733.720
                                        50.950          49.150



 118741012.732 7  92525462.028 7  22595657.120                    22595654.180
                                        46.700          46.200



 125621414.727 6  97886798.79245  23904963.360                    23904959.700
                                        41.950          33.700



 128023435.904 7  99758517.90545  24362049.260                    24362046.900
                                        43.150          34.700



 23  8  9 14 38  0.0000000  0  8G03G04G06G07G09G11G19G20
 122678502.505 7  95593641.128 7  23344944.440                    23344945.040
                                        44.600          44.550



 110559794.310 8  86150505.501 7  21038818.080                    21038815.040
                                        48.600          47.150



 107682701.964 8  83908619.837 8  20491331.260                    20491329.560
                                        50.400          49.300



 122371945.733 7  95354753.530 7  23286600.080                    23286598.340
                                        45.050          43.350



 106018754.062 8  82612044.861 8  20174686.380                    20174683.800
                                        51.000          48.950



 118661120.543 7  92463208.415 7  22580454.100                    22580451.160
                                        46.950          46.650



 125723706.830 7  97966506.75945  23924429.060                    23924425.260
                                        42.200          33.650



 127923984.450 7  99681023.28645  24343124.280                    24343121.880
                                        43.300          32.000



 23  8  9 14 38 30.0000000  0  8G03G04G06G07G09G11G19G20
 122770442.064 7  95665282.213 7  23362440.040                    23362440.700
                                        43.950          44.200



 110617437.335 8  86195422.117 7  21049787.220                    21049784.160
                                        48.800          47.050



 107686440.669 8  83911533.112 8  20492042.720                    20492041.020
                                        50.400          49.050



 122279519.793 7  95282733.417 7  23269011.920                    23269010.160
                                        44.900          43.550



 106018966.547 8  82612210.430 8  20174726.820                    20174724.220
                                        51.250          49.050



 118581605.264 7  92401248.503 7  22565322.780                    22565319.880
                                        46.900          46.600



 125826157.454 7  98046338.29546  23943924.880                    23943920.960
                                        42.750          37.250



 127824564.192 7  99603553.00645  24324205.220                    24324202.740
                                        43.000          34.750



 23  8  9 14 39  0.0000000  0  8G03G04G06G07G09G11G19G20
 122862539.354 7  95737046.212 7  23379965.660                    23379966.360
                                        43.600          44.350



 110675438.113 8  86240617.496 7  21060824.440                    21060821.360
                                        48.850          46.950



 107690775.338 8  83914910.773 8  20492867.580                    20492865.880
                                        50.600          49.050



 122187294.628 7  95210869.748 7  23251462.000                    23251460.200
                                        44.550          43.900



 106019652.111 8  82612744.637 8  20174857.280                    20174854.660
                                        51.100          49.250



 118502468.292 7  92339583.358 7  22550263.480                    22550260.620
                                        46.900          46.950



 125928762.205 7  98126289.92046  23963450.020                    23963446.020
                                        43.600          37.350



 127725175.042 7  99526106.98245  24305292.040                    24305289.520
                                        42.000          34.150



 23  8  9 14 39 30.0000000  0  8G03G04G06G07G09G11G19G20
 122954791.675 7  95808931.021 7  23397520.760                    23397521.500
                                        43.350          43.850



 110733792.877 8  86286088.714 7  21071929.020                    21071925.920
                                        48.800          46.800



 107695704.348 8  83918751.559 8  20493805.560                    20493803.840
                                        50.300          48.900



 122095270.798 7  95139162.946 7  23233950.380                    23233948.560
                                        45.950          42.350



 106020808.137 8  82613645.445 8  20175077.260                    20175074.620
                                        51.000          49.150



 118423710.206 7  92278213.456 7  22535276.280                    22535273.440
                                        47.150          46.750



 126031515.619 7  98206357.39945  23983003.440                    23982999.340
                                        43.550          34.900



 127625816.115 7  99448684.46945  24286384.620                    24286382.120
                                        42.300          35.450



 23  8  9 14 40  0.0000000  0  8G03G04G06G07G09G11G19G20
 123047198.153 7  95880935.953 7  23415105.200                    23415105.980
                                        43.000          43.900



 110792499.790 8  86331834.328 7  21083100.620                    21083097.500
                                        48.700          47.000



 107701228.010 8  83923055.697 8  20494856.700                    20494854.980
                                        50.150          49.500



 122003450.580 7  95067614.787 7  23216477.540                    23216475.680
                                        45.900          42.400



 106022433.927 8  82614912.299 8  20175386.640                    20175384.000
                                        51.050          49.350



 118345333.501 7  92217140.738 7  22520361.660                    22520358.820
                                        47.500          46.600



 126134414.356 7  98286538.11246  24002584.520                    24002580.340
                                        44.600          36.950



 127526488.853 7  99371286.66846  24267483.180                    24267480.720
                                        43.100          36.800



 23  8  9 14 40 30.0000000  0  8G03G04G06G07G09G11G19G20
 123139758.337 7  95953060.654 7  23432718.900                    23432719.700
                                        42.950          44.000



 110851557.426 8  86377853.226 7  21094338.960                    21094335.820
                                        48.700          46.850



 107707346.929 8  83927823.673 8  20496021.100                    20496019.400
                                        50.100          49.400



 121911836.775 7  94996227.472 6  23199043.980                    23199042.060
                                        45.650          41.950



 106024529.170 8  82616544.935 8  20175785.360                    20175782.740
                                        51.150          49.550



 118267341.095 7  92156367.448 7  22505520.200                    22505517.380
                                        47.300          46.650



 126237455.483 7  98366829.75646  24022192.720                    24022188.500
                                        45.100          37.600



 127427194.837 7  99293914.75545  24248588.100                    24248585.660
                                        43.500          35.850



 23  8  9 14 41  0.0000000  0  8G03G04G06G07G09G11G19G20
 123232472.910 7  96025305.646 7  23450361.980                    23450362.820
                                        42.900          43.500



 110910965.489 8  86424145.180 7  21105643.960                    21105640.840
                                        48.700          46.800



 107714062.880 8  83933056.886 8  20497299.080                    20497297.420
                                        50.050          49.300



 121820433.205 7  94925003.983 7  23181650.420                    23181648.440
                                        44.750          42.450



 106027094.655 8  82618544.008 8  20176273.580                    20176270.940
                                        51.100          49.600



 118189736.959 7  92095896.738 7  22490752.600                    22490749.760
                                        47.850          46.600



 126340637.132 7  98447230.89546  24041827.660                    24041823.400
                                        43.500          36.750



 127327936.608 7  99216570.73145  24229699.840                    24229697.400
                                        43.850          35.800



 23  8  9 14 41 30.0000000  0  8G03G04G06G07G09G11G19G20
 123325343.412 7  96097672.153 7  23468034.720                    23468035.580
                                        43.250          42.800



 110970724.470 8  86470710.587 7  21117015.760                    21117012.600
                                        48.850          46.950



 107721378.402 8  83938757.299 8  20498691.160                    20498689.520
                                        50.400          49.650



 121729244.648 7  94853948.075 7  23164297.740                    23164295.680
                                        44.700          43.050



 106030132.002 8  82620910.772 8  20176851.560                    20176848.940
                                        51.050          49.400



 118112525.987 7  92035732.381 7  22476059.840                    22476057.000
                                        47.800          46.200



 126443958.384 7  98527740.79445  24061489.160                    24061484.920
                                        43.250          35.600



 127228717.847 7  99139257.47645  24210819.100                    24210816.620
                                        43.850          35.700



 23  8  9 14 42  0.0000000  0  8G03G04G06G07G09G11G19G20
 123418365.709 7  96170156.969 7  23485736.340                    23485737.160
                                        43.500          42.400



 111030829.267 8  86517545.461 7  21128453.360                    21128450.180
                                        48.650          46.750



 107729290.475 8  83944922.534 8  20500196.780                    20500195.160
                                        50.400          49.050



 121638270.404 7  94783059.160 7  23146985.820                    23146983.720
                                        45.850          43.300



 106033637.240 8  82623642.130 8  20177518.580                    20177515.980
                                        50.950          48.950



 118035707.445 7  91975873.808 7  22461441.760                    22461438.880
                                        47.800          46.200



 126547412.459 7  98608354.24545  24081175.900                    24081171.660
                                        42.800          35.350



 127129536.493 7  99061973.35445  24191945.500                    24191942.940
                                        42.900          35.800



 23  8  9 14 42 30.0000000  0  8G03G04G06G07G09G11G19G20
 123511540.310 7  96242760.448 7  23503466.940                    23503467.760
                                        43.450          42.250



 111091279.348 8  86564649.377 7  21139956.660                    21139953.480
                                        48.600          46.850



 107737800.495 8  83951553.704 8  20501816.200                    20501814.580
                                        50.200          49.200



 121547514.107 7  94712340.066 7  23129715.400                    23129713.280
                                        46.750          42.800



 106037610.887 8  82626738.460 8  20178274.760                    20178272.140
                                        50.950          48.950



 117959285.067 8  91916323.925 7  22446899.080                    22446896.160
                                        48.050          45.750



 126650997.267 6  98689069.51546  24100887.540                    24100883.320
                                        40.800          37.200



 127030394.944 7  98984720.20345  24173079.520                    24173076.860
                                        43.000          34.050



 23  8  9 14 43  0.0000000  0  8G03G04G06G07G09G11G19G20
 123604865.738 7  96315481.446 7  23521226.260                    23521227.080
                                        43.600          43.250



 111152072.244 8  86612020.431 7  21151525.200                    21151522.000
                                        48.250          46.650



 107746907.990 8  83958650.441 8  20503549.320                    20503547.700
                                        50.150          49.250



 121456977.400 7  94641792.069 7  23112486.800                    23112484.620
                                        47.000          42.900



 106042051.537 8  82630198.705 8  20179119.780                    20179117.160
                                        51.000          49.450



 117883260.744 8  91857084.208 7  22432432.140                    22432429.200
                                        48.000          45.700



 126754708.816 6  98769883.52946  24120623.280                    24120619.100
                                        41.600          37.650



 126931293.962 7  98907498.70346  24154221.220                    24154218.460
                                        43.000          36.600



 23  8  9 14 43 30.0000000  0  8G03G04G06G07G09G11G19G20
 123698340.159 7  96388318.553 7  23539013.920                    23539014.780
                                        43.350          43.150



 111213205.068 8  86659656.368 7  21163158.400                    21163155.220
                                        48.400          46.400



 107756612.014 8  83966212.014 8  20505395.940                    20505394.320
                                        49.950          48.750



 121366661.452 7  94571416.114 7  23095300.200                    23095297.960
                                        46.200          42.000



 106046957.383 8  82634021.448 8  20180053.320                    20180050.720
                                        51.200          49.400



 117807635.852 8  91798155.755 7  22418041.180                    22418038.220
                                        48.250          45.800



 126858542.877 6  98850793.04646  24140382.300                    24140378.140
                                        41.700          37.050



 126832233.437 7  98830308.74745  24135370.600                    24135367.740
                                        44.100          33.400



 23  8  9 14 44  0.0000000  0  8G03G04G06G07G09G11G19G20
 123791961.830 7  96461270.396 7  23556829.620                    23556830.520
                                        44.050          43.200



 111274674.994 8  86707554.979 7  21174855.740                    21174852.580
                                        48.450          46.650



 107766911.700 8  83974237.729 8  20507355.900                    20507354.280
                                        50.050          49.050



 121276567.821 7  94501213.354 7  23078155.960                    23078153.620
                                        46.650          42.050



 106052326.679 8  82638205.311 8  20181075.060                    20181072.480
                                        51.050          49.600



 117732411.945 7  91739539.757 7  22403726.520                    22403723.540
                                        47.900          45.400



 126962494.925 7  98931794.45445  24160163.820                    24160159.700
                                        43.050          33.400



 126733213.818 7  98753150.66245  24116527.780                    24116524.860
                                        44.550          35.750



 23  8  9 14 44 30.0000000  0  8G03G04G06G07G09G11G19G20
 123885733.056 7  96534338.775 7  23574673.760                    23574674.720
                                        43.250          42.700



 111336483.575 8  86755717.469 7  21186617.540                    21186614.380
                                        48.300          46.950



 107777810.507 8  83982730.286 8  20509429.880                    20509428.280
                                        50.400          49.250



 121186702.148 7  94431188.262 7  23061055.060                    23061052.620
                                        46.550          43.350



 106058162.001 8  82642752.301 8  20182185.500                    20182182.940
                                        51.000          49.450



 117657594.836 7  91681240.741 7  22389489.280                    22389486.240
                                        47.850          45.350



 127066565.054 7  99012887.91345  24179967.800                    24179963.700
                                        43.850          33.950



 126634239.752 7  98676028.06446  24097693.620                    24097690.660
                                        44.550          36.100



 23  8  9 14 45  0.0000000  0  8G03G04G06G07G09G11G19G20
 123979653.832 7  96607523.668 7  23592546.380                    23592547.400
                                        42.950          42.900



 111398629.709 8  86804142.995 7  21198443.580                    21198440.440
                                        48.350          47.200



 107789309.250 8  83991690.320 8  20511618.020                    20511616.440
                                        50.200          49.150



 121097067.733 7  94361343.366 7  23043998.160                    23043995.660
                                        46.650          43.900



 106064463.267 8  82647662.379 8  20183384.580                    20183382.060
                                        51.000          49.200



 117583187.756 7  91623261.234 7  22375330.040                    22375326.980
                                        47.850          45.400



 127170750.683 6  99094071.34646  24199793.800                    24199789.700
                                        41.850          36.450



 126535313.363 7  98598942.62846  24078868.520                    24078865.520
                                        43.800          37.300



 23  8  9 14 45 30.0000000  0  8G03G04G06G07G09G11G19G20
 124073719.642 7  96680821.580 7  23610446.580                    23610447.660
                                        42.850          43.000



 111461107.856 8  86852827.233 7  21210332.780                    21210329.680
                                        48.650          47.150



 107801404.168 8  84001114.912 8  20513919.620                    20513918.040
                                        50.500          49.300



 121007663.045 7  94291677.494 7  23026984.980                    23026982.400
                                        47.050          43.900



 106071226.091 8  82652932.113 8  20184671.480                    20184668.980
                                        51.150          49.050



 117509189.442 8  91565600.246 7  22361248.600                    22361245.480
                                        48.000          46.050



 127275044.810 7  99175339.33745  24219640.420                    24219636.340
                                        44.200          34.850



 126436431.612 7  98521891.95845  24060051.940                    24060048.920
                                        43.300          34.800



 23  8  9 14 46  0.0000000  0  8G03G04G06G07G09G11G19G20
 124167932.967 7  96754234.443 7  23628374.840                    23628375.980
                                        42.750          42.950



 111523919.450 8  86901771.297 7  21222285.460                    21222282.380
                                        48.650          47.100



 107814098.616 8  84011006.675 8  20516335.300                    20516333.740
                                        50.050          49.150



 120918493.763 7  94222195.046 7  23010016.580                    23010013.960
                                        46.100          43.700



 106078452.700 8  82658563.241 8  20186046.640                    20186044.160
                                        51.000          49.100



 117435605.642 8  91508262.257 7  22347246.020                    22347242.900
                                        48.150          46.550



 127379447.343 7  99256691.79945  24239507.700                    24239503.620
                                        43.550          32.450



 126337599.572 7  98444880.05845  24041244.760                    24041241.700
                                        42.850          33.200



 23  8  9 14 46 30.0000000  0  8G03G04G06G07G09G11G19G20
 124262289.766 7  96827759.095 7  23646330.420                    23646331.600
                                        42.650          43.050



 111587059.468 8  86950971.287 7  21234300.620                    21234297.560
                                        48.850          47.200



 107827389.375 8  84021363.101 8  20518864.440                    20518862.880
                                        50.200          49.200



 120829559.023 7  94152895.354 7  22993092.800                    22993090.160
                                        45.850          43.650



 106086139.180 8  82664552.702 8  20187509.320                    20187506.840
                                        51.100          49.350



 117362435.658 7  91451246.696 7  22333322.220                    22333319.120
                                        47.750          46.750



 127483951.774 7  99338123.71445  24259394.320                    24259390.240
                                        43.550          35.150



 126238815.730 7  98367905.68145  24022446.760                    24022443.660
                                        43.500          34.500



 23  8  9 14 47  0.0000000  0  8G03G04G06G07G09G11G19G20
 124356790.129 7  96901395.614 7  23664313.300                    23664314.560
                                        42.200          43.100



 111650527.107 8  87000426.557 7  21246378.160                    21246375.100
                                        48.800          47.100



 107841277.373 8  84032184.892 8  20521507.260                    20521505.720
                                        50.250          49.150



 120740862.232 7  94083781.054 7  22976214.300                    22976211.660
                                        45.250          43.150



 106094285.714 8  82670900.635 8  20189059.560                    20189057.100
                                        51.300          49.200



 117289682.898 8  91394556.247 7  22319477.820                    22319474.740
                                        48.000          47.050



 127588555.631 7  99419633.01246  24279299.940                    24279295.860
                                        43.650          36.250



 126140081.367 7  98290969.85145  24003658.200                    24003655.040
                                        44.550          35.300



 23  8  9 14 47 30.0000000  0  8G03G04G06G07G09G11G19G20
 124451432.587 7  96975142.871 7  23682323.220                    23682324.520
                                        42.900          43.300



 111714319.806 8  87050135.125 7  21258517.560                    21258514.480
                                        48.700          47.500



 107855761.903 8  84043471.523 8  20524263.580                    20524262.040
                                        50.350          48.650



 120652404.940 7  94014853.388 7  22959381.340                    22959378.700
                                        45.950          43.100



 106102890.761 8  82677605.848 8  20190697.060                    20190694.620
                                        51.300          49.200



 117217349.153 7  91338192.323 7  22305713.140                    22305710.080
                                        47.850          46.650



 127693254.947 7  99501216.71946  24299223.700                    24299219.660
                                        44.100          36.050



 126041397.803 7  98214073.60645  23984879.320                    23984876.080
                                        45.350          35.600



 23  8  9 14 48  0.0000000  0  8G03G04G06G07G09G11G19G20
 124546215.623 7  97048999.668 7  23700359.900                    23700361.260
                                        43.700          43.000



 111778435.017 8  87100095.003 7  21270718.320                    21270715.240
                                        48.650          47.750



 107870842.155 8  84055222.356 8  20527133.260                    20527131.720
                                        50.600          48.800



 120564188.849 7  93946113.648 7  22942594.320                    22942591.660
                                        47.100          43.050



 106111952.742 8  82684667.131 8  20192421.520                    20192419.060
                                        51.400          49.250



 117145436.123 8  91282156.231 7  22292028.520                    22292025.460
                                        48.400          46.050



 127798045.843 7  99582871.78545  24319164.880                    24319160.900
                                        43.700          32.550



 125942765.343 7  98137217.21745  23966110.160                    23966106.820
                                        45.800          35.950



 23  8  9 14 48 30.0000000  0  8G03G04G06G07G09G11G19G20
 124641142.189 7  97122968.306 7  23718423.940                    23718425.300
                                        43.800          42.650



 111842874.816 8  87150307.796 7  21282980.860                    21282977.780
                                        48.350          47.700



 107886521.859 8  84067440.295 8  20530117.040                    20530115.440
                                        50.500          48.650



 120476220.144 7  93877566.671 7  22925854.380                    22925851.700
                                        47.000          43.350



 106121474.674 8  82692086.800 8  20194233.520                    20194231.040
                                        51.150          49.350



 117073950.150 8  91226452.897 7  22278425.160                    22278422.100
                                        48.000          46.150



 127902928.863 7  99664598.64945  24339123.580                    24339119.660
                                        43.950          34.000



 125844189.283 7  98060404.76646  23947351.760                    23947348.320
                                        45.100          36.700



 23  8  9 14 49  0.0000000  0  8G03G04G06G07G09G11G19G20
 124736209.841 7  97197046.903 7  23736514.820                    23736516.160
                                        42.950          43.150



 111907635.595 8  87200770.711 7  21295304.460                    21295301.400
                                        48.200          47.800



 107902799.169 8  84080123.907 8  20533214.520                    20533212.900
                                        50.150          48.950



 120388499.334 7  93809212.873 7  22909161.620                    22909158.900
                                        46.250          44.050



 106131453.934 8  82699862.841 8  20196132.520                    20196130.040
                                        51.000          49.350



 117002891.883 7  91171082.865 7  22264903.180                    22264900.100
                                        47.250          46.550



 128007899.155 7  99746393.53145  24359098.880                    24359095.020
                                        42.900          35.600



 125745668.703 7  97983635.55946  23928603.900                    23928600.400
                                        43.800          37.550



 23  8  9 14 49 30.0000000  0  8G03G04G06G07G09G11G19G20
 124831419.359 7  97271236.016 7  23754632.700                    23754634.040
                                        42.350          43.050



 111972717.212 7  87251483.620 7  21307689.120                    21307686.080
                                        47.950          47.800



 107919675.612 8  84093274.364 8  20536426.020                    20536424.360
                                        50.100          49.300



 120301030.520 7  93741055.439 7  22892516.820                    22892514.060
                                        45.650          44.500



 106141891.346 8  82707995.873 8  20198118.720                    20198116.240
                                        50.850          49.200



 116932265.442 7  91116049.296 7  22251463.380                    22251460.320
                                        47.500          46.350



 128112954.850 6  99828254.91146  24379090.460                    24379086.680
                                        41.750          37.150



 125647207.035 7  97906912.25746  23909867.260                    23909863.700
                                        43.850          36.250



 23  8  9 14 50  0.0000000  0  8G03G04G06G07G09G11G19G20
 124926768.171 6  97345533.678 7  23772777.080                    23772778.460
                                        41.800          43.150



 112038116.184 7  87302443.813 7  21320134.160                    21320131.160
                                        47.650          47.650



 107937149.294 8  84106890.207 8  20539751.140                    20539749.500
                                        50.000          49.300



 120213814.485 7  93673095.010 7  22875920.060                    22875917.320
                                        45.350          44.250



 106152784.267 8  82716483.843 8  20200191.580                    20200189.100
                                        50.900          49.150



 116862071.529 7  91061352.757 7  22238105.900                    22238102.840
                                        47.800          46.350



 128218090.908 7  99910178.92946  24399097.320                    24399093.600
                                        42.250          37.850



 125548804.202 7  97830234.79046  23891141.780                    23891138.240
                                        44.150          36.800



 23  8  9 14 50 30.0000000  0  8G03G04G06G07G09G11G19G20
 125022254.532 6  97419938.513 7  23790947.640                    23790949.040
                                        40.950          42.900



 112103829.703 7  87353649.104 7  21332639.060                    21332636.080
                                        47.500          47.400



 107955219.133 8  84120970.587 8  20543189.720                    20543188.120
                                        49.800          49.300



 120126852.416 7  93605332.459 7  22859371.640                    22859368.920
                                        46.000          43.250



 106164130.911 8  82725325.369 8  20202350.760                    20202348.300
                                        51.050          49.000



 116792311.642 8  91006994.426 7  22224830.980                    22224827.940
                                        48.100          45.550



 128323303.415 6  99992162.51945  24419118.700                    24419115.080
                                        41.850          35.250



 125450460.238 7  97753603.18846  23872427.500                    23872424.000
                                        44.550          36.700



 23  8  9 14 51  0.0000000  0  9G03G04G06G07G09G11G19G20G30
 125117879.682 6  97494451.467 7  23809144.580                    23809146.060
                                        40.250          42.800



 112169857.957 7  87405099.636 7  21345203.840                    21345200.900
                                        47.650          47.700



 107973886.853 8  84135516.848 8  20546742.060                    20546740.500
                                        50.050          49.150



 120040148.690 7  93537771.200 7  22842872.400                    22842869.700
                                        46.650          42.350



 106175932.346 8  82734521.281 8  20204596.520                    20204594.040
                                        51.100          49.150



 116722990.189 8  90952977.715 7  22211639.520                    22211636.460
                                        48.200          46.150



 128428590.723 7 100074204.42346  24439154.320                    24439150.780
                                        42.000          36.200



 125352178.579 7  97677020.15246  23853725.060                    23853721.600
                                        44.550          36.550



 131023071.552 7 102095906.268 6  24932862.020                    24932860.960
                                        42.650          38.250



 23  8  9 14 51 30.0000000  0  8G03G04G06G07G09G11G20G30
 125213635.496 6  97569066.248 7  23827366.360                    23827367.920
                                        41.050          42.750



 112236191.947 7  87456788.408 7  21357826.800                    21357823.880
                                        47.700          47.850



 107993145.039 8  84150523.208 8  20550406.780                    20550405.240
                                        50.500          49.600



 119953698.104 7  93470407.152 7  22826421.360                    22826418.660
                                        47.300          42.700



 106188180.470 8  82744065.259 8  20206927.260                    20206924.800
                                        51.100          48.950



 116654102.370 8  90899298.916 7  22198530.580                    22198527.500
                                        48.750          46.750



 125253953.200 7  97600480.97445  23835033.320                    23835029.900
                                        44.900          35.500



 130913384.978 7 102010436.434 6  24911988.940                    24911988.340
                                        42.800          39.100



 23  8  9 14 52  0.0000000  0  8G03G04G06G07G09G11G20G30
 125309528.238 6  97643787.705 7  23845614.180                    23845615.840
                                        40.750          43.150



 112302836.888 7  87508719.479 7  21370508.940                    21370506.060
                                        47.800          47.800



 108013000.489 8  84165994.975 8  20554185.160                    20554183.640
                                        50.150          49.550



 119867510.273 7  93403247.887 7  22810020.320                    22810017.580
                                        47.000          43.550



 106200881.418 8  82753962.091 8  20209344.180                    20209341.700
                                        51.000          48.950



 116585657.632 8  90845965.371 7  22185505.960                    22185502.880
                                        48.750          47.350



 125155792.745 7  97523992.38645  23816353.960                    23816350.540
                                        44.850          35.950



 130803710.756 7 101924976.234 6  24891118.340                    24891118.160
                                        42.400          40.100



 23  8  9 14 52 30.0000000  0  8G03G04G06G07G09G11G20G30
 125405556.667 6  97718614.915 7  23863887.820                    23863889.580
                                        41.500          42.400



 112369790.619 8  87560891.175 7  21383249.860                    21383246.960
                                        48.050          47.400



 108033452.585 8  84181931.643 8  20558077.100                    20558075.620
                                        50.050          49.350



 119781587.500 7  93336295.155 7  22793669.700                    22793666.960
                                        46.250          44.050



 106214033.894 8  82764210.762 8  20211847.020                    20211844.540
                                        51.000          48.750



 116517658.010 8  90792978.670 7  22172566.060                    22172562.960
                                        48.600          47.400



 125057698.217 7  97447555.15545  23797687.180                    23797683.700
                                        44.950          33.950



 130694050.894 6 101839527.206 6  24870250.480                    24870250.620
                                        41.850          40.650



 23  8  9 14 53  0.0000000  0  8G03G04G06G07G09G11G20G30
 125501718.706 7  97793546.241 7  23882186.920                    23882188.720
                                        42.350          42.750



 112437050.060 8  87613301.080 7  21396048.940                    21396046.040
                                        48.150          47.250



 108054499.651 8  84198331.936 8  20562082.240                    20562080.780
                                        50.000          49.400



 119695930.427 7  93269549.478 7  22777369.640                    22777366.900
                                        46.700          44.800



 106227635.674 8  82774809.534 8  20214435.380                    20214432.880
                                        51.300          48.700



 116450104.592 8  90740339.662 7  22159711.080                    22159707.980
                                        48.600          47.950



 124959669.779 7  97371169.39445  23779032.980                    23779029.440
                                        44.500          35.900



 130584406.363 6 101754090.095 6  24849385.580                    24849386.020
                                        41.400          41.550



 23  8  9 14 53 30.0000000  0  8G03G04G06G07G09G11G20G30
 125598015.281 7  97868582.419 7  23900511.620                    23900513.440
                                        42.350          42.350



 112504615.128 8  87665949.152 7  21408906.200                    21408903.260
                                        48.050          47.150



 108076143.187 8  84215197.012 8  20566200.860                    20566199.440
                                        49.800          49.600



 119610542.727 7  93203013.704 7  22761120.840                    22761118.100
                                        46.800          45.000



 106241687.602 8  82785759.072 8  20217109.400                    20217106.860
                                        51.150          48.750



 116383001.528 8  90688051.589 7  22146941.800                    22146938.700
                                        48.450          47.750



 124861710.495 7  97294837.54746  23760391.920                    23760388.300
                                        44.200          37.050



 130474781.336 6 101668668.193 7  24828524.360                    24828525.100
                                        41.100          42.400



 23  8  9 14 54  0.0000000  0  8G03G04G06G07G09G11G20G30
 125694446.128 7  97943723.221 7  23918861.900                    23918863.700
                                        42.200          42.150



 112572484.626 7  87718834.440 7  21421821.360                    21421818.420
                                        47.850          46.800



 108098383.393 8  84232527.021 8  20570433.040                    20570431.680
                                        50.000          49.400



 119525427.911 7  93136690.538 7  22744923.980                    22744921.280
                                        46.800          44.650



 106256189.292 8  82797059.074 8  20219869.000                    20219866.440
                                        51.100          48.650



 116316351.771 8  90636116.752 7  22134258.760                    22134255.660
                                        48.300          47.050



 124763822.135 7  97218560.98346  23741764.320                    23741760.680
                                        44.100          36.200



 130365178.788 6 101583263.788 7  24807667.440                    24807668.500
                                        41.200          42.950



 23  8  9 14 54 30.0000000  0  8G03G04G06G07G09G11G20G30
 125791007.089 6  98018965.398 7  23937236.940                    23937238.760
                                        41.600          42.900



 112640653.369 8  87771952.907 7  21434793.480                    21434790.500
                                        48.000          46.900



 108121216.588 8  84250319.096 8  20574778.060                    20574776.740
                                        49.900          49.000



 119440584.491 7  93070578.848 7  22728778.780                    22728776.100
                                        46.550          43.900



 106271136.447 8  82808706.179 8  20222713.380                    20222710.800
                                        51.150          48.600



 116250154.334 8  90584534.346 7  22121661.800                    22121658.680
                                        48.450          46.700



 124666002.913 7  97142338.28446  23723149.860                    23723146.240
                                        44.150          37.400



 130255597.743 6 101497876.153 7  24786814.580                    24786815.960
                                        40.500          43.150



 23  8  9 14 55  0.0000000  0  8G03G04G06G07G09G11G20G30
 125887700.659 6  98094310.902 7  23955637.240                    23955639.100
                                        41.250          42.550



 112709122.931 8  87825305.777 7  21447822.820                    21447819.860
                                        48.150          46.900



 108144645.694 8  84268575.527 8  20579236.460                    20579235.160
                                        50.200          48.900



 119356018.479 7  93004683.318 7  22712686.360                    22712683.700
                                        46.100          43.750



 106286531.426 8  82820702.240 8  20225642.980                    20225640.360
                                        50.950          48.650



 116184414.912 8  90533308.847 7  22109151.980                    22109148.860
                                        48.750          46.750



 124568257.832 7  97066173.34546  23704549.520                    23704545.920
                                        43.400          37.400



 130146043.927 6 101412509.713 7  24765966.900                    24765968.600
                                        39.750          42.700



 23  8  9 14 55 30.0000000  0  8G03G04G06G07G09G11G20G30
 125984522.525 7  98169756.366 6  23974061.940                    23974063.840
                                        42.100          41.750



 112777887.982 8  87878888.893 7  21460908.400                    21460905.440
                                        48.700          46.900



 108168666.771 8  84287293.209 8  20583807.560                    20583806.260
                                        50.600          48.950



 119271728.470 7  92939002.858 7  22696646.440                    22696643.780
                                        45.400          43.750



 106302369.748 8  82833043.765 8  20228656.940                    20228654.300
                                        51.050          49.000



 116119132.300 8  90482439.299 7  22096729.100                    22096725.960
                                        49.350          47.300



 124470584.566 7  96990064.36446  23685962.820                    23685959.280
                                        43.900          38.200



 130036516.186 6 101327163.604 7  24745124.200                    24745126.140
                                        39.050          44.300



 23  8  9 14 56  0.0000000  0  8G03G04G06G07G09G11G20G30
 126081470.648 7  98245300.248 6  23992510.640                    23992512.560
                                        42.300          41.300



 112846945.567 8  87932699.973 7  21474049.620                    21474046.680
                                        48.850          46.800



 108193278.227 8  84306470.943 8  20588491.000                    20588489.700
                                        50.200          49.150



 119187715.540 7  92873538.328 7  22680659.200                    22680656.580
                                        46.050          44.200



 106318649.275 8  82845729.103 8  20231754.840                    20231752.180
                                        50.950          49.050



 116054307.748 8  90431926.689 7  22084393.380                    22084390.220
                                        49.300          47.550



 124372983.323 7  96914011.49946  23667389.860                    23667386.360
                                        44.000          37.300



 129927015.785 6 101241838.786 7  24724286.740                    24724288.900
                                        39.900          43.150



 23  8  9 14 56 30.0000000  0  8G03G04G06G07G09G11G20G30
 126178547.552 6  98320944.467 6  24010983.840                    24010985.780
                                        41.950          40.650



 112916297.224 8  87986740.193 7  21487246.840                    21487243.880
                                        48.700          46.700



 108218482.928 8  84326110.938 8  20593287.360                    20593286.020
                                        50.350          49.350



 119103985.328 7  92808294.083 7  22664725.780                    22664723.180
                                        46.800          44.150



 106335372.364 8  82858760.063 8  20234937.160                    20234934.500
                                        50.900          49.250



 115989946.870 8  90381775.365 7  22072145.940                    22072142.760
                                        49.400          47.500



 124275458.772 7  96838018.40646  23648831.460                    23648828.020
                                        44.400          37.050



 129817548.420 6 101156539.719 7  24703455.580                    24703457.880
                                        40.500          43.900



 23  8  9 14 57  0.0000000  0  8G03G04G06G07G09G11G20G30
 126275749.412 6  98396686.044 6  24029480.840                    24029482.760
                                        41.900          40.850



 112985938.165 8  88041005.841 7  21500499.080                    21500496.100
                                        48.700          46.150



 108244277.382 8  84346210.493 8  20598195.920                    20598194.560
                                        50.200          49.000



 119020536.857 7  92743269.366 7  22648846.000                    22648843.400
                                        47.300          44.300



 106352535.010 8  82872133.545 8  20238203.100                    20238200.440
                                        50.950          49.200



 115926048.978 8  90331984.830 7  22059986.580                    22059983.380
                                        49.150          47.300



 124178009.757 7  96762084.17446  23630287.460                    23630284.040
                                        45.000          38.250



 129708113.539 6 101071265.961 7  24682630.620                    24682633.040
                                        40.850          43.150



 23  8  9 14 57 30.0000000  0  8G03G04G06G07G09G11G20G30
 126373078.284 6  98472526.608 6  24048002.000                    24048003.900
                                        41.950          40.550



 113055869.529 8  88095497.796 7  21513806.600                    21513803.600
                                        48.750          45.950



 108270663.872 8  84366771.371 8  20603217.140                    20603215.740
                                        49.900          49.000



 118937375.543 7  92678468.399 7  22633020.900                    22633018.280
                                        47.200          44.150



 106370139.135 8  82885851.024 8  20241553.060                    20241550.400
                                        50.900          49.200



 115862619.347 8  90282559.164 7  22047916.320                    22047913.100
                                        48.950          46.850



 124080640.516 7  96686212.06946  23611758.720                    23611755.260
                                        44.850          37.050



 129598716.404 6 100986021.611 7  24661812.880                    24661815.360
                                        41.800          43.500



 23  8  9 14 58  0.0000000  0  8G03G04G06G07G09G11G20G30
 126470531.850 6  98548464.329 6  24066546.900                    24066548.780
                                        41.500          41.150



 113126088.014 8  88150213.466 7  21527168.780                    21527165.740
                                        48.800          45.750



 108297640.652 8  84387792.204 8  20608350.700                    20608349.280
                                        49.950          49.150



 118854502.049 7  92613891.708 7  22617250.580                    22617247.940
                                        46.300          43.550



 106388182.199 8  82899910.553 8  20244986.520                    20244983.900
                                        51.000          49.100



 115799658.725 8  90233498.954 7  22035935.320                    22035932.060
                                        49.150          46.900



 123983350.710 7  96610401.87146  23593245.080                    23593241.600
                                        44.550          37.850



 129489357.944 7 100900807.409 7  24641002.500                    24641005.000
                                        42.300          42.900



 23  8  9 14 58 30.0000000  0  8G03G04G06G07G09G11G20G30
 126568114.004 6  98624502.255 6  24085116.260                    24085118.120
                                        40.850          41.650



 113196596.533 8  88205155.143 7  21540586.140                    21540583.060
                                        48.800          45.600



 108325211.679 8  84409276.100 8  20613597.300                    20613595.880
                                        50.150          48.550



 118771923.347 7  92549544.747 7  22601536.320                    22601533.640
                                        46.150          43.100



 106406667.871 8  82914314.971 8  20248504.220                    20248501.620
                                        51.300          48.900



 115737174.143 8  90184809.686 7  22024044.900                    22024041.600
                                        49.300          46.900



 123886146.898 7  96534658.68246  23574747.820                    23574744.280
                                        43.900          36.900



 129380045.229 7 100815628.891 7  24620200.820                    24620203.280
                                        42.850          42.900



 23  8  9 14 59  0.0000000  0  8G03G04G06G07G09G11G20G30
 126665822.103 6  98700638.298 6  24103709.560                    24103711.480
                                        40.550          41.400



 113267391.567 8  88260320.073 7  21554058.020                    21554054.920
                                        48.600          45.800



 108353374.675 8  84431221.264 8  20618956.560                    20618955.120
                                        50.400          48.250



 118689640.164 7  92485428.051 7  22585878.300                    22585875.600
                                        47.100          43.350



 106425593.419 8  82929062.131 8  20252105.660                    20252103.040
                                        51.300          48.850



 115675166.109 8  90136491.756 7  22012245.140                    22012241.840
                                        49.150          46.850



 123789028.671 7  96458982.19346  23556266.800                    23556263.220
                                        43.650          36.900



 129270778.966 6 100730486.541 7  24599408.000                    24599410.420
                                        41.800          42.000



 23  8  9 14 59 30.0000000  0  8G03G04G06G07G09G11G20G30
 126763652.374 6  98776869.563 6  24122326.120                    24122328.060
                                        41.550          41.100



 113338468.352 7  88315704.559 7  21567583.500                    21567580.380
                                        47.900          46.050



 108382126.070 8  84453624.919 8  20624427.800                    20624426.320
                                        49.950          48.300



 118607651.443 7  92421540.768 7  22570276.360                    22570273.620
                                        47.650          42.800



 106444954.862 8  82944148.957 8  20255790.020                    20255787.420
                                        51.300          48.900



 115613633.956 8  90088544.652 7  22000535.960                    22000532.600
                                        49.100          46.900



 123691994.709 7  96383371.40146  23537801.760                    23537798.160
                                        43.650          37.250



 129161558.483 6 100645379.932 7  24578623.820                    24578626.180
                                        41.800          42.550



                            4  1
RINEX FILE SPLICE; other post-header comments skipped       COMMENT
 23  8  9 15  0  0.0000000  0  8G03G04G06G07G09G11G20G30
 126861599.645 6  98853191.963 6  24140964.960                    24140966.940
                                        40.500          41.300



 113409820.748 7  88371303.783 7  21581161.440                    21581158.320
                                        47.700          46.550



 108411460.865 8  84476483.165 8  20630010.060                    20630008.560
                                        49.800          48.550



 118525954.811 7  92357881.094 7  22554730.000                    22554727.200
                                        47.800          43.000



 106464746.731 8  82959571.176 8  20259556.320                    20259553.700
                                        51.350          48.900



 115552575.557 8  90040966.705 7  21988916.920                    21988913.520
                                        49.200          47.200



 123595042.069 7  96307823.92446  23519352.220                    23519348.640
                                        44.150          37.400



 129052381.915 6 100560307.508 7  24557848.040                    24557850.360
                                        40.700          42.050



 23  8  9 15  0 30.0000000  0  8G03G04G06G07G09G11G20G30
 126959670.289 6  98929610.518 6  24159627.300                    24159629.280
                                        39.650          41.400



 113481454.270 7  88427122.069 7  21594792.860                    21594789.760
                                        47.900          46.350



 108441385.704 8  84499801.194 8  20635704.580                    20635703.060
                                        49.800          49.050



 118444560.187 8  92294456.749 7  22539241.100                    22539238.240
                                        48.050          43.550



 106484975.310 8  82975333.686 8  20263405.740                    20263403.080
                                        51.400          48.800



 115492000.490 8  89993765.379 7  21977389.880                    21977386.420
                                        49.250          47.350



 123498179.361 7  96232346.56146  23500919.780                    23500916.200
                                        44.700          37.700



 128943258.917 6 100475276.854 7  24537082.420                    24537084.680
                                        40.950          42.600



 23  8  9 15  1  0.0000000  0  8G03G04G06G07G09G11G20G30
 127057863.808 6  99006124.801 6  24178313.000                    24178315.000
                                        40.500          41.900



 113553367.423 7  88483158.245 7  21608477.520                    21608474.440
                                        47.950          46.600



 108471900.195 8  84523578.693 8  20641511.320                    20641509.780
                                        50.350          48.950



 118363469.753 7  92231269.457 7  22523810.100                    22523807.140
                                        47.600          43.950



 106505639.799 8  82991435.869 8  20267338.100                    20267335.400
                                        51.200          48.750



 115431911.243 8  89946942.601 7  21965955.280                    21965951.800
                                        49.100          47.200



 123401408.182 7  96156940.49146  23482504.780                    23482501.220
                                        44.950          36.550



 128834192.096 6 100390289.950 7  24516327.500                    24516329.740
                                        40.650          43.250



 23  8  9 15  1 30.0000000  0  8G03G04G06G07G09G11G20G30
 127156169.914 6  99082726.833 7  24197020.120                    24197022.140
                                        41.300          42.850



 113625549.090 7  88539403.657 7  21622213.260                    21622210.180
                                        47.800          46.600



 108502994.250 8  84547807.819 8  20647428.320                    20647426.780
                                        50.150          48.900



 118282676.476 7  92168313.742 7  22508435.600                    22508432.580
                                        46.550          43.700



 106526729.777 8  83007869.602 8  20271351.440                    20271348.700
                                        50.800          48.650



 115372300.658 8  89900492.801 7  21954611.780                    21954608.280
                                        48.800          46.650



 123304720.832 7  96081599.73346  23464105.780                    23464102.180
                                        45.300          37.950



 128725174.512 6 100305341.404 7  24495581.940                    24495584.180
                                        40.650          43.600



 23  8  9 15  2  0.0000000  0  8G03G04G06G07G09G11G20G30
 127254595.515 6  99159421.960 7  24215750.020                    24215752.060
                                        41.200          42.700



 113698005.143 7  88595862.866 7  21636001.220                    21635998.180
                                        47.650          46.100



 108534674.857 8  84572493.969 8  20653456.980                    20653455.420
                                        50.200          48.900



 118202190.276 7  92105597.285 7  22493119.560                    22493116.480
                                        46.450          43.100



 106548251.825 8  83024640.009 8  20275446.960                    20275444.220
                                        50.550          48.750



 115313178.651 8  89854423.713 7  21943361.260                    21943357.680
                                        48.850          46.000



 123208126.703 7  96006331.64046  23445724.480                    23445720.900
                                        45.400          38.800



 128616216.294 6 100220439.118 7  24474847.640                    24474849.920
                                        40.350          43.750



 23  8  9 15  2 30.0000000  0  8G03G04G06G07G09G11G20G30
 127353139.950 6  99236209.656 7  24234502.560                    24234504.640
                                        41.500          42.300



 113770734.056 7  88652534.695 7  21649841.100                    21649838.060
                                        47.550          46.300



 108566941.450 8  84597636.740 8  20659597.160                    20659595.580
                                        50.300          49.250



 118122013.331 7  92043121.798 7  22477862.340                    22477859.220
                                        47.150          42.550



 106570205.103 8  83041746.441 8  20279624.540                    20279621.800
                                        50.650          48.900



 115254547.660 8  89808737.235 7  21932204.160                    21932200.500
                                        49.050          46.400



 123111627.870 7  95931137.78746  23427361.360                    23427357.760
                                        45.350          37.250



 128507320.025 6 100135585.093 7  24454125.140                    24454127.460
                                        40.600          43.850



 23  8  9 15  3  0.0000000  0  8G03G04G06G07G09G11G20G30
 127451801.144 7  99313088.369 6  24253277.300                    24253279.380
                                        42.400          41.650



 113843732.810 7  88709416.806 7  21663732.320                    21663729.300
                                        47.600          46.500



 108599792.080 8  84623234.615 8  20665848.460                    20665846.860
                                        50.500          49.650



 118042146.786 7  91980888.139 7  22462664.220                    22462661.060
                                        46.650          43.250



 106592587.298 8  83059187.102 8  20283883.720                    20283880.980
                                        50.800          48.900



 115196408.578 8  89763434.080 7  21921140.640                    21921136.920
                                        48.900          46.600



 123015224.136 7  95856018.06046  23409016.300                    23409012.700
                                        45.450          37.950



 128398486.866 6 100050780.235 7  24433414.640                    24433417.000
                                        40.700          44.000



 23  8  9 15  3 30.0000000  0  8G03G04G06G07G09G11G20G30
 127550580.658 7  99390059.282 6  24272074.560                    24272076.640
                                        43.050          41.250



 113917002.156 7  88766509.758 7  21677675.040                    21677672.040
                                        47.800          46.650



 108633228.438 8  84649288.902 8  20672211.220                    20672209.620
                                        50.500          49.650



 117962595.295 7  91918900.032 7  22447526.000                    22447522.800
                                        46.050          43.800



 106615399.759 8  83076963.029 8  20288224.780                    20288222.060
                                        50.900          48.650



 115138766.136 8  89718517.892 7  21910171.660                    21910167.880
                                        48.900          47.150



 122918919.681 7  95780975.69346  23390690.140                    23390686.540
                                        44.950          37.000



 128289721.710 6  99966028.346 7  24412717.100                    24412719.500
                                        40.150          43.900



 23  8  9 15  4  0.0000000  0  8G03G04G06G07G09G11G20G30
 127649475.909 7  99467120.389 6  24290893.860                    24290895.900
                                        43.200          41.750



 113990538.516 8  88823810.769 7  21691668.580                    21691665.600
                                        48.350          46.750



 108667247.878 8  84675797.525 8  20678684.960                    20678683.380
                                        50.550          49.700



 117883359.111 7  91857157.624 7  22432447.740                    22432444.560
                                        46.750          44.100



 106638639.646 8  83095072.022 8  20292647.160                    20292644.480
                                        51.250          48.850



 115081620.689 8  89673989.005 7  21899297.220                    21899293.400
                                        49.100          47.550



 122822714.154 7  95706010.40346  23372382.780                    23372379.180
                                        44.300          36.050



 128181025.198 6  99881329.939 7  24392032.640                    24392035.060
                                        38.000          44.100



 23  8  9 15  4 30.0000000  0  8G03G04G06G07G09G11G20G30
 127748482.556 7  99544268.285 7  24309734.380                    24309736.380
                                        42.950          42.350



 114064336.671 8  88881315.784 7  21705711.960                    21705708.980
                                        48.350          46.800



 108701846.093 8  84702757.147 8  20685268.820                    20685267.260
                                        50.550          49.600



 117804437.012 7  91795659.949 7  22417429.260                    22417426.120
                                        47.050          44.100



 106662302.333 8  83113510.458 8  20297150.040                    20297147.340
                                        51.300          48.900



 115024970.921 8  89629846.344 7  21888517.120                    21888513.300
                                        48.850          47.400



 122726605.525 7  95631120.60146  23354093.860                    23354090.260
                                        44.500          38.300



 128072396.276 6  99796684.194 7  24371361.040                    24371363.500
                                        40.550          42.950



 23  8  9 15  5  0.0000000  0  8G03G04G06G07G09G11G20G30
 127847601.939 7  99621503.996 6  24328596.360                    24328598.360
                                        43.200          41.800



 114138397.040 8  88939025.117 7  21719805.220                    21719802.260
                                        48.400          46.800



 108737024.470 8  84730168.824 8  20691963.100                    20691961.560
                                        50.050          49.300



 117725833.379 7  91734410.403 7  22402471.400                    22402468.300
                                        47.050          44.300



 106686388.919 8  83132279.202 8  20301733.600                    20301730.900
                                        51.250          49.000



 114968821.179 8  89586093.310 7  21877832.160                    21877828.340
                                        48.100          47.550



 122630597.848 7  95556309.47346  23335824.140                    23335820.540
                                        44.500          37.950



 127963839.527 6  99712094.673 7  24350703.220                    24350705.660
                                        41.550          42.400



 23  8  9 15  5 30.0000000  0  8G03G04G06G07G09G11G20G30
 127946834.595 7  99698827.985 6  24347479.880                    24347481.880
                                        43.300          41.550



 114212719.290 8  88996938.526 7  21733948.320                    21733945.360
                                        48.450          46.850



 108772783.509 8  84758032.988 8  20698767.860                    20698766.340
                                        50.050          49.400



 117647551.578 7  91673411.640 7  22387574.820                    22387571.740
                                        47.100          43.800



 106710899.679 8  83151378.479 8  20306397.860                    20306395.140
                                        51.100          48.850



 114913174.981 8  89542732.666 7  21867243.000                    21867239.220
                                        48.800          47.750



 122534694.223 7  95481579.41546  23317574.200                    23317570.620
                                        44.050          37.500



 127855358.839 6  99627564.369 6  24330059.920                    24330062.360
                                        41.600          41.800



 23  8  9 15  6  0.0000000  0  8G03G04G06G07G09G11G20G30
 128046178.437 7  99776238.630 6  24366384.540                    24366386.520
                                        42.950          40.700



 114287300.409 8  89055053.636 7  21748140.700                    21748137.740
                                        48.400          46.900



 108809121.029 8  84786347.906 8  20705682.680                    20705681.200
                                        49.950          49.450



 117569592.520 7  91612664.367 7  22372739.640                    22372736.600
                                        46.750          43.800



 106735832.210 8  83170806.406 8  20311142.400                    20311139.680
                                        51.100          49.000



 114858033.176 8  89499765.049 7  21856749.840                    21856746.080
                                        48.600          47.950



 122438894.617 7  95406930.44246  23299344.040                    23299340.480
                                        44.200          39.200



 127746955.330 7  99543094.157 6  24309431.360                    24309433.800
                                        42.300          41.700



 23  8  9 15  6 30.0000000  0  8G03G04G06G07G09G11G20G30
 128145634.090 7  99853736.402 6  24385310.460                    24385312.420
                                        42.600          41.050



 114362140.157 8  89113370.286 7  21762382.280                    21762379.320
                                        48.400          46.600



 108846037.634 8  84815114.051 8  20712707.700                    20712706.260
                                        49.850          48.900



 117491959.778 7  91552171.375 7  22357966.560                    22357963.540
                                        46.350          43.550



 106761186.905 8  83190563.298 8  20315967.240                    20315964.540
                                        51.050          48.900



 114803399.402 8  89457193.299 7  21846353.340                    21846349.620
                                        48.650          47.600



 122343202.089 7  95332364.90846  23281134.260                    23281130.720
                                        43.700          38.600



 127638632.932 7  99458687.216 6  24288818.180                    24288820.600
                                        42.650          41.700



 23  8  9 15  7  0.0000000  0  8G03G04G06G07G09G11G20G30
 128245198.871 7  99931319.206 6  24404257.140                    24404259.100
                                        42.250          41.900



 114437235.005 8  89171885.699 7  21776672.400                    21776669.460
                                        48.300          46.600



 108883530.557 8  84844329.272 8  20719842.400                    20719840.980
                                        50.000          49.400



 117414653.798 7  91491932.992 7  22343255.640                    22343252.660
                                        47.350          44.200



 106786960.807 8  83210646.842 8  20320871.880                    20320869.160
                                        51.300          48.900



 114749273.906 8  89415017.612 7  21836053.580                    21836049.880
                                        49.150          47.650



 122247616.578 7  95257882.74146  23262944.880                    23262941.380
                                        44.200          38.550



 127530392.270 7  99374343.924 7  24268220.620                    24268223.020
                                        42.700          43.550



 23  8  9 15  7 30.0000000  0  8G03G04G06G07G09G11G20G30
 128344871.736 7 100008986.197 6  24423224.380                    24423226.400
                                        42.300          41.650



 114512582.988 8  89230598.358 7  21791010.700                    21791007.760
                                        48.250          46.800



 108921598.641 8  84873992.669 8  20727086.520                    20727085.140
                                        49.950          49.600



 117337676.341 7  91431950.607 7  22328607.260                    22328604.280
                                        47.850          44.350



 106813152.553 8  83231055.980 8  20325856.000                    20325853.320
                                        51.050          48.950



 114695658.581 8  89373239.462 7  21825850.900                    21825847.200
                                        49.100          47.800



 122152139.575 7  95183485.14046  23244776.120                    23244772.660
                                        44.800          36.950



 127422235.534 7  99290066.052 7  24247639.000                    24247641.400
                                        42.450          43.900



 23  8  9 15  8  0.0000000  0  8G03G04G06G07G09G11G20G30
 128444652.510 7 100086737.329 6  24442212.120                    24442214.180
                                        42.050          40.600



 114588183.106 8  89289507.489 7  21805396.960                    21805394.040
                                        48.300          47.050



 108960241.597 8  84904104.014 8  20734440.080                    20734438.720
                                        49.950          49.450



 117261030.151 8  91372226.372 7  22314021.920                    22314018.940
                                        48.600          44.500



 106839761.762 8  83251790.412 8  20330919.580                    20330916.900
                                        50.900          48.950



 114642556.230 8  89331861.021 8  21815745.860                    21815742.160
                                        49.100          48.100



 122056773.157 7  95109173.67046  23226628.460                    23226625.020
                                        44.600          37.800



 127314165.898 7  99205856.073 7  24227073.960                    24227076.360
                                        43.150          45.250



 23  8  9 15  8 30.0000000  0  8G03G04G06G07G09G11G20G30
 128544541.262 6 100164572.587 6  24461220.420                    24461222.500
                                        41.100          39.500



 114664034.551 8  89348612.456 7  21819831.060                    21819828.140
                                        48.050          47.100



 108999459.307 8  84934663.236 8  20741902.980                    20741901.660
                                        49.950          49.250



 117184718.528 8  91312762.815 7  22299500.280                    22299497.280
                                        48.300          44.300



 106866788.149 8  83272849.910 8  20336062.540                    20336059.880
                                        50.900          48.400



 114589969.797 8  89290884.604 7  21805738.980                    21805735.300
                                        49.050          47.800



 121961520.022 7  95034950.48246  23208502.340                    23208498.900
                                        44.400          38.250



 127206186.683 6  99121716.533 7  24206526.140                    24206528.540
                                        41.950          45.550



 23  8  9 15  9  0.0000000  0  8G03G04G06G07G09G11G20G30
 128644536.434 6 100242490.778 6  24480248.940                    24480251.040
                                        41.950          39.400



 114740134.868 7  89407911.362 7  21834312.480                    21834309.580
                                        47.800          47.500



 109039250.054 8  84965668.989 8  20749474.940                    20749473.620
                                        49.900          49.150



 117108742.378 7  91253560.654 7  22285042.500                    22285039.480
                                        47.900          44.550



 106894229.834 8  83294233.031 8  20341284.520                    20341281.860
                                        50.850          48.350



 114537900.664 8  89250311.258 7  21795830.560                    21795826.900
                                        48.550          47.750



 121866381.136 7  94960816.34746  23190397.940                    23190394.460
                                        45.000          38.500



 127098299.651 7  99037648.833 7  24185995.860                    24185998.240
                                        42.450          45.550



 23  8  9 15  9 30.0000000  0  8G03G04G06G07G09G11G20G30
 128744635.679 6 100320490.064 6  24499297.280                    24499299.380
                                        41.250          40.150



 114816480.928 7  89467401.742 7  21848840.700                    21848837.820
                                        47.900          47.650



 109079611.404 8  84997119.350 8  20757155.480                    20757154.200
                                        49.600          49.150



 117033102.733 7  91194620.713 7  22270648.760                    22270645.720
                                        47.850          44.800



 106922084.283 8  83315937.795 8  20346585.040                    20346582.360
                                        51.100          48.350



 114486349.397 8  89210141.466 7  21786020.680                    21786017.000
                                        48.450          47.600



 121771356.510 7  94886771.22346  23172315.300                    23172311.800
                                        45.400          38.600



 126990505.767 7  98953653.711 7  24165483.320                    24165485.700
                                        42.800          45.350



 23  8  9 15 10  0.0000000  0  8G03G04G06G07G09G11G20G30
 128844840.225 6 100398571.365 6  24518365.680                    24518367.800
                                        40.750          40.850



 114893073.033 8  89527083.849 7  21863415.720                    21863412.880
                                        48.000          47.600



 109120544.236 8  85029015.021 8  20764944.760                    20764943.500
                                        49.500          49.050



 116957803.322 7  91135945.900 7  22256319.760                    22256316.680
                                        47.600          44.600



 106950352.301 8  83337964.818 8  20351964.280                    20351961.580
                                        50.950          48.300



 114435320.020 8  89170378.340 7  21776310.080                    21776306.420
                                        48.350          47.050



 121676449.792 7  94812817.98946  23154255.100                    23154251.560
                                        45.300          38.050



 126882809.454 7  98869734.609 7  24144989.340                    24144991.700
                                        42.900          44.850



 23  8  9 15 10 30.0000000  0  8G03G04G06G07G09G11G20G30
 128945150.260 6 100476734.877 6  24537454.140                    24537456.320
                                        40.500          39.200



 114969910.585 7  89586957.211 7  21878037.460                    21878034.640
                                        47.900          47.250



 109162048.617 8  85061356.045 8  20772842.820                    20772841.560
                                        49.450          48.550



 116882847.650 7  91077538.939 7  22242056.160                    22242053.080
                                        47.600          44.650



 106979033.817 8  83360314.041 8  20357422.200                    20357419.480
                                        50.850          48.050



 114384815.672 8  89131024.304 7  21766699.400                    21766695.760
                                        48.100          46.600



 121581664.050 7  94738959.02746  23136217.940                    23136214.340
                                        45.350          37.500



 126775214.340 7  98785894.376 7  24124514.580                    24124516.960
                                        43.000          43.900



 23  8  9 15 11  0.0000000  0  8G03G04G06G07G09G11G20G30
 129045559.789 6 100554975.941 6  24556561.500                    24556563.720
                                        40.700          39.100



 115046986.721 7  89647016.478 7  21892704.600                    21892701.820
                                        47.900          47.300



 109204118.211 8  85094137.520 8  20780848.400                    20780847.160
                                        49.600          48.700



 116808232.479 8  91019397.282 7  22227857.340                    22227854.260
                                        48.400          44.600



 107008122.527 8  83382980.558 8  20362957.600                    20362954.860
                                        50.950          48.300



 114334833.164 8  89092076.895 7  21757188.040                    21757184.380
                                        48.600          47.100



 121486995.661 7  94665191.48746  23118203.100                    23118199.480
                                        44.650          36.800



 126667717.670 7  98702130.834 7  24104058.560                    24104060.940
                                        42.700          44.550



 23  8  9 15 11 30.0000000  0  8G03G04G06G07G09G11G20G30
 129146072.187 6 100633297.143 6  24575688.460                    24575690.700
                                        39.950          40.400



 115124303.971 7  89707263.623 7  21907417.640                    21907414.880
                                        47.700          47.000



 109246756.139 8  85127361.843 8  20788962.140                    20788960.900
                                        48.900          48.800



 116733963.945 7  90961525.740 7  22213724.500                    22213721.420
                                        47.950          44.300



 107037621.443 8  83405966.709 8  20368571.080                    20368568.320
                                        50.800          48.300



 114285378.695 8  89053540.945 7  21747777.160                    21747773.500
                                        48.350          47.200



 121392450.192 7  94591519.75746  23100211.640                    23100208.000
                                        45.000          38.850



 126560326.078 7  98618449.172 7  24083622.540                    24083624.920
                                        42.550          44.300



 23  8  9 15 12  0.0000000  0  8G03G04G06G07G09G11G20G30
 129246684.408 6 100711696.131 6  24594834.420                    24594836.660
                                        38.900          41.650



 115201858.502 7  89767695.669 7  21922175.800                    21922173.080
                                        47.750          47.050



 109289959.107 8  85161026.473 8  20797183.360                    20797182.160
                                        48.950          49.000



 116660042.050 8  90903924.313 7  22199657.600                    22199654.500
                                        48.100          44.350



 107067527.243 8  83429269.920 8  20374261.980                    20374259.200
                                        50.850          48.400



 114236452.108 8  89015416.332 7  21738466.720                    21738463.060
                                        48.750          47.600



 121298027.722 7  94517943.84246  23082243.620                    23082239.980
                                        45.350          37.850



 126453039.863 7  98534849.659 7  24063206.540                    24063208.900
                                        42.650          44.600



 23  8  9 15 12 30.0000000  0  8G03G04G06G07G09G11G20G30
 129347398.245 6 100790174.294 6  24613999.700                    24614002.020
                                        39.050          41.900



 115279651.275 8  89828313.353 7  21936979.320                    21936976.640
                                        48.050          47.100



 109333728.608 8  85195132.539 8  20805512.420                    20805511.260
                                        49.400          49.100



 116586471.498 8  90846596.655 7  22185657.560                    22185654.440
                                        48.450          44.350



 107097841.427 8  83452891.342 8  20380030.580                    20380027.800
                                        50.900          48.600



 114188057.981 8  88977706.625 7  21729257.620                    21729253.980
                                        49.000          47.700



 121203732.083 7  94444466.78646  23064299.700                    23064296.080
                                        44.900          37.850



 126345864.208 7  98451336.285 7  24042811.600                    24042813.940
                                        43.050          44.750



 23  8  9 15 13  0.0000000  0  8G03G04G06G07G09G11G20G30
 129448210.478 6 100868729.111 7  24633183.700                    24633186.140
                                        39.400          42.600



 115357678.267 8  89889113.560 7  21951827.400                    21951824.740
                                        48.050          47.100



 109378061.067 8  85229677.281 8  20813948.600                    20813947.480
                                        49.450          48.900



 116513251.770 8  90789542.360 7  22171724.300                    22171721.140
                                        48.350          44.000



 107128560.381 8  83476828.179 8  20385876.220                    20385873.440
                                        50.900          48.800



 114140195.901 8  88940411.508 7  21720149.760                    21720146.120
                                        49.100          47.200



 121109562.870 7  94371088.21146  23046379.860                    23046376.260
                                        45.250          37.250



 126238799.145 7  98367909.110 7  24022437.700                    24022440.000
                                        42.850          45.100



 23  8  9 15 13 30.0000000  0  8G03G04G06G07G09G11G20G30
 129549120.118 6 100947359.866 7  24652386.240                    24652388.760
                                        41.400          42.550



 115435937.590 7  89950094.789 7  21966719.720                    21966717.060
                                        47.850          47.050



 109422955.090 8  85264659.598 8  20822491.660                    20822490.580
                                        49.350          49.000



 116440384.812 8  90732762.958 7  22157858.160                    22157854.940
                                        48.600          44.550



 107159682.793 8  83501079.386 8  20391798.620                    20391795.860
                                        51.000          49.200



 114092867.623 8  88903532.342 7  21711143.500                    21711139.820
                                        48.950          47.150



 121015521.761 7  94297809.46946  23028484.380                    23028480.820
                                        44.900          38.300



 126131846.913 7  98284569.861 7  24002085.240                    24002087.520
                                        42.350          44.600



 23  8  9 15 14  0.0000000  0  8G03G04G06G07G09G11G20G30
 129650125.899 6 101026065.503 6  24671607.120                    24671609.720
                                        40.250          41.800



 115514427.297 7  90011255.542 7  21981655.860                    21981653.220
                                        47.550          47.000



 109468409.152 8  85300078.323 8  20831141.280                    20831140.240
                                        49.300          49.100



 116367872.399 8  90676259.834 7  22144059.460                    22144056.220
                                        48.350          44.300



 107191207.099 8  83525643.764 8  20397797.520                    20397794.780
                                        51.000          49.400



 114046074.732 8  88867070.370 7  21702239.120                    21702235.380
                                        48.650          47.300



 120921609.971 7  94224631.50046  23010613.520                    23010609.960
                                        44.600          37.250



 126025009.688 7  98201320.240 7  23981754.660                    23981756.900
                                        42.400          44.250



 23  8  9 15 14 30.0000000  0  8G03G04G06G07G09G11G20G30
 129751229.620 6 101104847.448 7  24690846.680                    24690849.320
                                        40.050          42.400



 115593148.314 7  90072596.545 7  21996636.000                    21996633.400
                                        47.300          46.550



 109514424.545 8  85335934.447 8  20839897.720                    20839896.700
                                        49.550          48.850



 116295719.043 8  90620036.470 7  22130329.120                    22130325.840
                                        48.300          44.350



 107223134.742 8  83550522.429 8  20403873.160                    20403870.480
                                        50.850          49.150



 113999821.762 8  88831029.081 7  21693437.480                    21693433.700
                                        48.200          47.350



 120827831.795 7  94151557.63646  22992768.060                    22992764.540
                                        45.300          38.450



 125918292.506 7  98118164.173 7  23961446.880                    23961449.100
                                        42.250          43.900



 23  8  9 15 15  0.0000000  0  8G03G04G06G07G09G11G20G30
 129852427.580 6 101183702.846 6  24710104.140                    24710106.820
                                        39.400          41.600



 115672096.141 7  90134114.281 7  22011659.300                    22011656.720
                                        47.300          46.650



 109560997.212 8  85372224.792 8  20848760.220                    20848759.240
                                        49.450          48.750



 116223923.834 8  90564092.193 7  22116666.940                    22116663.620
                                        48.700          44.200



 107255461.665 8  83575712.219 8  20410024.800                    20410022.140
                                        50.750          49.050



 113954107.678 8  88795407.722 7  21684738.380                    21684734.580
                                        48.100          47.700



 120734185.949 7  94078586.91246  22974947.780                    22974944.280
                                        45.350          39.100



 125811694.918 7  98035101.308 7  23941161.860                    23941164.040
                                        43.200          43.650



 23  8  9 15 15 30.0000000  0  8G03G04G06G07G09G11G20G30
 129953719.251 6 101262631.270 6  24729379.440                    24729382.160
                                        40.050          41.550



 115751269.475 7  90195807.737 7  22026725.500                    22026722.960
                                        47.500          46.650



 109608126.226 8  85408948.647 8  20857728.600                    20857727.640
                                        49.300          48.400



 116152488.927 8  90508428.671 7  22103073.300                    22103069.960
                                        48.700          44.000



 107288187.031 8  83601212.491 8  20416252.220                    20416249.620
                                        50.850          48.850



 113908934.739 8  88760208.056 7  21676142.220                    21676138.420
                                        48.650          47.500



 120640674.842 7  94005721.16046  22957153.160                    22957149.680
                                        46.050          38.300



 125705219.831 7  97952133.852 7  23920900.220                    23920902.320
                                        43.650          43.700



 23  8  9 15 16  0.0000000  0  8G03G04G06G07G09G11G20G30
 130055106.542 6 101341634.189 6  24748672.900                    24748675.700
                                        37.300          41.050



 115830669.503 7  90257677.832 7  22041834.840                    22041832.340
                                        46.950          46.500



 109655812.995 8  85446107.130 8  20866803.120                    20866802.140
                                        49.150          48.550



 116081419.322 8  90453049.792 7  22089549.180                    22089545.820
                                        48.600          44.200



 107321312.384 8  83627024.448 8  20422555.780                    20422553.200
                                        50.600          48.550



 113864307.630 8  88725433.702 7  21667649.920                    21667646.140
                                        48.400          47.550



 120547302.699 7  93932963.69746  22939385.000                    22939381.520
                                        45.400          39.900



 125598872.440 7  97869265.916 7  23900662.860                    23900664.900
                                        43.750          43.850



 23  8  9 15 16 30.0000000  0  8G03G04G06G07G09G11G20G30
 130156587.756 6 101420710.279 6  24767984.200                    24767987.120
                                        37.700          40.000



 115910293.701 7  90319722.596 7  22056986.840                    22056984.380
                                        47.500          46.150



 109704055.421 8  85483698.586 8  20875983.380                    20875982.400
                                        49.250          48.550



 116010716.333 8  90397956.555 7  22076094.880                    22076091.460
                                        49.200          43.850



 107354835.671 8  83653146.470 8  20428935.040                    20428932.500
                                        50.850          48.200



 113820227.328 8  88691085.421 7  21659261.700                    21659257.940
                                        48.900          47.250



 120454070.692 7  93860315.43546  22921643.500                    22921640.040
                                        46.750          37.050



 125492654.326 7  97786498.730 7  23880450.120                    23880452.020
                                        44.250          44.000



 23  8  9 15 17  0.0000000  0  8G03G04G06G07G09G11G20G30
 130258158.096 6 101499855.851 6  24787312.400                    24787315.440
                                        40.500          41.000



 115990136.513 7  90381937.717 7  22072180.440                    22072178.020
                                        47.800          46.300



 109752848.181 8  85521718.869 8  20885268.360                    20885267.380
                                        49.300          48.700



 115940377.287 8  90343146.917 7  22062709.820                    22062706.360
                                        49.250          44.500



 107388751.778 8  83679574.590 8  20435389.060                    20435386.540
                                        50.950          48.300



 113776691.692 8  88657161.553 7  21650977.120                    21650973.380
                                        48.900          47.100



 120360976.506 7  93787774.53246  22903928.280                    22903924.820
                                        45.900          38.800



 125386564.010 7  97703831.136 7  23860261.700                    23860263.480
                                        43.500          44.300



 23  8  9 15 17 30.0000000  0  8G03G04G06G07G09G11G20G30
 130359817.411 6 101579070.759 7  24806657.580                    24806660.680
                                        40.850          42.300



 116070197.044 7  90444322.493 7  22087415.480                    22087413.100
                                        47.750          46.250



 109802190.673 8  85560167.531 8  20894657.940                    20894656.980
                                        49.250          48.500



 115870405.310 8  90288623.333 7  22049394.600                    22049391.100
                                        49.300          45.200



 107423060.241 8  83706308.444 8  20441917.740                    20441915.220
                                        51.050          48.350



 113733703.287 8  88623664.105 7  21642796.680                    21642792.940
                                        48.650          47.350



 120268022.922 7  93715343.21446  22886239.800                    22886236.300
                                        46.550          38.650



 125280604.699 7  97621265.629 7  23840098.180                    23840099.860
                                        42.950          44.200



 23  8  9 15 18  0.0000000  0  7G04G06G07G09G11G20G30
 116150473.000 7  90506875.114 7  22102691.520                    22102689.200
                                        47.850          46.600



 109852080.758 8  85599042.896 8  20904151.740                    20904150.740
                                        49.300          48.050



 115800801.645 8  90234386.756 7  22036149.460                    22036145.900
                                        48.900          45.200



 107457759.080 8  83733346.475 8  20448520.720                    20448518.200
                                        51.100          48.600



 113691263.177 8  88590593.891 7  21634720.580                    21634716.840
                                        48.650          47.350



 120175210.871 7  93643022.17146  22868578.280                    22868574.720
                                        46.000          38.150



 125174778.185 7  97538803.566 7  23819959.940                    23819961.560
                                        44.150          43.350



 23  8  9 15 18 30.0000000  0  7G04G06G07G09G11G20G30
 116230968.635 7  90569598.924 7  22118009.380                    22118007.080
                                        47.900          46.250



 109902522.990 8  85638348.469 8  20913750.620                    20913749.600
                                        49.200          48.200



 115731574.151 8  90180443.277 7  22022975.900                    22022972.320
                                        48.550          45.350



 107492853.032 8  83760692.387 8  20455198.900                    20455196.380
                                        51.100          48.400



 113649379.067 8  88557956.939 7  21626750.260                    21626746.520
                                        48.550          46.900



 120082547.866 7  93570817.28346  22850945.080                    22850941.480
                                        46.050          37.700



 125069092.863 7  97456451.480 7  23799848.600                    23799850.180
                                        44.550          42.600



 23  8  9 15 19  0.0000000  0  7G04G06G07G09G11G20G30
 116311677.490 7  90632488.888 7  22133367.800                    22133365.520
                                        47.600          45.950



 109953511.043 8  85678079.375 8  20923453.360                    20923452.300
                                        49.200          48.250



 115662719.681 8  90126790.478 7  22009873.320                    22009869.720
                                        48.800          45.050



 107528335.959 8  83788341.407 8  20461951.100                    20461948.560
                                        51.250          48.600



 113608047.835 8  88525750.798 7  21618885.160                    21618881.400
                                        49.000          47.250



 119990031.041 7  93498726.29346  22833339.720                    22833336.080
                                        46.500          38.000



 124963546.272 7  97374207.491 7  23779763.680                    23779765.160
                                        45.600          42.800



 23  8  9 15 19 30.0000000  0  7G04G06G07G09G11G20G30
 116392600.031 7  90695545.344 7  22148766.920                    22148764.660
                                        47.500          45.600



 110005045.513 8  85718236.062 8  20933260.080                    20933258.960
                                        48.950          48.000



 115594242.192 8  90073431.434 7  21996842.440                    21996838.840
                                        48.650          45.000



 107564208.689 8  83816294.169 8  20468777.460                    20468774.920
                                        51.100          48.700



 113567273.269 8  88493978.423 7  21611125.980                    21611122.220
                                        49.250          47.200



 119897664.202 7  93426752.17246  22815762.900                    22815759.220
                                        46.200          38.500



 124858142.912 7  97292075.083 7  23759706.080                    23759707.440
                                        46.050          43.200



 23  8  9 15 20  0.0000000  0  7G04G06G07G09G11G20G30
 116473735.863 7  90758768.021 7  22164206.600                    22164204.340
                                        47.100          45.600



 110057126.215 8  85758818.394 8  20943170.700                    20943169.580
                                        48.850          48.350



 115526144.970 8  90020368.701 7  21983883.940                    21983880.340
                                        48.350          44.750



 107600471.308 8  83844550.733 8  20475678.040                    20475675.480
                                        50.750          48.900



 113527058.398 8  88462642.156 7  21603473.360                    21603469.560
                                        48.700          47.400



 119805450.409 7  93354897.28246  22798215.200                    22798211.500
                                        45.800          38.450



 124752886.562 7  97210057.246 7  23739676.420                    23739677.680
                                        44.050          44.300



 23  8  9 15 20 30.0000000  0  7G04G06G07G09G11G20G30
 116555081.540 7  90822154.196 7  22179686.240                    22179683.980
                                        47.500          45.350



 110109749.761 8  85799823.708 8  20953184.640                    20953183.540
                                        48.600          48.550



 115458427.899 8  89967602.190 7  21970997.780                    21970994.160
                                        48.750          44.900



 107637120.600 8  83873108.599 8  20482652.180                    20482649.640
                                        50.800          49.200



 113487402.954 8  88431741.804 7  21595927.180                    21595923.380
                                        48.800          47.600



 119713389.476 7  93283161.51346  22780696.580                    22780692.880
                                        46.250          39.400



 124647777.683 7  97128154.334 7  23719674.820                    23719676.000
                                        42.950          45.200



 23  8  9 15 21  0.0000000  0  7G04G06G07G09G11G20G30
 116636635.428 7  90885702.626 7  22195205.500                    22195203.240
                                        47.250          45.650



 110162914.611 8  85841250.823 8  20963301.560                    20963300.480
                                        48.600          48.600



 115391093.025 8  89915133.499 7  21958184.340                    21958180.700
                                        48.600          44.900



 107674155.347 8  83901966.827 8  20489699.660                    20489697.180
                                        50.800          49.150



 113448308.654 8  88401278.727 7  21588487.780                    21588483.960
                                        48.400          47.050



 119621483.283 7  93211546.33346  22763207.400                    22763203.700
                                        46.550          39.250



 124542818.823 7  97046368.328 7  23699701.720                    23699702.860
                                        43.100          45.800



 23  8  9 15 21 30.0000000  0  7G04G06G07G09G11G20G30
 116718395.958 7  90949412.066 7  22210764.080                    22210761.820
                                        47.400          45.750



 110216619.247 8  85883098.526 8  20973521.220                    20973520.200
                                        48.800          48.400



 115324142.315 8  89862964.150 7  21945444.000                    21945440.360
                                        48.300          44.300



 107711574.277 8  83931124.407 8  20496820.240                    20496817.820
                                        50.900          48.800



 113409777.107 8  88371254.164 7  21581155.440                    21581151.620
                                        48.450          47.150



 119529733.627 7  93140053.13146  22745748.000                    22745744.300
                                        46.550          38.800



 124438012.385 7  96964701.091 7  23679757.580                    23679758.740
                                        43.250          45.950



 23  8  9 15 22  0.0000000  0  7G04G06G07G09G11G20G30
 116800361.686 7  91013281.414 7  22226361.680                    22226359.440
                                        47.200          46.000



 110270862.278 8  85925365.767 8  20983843.340                    20983842.340
                                        49.000          48.500



 115257576.954 8  89811095.058 7  21932777.000                    21932773.360
                                        48.300          44.000



 107749376.288 8  83960580.499 8  20504013.740                    20504011.340
                                        51.250          48.100



 113371810.133 8  88341669.511 7  21573930.540                    21573926.720
                                        48.550          47.500



 119438142.686 7  93068683.58946  22728318.800                    22728315.100
                                        45.750          39.650



 124333360.994 7  96883154.686 7  23659842.940                    23659844.100
                                        44.100          45.650



 23  8  9 15 22 30.0000000  0  7G04G06G07G09G11G20G30
 116882529.355 7  91077308.115 7  22241997.720                    22241995.520
                                        46.700          46.600



 110325640.458 8  85968050.018 8  20994267.280                    20994266.320
                                        48.850          48.600



 115191397.592 8  89759526.754 7  21920183.440                    21920179.800
                                        48.750          44.300



 107787558.513 8  83990332.859 8  20511279.580                    20511277.180
                                        51.000          48.000



 113334407.739 8  88312524.786 7  21566813.080                    21566809.260
                                        48.750          47.900



 119346710.563 7  92997437.82046  22710919.820                    22710916.100
                                        45.700          40.100



 124228865.494 7  96801729.739 7  23639957.980                    23639959.160
                                        44.400          45.550



 23  8  9 15 23  0.0000000  0  7G04G06G07G09G11G20G30
 116964897.388 7  91141490.931 7  22257671.880                    22257669.740
                                        47.000          46.700



 110380952.157 8  86011150.005 8  21004792.780                    21004791.820
                                        49.050          48.200



 115125605.811 8  89708260.475 7  21907663.620                    21907659.980
                                        48.950          44.250



 107826119.648 8  84020380.472 7  20518617.560                    20518615.120
                                        51.100          47.900



 113297571.498 8  88283821.214 7  21559803.380                    21559799.580
                                        49.150          47.650



 119255438.934 7  92926317.09546  22693551.380                    22693547.660
                                        45.950          39.350



 124124528.216 7  96720428.039 7  23620103.180                    23620104.360
                                        44.100          44.550



 23  8  9 15 23 30.0000000  0  7G04G06G07G09G11G20G30
 117047466.003 7  91205830.046 7  22273384.180                    22273382.120
                                        47.300          46.800



 110436797.590 8  86054665.873 8  21015419.840                    21015418.900
                                        49.100          48.200



 115060205.642 8  89657299.336 7  21895218.340                    21895214.680
                                        49.200          44.250



 107865060.194 8  84050723.746 8  20526027.720                    20526025.220
                                        51.250          48.000



 113261304.785 8  88255561.445 7  21552902.080                    21552898.240
                                        48.850          47.600



 119164331.712 7  92855324.49546  22676214.220                    22676210.480
                                        45.900          39.950



 124020353.391 7  96639252.943 7  23600279.280                    23600280.440
                                        44.300          44.050



 23  8  9 15 24  0.0000000  0  7G04G06G07G09G11G20G30
 117130230.988 7  91270322.195 7  22289133.860                    22289131.880
                                        46.900          46.750



 110493172.502 8  86098594.314 8  21026147.700                    21026146.740
                                        48.900          48.400



 114995195.924 8  89606642.428 7  21882847.380                    21882843.720
                                        48.850          44.800



 107904376.278 8  84081359.635 8  20533509.340                    20533506.820
                                        51.050          48.550



 113225606.494 8  88227744.601 7  21546108.920                    21546105.080
                                        48.300          47.650



 119073387.808 7  92784459.16246  22658908.120                    22658904.360
                                        46.300          39.250



 123916340.884 7  96558204.320 7  23580486.300                    23580487.400
                                        44.150          43.400



 23  8  9 15 24 30.0000000  0  7G04G06G07G09G11G20G30
 117213191.442 7  91334966.653 7  22304920.740                    22304918.820
                                        46.900          46.600



 110550075.847 8  86142934.538 8  21036976.100                    21036975.120
                                        49.250          48.250



 114930578.930 8  89556291.538 7  21870551.160                    21870547.480
                                        48.800          45.100



 107944067.264 8  84112287.666 8  20541062.320                    20541059.760
                                        51.250          48.550



 113190478.860 8  88200372.425 8  21539424.360                    21539420.500
                                        48.300          48.250



 118982609.784 7  92713723.05646  22641633.620                    22641629.840
                                        46.900          39.350



 123812493.789 7  96477284.582 7  23560724.800                    23560725.840
                                        44.900          43.950



 23  8  9 15 25  0.0000000  0  7G04G06G07G09G11G20G30
 117296346.766 7  91399762.964 7  22320744.700                    22320742.840
                                        46.550          46.550



 110607506.950 8  86187685.995 8  21047904.940                    21047903.940
                                        49.700          48.000



 114866358.038 8  89506249.335 7  21858330.300                    21858326.600
                                        48.600          45.350



 107984132.866 8  84143507.597 8  20548686.580                    20548684.000
                                        51.000          48.700



 113155924.363 8  88173446.843 8  21532848.840                    21532845.020
                                        48.350          48.050



 118892000.487 7  92643118.44446  22624391.220                    22624387.380
                                        46.050          40.300



 123708815.531 7  96396496.387 7  23540995.480                    23540996.420
                                        45.950          44.150



 23  8  9 15 25 30.0000000  0  7G04G06G07G09G11G20G30
 117379695.691 7  91464710.113 7  22336605.500                    22336603.720
                                        46.650          46.250



 110665464.384 8  86232847.585 8  21058933.940                    21058932.900
                                        49.400          48.250



 114802534.747 8  89456516.948 7  21846185.080                    21846181.380
                                        48.800          44.900



 108024572.040 8  84175018.621 8  20556381.940                    20556379.360
                                        51.000          48.700



 113121944.773 8  88146969.239 7  21526382.740                    21526378.960
                                        48.400          47.850



 118801561.994 7  92572646.90346  22607181.360                    22607177.440
                                        46.650          39.350



 123605308.850 7  96315841.932 7  23521298.780                    23521299.640
                                        46.150          45.200



 23  8  9 15 26  0.0000000  0  7G04G06G07G09G11G20G30
 117463235.465 7  91529805.996 7  22352502.600                    22352500.880
                                        46.400          45.950



 110723945.259 8  86278417.061 8  21070062.560                    21070061.480
                                        49.450          48.400



 114739109.666 8  89407094.856 7  21834115.640                    21834111.940
                                        48.550          45.250



 108065382.359 8  84206818.855 8  20564147.900                    20564145.320
                                        50.850          48.750



 113088540.434 8  88120939.897 8  21520026.080                    21520022.320
                                        48.700          48.000



 118711295.204 7  92502309.17746  22590004.140                    22590000.160
                                        46.250          38.600



 123501974.934 7  96235322.079 7  23501635.000                    23501635.760
                                        46.500          45.650



 23  8  9 15 26 30.0000000  0  7G04G06G07G09G11G20G30
 117546967.966 7  91595052.037 7  22368436.380                    22368434.720
                                        46.550          45.850



 110782951.293 8  86324395.728 8  21081291.120                    21081290.000
                                        49.600          48.350



 114676087.910 8  89357987.029 7  21822122.960                    21822119.260
                                        48.550          44.800



 108106565.946 8  84238909.952 8  20571984.880                    20571982.320
                                        51.050          48.850



 113055716.205 8  88095362.595 8  21513779.800                    21513776.080
                                        49.100          48.200



 118621205.227 7  92432109.22046  22572860.580                    22572856.540
                                        45.850          39.650



 123398819.725 7  96154941.496 7  23482005.220                    23482005.880
                                        46.350          45.950



 23  8  9 15 27  0.0000000  0  7G04G06G07G09G11G20G30
 117630888.893 7  91660444.910 7  22384406.020                    22384404.400
                                        46.550          45.950



 110842477.975 8  86370780.111 8  21092618.740                    21092617.600
                                        49.050          48.400



 114613468.161 8  89309192.466 7  21810206.760                    21810203.060
                                        48.550          45.450



 108148118.723 8  84271288.723 8  20579892.120                    20579889.600
                                        50.800          48.900



 113023470.766 8  88070236.279 8  21507643.700                    21507640.000
                                        49.000          48.050



 118531291.578 7  92362046.66546  22555750.540                    22555746.500
                                        46.100          39.400



 123295842.807 7  96074699.852 7  23462409.360                    23462409.920
                                        45.700          46.350



 23  8  9 15 27 30.0000000  0  7G04G06G07G09G11G20G30
 117714996.997 7  91725983.635 7  22400411.260                    22400409.720
                                        46.750          45.700



 110902523.803 8  86417569.002 8  21104045.140                    21104044.020
                                        49.150          48.200



 114551252.987 8  89260713.184 7  21798367.540                    21798363.840
                                        48.700          45.850



 108190039.759 8  84303954.447 8  20587869.420                    20587866.940
                                        50.750          48.800



 112991805.846 8  88045562.325 7  21501618.060                    21501614.380
                                        48.800          47.500



 118441556.031 7  92292122.91546  22538674.380                    22538670.340
                                        46.100          39.900



 123193046.911 7  95994599.256 7  23442847.920                    23442848.420
                                        44.800          45.700



 23  8  9 15 28  0.0000000  0  7G04G06G07G09G11G20G30
 117799290.832 7  91791667.083 7  22416451.880                    22416450.340
                                        47.150          46.050



 110963087.077 8  86464761.104 8  21115570.020                    21115568.880
                                        49.350          48.400



 114489443.993 8  89212550.384 7  21786605.620                    21786601.940
                                        48.850          45.450



 108232327.752 8  84336906.119 8  20595916.540                    20595914.120
                                        50.800          48.850



 112960722.760 8  88021341.739 7  21495703.120                    21495699.480
                                        48.450          47.400



 118352000.609 7  92222339.51746  22521632.480                    22521628.460
                                        46.850          39.650



 123090434.527 7  95914641.653 7  23423321.400                    23423321.820
                                        44.600          44.550



 23  8  9 15 28 30.0000000  0  7G04G06G07G09G11G20G30
 117883764.574 7  91857490.723 7  22432526.720                    22432525.180
                                        47.150          46.000



 111024161.707 8  86512351.669 8  21127192.200                    21127191.060
                                        49.300          48.450



 114428038.217 8  89164701.775 7  21774920.440                    21774916.780
                                        48.850          44.850



 108274977.197 8  84370139.439 8  20604032.460                    20604030.060
                                        50.700          48.750



 112930218.971 8  87997572.559 7  21489898.440                    21489894.780
                                        48.350          47.250



 118262623.119 7  92152694.75446  22504624.480                    22504620.480
                                        46.600          40.100



 122988003.912 7  95834825.660 7  23403829.460                    23403829.840
                                        44.950          44.500



 23  8  9 15 29  0.0000000  0  7G04G06G07G09G11G20G30
 117968422.990 7  91923458.265 7  22448636.740                    22448635.180
                                        47.600          46.050



 111085752.162 8  86560344.191 8  21138912.520                    21138911.360
                                        48.850          48.250



 114367043.725 8  89117173.638 7  21763313.540                    21763309.880
                                        48.850          45.050



 108317993.034 8  84403658.264 8  20612218.080                    20612215.740
                                        50.800          48.650



 112900301.878 8  87974260.547 7  21484205.360                    21484201.720
                                        48.650          47.450



 118173431.454 7  92083194.81146  22487651.820                    22487647.840
                                        46.900          40.800



 122885763.626 7  95755157.985 7  23384373.720                    23384374.060
                                        45.300          43.950



 23  8  9 15 29 30.0000000  0  7G04G06G07G09G11G20G30
 118053261.420 7  91989566.061 7  22464781.020                    22464779.420
                                        47.400          46.100



 111147853.489 8  86608734.772 8  21150730.060                    21150728.920
                                        48.250          48.350



 114306459.335 8  89069965.062 7  21751784.680                    21751781.000
                                        48.800          44.900



 108361370.839 8  84437459.131 8  20620472.600                    20620470.280
                                        50.850          48.300



 112870969.758 8  87951404.353 7  21478623.640                    21478619.980
                                        48.550          46.650



 118084424.658 7  92013838.89346  22470714.360                    22470710.420
                                        46.800          40.050



 122783713.076 7  95675638.119 7  23364954.100                    23364954.420
                                        46.000          43.650



 23  8  9 15 30  0.0000000  0  7G04G06G07G09G11G20G30
 118138278.301 7  92055812.907 7  22480959.280                    22480957.640
                                        47.050          45.800



 111210463.728 8  86657521.906 8  21162644.440                    21162643.320
                                        48.100          48.200



 114246286.202 8  89023076.951 7  21740334.080                    21740330.400
                                        49.100          44.600



 108405109.217 8  84471540.957 8  20628795.740                    20628793.460
                                        51.050          48.550



 112842223.778 8  87929004.901 7  21473153.420                    21473149.760
                                        48.450          46.250



 117995604.543 7  91944628.46446  22453812.420                    22453808.500
                                        46.650          39.550



 122681854.518 7  95596267.884 7  23345571.020                    23345571.260
                                        46.100          44.250



 23  8  9 15 30 30.0000000  0  7G04G06G07G09G11G20G30
 118223476.454 7  92122201.021 7  22497172.000                    22497170.320
                                        46.900          46.100



 111273585.344 8  86706707.521 8  21174656.120                    21174655.040
                                        48.300          48.200



 114186530.485 8  88976514.091 7  21728962.940                    21728959.200
                                        49.000          44.550



 108449211.248 8  84505906.158 8  20637188.080                    20637185.820
                                        51.000          48.800



 112814069.634 8  87907066.613 7  21467795.840                    21467792.140
                                        48.400          47.100



 117906977.290 7  91875568.31246  22436947.160                    22436943.280
                                        45.900          39.750



 122580194.756 7  95517052.573 7  23326225.760                    23326225.940
                                        45.600          44.950



 23  8  9 15 31  0.0000000  0  7G04G06G07G09G11G20G30
 118308852.688 7  92188727.872 7  22513418.640                    22513416.940
                                        46.750          46.300



 111337214.777 8  86756288.836 7  21186764.440                    21186763.380
                                        48.200          47.900



 114127192.109 8  88930276.435 7  21717671.200                    21717667.440
                                        48.850          44.750



 108493673.877 8  84540552.338 8  20645649.060                    20645646.800
                                        50.900          48.900



 112786506.881 8  87885589.139 7  21462550.820                    21462547.100
                                        49.250          47.300



 117818543.101 7  91806658.59246  22420118.640                    22420114.800
                                        45.800          40.300



 122478734.499 7  95437992.708 7  23306918.480                    23306918.580
                                        45.100          44.950



 23  8  9 15 31 30.0000000  0  7G04G06G07G09G11G20G30
 118394400.795 7  92255388.663 7  22529697.960                    22529696.240
                                        46.400          46.100



 111401345.361 8  86806260.667 8  21198968.100                    21198967.060
                                        48.450          48.350



 114068267.850 8  88884361.484 7  21706458.240                    21706454.460
                                        48.900          44.500



 108538491.100 8  84575474.829 8  20654177.540                    20654175.280
                                        50.800          48.900



 112759532.093 8  87864569.813 7  21457417.700                    21457413.960
                                        49.000          47.550



 117730299.290 7  91737897.23846  22403326.320                    22403322.520
                                        46.050          40.100



 122377471.437 7  95359086.501 7  23287648.700                    23287648.760
                                        44.600          44.900



 23  8  9 15 32  0.0000000  0  7G04G06G07G09G11G20G30
 118480121.020 7  92322183.582 7  22546010.020                    22546008.280
                                        46.200          45.900



 111465976.972 8  86856622.909 8  21211267.120                    21211266.120
                                        48.450          48.350



 114009761.105 8  88838771.846 7  21695324.740                    21695320.940
                                        49.150          44.200



 108583663.385 8  84610673.996 8  20662773.560                    20662771.300
                                        50.800          48.600



 112733148.218 8  87844010.943 7  21452397.040                    21452393.280
                                        49.000          47.200



 117642249.738 7  91669287.23446  22386570.980                    22386567.200
                                        46.600          40.700



 122276409.724 7  95280337.225 7  23268417.220                    23268417.240
                                        45.050          44.500



 23  8  9 15 32 30.0000000  0  7G04G06G07G09G11G20G30
 118566010.668 7  92389110.511 7  22562354.340                    22562352.580
                                        46.400          45.400



 111531106.397 8  86907373.082 8  21223660.840                    21223659.860
                                        48.650          48.400



 113951672.211 8  88793507.796 7  21684270.780                    21684266.940
                                        48.850          44.550



 108629188.168 8  84646147.832 8  20671436.660                    20671434.400
                                        50.750          48.200



 112707355.258 8  87823912.529 7  21447488.840                    21447485.040
                                        48.850          47.250



 117554394.881 7  91600828.94746  22369852.700                    22369848.940
                                        46.950          40.700



 122175550.575 7  95201745.768 7  23249224.300                    23249224.260
                                        44.800          44.050



 23  8  9 15 33  0.0000000  0  8G04G06G07G09G11G16G20G30
 118652071.514 7  92456170.849 7  22578731.200                    22578729.460
                                        46.650          45.400



 111596734.979 8  86958512.200 8  21236149.580                    21236148.620
                                        48.800          48.600



 113894006.087 8  88748573.193 7  21673297.260                    21673293.360
                                        48.700          44.950



 108675067.415 8  84681897.868 8  20680167.220                    20680164.960
                                        50.750          48.600



 112682157.679 8  87804278.070 7  21442693.920                    21442690.080
                                        48.900          47.350



 128628354.774 6 100229875.88345  24477161.720                    24477161.960
                                        39.400          34.950



 117466740.022 7  91532526.50346  22353172.500                    22353168.700
                                        47.000          41.350



 122074899.661 7  95123316.524 7  23230071.060                    23230070.960
                                        45.200          44.650



 23  8  9 15 33 30.0000000  0  8G04G06G07G09G11G16G20G30
 118738298.871 7  92523360.946 7  22595139.760                    22595138.000
                                        46.700          45.100



 111662857.509 8  87010036.200 8  21248732.340                    21248731.400
                                        49.050          48.650



 113836760.763 8  88703966.494 7  21662403.800                    21662399.880
                                        48.500          45.100



 108721296.558 8  84717920.557 8  20688964.360                    20688962.100
                                        50.800          48.650



 112657553.416 8  87785105.942 7  21438011.880                    21438008.000
                                        49.000          47.250



 128602222.831 6 100209513.40846  24472188.700                    24472188.640
                                        39.500          36.550



 117379283.977 7  91464378.97646  22336530.140                    22336526.300
                                        47.250          40.600



 121974456.164 7  95045048.921 7  23210957.240                    23210957.080
                                        44.950          44.250



 23  8  9 15 34  0.0000000  0  8G04G06G07G09G11G16G20G30
 118824695.456 7  92590682.889 7  22611580.540                    22611578.780
                                        46.750          45.250



 111729476.174 8  87061946.809 8  21261409.500                    21261408.560
                                        48.800          48.750



 113779942.084 8  88659692.258 7  21651591.520                    21651587.580
                                        48.450          45.250



 108767878.493 8  84754218.152 8  20697828.640                    20697826.360
                                        50.550          48.800



 112633547.794 8  87766400.266 7  21433443.760                    21433439.880
                                        49.300          47.250



 128576663.352 6 100189596.96045  24467324.840                    24467324.640
                                        39.700          34.350



 117292032.984 7  91396391.23246  22319926.800                    22319922.920
                                        46.900          41.000



 121874226.652 7  94966948.058 7  23191884.140                    23191883.920
                                        44.950          44.250



 23  8  9 15 34 30.0000000  0  8G04G06G07G09G11G16G20G30
 118911257.775 7  92658133.971 7  22628052.840                    22628051.120
                                        46.600          45.300



 111796586.963 8  87114240.877 8  21274180.320                    21274179.380
                                        48.900          48.550



 113723549.434 8  88615749.972 7  21640860.300                    21640856.380
                                        48.700          45.000



 108814809.896 8  84790788.041 8  20706759.400                    20706757.180
                                        50.400          48.700



 112610139.948 8  87748160.364 7  21428989.440                    21428985.520
                                        49.400          47.150



 128551676.011 6 100170126.33746  24462569.860                    24462569.680
                                        39.550          36.800



 117204986.729 7  91328563.02546  22303362.420                    22303358.500
                                        47.550          41.150



 121774211.516 7  94889014.239 7  23172851.820                    23172851.560
                                        45.100          45.050



 23  8  9 15 35  0.0000000  0  8G04G06G07G09G11G16G20G30
 118997981.974 7  92725711.206 7  22644555.940                    22644554.240
                                        46.350          45.100



 111864185.395 8  87166914.944 8  21287043.920                    21287042.980
                                        48.850          48.400



 113667582.061 8  88572139.073 7  21630210.020                    21630206.100
                                        49.100          45.550



 108862086.999 8  84827627.315 8  20715755.940                    20715753.760
                                        50.550          48.300



 112587328.527 8  87730385.218 7  21424648.600                    21424644.680
                                        49.650          47.350



 128527259.847 6 100151100.81445  24457923.580                    24457923.360
                                        38.850          33.750



 117118144.888 7  91260894.11646  22286836.920                    22286832.980
                                        47.250          41.000



 121674410.668 7  94811247.391 7  23153860.260                    23153860.000
                                        44.550          44.750



 23  8  9 15 35 30.0000000  0  8G04G06G07G09G11G16G20G30
 119084869.979 7  92793416.062 7  22661090.220                    22661088.560
                                        45.600          45.550



 111932272.778 7  87219969.987 8  21300000.560                    21299999.640
                                        47.650          48.250



 113612044.868 8  88528863.371 7  21619641.620                    21619637.680
                                        49.100          46.000



 108909711.859 8  84864737.565 7  20724818.640                    20724816.500
                                        50.600          47.750



 112565117.991 8  87713078.317 7  21420422.100                    21420418.140
                                        49.300          47.100



 128503419.656 6 100132524.06445  24453386.920                    24453386.760
                                        39.400          34.900



 117031513.071 7  91193388.83846  22270351.400                    22270347.480
                                        46.900          40.550



 121574829.905 7  94733652.054 7  23134910.560                    23134910.300
                                        44.550          45.350



 23  8  9 15 36  0.0000000  0  8G04G06G07G09G11G16G20G30
 119171920.424 7  92861247.517 7  22677655.400                    22677653.780
                                        46.050          45.550



 112000847.259 8  87273404.603 8  21313049.860                    21313048.960
                                        48.250          48.350



 113556939.583 8  88485924.233 7  21609155.400                    21609151.480
                                        49.400          45.900



 108957683.275 8  84902117.885 7  20733947.280                    20733945.160
                                        50.800          47.700



 112543509.532 8  87696240.559 7  21416310.180                    21416306.180
                                        49.350          47.100



 128480157.235 6 100114397.53545  24448960.220                    24448960.120
                                        39.700          33.850



 116945093.004 7  91126048.56346  22253906.180                    22253902.240
                                        47.500          40.550



 121475471.746 7  94656230.200 7  23116003.200                    23116002.960
                                        44.100          45.200



 23  8  9 15 36 30.0000000  0  8G04G06G07G09G11G16G20G30
 119259127.278 7  92929200.842 7  22694250.360                    22694248.780
                                        46.250          45.450



 112069902.067 8  87327213.491 8  21326190.560                    21326189.720
                                        48.750          48.050



 113502262.797 8  88443318.992 7  21598750.740                    21598746.800
                                        49.550          45.800



 109005995.278 8  84939763.582 7  20743140.760                    20743138.640
                                        50.800          47.600



 112522499.483 8  87679869.110 7  21412312.100                    21412308.080
                                        49.350          47.200



 128457468.987 6 100096718.43545  24444642.780                    24444642.660
                                        40.300          34.750



 116858881.982 7  91058871.17646  22237500.760                    22237496.800
                                        47.850          38.950



 121376333.954 7  94578980.042 7  23097137.800                    23097137.580
                                        44.100          45.350



 23  8  9 15 37  0.0000000  0  8G04G06G07G09G11G16G20G30
 119346492.337 7  92997277.440 7  22710875.420                    22710873.900
                                        46.550          45.350



 112139438.362 8  87381397.577 7  21339422.880                    21339422.080
                                        48.350          47.950



 113448019.004 8  88401051.132 7  21588428.480                    21588424.540
                                        49.700          46.050



 109054649.817 8  84977676.185 7  20752399.440                    20752397.300
                                        50.650          47.850



 112502092.207 8  87663967.335 7  21408428.740                    21408424.720
                                        49.250          47.200



 128435360.247 6 100079490.87545  24440435.640                    24440435.440
                                        40.150          34.350



 116772885.681 7  90991861.09346  22221136.200                    22221132.200
                                        47.550          40.200



 121277422.127 7  94501905.966 7  23078315.400                    23078315.200
                                        44.950          45.400



 23  8  9 15 37 30.0000000  0  8G04G06G07G09G11G16G20G30
 119434014.099 7  93065476.144 7  22727530.300                    22727528.820
                                        46.300          44.950



 112209454.030 8  87435955.192 8  21352746.460                    21352745.640
                                        48.250          48.300



 113394209.462 8  88359121.653 7  21578188.860                    21578184.900
                                        49.400          46.000



 109103645.490 8  85015854.605 7  20761723.020                    20761720.900
                                        50.400          47.750



 112482288.545 8  87648535.937 7  21404660.240                    21404656.160
                                        49.200          47.400



 128413831.935 6 100062715.59846  24436338.980                    24436338.620
                                        39.950          36.300



 116687105.948 7  90925019.77146  22204812.840                    22204808.820
                                        47.350          40.100



 121178738.596 7  94425009.766 7  23059536.460                    23059536.300
                                        44.750          45.400



 23  8  9 15 38  0.0000000  0  8G04G06G07G09G11G16G20G30
 119521691.273 7  93133795.962 7  22744214.740                    22744213.300
                                        46.500          44.650



 112279947.007 8  87490884.734 8  21366160.880                    21366160.080
                                        48.450          48.350



 113340836.019 8  88317532.011 7  21568032.220                    21568028.260
                                        49.550          45.700



 109152981.095 8  85054297.919 7  20771111.300                    20771109.160
                                        50.700          47.700



 112463089.615 8  87633575.746 7  21401006.800                    21401002.720
                                        49.000          47.550



 128392885.978 6 100046394.07745  24432353.120                    24432352.700
                                        40.250          32.350



 116601544.674 7  90858348.69046  22188531.040                    22188526.980
                                        47.750          40.550



 121080285.845 7  94348293.396 7  23040801.460                    23040801.300
                                        45.050          45.400



 23  8  9 15 38 30.0000000  0  8G04G06G07G09G11G16G20G30
 119609522.967 7  93202236.161 7  22760928.620                    22760927.200
                                        46.450          44.650



 112350915.704 8  87546184.953 8  21379665.820                    21379665.040
                                        48.000          48.250



 113287900.612 8  88276283.658 7  21557958.940                    21557954.980
                                        49.550          46.100



 109202655.831 8  85093005.469 7  20780564.120                    20780561.980
                                        50.700          47.400



 112444496.863 8  87619087.871 7  21397468.740                    21397464.660
                                        48.950          47.200



 128372524.145 6 100030527.72645  24428478.400                    24428477.920
                                        40.150          34.100



 116516204.417 7  90791849.80346  22172291.320                    22172287.220
                                        47.950          40.550



 120982066.744 7  94271759.089 7  23022110.920                    23022110.800
                                        45.650          45.200



 23  8  9 15 39  0.0000000  0  8G04G06G07G09G11G16G20G30
 119697507.626 7  93270795.576 7  22777671.600                    22777670.180
                                        46.250          44.600



 112422357.850 7  87601854.106 7  21393260.840                    21393260.100
                                        47.900          47.950



 113235404.352 8  88235377.515 7  21547969.220                    21547965.260
                                        49.050          45.900



 109252668.230 8  85131976.161 7  20790081.160                    20790079.020
                                        50.800          47.300



 112426511.057 8  87605072.966 7  21394046.140                    21394042.060
                                        48.750          46.850



 128352747.345 6 100015117.26545  24424715.000                    24424714.460
                                        40.250          34.900



 116431087.682 8  90725525.11346  22156094.120                    22156089.980
                                        48.050          41.100



 120884083.584 7  94195408.627 7  23003465.280                    23003465.160
                                        45.400          44.800



 23  8  9 15 39 30.0000000  0  8G04G06G07G09G11G16G20G30
 119785635.543 7  93339466.611 7  22794441.860                    22794440.440
                                        46.350          44.100



 112494262.966 8  87657884.000 8  21406943.980                    21406943.260
                                        48.400          48.150



 113183340.419 8  88194808.243 7  21538061.780                    21538057.820
                                        48.850          44.900



 109303008.669 8  85171202.465 7  20799660.660                    20799658.460
                                        50.700          47.450



 112409124.851 8  87591525.279 7  21390737.620                    21390733.540
                                        48.900          47.150



 128333548.808 6 100000157.41045  24421061.660                    24421061.040
                                        40.550          33.150



 116346187.324 7  90659369.03146  22139938.080                    22139933.940
                                        47.950          41.650



 120786330.415 7  94119237.354 7  22984863.420                    22984863.320
                                        45.800          44.800



 23  8  9 15 40  0.0000000  0  8G04G06G07G09G11G16G20G30
 119873917.427 7  93408257.618 7  22811241.420                    22811239.980
                                        46.350          43.650



 112566640.932 8  87714282.380 7  21420717.060                    21420716.360
                                        48.650          47.550



 113131722.140 8  88154586.232 7  21528239.120                    21528235.140
                                        48.800          44.750



 109353687.895 8  85210692.750 7  20809304.620                    20809302.400
                                        50.500          47.500



 112392351.172 8  87578454.884 7  21387545.680                    21387541.580
                                        48.700          47.400



 128314942.091 6  99985658.72746  24417520.940                    24417520.240
                                        39.950          36.000



 116261517.746 7  90593392.77546  22123825.980                    22123821.800
                                        47.650          41.300



 120688821.621 7  94043256.543 7  22966308.040                    22966307.940
                                        44.850          44.850



 23  8  9 15 40 30.0000000  0  8G04G06G07G09G11G16G20G30
 119962345.856 7  93477162.836 7  22828068.880                    22828067.360
                                        45.800          43.300



 112639483.553 8  87771042.830 7  21434578.560                    21434577.880
                                        48.100          47.900



 113080545.333 8  88114708.209 7  21518500.480                    21518496.500
                                        48.650          45.450



 109404698.571 8  85250441.317 7  20819011.640                    20819009.420
                                        50.300          47.500



 112376184.833 8  87565857.732 7  21384469.320                    21384465.240
                                        48.750          47.700



 128296922.241 6  99971617.31145  24414091.940                    24414091.140
                                        39.850          33.300



 116177075.078 7  90527593.34546  22107757.040                    22107752.840
                                        47.900          41.750



 120591553.613 7  93967463.357 7  22947798.480                    22947798.380
                                        43.950          46.250



 23  8  9 15 41  0.0000000  0  8G04G06G07G09G11G16G20G30
 120050925.864 7  93546186.147 7  22844925.200                    22844923.620
                                        45.750          43.100



 112712795.119 7  87828168.653 7  21448529.320                    21448528.700
                                        47.500          47.850



 113029816.999 8  88075179.676 7  21508847.140                    21508843.160
                                        48.550          45.550



 109456045.817 8  85290452.133 7  20828782.700                    20828780.480
                                        50.250          47.200



 112360633.092 8  87553739.506 7  21381509.880                    21381505.820
                                        48.850          47.550



 128279497.187 6  99958039.40545  24410776.080                    24410775.180
                                        39.850          30.850



 116092868.113 8  90461977.56346  22091732.960                    22091728.760
                                        48.100          41.000



 120494535.117 7  93891864.629 7  22929336.360                    22929336.280
                                        43.800          46.200



 23  8  9 15 41 30.0000000  0  8G04G06G07G09G11G16G20G30
 120139647.947 7  93615320.174 7  22861808.540                    22861806.900
                                        45.300          43.100



 112786565.191 7  87885651.790 7  21462567.300                    21462566.720
                                        47.700          47.750



 112979530.443 8  88035995.385 7  21499277.880                    21499273.900
                                        48.800          45.600



 109507720.141 8  85330717.820 7  20838616.000                    20838613.780
                                        50.400          47.650



 112345688.612 8  87542094.467 7  21378666.020                    21378661.980
                                        48.450          47.700



 128262659.625 6  99944919.23745  24407572.020                    24407571.060
                                        39.800          34.750



 116008890.114 8  90396540.20846  22075752.440                    22075748.200
                                        48.000          41.650



 120397760.338 7  93816455.797 7  22910920.600                    22910920.600
                                        44.200          46.650



 23  8  9 15 42  0.0000000  0  8G04G06G07G09G11G16G20G30
 120228514.115 7  93684566.457 7  22878719.300                    22878717.600
                                        45.100          43.800



 112860794.942 8  87943493.093 7  21476692.780                    21476692.240
                                        48.100          47.950



 112929690.675 8  87997159.233 7  21489793.660                    21489789.680
                                        49.050          45.550



 109559723.626 8  85371239.981 7  20848511.940                    20848509.740
                                        50.600          47.850



 112331355.587 8  87530925.872 7  21375938.520                    21375934.520
                                        48.750          47.800



 128246414.138 6  99932260.45845  24404480.620                    24404479.580
                                        39.700          34.750



 115925147.075 8  90331285.92246  22059816.640                    22059812.380
                                        48.200          41.700



 120301235.090 7  93741241.392 7  22892552.340                    22892552.400
                                        45.650          46.400



 23  8  9 15 42 30.0000000  0  8G04G06G07G09G11G16G20G30
 120317520.621 7  93753922.096 7  22895656.740                    22895655.040
                                        45.550          43.850



 112935479.777 7  88001688.996 8  21490904.880                    21490904.380
                                        47.900          48.000



 112880296.284 8  87958670.124 7  21480394.180                    21480390.220
                                        49.400          45.600



 109612052.562 8  85412015.753 8  20858469.820                    20858467.640
                                        50.550          48.300



 112317632.387 8  87520232.466 7  21373327.080                    21373323.100
                                        48.800          47.700



 128230760.275 6  99920062.68845  24401501.780                    24401500.720
                                        40.200          32.850



 115841638.037 8  90266213.96946  22043925.380                    22043921.080
                                        48.400          40.650



 120204959.267 7  93666221.340 7  22874231.580                    22874231.680
                                        45.750          46.650



 23  8  9 15 43  0.0000000  0  9G04G05G06G07G09G11G16G20G30
 120406671.037 7  93823389.887 7  22912621.560                    22912619.860
                                        45.600          44.750



 129156406.264 7 100641358.850 6  24577647.200                    24577645.900
                                        42.300          40.750



 113010622.336 8  88060241.607 7  21505204.040                    21505203.580
                                        48.050          47.600



 112831353.803 8  87920533.148 7  21471080.740                    21471076.760
                                        49.550          45.250



 109664710.590 8  85453047.962 8  20868490.340                    20868488.160
                                        50.400          48.200



 112304524.663 8  87510018.657 7  21370832.760                    21370828.800
                                        48.400          47.600



 128215703.390 6  99908330.06745  24398636.540                    24398635.500
                                        40.350          32.650



 115758370.397 8  90201330.13346  22028080.040                    22028075.680
                                        48.450          41.400



 120108940.197 7  93591401.379 7  22855959.660                    22855959.800
                                        45.750          46.400



 23  8  9 15 43 30.0000000  0  9G04G05G06G07G09G11G16G20G30
 120495959.147 7  93892964.960 7  22929612.580                    22929610.900
                                        45.650          44.550



 129050556.936 7 100558878.882 6  24557504.880                    24557503.100
                                        43.100          40.800



 113086215.490 8  88119145.325 7  21519588.960                    21519588.500
                                        48.300          47.600



 112782859.516 8  87882745.392 7  21461852.600                    21461848.600
                                        49.600          45.600



 109717691.487 8  85494331.751 8  20878572.300                    20878570.140
                                        50.350          48.050



 112292028.273 8  87500281.192 7  21368454.780                    21368450.840
                                        49.000          47.800



 128201239.675 6  99897059.63145  24395884.200                    24395883.180
                                        40.000          33.400



 115675341.331 8  90136632.19046  22012280.140                    22012275.700
                                        48.250          41.500



 120013175.284 7  93516779.461 7  22837736.120                    22837736.300
                                        45.300          46.250



 23  8  9 15 44  0.0000000  0  9G04G05G06G07G09G11G16G20G30
 120585383.198 7  93962645.975 7  22946629.460                    22946627.800
                                        45.800          45.050



 128944747.858 7 100476430.301 6  24537369.980                    24537368.420
                                        43.700          41.000



 113162256.558 8  88178398.057 7  21534059.100                    21534058.660
                                        48.150          47.950



 112734814.161 8  87845307.486 7  21452709.860                    21452705.840
                                        49.650          46.100



 109770993.540 8  85535865.804 8  20888715.380                    20888713.240
                                        50.400          48.250



 112280143.456 8  87491020.291 7  21366193.180                    21366189.240
                                        49.050          47.400



 128187370.307 6  99886252.33145  24393244.960                    24393243.940
                                        40.000          32.450



 115592552.945 8  90072121.78847  21996526.020                    21996521.540
                                        48.200          42.200



 119917666.488 7  93442357.107 7  22819561.340                    22819561.520
                                        45.450          45.400



 23  8  9 15 44 30.0000000  0  9G04G05G06G07G09G11G16G20G30
 120674944.231 7  94032433.722 7  22963672.400                    22963670.780
                                        45.750          44.750



 128838982.960 7 100394016.127 6  24517243.620                    24517242.040
                                        43.900          40.550



 113238745.583 8  88237999.842 7  21548614.520                    21548614.080
                                        48.250          47.900



 112687221.368 8  87808222.223 7  21443653.260                    21443649.200
                                        49.800          46.250



 109824617.767 8  85577650.899 8  20898919.740                    20898917.640
                                        50.400          48.050



 112268873.296 8  87482238.357 7  21364048.540                    21364044.560
                                        48.900          47.100



 128174098.404 6  99875910.58145  24390719.420                    24390718.380
                                        40.000          31.800



 115510009.181 8  90007802.01147  21980818.460                    21980813.940
                                        48.000          42.350



 119822418.479 7  93368137.945 7  22801436.200                    22801436.380
                                        45.450          45.300



 23  8  9 15 45  0.0000000  0  9G04G05G06G07G09G11G16G20G30
 120764640.824 7  94102327.099 7  22980741.140                    22980739.560
                                        45.400          45.100



 128733263.756 7 100311637.568 6  24497126.020                    24497124.340
                                        43.850          40.150



 113315680.229 7  88297948.872 7  21563254.740                    21563254.300
                                        47.750          47.800



 112640082.299 8  87771490.514 7  21434683.000                    21434678.900
                                        49.600          46.700



 109878562.863 8  85619686.019 8  20909185.200                    20909183.100
                                        50.300          48.250



 112258218.410 8  87473935.838 7  21362021.020                    21362017.000
                                        48.850          47.500



 128161425.153 6  99866035.34345  24388307.760                    24388306.680
                                        39.700          31.700



 115427711.720 8  89943674.15547  21965157.740                    21965153.240
                                        48.200          42.550



 119727433.592 7  93294123.812 7  22783361.120                    22783361.300
                                        45.300          45.800



 23  8  9 15 45 30.0000000  0  9G04G05G06G07G09G11G16G20G30
 120854473.022 7  94172326.143 7  22997835.680                    22997834.160
                                        45.650          44.600



 128627593.601 7 100229297.234 6  24477017.740                    24477015.960
                                        43.700          39.650



 113393059.486 7  88358244.340 7  21577979.580                    21577979.120
                                        47.250          47.150



 112593399.320 8  87735114.208 7  21425799.520                    21425795.400
                                        49.650          46.700



 109932828.750 8  85661971.099 7  20919511.680                    20919509.600
                                        50.400          47.800



 112248180.651 8  87466114.191 7  21360110.920                    21360106.860
                                        49.100          47.200



 128149352.963 6  99856628.43545  24386010.500                    24386009.420
                                        40.800          35.850



 115345664.289 8  89879741.12847  21949544.600                    21949540.120
                                        48.250          42.400



 119632715.396 7  93220317.518 7  22765336.760                    22765336.940
                                        46.400          46.050



 23  8  9 15 46  0.0000000  0  9G04G05G06G07G09G11G16G20G30
 120944435.730 7  94242426.862 7  23014955.080                    23014953.600
                                        45.450          44.000



 128521969.994 7 100146993.175 6  24456918.280                    24456916.480
                                        42.550          39.200



 113470877.302 7  88418881.539 7  21592787.840                    21592787.400
                                        47.200          47.550



 112547169.925 8  87699091.333 7  21417002.360                    21416998.240
                                        49.400          47.000



 109987410.410 8  85704502.234 7  20929898.260                    20929896.180
                                        50.000          47.750



 112238756.904 8  87458771.011 7  21358317.640                    21358313.560
                                        48.950          47.700



 128137878.819 6  99847687.59545  24383827.020                    24383825.900
                                        40.800          32.600



 115263865.440 8  89816001.79447  21933978.780                    21933974.320
                                        48.400          42.400



 119538262.502 7  93146717.942 7  22747362.900                    22747363.080
                                        46.700          46.400



 23  8  9 15 46 30.0000000  0  9G04G05G06G07G09G11G16G20G30
 121034529.222 7  94312629.529 7  23032099.340                    23032097.880
                                        45.300          44.000



 128416395.725 7 100064727.574 6  24436828.160                    24436826.360
                                        43.150          38.200



 113549132.876 7  88479859.857 7  21607679.380                    21607678.980
                                        47.550          47.900



 112501397.454 8  87663424.514 7  21408292.120                    21408288.020
                                        49.300          47.300



 110042308.113 8  85747279.636 8  20940344.960                    20940342.880
                                        49.700          48.050



 112229949.320 8  87451907.965 7  21356641.620                    21356637.520
                                        49.000          47.900



 128127005.388 6  99839214.82945  24381757.860                    24381756.700
                                        40.350          32.700



 115182318.932 8  89752459.09147  21918460.960                    21918456.520
                                        48.700          42.200



 119444078.816 7  93073328.137 7  22729440.280                    22729440.480
                                        46.650          46.900



 23  8  9 15 47  0.0000000  0  9G04G05G06G07G09G11G16G20G30
 121124752.605 7  94382933.389 7  23049268.320                    23049266.880
                                        44.900          43.550



 128310873.204 7  99982502.272 6  24416747.860                    24416746.100
                                        43.500          38.150



 113627824.249 7  88541177.766 7  21622653.860                    21622653.500
                                        47.550          47.750



 112456082.718 8  87628114.361 7  21399669.000                    21399664.920
                                        49.100          47.050



 110097520.931 8  85790302.587 8  20950851.620                    20950849.560
                                        49.650          48.000



 112221758.842 8  87445525.771 8  21355083.020                    21355078.940
                                        48.950          48.250



 128116733.933 6  99831211.11645  24379803.280                    24379802.080
                                        39.300          35.500



 115101027.285 8  89689114.97947  21902991.660                    21902987.220
                                        48.700          42.250



 119350166.939 7  93000150.137 7  22711569.400                    22711569.580
                                        45.800          46.750



 23  8  9 15 47 30.0000000  0  9G04G05G06G07G09G11G16G20G30
 121215106.145 7  94453338.659 7  23066462.080                    23066460.660
                                        44.950          43.050



 128205405.846 7  99900319.933 6  24396678.080                    24396676.320
                                        44.350          37.700



 113706950.677 7  88602834.687 7  21637711.120                    21637710.800
                                        47.400          47.300



 112411228.484 8  87593163.058 7  21391133.460                    21391129.420
                                        49.200          46.400



 110153049.165 8  85833571.318 7  20961418.280                    20961416.240
                                        49.750          47.950



 112214187.590 8  87439626.095 8  21353642.260                    21353638.200
                                        48.950          48.000



 128107067.400 6  99823678.77946  24377963.800                    24377962.560
                                        40.050          37.000



 115019993.821 8  89625972.04946  21887571.500                    21887567.040
                                        48.700          41.700



 119256530.891 7  92927187.081 7  22693751.020                    22693751.180
                                        46.150          46.300



 23  8  9 15 48  0.0000000  0  9G04G05G06G07G09G11G16G20G30
 121305584.653 7  94523841.314 7  23083679.600                    23083678.200
                                        45.250          42.300



 128099991.190 7  99818178.653 6  24376618.300                    24376616.600
                                        44.650          38.200



 113786505.758 7  88664825.624 7  21652849.940                    21652849.660
                                        47.700          47.300



 112366832.247 8  87558568.627 7  21382685.100                    21382681.080
                                        49.050          46.200



 110208887.503 8  85877081.685 8  20972043.960                    20972041.940
                                        49.950          48.100



 112207232.114 8  87434206.238 7  21352318.680                    21352314.640
                                        49.150          47.650



 128098002.383 6  99816615.16645  24376238.780                    24376237.500
                                        40.550          30.200



 114939216.703 8  89563028.86747  21872200.120                    21872195.620
                                        48.550          42.050



 119163168.964 7  92854437.622 7  22675984.780                    22675984.940
                                        46.600          46.600



 23  8  9 15 48 30.0000000  0  9G04G05G06G07G09G11G16G20G30
 121396189.898 7  94594442.720 6  23100921.260                    23100919.840
                                        45.900          41.950



 127994634.014 7  99736082.203 6  24356569.460                    24356567.740
                                        44.450          37.750



 113866490.267 7  88727151.157 7  21668070.520                    21668070.260
                                        47.700          47.600



 112322898.193 8  87524334.328 7  21374324.680                    21374320.680
                                        49.100          46.000



 110265037.780 8  85920835.131 8  20982728.980                    20982727.020
                                        49.900          48.100



 112200895.944 8  87429268.963 8  21351112.960                    21351108.920
                                        49.400          48.200



 128089542.721 6  99810023.22045  24374628.980                    24374627.680
                                        40.650          33.050



 114858701.312 8  89500289.62846  21856878.540                    21856874.020
                                        48.800          41.700



 119070086.537 7  92781905.940 7  22658271.720                    22658271.900
                                        46.700          46.200



 23  8  9 15 49  0.0000000  0  9G04G05G06G07G09G11G16G20G30
 121486919.045 7  94665140.681 7  23118186.500                    23118185.060
                                        45.950          42.800



 127889334.099 7  99654030.393 6  24336531.500                    24336529.740
                                        42.950          39.250



 113946900.173 7  88789808.149 7  21683372.080                    21683371.840
                                        46.950          47.850



 112279425.589 8  87490459.622 7  21366052.060                    21366048.060
                                        49.150          46.150



 110321497.041 8  85964829.337 8  20993472.820                    20993470.900
                                        49.800          48.250



 112195177.945 8  87424813.377 7  21350024.880                    21350020.860
                                        49.150          47.650



 128081688.020 6  99803902.71645  24373134.260                    24373132.920
                                        39.950          33.350



 114778448.116 8  89437754.69247  21841606.860                    21841602.280
                                        48.650          42.800



 118977284.324 7  92709592.615 7  22640612.000                    22640612.180
                                        47.150          45.800



 23  8  9 15 49 30.0000000  0  9G04G05G06G07G09G11G16G20G30
 121577772.299 7  94735935.336 7  23135475.360                    23135473.880
                                        46.000          42.300



 127784094.465 7  99572025.566 6  24316504.980                    24316503.180
                                        42.650          38.400



 114027734.600 7  88852795.928 7  21698754.380                    21698754.220
                                        46.650          47.700



 112236417.220 8  87456946.640 7  21357867.780                    21357863.820
                                        49.350          46.100



 110378265.555 8  86009064.510 8  21004275.500                    21004273.640
                                        49.800          48.000



 112190080.033 8  87420840.974 7  21349054.780                    21349050.760
                                        48.750          46.900



 128074440.343 6  99798255.25645  24371755.000                    24371753.620
                                        39.700          33.400



 114698461.176 8  89375427.23347  21826385.820                    21826381.220
                                        48.700          42.450



 118884766.116 7  92637500.556 7  22623006.340                    22623006.500
                                        46.700          45.650



 23  8  9 15 50  0.0000000  0  9G04G05G06G07G09G11G16G20G30
 121668745.308 7  94806823.311 7  23152787.020                    23152785.500
                                        46.000          42.650



 127678914.426 7  99490067.188 6  24296489.800                    24296487.920
                                        43.300          38.600



 114108987.996 7  88916110.193 7  21714216.420                    21714216.300
                                        47.650          47.700



 112193871.058 8  87423793.807 7  21349771.500                    21349767.540
                                        49.300          45.600



 110435338.874 8  86053537.198 7  21015136.200                    21015134.380
                                        49.850          47.950



 112185599.561 8  87417349.705 7  21348202.160                    21348198.120
                                        49.000          47.550



 128067797.303 6  99793078.88645  24370490.840                    24370489.440
                                        39.550          31.500



 114618739.043 8  89313306.11347  21811215.180                    21811210.580
                                        49.000          42.250



 118792531.092 7  92565629.183 7  22605454.580                    22605454.700
                                        46.650          45.800



 23  8  9 15 50 30.0000000  0  9G04G05G06G07G09G11G16G20G30
 121759841.540 7  94877807.290 7  23170122.160                    23170120.580
                                        46.300          42.100



 127573799.281 7  99408159.358 6  24276486.960                    24276485.020
                                        43.600          38.350



 114190662.669 8  88979752.715 7  21729758.620                    21729758.560
                                        48.650          47.600



 112151792.496 8  87391005.342 7  21341764.200                    21341760.220
                                        49.150          45.600



 110492720.458 8  86098250.088 7  21026055.560                    21026053.780
                                        50.050          47.950



 112181741.592 8  87414343.484 8  21347468.020                    21347463.980
                                        48.900          48.000



 128061764.099 6  99788377.71145  24369342.740                    24369341.320
                                        39.650          33.550



 114539288.632 8  89251396.72446  21796096.260                    21796091.620
                                        49.000          41.700



 118700586.296 7  92493983.950 7  22587958.020                    22587958.140
                                        46.150          46.200



 23  8  9 15 51  0.0000000  0  9G04G05G06G07G09G11G16G20G30
 121851054.578 7  94948882.302 7  23187479.520                    23187477.880
                                        46.050          42.550



 127468746.356 7  99326300.001 6  24256495.980                    24256493.980
                                        43.800          39.900



 114272750.971 8  89043717.560 7  21745379.580                    21745379.520
                                        48.000          47.950



 112110177.644 8  87358578.209 7  21333845.120                    21333841.140
                                        49.050          46.100



 110550403.761 8  86143198.100 8  21037032.320                    21037030.580
                                        50.000          48.000



 112178501.311 8  87411818.583 8  21346851.420                    21346847.400
                                        48.850          48.350



 128056337.245 6  99784149.03045  24368310.000                    24368308.580
                                        40.850          32.250



 114460107.011 8  89189696.79747  21781028.480                    21781023.820
                                        49.000          42.000



 118608928.734 7  92422562.560 7  22570516.100                    22570516.200
                                        46.300          46.400



 23  8  9 15 51 30.0000000  0  9G04G05G06G07G09G11G16G20G30
 121942386.377 7  95020049.877 7  23204859.480                    23204857.760
                                        46.050          42.750



 127363760.605 7  99244493.011 6  24236517.740                    24236515.760
                                        43.650          39.100



 114355253.711 8  89108005.326 7  21761079.400                    21761079.360
                                        48.250          47.500



 112069030.969 8  87326515.902 7  21326015.140                    21326011.140
                                        49.000          45.750



 110608390.783 8  86188382.772 7  21048066.880                    21048065.180
                                        50.100          47.650



 112175882.285 8  87409777.772 7  21346353.020                    21346349.060
                                        48.850          47.750



 128051520.222 6  99780395.53645  24367393.320                    24367391.900
                                        41.150          33.700



 114381199.616 8  89128210.53746  21766012.900                    21766008.180
                                        48.950          41.900



 118517563.989 7  92351369.321 7  22553129.900                    22553130.020
                                        46.800          46.400



 23  8  9 15 52  0.0000000  0  9G04G05G06G07G09G11G16G20G30
 122033833.695 7  95091307.451 7  23222261.420                    23222259.640
                                        45.700          43.150



 127258841.055 7  99162737.565 6  24216552.140                    24216550.180
                                        42.850          39.450



 114438166.358 8  89172612.519 7  21776857.240                    21776857.160
                                        48.250          46.600



 112028351.298 8  87294817.488 7  21318274.020                    21318270.000
                                        49.200          45.900



 110666678.137 8  86233801.466 7  21059158.600                    21059156.900
                                        50.050          47.500



 112173882.744 8  87408219.690 7  21345972.520                    21345968.600
                                        48.650          47.350



 128047311.548 6  99777116.07945  24366592.400                    24366591.000
                                        40.850          33.150



 114302566.458 8  89066937.96547  21751049.520                    21751044.720
                                        48.550          42.050



 118426492.230 7  92280404.390 7  22535799.460                    22535799.560
                                        46.350          46.500



 23  8  9 15 52 30.0000000  0  9G04G05G06G07G09G11G16G20G30
 122125398.587 7  95162656.646 7  23239685.720                    23239683.900
                                        45.700          43.550



 127153993.457 7  99081038.216 6  24196600.240                    24196598.260
                                        44.000          39.650



 114521489.722 7  89237539.771 7  21792713.200                    21792713.100
                                        47.900          45.700



 111988142.898 8  87263486.288 7  21310622.620                    21310618.560
                                        49.400          45.800



 110725267.870 8  86279455.779 7  21070307.880                    21070306.180
                                        50.050          47.600



 112172506.238 8  87407147.071 7  21345710.580                    21345706.680
                                        48.350          47.400



 128043715.307 6  99774313.81545  24365908.060                    24365906.680
                                        40.900          34.150



 114224212.928 8  89005883.30147  21736139.320                    21736134.460
                                        48.550          42.000



 118335718.978 7  92209672.076 7  22518525.800                    22518525.920
                                        47.000          47.000



 23  8  9 15 53  0.0000000  0  9G04G05G06G07G09G11G16G20G30
 122217073.032 7  95234091.187 7  23257130.880                    23257129.040
                                        45.000          43.800



 127049212.433 7  98999390.724 6  24176661.020                    24176659.060
                                        44.900          41.100



 114605214.568 7  89302779.858 7  21808645.580                    21808645.420
                                        47.800          45.750



 111948399.838 8  87232517.689 7  21303059.740                    21303055.680
                                        49.500          46.050



 110784151.848 8  86325339.370 7  21081513.160                    21081511.440
                                        49.900          47.500



 112171746.268 8  87406554.868 7  21345565.940                    21345562.100
                                        48.300          47.800



 128040725.286 6  99771983.92945  24365339.060                    24365337.740
                                        41.050          34.000



 114146134.465 8  88945042.96547  21721281.460                    21721276.560
                                        48.750          42.300



 118245239.758 7  92139168.868 7  22501308.120                    22501308.220
                                        47.100          46.650



 23  8  9 15 53 30.0000000  0  9G04G05G06G07G09G11G16G20G30
 122308859.820 7  95305613.277 7  23274597.380                    23274595.540
                                        44.700          44.150



 126944503.510 7  98917799.429 6  24156735.520                    24156733.540
                                        44.950          41.900



 114689342.389 8  89368333.951 7  21824654.640                    21824654.420
                                        48.000          46.400



 111909127.216 8  87201915.665 7  21295586.400                    21295582.300
                                        49.450          46.150



 110843332.815 8  86371454.374 7  21092774.940                    21092773.240
                                        49.900          47.850



 112171607.093 8  87406446.400 7  21345539.440                    21345535.640
                                        48.800          47.350



 128038345.930 6  99770129.87845  24364886.280                    24364884.980
                                        40.950          34.350



 114068337.256 8  88884421.78646  21706477.120                    21706472.160
                                        49.100          41.900



 118155060.788 7  92068899.596 7  22484147.600                    22484147.680
                                        47.700          46.600



 23  8  9 15 54  0.0000000  0  9G04G05G06G07G09G11G16G20G30
 122400759.755 7  95377223.525 7  23292085.440                    23292083.600
                                        44.350          43.900



 126839870.583 7  98836267.349 6  24136824.480                    24136822.520
                                        45.100          41.800



 114773872.630 7  89434201.599 7  21840740.280                    21840740.000
                                        47.500          45.850



 111870327.854 8  87171682.423 7  21288203.100                    21288198.980
                                        49.400          46.150



 110902811.463 8  86417801.338 7  21104093.380                    21104091.660
                                        50.100          47.600



 112172090.838 8  87406823.331 7  21345631.480                    21345627.700
                                        48.650          46.700



 128036579.907 6  99768753.78545  24364550.180                    24364548.900
                                        40.700          34.850



 113990825.339 8  88824022.91047  21691727.060                    21691722.060
                                        48.900          43.050



 118065186.307 7  91998867.580 7  22467045.040                    22467045.080
                                        47.600          45.750



 23  8  9 15 54 30.0000000  0  9G04G05G06G07G09G11G16G20G30
 122492771.613 7  95448920.977 7  23309594.780                    23309592.980
                                        44.400          44.150



 126735315.294 7  98754795.773 6  24116928.220                    24116926.240
                                        44.500          41.350



 114858802.818 7  89500380.922 7  21856902.020                    21856901.680
                                        46.950          45.750



 111832002.830 8  87141818.788 7  21280910.080                    21280905.940
                                        49.700          46.000



 110962586.514 8  86464379.271 7  21115468.200                    21115466.480
                                        50.300          47.500



 112173197.714 8  87407685.816 7  21345842.120                    21345838.300
                                        48.850          47.100



 128035427.903 6  99767856.11045  24364330.960                    24364329.680
                                        40.650          34.100



 113913601.026 8  88763848.16247  21677031.720                    21677026.700
                                        48.950          42.350



 117975618.510 7  91929074.543 7  22450000.860                    22450000.820
                                        47.250          45.650



 23  8  9 15 55  0.0000000  0  9G04G05G06G07G09G11G16G20G30
 122584893.628 7  95520704.273 7  23327125.080                    23327123.300
                                        44.500          43.850



 126630838.557 7  98673385.392 6  24097046.900                    24097044.940
                                        43.550          40.950



 114944129.888 7  89566869.486 7  21873139.260                    21873138.900
                                        46.200          46.200



 111794152.515 8  87112325.063 7  21273707.400                    21273703.220
                                        49.600          46.400



 111022656.113 8  86511186.716 7  21126899.100                    21126897.360
                                        49.950          47.250



 112174927.335 8  87409033.558 7  21346171.260                    21346167.420
                                        48.400          47.100



 128034889.924 6  99767436.92845  24364228.560                    24364227.300
                                        39.650          32.650



 113836665.725 8  88703898.60347  21662391.400                    21662386.360
                                        48.950          42.050



 117886359.084 7  91859521.819 7  22433015.320                    22433015.200
                                        47.400          45.350



 23  8  9 15 55 30.0000000  0  9G04G05G06G07G09G11G16G20G30
 122677122.942 7  95592571.179 7  23344675.800                    23344674.040
                                        44.750          44.050



 126526440.900 7  98592036.645 6  24077180.620                    24077178.640
                                        42.700          40.600



 115029849.535 7  89633663.943 7  21889451.180                    21889450.860
                                        45.600          46.650



 111756776.096 8  87083200.611 7  21266594.880                    21266590.700
                                        49.400          46.400



 111083017.258 8  86558221.348 7  21138385.480                    21138383.720
                                        49.600          47.400



 112177278.094 8  87410865.306 7  21346618.600                    21346614.740
                                        48.850          47.300



 128034964.645 6  99767495.12645  24364242.760                    24364241.540
                                        39.650          32.350



 113760020.163 8  88644174.81347  21647806.220                    21647801.160
                                        48.650          42.800



 117797408.549 7  91790209.773 7  22416088.580                    22416088.380
                                        47.400          45.450



 23  8  9 15 56  0.0000000  0  9G04G05G06G07G09G11G16G20G30
 122769456.643 7  95664519.421 7  23362246.400                    23362244.640
                                        44.400          43.950



 126422122.453 7  98510749.602 6  24057329.400                    24057327.440
                                        44.000          40.550



 115115957.532 7  89700761.024 7  21905837.000                    21905836.700
                                        46.700          47.250



 111719872.639 8  87054444.697 7  21259572.380                    21259568.180
                                        49.550          46.600



 111143667.023 8  86605480.868 7  21149926.780                    21149924.980
                                        49.700          47.250



 112180248.390 8  87413179.808 7  21347183.840                    21347179.960
                                        48.850          47.750



 128035650.656 6  99768029.67145  24364373.280                    24364372.100
                                        40.050          35.200



 113683664.650 8  88584677.04246  21633276.240                    21633271.160
                                        48.800          41.800



 117708767.449 7  91721138.843 7  22399220.720                    22399220.440
                                        47.550          45.450



 23  8  9 15 56 30.0000000  0  9G04G05G06G07G09G11G16G20G30
 122861895.436 7  95736549.554 7  23379837.000                    23379835.260
                                        44.500          44.100



 126317886.659 7  98429526.924 6  24037493.960                    24037492.000
                                        44.050          40.750



 115202453.261 7  89768160.216 7  21922296.600                    21922296.380
                                        47.550          47.700



 111683444.683 8  87026059.303 7  21252640.340                    21252636.140
                                        49.600          46.400



 111204605.977 8  86652965.723 7  21161523.100                    21161521.320
                                        49.850          47.750



 112183840.214 8  87415978.618 8  21347867.360                    21347863.480
                                        49.050          48.200



 128036950.410 6  99769042.46145  24364620.580                    24364619.480
                                        40.300          35.450



 113607603.201 8  88525408.40347  21618802.220                    21618797.140
                                        48.750          42.800



 117620439.857 7  91652312.199 7  22382412.540                    22382412.180
                                        47.650          45.600



 23  8  9 15 57  0.0000000  0  9G04G05G06G07G09G11G16G20G30
 122954437.990 7  95808660.536 7  23397447.340                    23397445.620
                                        43.700          44.100



 126213734.936 7  98348369.797 6  24017674.460                    24017672.520
                                        43.100          40.650



 115289333.919 7  89835859.370 7  21938829.440                    21938829.300
                                        47.350          47.700



 111647493.167 8  86998045.162 7  21245798.980                    21245794.780
                                        49.300          46.200



 111265832.640 8  86700674.786 7  21173174.180                    21173172.380
                                        49.850          47.600



 112188053.410 8  87419261.617 7  21348669.120                    21348665.240
                                        49.200          47.900



 128038864.042 6  99770533.62545  24364984.700                    24364983.640
                                        39.800          34.250



 113531838.018 8  88466370.63647  21604384.560                    21604379.480
                                        48.300          42.400



 117532427.734 7  91583731.392 7  22365664.380                    22365663.940
                                        47.800          45.550



 23  8  9 15 57 30.0000000  0  9G04G05G06G07G09G11G16G20G30
 123047083.083 7  95880851.426 7  23415077.180                    23415075.480
                                        43.900          44.650



 126109669.169 7  98267279.644 6  23997871.320                    23997869.380
                                        43.200          40.300



 115376596.947 7  89903856.479 7  21955435.080                    21955434.980
                                        47.650          47.400



 111612018.614 8  86970402.686 7  21239048.380                    21239044.160
                                        49.050          46.500



 111327345.757 8  86748607.056 7  21184879.760                    21184877.960
                                        50.050          47.850



 112192887.982 8  87423028.808 8  21349589.140                    21349585.260
                                        49.100          48.550



 128041392.463 6  99772503.83345  24365465.820                    24365464.800
                                        40.100          31.800



 113456371.137 8  88407565.30347  21590023.660                    21590018.600
                                        48.350          43.000



 117444733.350 8  91515398.161 7  22348976.680                    22348976.160
                                        48.000          45.900



 23  8  9 15 58  0.0000000  0  9G04G05G06G07G09G11G16G20G30
 123139827.898 7  95953120.002 7  23432725.980                    23432724.340
                                        44.100          44.050



 126005689.653 7  98186256.685 6  23978084.600                    23978082.680
                                        43.950          40.100



 115464238.035 7  89972148.173 7  21972112.660                    21972112.620
                                        47.650          47.100



 111577020.490 8  86943131.445 7  21232388.420                    21232384.200
                                        49.100          46.700



 111389142.331 8  86796760.200 8  21196639.280                    21196637.500
                                        50.050          48.000



 112198342.223 8  87427278.854 8  21350627.080                    21350623.180
                                        48.800          48.300



 128044533.826 6  99774951.64045  24366063.600                    24366062.620
                                        39.800          32.700



 113381203.007 8  88348992.76547  21575719.600                    21575714.560
                                        48.350          43.150



 117357357.111 8  91447312.829 7  22332349.520                    22332348.940
                                        48.450          46.600



 23  8  9 15 58 30.0000000  0  9G04G05G06G07G09G11G16G20G30
 123232673.423 7  96025467.062 7  23450393.940                    23450392.360
                                        43.350          43.850



 125901799.990 7  98105303.746 6  23958315.000                    23958313.080
                                        44.000          40.400



 115552256.781 7  90040734.155 7  21988862.120                    21988862.120
                                        47.650          47.350



 111542501.815 8  86916233.799 7  21225819.680                    21225815.480
                                        49.300          46.850



 111451223.249 8  86845134.907 8  21208452.920                    21208451.160
                                        50.050          48.150



 112204418.303 8  87432013.445 7  21351783.340                    21351779.460
                                        48.100          47.850



 128048290.498 6  99777878.93445  24366778.440                    24366777.520
                                        40.800          34.050



 113306338.114 8  88290656.50347  21561473.240                    21561468.260
                                        48.300          43.100



 117270303.412 8  91379478.817 7  22315783.740                    22315783.120
                                        48.100          46.300



 23  8  9 15 59  0.0000000  0  9G04G05G06G07G09G11G16G20G30
 123325616.632 7  96097890.250 7  23468080.460                    23468078.940
                                        43.100          43.750



 125798000.971 7  98024421.447 6  23938562.640                    23938560.720
                                        44.500          41.550



 115640648.695 7  90109610.910 7  22005682.620                    22005682.620
                                        47.250          47.200



 111508461.314 8  86889708.735 7  21219341.960                    21219337.800
                                        49.750          46.650



 111513585.378 8  86893728.757 8  21220320.060                    21220318.320
                                        49.950          48.600



 112211114.258 8  87437231.056 8  21353057.520                    21353053.660
                                        48.100          48.400



 128052661.569 6  99781284.99545  24367610.200                    24367609.300
                                        40.950          34.100



 113231776.609 8  88232556.67347  21547284.620                    21547279.640
                                        48.600          42.950



 117183572.539 7  91311896.375 7  22299279.360                    22299278.700
                                        47.950          47.200



