     2.11           OBSERVATION DATA    M (MIXED)           RINEX VERSION / TYPE
teqc  2019Feb25                         20231216 19:40:19UTCPGM / RUN BY / DATE
VITY                                                        MARKER NAME
18328M001                                                   MARKER NUMBER
Automatic           TERIA                                   OBSERVER / AGENCY
3611625             SEPT POLARX5        4.14.0              REC # / TYPE / VERS
762-12035           TPSCR.G5        TPSH                    ANT # / TYPE
  4207852.8050   174564.2590  4774137.6750                  APPROX POSITION XYZ
        0.0000        0.0000        0.0000                  ANTENNA: DELTA H/E/N
     1     1                                                WAVELENGTH FACT L1/2
     9    C1    L1    D1    P2    L2    D2    P1    S1    S2# / TYPES OF OBSERV
    30.0000                                                 INTERVAL
    18                                                      LEAP SECONDS
Linux 2.6.32-573.12.1.x86_64|x86_64|gcc|Linux 64|=+         COMMENT
teqc  2019Feb25                         20231216 19:40:19UTCCOMMENT
teqc  2019Feb25     IGN-RGP             20231216 12:08:32UTCCOMMENT
teqc  2019Feb25     Administrateur RGP  20231216 12:08:31UTCCOMMENT
teqc  2019Feb25     IGN-RGP             20231216 12:08:30UTCCOMMENT
teqc_2019 edited: GLONASS # 25 - 30 excluded                COMMENT
GN-RINEX 1.3        IGN-RGP             16-DEC-23 10:59     COMMENT
Forced Modulo Decimation to 30 seconds                      COMMENT
teqc_2019 edited: GLONASS # 25 - 30 excluded                COMMENT
teqc_2019 edited: all GLONASS satellites excluded           COMMENT
teqc_2019 edited: all SBAS satellites excluded              COMMENT
  2023    12    16    11     0    0.0000000     GPS         TIME OF FIRST OBS
                                                            END OF HEADER
 23 12 16 11  0  0.0000000  0 13G13G15G22G14G05G24G30G23G20G17G18G08
                                G07
  19882888.050   104485269.333 8      -781.916    19882888.193    81417088.356 8
      -609.286                          49.000          46.000
  20470578.987   107573607.577 8      1488.696    20470579.594    83823586.558 8
      1160.019                          50.000          46.000
  21016093.275   110440375.275 8        39.246    21016094.008    86057462.521 7
        30.580                          49.000          44.000
  21206337.562   111440107.381 8     -1106.305    21206339.116    86836476.672 7
      -862.058                          48.000          43.000
  22084478.638   116054667.473 8     -3292.034    22084480.247    90432184.715 9
     -2565.222                          47.000          51.000
  22668435.682   119123456.583 7      2871.082    22668440.221    92823506.679 6
      2237.209                          44.000          33.000
  22835056.191   119998985.325 8     -3063.089    22835060.479    93505700.984 8
     -2386.823                          45.000          47.000
  23644905.900   124254798.052 7      2524.957    23644908.652    96821919.826 5
      1967.499                          42.000          30.000
  24452337.823   128497790.640 6     -4108.374    24452343.256   100128110.253 4
     -3201.347                          38.000          23.000
  24570489.143   129118773.711 6      2405.737    24570494.325   100612043.587 6
      1874.619                          38.000          34.000
  24764801.974   130139854.030 7     -2155.652    24764805.405   101407655.903 4
     -1679.732                          39.000          22.000
  25359606.265   133265646.009 6     -2063.588    25359613.073   103843393.499 6
     -1607.993                          36.000          33.000
  25447527.898   133727538.218 5     -3305.629    25447536.368   104203242.991 2
     -2575.800                          29.000          13.000
 23 12 16 11  0 30.0000000  0 13G13G15G22G14G05G24G30G23G20G17G18G08
                                G07
  19887402.372   104508991.469 8      -799.053    19887402.372    81435573.136 8
      -622.641                          48.000          47.000
  20462132.728   107529220.558 8      1470.914    20462133.407    83788999.305 8
      1146.159                          49.000          46.000
  21015933.437   110439534.978 8        17.255    21015933.937    86056807.751 7
        13.441                          49.000          44.000
  21212716.499   111473627.092 8     -1127.796    21212717.643    86862595.888 7
      -878.806                          48.000          43.000
  22103316.502   116153661.410 8     -3307.107    22103318.342    90509322.754 9
     -2576.973                          48.000          51.000
  22652075.091   119037480.903 7      2861.056    22652079.880    92756512.691 6
      2229.390                          43.000          34.000
  22852567.029   120091005.777 7     -3071.001    22852572.122    93577405.114 8
     -2392.990                          44.000          48.000
  23630537.258   124179290.621 7      2509.387    23630539.813    96763082.864 5
      1955.357                          43.000          30.000
  24475802.584   128621096.550 6     -4111.418    24475807.945   100224192.620 4
     -3203.695                          37.000          23.000
  24556778.957   129046724.777 7      2398.183    24556784.532   100555901.089 6
      1868.722                          39.000          36.000
  24777155.419   130204769.786 7     -2171.606    24777159.136   101458239.474 4
     -1692.159                          40.000          24.000
  25371441.884   133327842.852 6     -2082.449    25371448.549   103891858.526 4
     -1622.698                          36.000          25.000
  25466409.290   133826762.430 5     -3308.448    25466418.332   104280560.434 3
     -2578.116                          28.000          19.000
 23 12 16 11  1  0.0000000  0 13G13G15G22G14G05G24G30G23G20G17G18G08
                                G07
  19891998.160   104533142.294 8      -813.859    19891998.160    81454391.946 8
      -634.177                          48.000          47.000
  20453771.258   107485281.923 8      1455.441    20453772.134    83754761.426 8
      1134.110                          50.000          47.000
  21015882.957   110439268.187 8        -2.371    21015882.957    86056599.858 7
        -1.851                          49.000          44.000
  21219201.328   111507706.529 8     -1146.987    21219202.865    86889151.257 7
      -893.754                          49.000          43.000
  22122224.287   116253022.168 8     -3319.785    22122225.699    90586746.649 9
     -2586.843                          47.000          51.000
  22635756.223   118951722.848 7      2853.356    22635760.637    92689688.272 6
      2223.389                          43.000          34.000
  22870107.262   120183177.791 8     -3076.630    22870111.515    93649227.348 8
     -2397.369                          45.000          47.000
  23616241.396   124104167.077 7      2496.019    23616244.220    96704545.043 5
      1944.949                          43.000          30.000
  24499267.131   128744403.822 6     -4111.919    24499272.635   100320276.046 4
     -3204.095                          38.000          23.000
  24543096.128   128974820.477 7      2392.637    24543102.435   100499871.373 6
      1864.399                          39.000          36.000
  24789584.754   130270085.250 7     -2185.430    24789588.399   101509134.519 4
     -1702.928                          40.000          24.000
  25383368.760   133390517.750 6     -2098.664    25383374.907   103940696.092 3
     -1635.350                          37.000          20.000
  25485291.844   133925984.482 4     -3309.356
     -2578.486                          24.000
 23 12 16 11  1 30.0000000  0 12G13G15G22G14G05G24G30G23G20G17G18G08
  19896677.414   104557730.741 8      -827.214    19896677.271    81473551.766 8
      -644.579                          49.000          47.000
  20445497.132   107441802.148 8      1441.342    20445497.954    83720881.089 8
      1123.128                          49.000          46.000
  21015942.675   110439583.423 8       -20.560    21015942.908    86056845.494 7
       -16.020                          49.000          44.000
  21225794.212   111542353.139 8     -1164.664    21225795.838    86916148.574 7
      -907.525                          49.000          43.000
  22141203.066   116352755.287 8     -3330.922    22141204.567    90664460.683 9
     -2595.516                          47.000          51.000
  22619480.152   118866192.178 7      2846.937    22619484.405    92623041.028 6
      2218.396                          43.000          34.000
  22887677.033   120275508.726 8     -3080.585    22887681.464    93721173.422 8
     -2400.450                          45.000          47.000
  23602021.192   124029438.684 7      2483.987    23602024.140    96646315.139 5
      1935.572                          43.000          30.000
  24522732.929   128867718.197 6     -4110.943    24522738.557   100416365.008 4
     -3203.323                          38.000          23.000
  24529443.193   128903073.019 7      2388.603    24529449.823   100443963.961 6
      1861.263                          39.000          36.000
  24802091.087   130335806.409 6     -2197.581    24802094.946   101560345.703 4
     -1712.399                          38.000          23.000
  25395388.751   133453678.242 6     -2113.770    25395394.362   103989912.097 3
     -1647.116                          35.000          19.000
 23 12 16 11  2  0.0000000  0 12G13G15G22G14G05G24G30G23G17G20G18G08
  19901442.618   104582772.996 8      -842.368    19901442.475    81493065.200 8
      -656.391                          49.000          47.000
  20437314.210   107398798.775 8      1425.406    20437314.782    83687371.981 8
      1110.703                          50.000          47.000
  21016116.666   110440496.820 8       -40.473    21016117.006    86057557.227 7
       -31.539                          49.000          44.000
  21232498.097   111577581.929 8     -1184.035    21232499.598    86943599.536 7
      -922.626                          49.000          43.000
  22160254.911   116452873.450 8     -3343.700    22160257.037    90742474.732 9
     -2605.480                          48.000          52.000
  22603250.451   118780906.097 7      2838.741    22603254.865    92556584.364 6
      2212.006                          43.000          34.000
  22905280.343   120368013.471 8     -3086.485    22905284.739    93793254.929 8
     -2405.054                          45.000          47.000
  23587879.826   123955124.185 7      2470.156    23587882.596    96588407.750 5
      1924.798                          42.000          29.000
  24515823.960   128831501.496 7      2382.736    24515830.232   100388193.726 6
      1856.686                          39.000          35.000
  24546202.550   128991053.291 7     -4111.447    24546208.429   100512470.140 4
     -3203.722                          39.000          23.000
  24814677.669   130401946.714 7     -2211.711    24814680.743   101611883.479 4
     -1723.405                          39.000          22.000
  25407501.215   133517338.477 6     -2130.329    25407508.148   104039517.578 3
     -1659.997                          36.000          19.000
 23 12 16 11  2 30.0000000  0 12G13G15G22G14G05G24G30G23G17G20G18G08
  19906291.055   104608252.016 8      -857.140    19906290.877    81512918.975 8
      -667.901                          49.000          47.000
  20429218.542   107356257.020 8      1409.776    20429219.453    83654222.568 8
      1098.531                          50.000          47.000
  21016401.087   110441991.372 8       -60.066    21016401.141    86058721.804 7
       -46.804                          49.000          44.000
  21239309.697   111613374.632 8     -1203.050    21239310.644    86971489.915 7
      -937.442                          48.000          43.000
  22179376.391   116553357.292 8     -3356.150    22179378.357    90820773.736 9
     -2615.174                          47.000          51.000
  22587064.923   118695848.671 7      2830.868    22587069.015    92490305.887 6
      2205.870                          44.000          34.000
  22922912.941   120460673.601 8     -3091.804    22922917.462    93865457.520 8
     -2409.192                          45.000          47.000
  23573814.403   123881209.136 7      2456.577    23573817.227    96530811.621 5
      1914.221                          42.000          30.000
  24502234.944   128760091.861 7      2376.947    24502241.305   100332549.720 6
      1852.174                          39.000          34.000
  24569672.708   129114389.314 7     -4111.795    24569678.319   100608575.981 4
     -3203.985                          40.000          23.000
  24827339.051   130468486.315 7     -2225.205    24827343.018   101663732.403 4
     -1733.914                          40.000          23.000
  25419706.490   133581479.261 6     -2146.778    25419713.513   104089497.501 3
     -1672.820                          37.000          20.000
 23 12 16 11  3  0.0000000  0 12G13G15G22G14G05G24G30G23G17G20G18G08
  19911224.442   104634177.577 8      -871.837    19911224.532    81533120.697 8
      -679.353                          49.000          47.000
  20421213.416   107314188.377 8      1394.185    20421213.791    83621441.807 8
      1086.380                          49.000          46.000
  21016797.440   110444076.445 8       -79.549    21016798.119    86060346.527 7
       -61.987                          49.000          44.000
  21246229.512   111649739.675 8     -1221.871    21246230.817    86999826.271 7
      -952.104                          48.000          43.000
  22198568.812   116654213.949 8     -3368.263    22198570.670    90899363.246 9
     -2624.615                          47.000          51.000
  22570924.031   118611030.646 7      2823.035    22570928.802    92424213.961 6
      2199.765                          43.000          34.000
  22940576.738   120553497.514 7     -3097.096    22940581.384    93937787.746 8
     -2413.314                          44.000          47.000
  23559827.283   123807705.696 7      2443.042    23559829.784    96473536.227 5
      1903.668                          42.000          30.000
  24488679.199   128688856.104 7      2371.328    24488685.953   100277041.262 6
      1847.791                          39.000          35.000
  24593144.742   129237732.838 7     -4111.795    24593149.620   100704687.699 4
     -3203.991                          39.000          23.000
  24840078.771   130535432.220 7     -2238.565    24840082.953   101715897.949 4
     -1744.337                          39.000          22.000
  25432005.560   133646108.750 6     -2162.552    25432011.493   104139858.281 3
     -1685.103                          37.000          20.000
 23 12 16 11  3 30.0000000  0 12G13G15G22G14G05G24G30G23G17G20G18G08
  19916240.920   104660538.669 8      -885.925    19916240.992    81553661.790 8
      -690.330                          49.000          47.000
  20413296.117   107272582.981 8      1379.190    20413296.492    83589022.013 8
      1074.690                          50.000          46.000
  21017304.777   110446740.572 8       -98.447    21017305.170    86062422.468 7
       -76.711                          49.000          44.000
  21253255.934   111686664.582 8     -1240.083    21253257.703    87028598.885 7
      -966.300                          49.000          43.000
  22217829.296   116755428.574 8     -3379.709    22217831.565    90978231.691 9
     -2633.538                          48.000          51.000
  22554827.579   118526441.822 7      2815.955    22554832.082    92358300.633 6
      2194.250                          44.000          34.000
  22958269.055   120646472.654 8     -3101.428    22958274.326    94010235.795 8
     -2416.697                          45.000          46.000
  23545916.766   123734605.228 7      2430.043    23545919.125    96416574.835 5
      1893.538                          42.000          30.000
  24475155.315   128617786.348 7      2366.181    24475162.641   100221662.200 6
      1843.775                          40.000          36.000
  24616615.006   129361070.223 7     -4110.913    24616620.313   100800794.624 4
     -3203.309                          39.000          22.000
  24852893.005   130602770.402 7     -2251.237    24852897.240   101768369.140 4
     -1754.208                          39.000          22.000
  25444394.672   133711212.998 6     -2177.875    25444400.426   104190588.933 3
     -1697.062                          36.000          18.000
 23 12 16 11  4  0.0000000  0 12G13G15G22G14G05G24G30G23G17G20G18G08
  19921343.474   104687353.342 8      -899.931    19921343.599    81574556.324 8
      -701.243                          49.000          47.000
  20405470.521   107231461.079 8      1364.137    20405471.414    83556978.973 8
      1062.966                          50.000          46.000
  21017925.279   110450002.205 8      -117.204    21017925.601    86064963.989 7
       -91.326                          49.000          44.000
  21260392.250   111724166.372 8     -1258.202    21260393.965    87057821.027 7
      -980.421                          48.000          43.000
  22237161.273   116857016.913 8     -3391.040    22237163.275    91057391.342 9
     -2642.365                          47.000          51.000
  22538778.534   118442101.610 7      2808.529    22538782.733    92292581.035 6
      2188.466                          44.000          35.000
  22975993.857   120739616.014 7     -3106.144    22975998.449    94082814.932 8
     -2420.374                          44.000          46.000
  23532086.500   123661928.575 7      2416.899    23532088.519    96359943.679 5
      1883.299                          43.000          29.000
  24461666.668   128546903.529 7      2360.909    24461673.905   100166428.818 6
      1839.668                          40.000          36.000
  24640087.630   129484417.168 6     -4110.251    24640092.633   100896908.990 4
     -3202.792                          38.000          21.000
  24865784.683   130670516.407 7     -2263.619    24865788.418   101821158.146 4
     -1763.853                          40.000          21.000
  25456878.007   133776808.625 6     -2193.359    25456883.064   104241702.497 3
     -1709.098                          35.000          17.000
 23 12 16 11  4 30.0000000  0 12G13G15G22G14G05G24G30G23G17G20G18G08
  19926528.314   104714598.240 8      -915.118    19926528.135    81595786.096 8
      -713.075                          49.000          47.000
  20397733.377   107190800.681 8      1347.861    20397733.842    83525295.539 8
      1050.288                          50.000          47.000
  21018654.979   110453836.986 8      -137.179    21018655.390    86067952.123 7
      -106.891                          49.000          44.000
  21267634.207   111762220.331 8     -1277.440    21267635.172    87087473.431 7
      -995.406                          48.000          43.000
  22256559.009   116958952.125 8     -3403.417    22256560.814    91136821.281 8
     -2652.005                          46.000          50.000
  22522771.910   118357987.604 7      2800.183    22522776.288    92227037.708 6
      2181.961                          44.000          35.000
  22993746.338   120832902.922 7     -3111.768    22993750.412    94155505.930 8
     -2424.748                          44.000          46.000
  23518333.231   123589654.865 7      2402.579    23518335.786    96303626.532 5
      1872.148                          43.000          30.000
  24448209.686   128476187.128 7      2354.683    24448216.440   100111325.147 6
      1834.820                          39.000          35.000
  24663556.251   129607747.173 6     -4110.324    24663561.647   100993010.144 3
     -3202.837                          38.000          20.000
  24878749.302   130738644.058 7     -2277.010    24878752.197   101874244.573 4
     -1774.273                          39.000          21.000
  25469447.685   133842870.084 6     -2209.577    25469454.011   104293179.053 3
     -1721.706                          34.000          16.000
 23 12 16 11  5  0.0000000  0 12G13G15G22G14G05G24G30G23G17G20G18G08
  19931787.953   104742237.546 8      -928.542    19931787.775    81617323.199 8
      -723.538                          49.000          47.000
  20390077.073   107150567.524 8      1333.292    20390077.716    83493945.011 8
      1038.930                          50.000          47.000
  21019487.121   110458209.206 8      -155.377    21019487.764    86071359.041 7
      -121.070                          49.000          44.000
  21274973.372   111800789.240 8     -1294.840    21274974.856    87117527.100 7
     -1008.964                          48.000          43.000
  22276014.891   117061195.905 8     -3413.893    22276016.910    91216491.674 8
     -2660.170                          47.000          50.000
  22506802.150   118274064.970 7      2793.562    22506806.438    92161643.506 6
      2176.803                          44.000          35.000
  23011518.475   120926296.095 7     -3115.503    23011523.228    94228279.726 8
     -2427.661                          44.000          46.000
  23504650.295   123517750.699 7      2389.937    23504652.993    96247597.351 5
      1862.295                          43.000          30.000
  24434778.077   128405603.781 6      2349.770    24434784.796   100056325.205 6
      1830.986                          38.000          34.000
  24687014.382   129731022.165 6     -4108.962    24687020.011   101089068.442 3
     -3201.799                          38.000          19.000
  24891778.215   130807114.617 7     -2288.777    24891782.289   101927598.173 4
     -1783.450                          40.000          22.000
  25482099.936   133909359.749 6     -2224.139    25482106.494   104344989.330 3
     -1733.103                          33.000          15.000
 23 12 16 11  5 30.0000000  0 12G13G15G22G14G05G24G30G23G17G20G18G08
  19937132.632   104770324.636 8      -943.337    19937132.489    81639209.228 8
      -735.068                          48.000          47.000
  20382512.972   107110817.078 8      1317.322    20382513.723    83462970.626 8
      1026.494                          50.000          47.000
  21020431.499   110463172.004 8      -174.857    21020431.946    86075226.156 7
      -136.253                          49.000          44.000
  21282420.431   111839924.948 8     -1313.590    21282422.253    87148022.433 7
     -1023.571                          48.000          43.000
  22295539.961   117163798.888 8     -3425.628    22295541.766    91296441.960 8
     -2669.308                          47.000          50.000
  22490878.349   118190387.982 7      2785.460    22490883.102    92096440.724 6
      2170.486                          44.000          35.000
  23029320.721   121019847.522 7     -3120.592    23029325.635    94301176.842 8
     -2431.621                          44.000          46.000
  23491048.716   123446271.793 7      2375.873    23491050.718    96191899.548 5
      1851.340                          42.000          29.000
  24421382.296   128335209.802 6      2343.615    24421388.765   100001472.876 6
      1826.199                          38.000          33.000
  24710472.049   129854291.835 6     -4108.541    24710477.160   101185122.595 3
     -3201.442                          37.000          18.000
  24904883.499   130875978.501 7     -2301.638    24904887.573   101981258.246 4
     -1793.477                          40.000          23.000
  25494844.124   133976328.472 6     -2239.954    25494850.038   104397172.931 2
     -1745.477                          33.000          13.000
 23 12 16 11  6  0.0000000  0 12G13G15G22G14G05G24G30G23G17G20G18G08
  19942559.007   104798841.178 8      -956.574    19942558.954    81661429.889 8
      -745.380                          49.000          47.000
  20375037.431   107071532.302 8      1302.861    20375038.128    83432359.096 8
      1015.218                          49.000          47.000
  21021484.789   110468706.611 8      -192.892    21021484.914    86079538.828 7
      -150.305                          49.000          44.000
  21289972.184   111879607.867 8     -1330.763    21289973.559    87178944.167 7
     -1036.955                          48.000          43.000
  22315128.806   117266739.022 8     -3435.804    22315130.700    91376654.952 8
     -2677.244                          46.000          50.000
  22474998.755   118106939.393 7      2778.985    22475002.919    92031415.919 6
      2165.443                          43.000          34.000
  23047149.628   121113537.626 7     -3124.144    23047154.685    94374182.005 8
     -2434.392                          43.000          46.000
  23477524.528   123375202.425 7      2363.275    23477526.494    96136520.858 5
      1841.513                          42.000          30.000
  24408019.698   128264989.693 6      2338.850    24408026.292    99946756.079 6
      1822.474                          38.000          35.000
  24733925.249   129977535.725 6     -4106.678    24733930.002   101281156.638 3
     -3200.004                          37.000          19.000
  24918058.419   130945214.652 6     -2312.831    24918062.851   102035208.397 4
     -1802.201                          38.000          22.000
  25507675.047   134043756.008 5     -2254.104    25507681.140   104449714.006 2
     -1756.469                          31.000          10.000
 23 12 16 11  6 30.0000000  0 12G13G15G22G14G05G24G30G23G17G20G18G08
  19948064.614   104827772.492 8      -971.403    19948064.489    81683973.754 8
      -756.940                          48.000          47.000
  20367647.982   107032700.764 8      1286.743    20367648.590    83402100.748 8
      1002.662                          49.000          47.000
  21022644.006   110474798.021 8      -212.377    21022644.363    86084285.379 7
      -165.487                          49.000          44.000
  21297624.611   111919822.138 8     -1349.354    21297625.683    87210279.951 7
     -1051.443                          48.000          43.000
  22334778.692   117369998.902 8     -3447.347    22334780.496    91457117.103 8
     -2686.238                          46.000          50.000
  22459159.671   118023705.798 7      2770.837    22459163.781    91966558.640 6
      2159.092                          43.000          34.000
  23065001.569   121207350.636 7     -3129.193    23065006.286    94447282.945 8
     -2438.326                          44.000          46.000
  23464076.159   123304530.602 7      2349.080    23464078.053    96081451.943 5
      1830.451                          41.000          29.000
  24394688.031   128194932.161 7      2332.514    24394695.304    99892166.011 6
      1817.536                          39.000          36.000
  24757369.443   130100736.761 6     -4105.994    24757374.750   101377157.267 3
     -3199.455                          37.000          17.000
  24931301.331   131014805.733 7     -2325.589    24931304.672   102089435.143 4
     -1812.144                          39.000          21.000
  25520590.312   134111626.044 5     -2269.568    25520596.388   104502599.958 1
     -1768.450                          29.000           6.000
 23 12 16 11  7  0.0000000  0 12G13G15G22G14G05G24G30G23G17G20G18G08
  19953657.761   104857165.069 8      -986.323    19953657.690    81706877.042 8
      -768.562                          49.000          47.000
  20360353.883   106994370.324 8      1270.410    20360354.526    83372232.863 8
       989.937                          50.000          47.000
  21023917.745   110481492.393 8      -232.115    21023918.407    86089501.775 7
      -180.866                          49.000          44.000
  21305386.557   111960612.723 8     -1368.175    21305387.968    87242064.811 7
     -1066.108                          48.000          43.000
  22354497.605   117473622.419 8     -3459.032    22354499.696    91537862.597 8
     -2695.336                          46.000          50.000
  22443370.728   117940734.585 7      2762.399    22443374.677    91901905.820 6
      2152.520                          43.000          34.000
  23082885.280   121301331.670 7     -3134.416    23082890.444    94520514.814 8
     -2442.396                          44.000          46.000
  23450712.274   123234305.216 7      2334.445    23450715.115    96026730.912 5
      1819.067                          42.000          30.000
  24381396.122   128125086.229 7      2325.623    24381403.842    99837740.879 6
      1812.174                          39.000          35.000
  24780814.173   130223938.257 6     -4105.643    24780819.194   101473158.263 3
     -3199.194                          37.000          16.000
  24944619.524   131084795.324 7     -2338.502    24944623.670   102143972.443 4
     -1822.212                          40.000          22.000
  25533597.942   134179982.749 5     -2285.369    25533604.179   104555864.786 1
     -1780.905                          28.000           5.000
 23 12 16 11  7 30.0000000  0 11G13G15G22G14G05G24G30G23G17G20G18
  19959332.784   104886987.677 8     -1001.659    19959332.766    81730115.416 8
      -780.513                          49.000          47.000
  20353149.843   106956511.481 8      1253.680    20353150.361    83342732.460 8
       976.896                          49.000          47.000
  21025300.701   110488758.146 8      -252.100    21025300.558    86095163.403 7
      -196.443                          49.000          44.000
  21313252.429   112001947.046 8     -1387.263    21313253.966    87274273.359 7
     -1080.986                          48.000          42.000
  22374279.311   117577574.858 8     -3470.930    22374281.062    91618864.397 8
     -2704.617                          46.000          49.000
  22427626.153   117857995.679 7      2753.644    22427629.852    91837434.011 6
      2145.697                          43.000          34.000
  23100795.277   121395448.269 7     -3139.877    23100800.191    94593852.323 8
     -2446.658                          44.000          46.000
  23437428.460   123164497.552 7      2319.606    23437431.105    95972335.382 5
      1807.481                          42.000          29.000
  24368140.256   128055423.629 7      2318.479    24368147.368    99783458.604 6
      1806.594                          39.000          36.000
  24804252.381   130347106.424 6     -4105.430    24804257.402   101569133.230 2
     -3199.055                          36.000          14.000
  24958007.622   131155149.344 7     -2351.651    24958011.517   102198793.714 4
     -1832.454                          40.000          21.000
 23 12 16 11  8  0.0000000  0 11G13G15G22G14G05G24G30G23G17G20G18
  19965092.453   104917253.605 8     -1016.732    19965092.256    81753699.232 8
      -792.256                          49.000          47.000
  20346038.097   106919139.385 8      1237.102    20346038.651    83313611.337 8
       963.983                          50.000          47.000
  21026794.265   110496608.204 8      -271.918    21026794.229    86101280.324 7
      -211.884                          50.000          44.000
  21321223.836   112043836.964 8     -1406.072    21321225.498    87306914.830 7
     -1095.639                          49.000          43.000
  22394125.362   117681867.044 8     -3482.546    22394126.970    91700130.947 8
     -2713.663                          46.000          49.000
  22411928.574   117775503.354 7      2745.119    22411932.308    91773154.328 6
      2139.056                          43.000          35.000
  23118733.006   121489712.469 7     -3145.102    23118738.259    94667304.836 8
     -2450.723                          44.000          46.000
  23424226.826   123095123.432 7      2304.683    23424229.506    95918277.677 5
      1795.863                          43.000          30.000
  24354921.575   127985960.293 7      2311.486    24354928.740    99729331.602 6
      1801.155                          39.000          35.000
  24827686.354   130470251.858 6     -4105.063    24827691.071   101665090.487 2
     -3198.777                          35.000          13.000
  24971467.178   131225878.254 7     -2364.338    24971470.716   102253907.091 3
     -1842.342                          40.000          20.000
 23 12 16 11  8 30.0000000  0 11G13G15G22G14G24G05G30G23G17G20G18
  19970934.426   104947955.380 8     -1031.313    19970934.676    81777622.668 8
      -803.617                          49.000          47.000
  20339017.787   106882248.081 8      1221.046    20339018.448    83284864.859 8
       951.469                          50.000          47.000
  21028397.581   110505034.599 8      -291.129    21028398.081    86107846.351 7
      -226.852                          50.000          44.000
  21329299.348   112086273.607 8     -1424.271    21329301.028    87339982.323 7
     -1109.819                          49.000          43.000
  22396275.846   117693251.261 7      2736.983    22396280.724    91709061.838 6
      2132.716                          44.000          35.000
  22414034.134   117786487.933 8     -3493.446    22414036.153    91781653.617 8
     -2722.156                          47.000          49.000
  23136697.700   121584115.546 8     -3149.717    23136702.506    94740865.555 8
     -2454.319                          45.000          46.000
  23411107.085   123026177.868 7      2290.337    23411109.355    95864553.920 5
      1784.693                          43.000          30.000
  24341740.669   127916691.793 7      2304.985    24341746.941    99675356.458 6
      1796.087                          39.000          36.000
  24851114.108   130593364.599 6     -4103.830    24851118.629   101761022.241 2
     -3197.782                          35.000          13.000
  24984995.779   131296971.805 7     -2376.453    24984999.567   102309304.615 3
     -1851.765                          40.000          20.000
 23 12 16 11  9  0.0000000  0 11G13G15G22G14G24G05G30G23G17G20G18
  19976860.276   104979094.652 8     -1045.657    19976860.169    81801887.011 8
      -814.794                          49.000          47.000
  20332089.931   106845840.714 8      1205.081    20332090.378    83256495.475 8
       939.022                          50.000          47.000
  21030111.095   110514038.760 8      -310.153    21030111.703    86114862.580 7
      -241.676                          49.000          44.000
  21337479.090   112129257.052 8     -1442.279    21337480.162    87373475.894 7
     -1123.853                          48.000          43.000
  22380670.042   117611241.978 7      2729.158    22380674.509    91645158.524 6
      2126.618                          44.000          35.000
  22434005.394   117891436.606 8     -3504.121    22434007.520    91863431.685 8
     -2730.482                          47.000          50.000
  23154688.679   121678657.811 7     -3154.140    23154693.074    94814534.742 8
     -2457.766                          43.000          45.000
  23398069.471   122957664.871 7      2276.171    23398071.580    95811167.219 5
      1773.638                          43.000          31.000
  24328596.358   127847622.651 7      2298.489    24328602.720    99621536.653 6
      1791.013                          40.000          36.000
  24874536.519   130716443.715 6     -4102.321    24874539.879   101856927.759 2
     -3196.553                          34.000          12.000
  24998593.695   131368428.591 7     -2388.216    24998597.376   102364985.193 3
     -1860.939                          39.000          20.000
 23 12 16 11  9 30.0000000  0 11G13G15G22G14G24G05G30G23G17G20G18
  19982867.181   105010661.209 8     -1058.483    19982867.074    81826484.308 8
      -824.790                          49.000          47.000
  20325252.099   106809909.173 8      1190.603    20325252.778    83228496.870 8
       927.739                          50.000          47.000
  21031932.467   110523610.253 8      -327.672    21031932.771    86122320.886 7
      -255.334                          49.000          44.000
  21345760.328   112172775.929 8     -1458.663    21345761.471    87407386.678 7
     -1136.616                          48.000          42.000
  22365109.071   117529466.645 7      2722.682    22365112.716    91581437.501 6
      2121.568                          44.000          35.000
  22454036.319   117996700.212 8     -3513.206    22454038.606    91945455.158 8
     -2737.565                          46.000          49.000
  23172703.620   121773328.153 7     -3156.951    23172708.695    94888303.719 8
     -2459.958                          44.000          45.000
  23385112.857   122889577.014 7      2263.309    23385114.233    95758111.799 5
      1763.609                          43.000          30.000
  24315489.090   127778745.653 7      2293.561    24315495.255    99567866.590 6
      1787.171                          39.000          35.000
  24897948.853   130839476.319 6     -4099.389    24897952.337   101952797.019 2
     -3194.404                          33.000           9.000
  25012258.083   131440235.920 7     -2398.509    25012261.585   102420938.938 3
     -1868.977                          39.000          20.000
 23 12 16 11 10  0.0000000  0 11G13G15G22G14G24G05G30G23G17G20G18
  19988957.230   105042664.418 8     -1073.975    19988957.105    81851421.853 8
      -836.865                          49.000          47.000
  20318507.293   106774464.120 8      1173.463    20318507.758    83200877.339 8
       914.383                          50.000          47.000
  21033863.894   110533757.749 8      -347.750    21033863.858    86130228.024 7
      -270.974                          49.000          44.000
  21354144.956   112216838.066 8     -1477.669    21354146.689    87441720.780 7
     -1151.434                          48.000          43.000
  22349594.006   117447935.657 7      2713.650    22349597.866    91517906.875 6
      2114.529                          44.000          35.000
  22474128.766   118102284.974 8     -3524.669    22474130.732    92027728.881 8
     -2746.494                          46.000          49.000
  23190745.133   121868134.594 7     -3162.314    23190749.529    94962178.760 8
     -2464.146                          43.000          45.000
  23372239.030   122821926.076 7      2247.850    23372241.121    95705396.851 5
      1751.572                          43.000          31.000
  24302421.116   127710072.873 7      2285.831    24302426.799    99514355.662 6
      1781.152                          40.000          35.000
  24921353.360   130962469.279 5     -4098.842    24921357.595   102048635.378 1
     -3193.887                          32.000           8.000
  25025990.266   131512400.137 6     -2411.279    25025993.876   102477170.761 3
     -1878.921                          38.000          18.000
 23 12 16 11 10 30.0000000  0 11G13G15G22G14G24G05G30G23G17G20G18
  19995129.834   105075101.787 8     -1088.553    19995129.744    81876697.700 8
      -848.218                          49.000          47.000
  20311854.763   106739505.053 8      1157.114    20311855.389    83173636.501 8
       901.650                          50.000          48.000
  21035903.500   110544478.283 8      -366.968    21035904.179    86138581.687 7
      -285.948                          50.000          44.000
  21362632.420   112261439.361 8     -1495.708    21362633.992    87476475.004 7
     -1165.486                          48.000          42.000
  22334125.347   117366647.410 7      2705.440    22334129.546    91454565.390 6
      2108.140                          44.000          35.000
  22494280.896   118208184.731 8     -3535.270    22494283.005    92110248.069 8
     -2754.750                          47.000          50.000
  23208811.269   121963073.294 7     -3166.829    23208816.040    95036156.842 8
     -2467.653                          43.000          45.000
  23359448.562   122754711.907 7      2233.120    23359451.153    95653022.231 5
      1740.091                          43.000          31.000
  24289391.775   127641605.090 7      2278.747    24289397.851    99461004.461 6
      1775.638                          41.000          36.000
  24944749.986   131085417.136 5     -4097.373    24944754.060   102144438.529 1
     -3192.695                          31.000           7.000
  25039789.851   131584915.792 6     -2423.026    25039793.318   102533676.448 3
     -1888.073                          38.000          18.000
 23 12 16 11 11  0.0000000  0 11G13G15G22G14G24G05G30G23G17G20G18
  20001388.888   105107993.263 8     -1103.484    20001388.888    81902327.402 8
      -859.857                          49.000          47.000
  20305298.869   106705053.746 8      1140.392    20305299.619    83146791.322 8
       888.615                          50.000          47.000
  21038056.413   110555791.911 8      -386.529    21038056.824    86147397.508 7
      -301.194                          49.000          44.000
  21371225.776   112306598.623 8     -1514.121    21371227.134    87511664.015 7
     -1179.833                          49.000          42.000
  22318707.239   117285623.354 7      2696.842    22318711.670    91391429.776 6
      2101.435                          44.000          36.000
  22514496.426   118314417.500 8     -3546.160    22514498.820    92193026.748 8
     -2763.242                          46.000          50.000
  23226906.692   122058163.417 7     -3171.702    23226911.428    95110252.909 8
     -2471.453                          44.000          45.000
  23346745.170   122687957.261 7      2217.931    23346748.172    95601005.687 5
      1728.252                          42.000          31.000
  24276405.981   127573364.990 7      2271.329    24276412.021    99407830.650 6
      1769.856                          41.000          37.000
  24968140.948   131208337.961 5     -4096.539    24968145.451   102240220.665 1
     -3192.036                          30.000           5.000
  25053659.430   131657800.313 6     -2435.173    25053663.111   102590469.581 3
     -1897.535                          38.000          19.000
 23 12 16 11 11 30.0000000  0 11G13G15G22G14G24G05G30G23G17G20G18
  20007731.497   105141322.381 8     -1118.945    20007731.390    81928298.115 8
      -871.903                          49.000          47.000
  20298836.823   106671094.994 8      1123.056    20298837.359    83120329.952 8
       875.110                          50.000          47.000
  21040319.257   110567681.161 8      -406.546    21040319.043    86156661.865 7
      -316.789                          49.000          44.000
  21379921.843   112352297.760 8     -1532.984    21379923.362    87547273.711 7
     -1194.524                          49.000          42.000
  22303336.198   117204847.966 8      2687.694    22303340.826    91328487.927 6
      2094.308                          45.000          36.000
  22534771.602   118420963.599 8     -3557.479    22534773.925    92276049.570 8
     -2772.056                          46.000          49.000
  23245027.436   122153387.131 7     -3177.057    23245032.064    95184453.092 8
     -2475.620                          44.000          45.000
  23334127.299   122621648.026 7      2202.082    23334129.515    95549336.202 5
      1715.903                          41.000          30.000
  24263460.767   127505338.810 7      2263.214    24263466.825    99354823.531 6
      1763.536                          40.000          36.000
  24991524.352   131331212.229 5     -4095.501    24991527.961   102335966.383 1
     -3191.396                          30.000           8.000
  25067595.141   131731034.189 6     -2447.516    25067600.073   102647534.896 3
     -1907.154                          38.000          19.000
 23 12 16 11 12  0.0000000  0 11G13G15G22G14G24G05G30G23G17G20G18
  20014158.699   105175099.312 8     -1132.623    20014158.860    81954617.773 8
      -882.562                          49.000          46.000
  20292470.590   106637640.870 8      1107.427    20292471.341    83094261.792 9
       862.927                          49.000          53.000
  21042692.871   110580155.683 8      -424.802    21042693.192    86166382.288 7
      -331.018                          49.000          44.000
  21388722.819   112398545.489 8     -1549.944    21388724.267    87583310.879 7
     -1207.749                          48.000          42.000
  22288014.404   117124332.558 8      2680.267    22288018.782    91265748.666 6
      2088.517                          45.000          36.000
  22555107.390   118527829.552 8     -3566.762    22555109.445    92359321.649 8
     -2779.299                          46.000          49.000
  23263175.377   122248753.515 7     -3180.557    23263179.612    95258764.438 7
     -2478.350                          42.000          44.000
  23321596.146   122555796.887 7      2188.126    23321598.344    95498023.695 5
      1705.027                          42.000          30.000
  24250559.190   127437539.784 7      2256.834    24250564.622    99301993.390 6
      1758.559                          40.000          36.000
  25014899.696   131454047.744 5     -4093.373    25014902.948   102431682.031 1
     -3189.448                          29.000           5.000
  25081598.809   131804624.782 6     -2458.265    25081603.544   102704878.202 3
     -1915.528                          38.000          19.000
 23 12 16 11 12 30.0000000  0 11G13G15G22G14G24G05G30G23G17G20G18
  20020669.295   105209311.802 8     -1148.371    20020669.242    81981276.829 8
      -894.834                          49.000          46.000
  20286198.778   106604681.011 8      1089.741    20286199.457    83068578.780 9
       849.144                          50.000          57.000
  21045175.414   110593202.804 8      -445.118    21045176.129    86176548.892 7
      -346.851                          49.000          44.000
  21397625.202   112445328.065 8     -1568.965    21397627.007    87619764.819 7
     -1222.571                          48.000          43.000
  22272740.625   117044066.071 8      2670.660    22272744.323    91203203.386 6
      2081.027                          45.000          36.000
  22575501.485   118635001.078 8     -3578.178    22575503.361    92442831.838 8
     -2788.194                          46.000          48.000
  23281346.958   122344249.161 7     -3186.042    23281352.033    95333176.511 7
     -2482.626                          43.000          44.000
  23309150.121   122490394.145 7      2171.951    23309152.498    95447060.571 5
      1692.417                          42.000          30.000
  24237698.247   127369958.592 7      2248.302    24237703.857    99249332.931 6
      1751.915                          41.000          37.000
  25038263.605   131576829.861 5     -4092.916    25038267.947   102527355.879 1
     -3189.230                          29.000           5.000
  25095668.609   131878556.949 6     -2470.686    25095671.808   102762487.670 3
     -1925.207                          37.000          18.000
 23 12 16 11 13  0.0000000  0 11G13G15G22G14G24G05G23G30G17G20G18
  20027261.339   105243952.356 8     -1161.380    20027261.285    82008269.441 8
      -904.969                          49.000          46.000
  20280019.634   106572209.191 8      1074.677    20280020.098    83043276.052 9
       837.409                          50.000          57.000
  21047766.172   110606814.762 8      -462.683    21047766.279    86187155.638 7
      -360.530                          49.000          44.000
  21406627.938   112492636.394 8     -1585.282    21406629.528    87656628.436 7
     -1235.286                          48.000          42.000
  22257512.411   116964041.969 8      2663.931    22257516.146    91140846.994 6
      2075.794                          45.000          36.000
  22595951.777   118742467.801 8     -3586.615    22595954.190    92526572.041 8
     -2794.766                          46.000          49.000
  23296789.010   122425434.609 7      2158.364    23296791.387    95396442.813 5
      1681.842                          42.000          31.000
  23299542.037   122439865.364 7     -3188.762    23299547.326    95407682.522 7
     -2484.747                          43.000          44.000
  24224879.224   127302590.634 7      2242.418    24224884.209    99196838.578 6
      1747.330                          41.000          38.000
  25061616.577   131699548.259 5     -4089.529    25061620.651   102622980.152 1
     -3186.573                          29.000           5.000
  25109800.094   131952820.302 6     -2480.518    25109803.274   102820355.164 3
     -1932.858                          37.000          16.000
 23 12 16 11 13 30.0000000  0 11G13G15G22G14G24G05G23G30G17G20G18
  20033936.473   105279031.606 8     -1176.547    20033936.616    82035603.890 8
      -916.789                          49.000          46.000
  20273935.642   106540237.783 8      1057.416    20273936.107    83018363.257 9
       823.967                          50.000          57.000
  21050465.395   110621001.620 8      -482.381    21050466.110    86198210.357 7
      -375.880                          49.000          44.000
  21415732.330   112540479.973 8     -1603.568    21415733.992    87693909.138 7
     -1249.536                          48.000          42.000
  22242332.408   116884272.440 8      2654.768    22242336.643    91078688.987 6
      2068.648                          45.000          36.000
  22616459.823   118850236.957 8     -3597.275    22616462.235    92610547.913 8
     -2803.066                          47.000          49.000
  23284514.421   122360931.844 7      2142.520    23284516.905    95346180.969 5
      1669.499                          42.000          31.000
  23317762.115   122535612.029 7     -3193.593    23317767.619    95482290.167 8
     -2488.507                          43.000          45.000
  24212101.586   127235449.759 7      2234.329    24212108.358    99144521.157 6
      1741.038                          40.000          37.000
  25084958.721   131822211.419 5     -4087.716    25084963.421   102718561.408 1
     -3185.183                          29.000           3.000
  25123996.193   132027422.999 6     -2492.299    25123999.516   102878487.135 2
     -1942.066                          37.000          13.000
 23 12 16 11 14  0.0000000  0 11G13G15G22G14G24G05G23G30G17G20G18
  20040698.826   105314566.453 8     -1191.643    20040698.523    82063293.347 8
      -928.552                          49.000          46.000
  20267950.288   106508785.933 8      1040.163    20267951.110    82993855.313 9
       810.504                          50.000          58.000
  21053277.640   110635779.629 8      -502.009    21053277.783    86209725.714 7
      -391.177                          49.000          44.000
  21424941.292   112588874.104 8     -1621.873    21424942.829    87731618.852 7
     -1263.801                          48.000          42.000
  22227204.279   116804775.427 8      2645.781    22227209.121    91016743.354 6
      2061.642                          45.000          37.000
  22637027.890   118958323.162 8     -3607.688    22637030.177    92694770.850 8
     -2811.193                          47.000          49.000
  23272330.338   122296905.084 7      2126.738    23272332.840    95296290.024 5
      1657.179                          42.000          32.000
  23336010.229   122631504.864 7     -3198.351    23336015.358    95557011.724 7
     -2492.223                          43.000          44.000
  24199371.783   127168555.533 7      2226.025    24199378.734    99092395.942 6
      1734.548                          39.000          36.000
  25108293.503   131944834.110 5     -4086.110    25108298.506   102814111.045 1
     -3183.947                          28.000           3.000
  25138259.443   132102378.971 6     -2503.788    25138263.303   102936894.383 3
     -1951.050                          37.000          15.000
 23 12 16 11 14 30.0000000  0 11G13G15G22G14G24G05G23G30G17G20G18
  20047540.947   105350522.408 8     -1206.952    20047540.786    82091310.942 8
      -940.482                          49.000          46.000
  20262057.942   106477820.765 8      1022.675    20262058.549    82969726.597 9
       796.888                          50.000          57.000
  21056195.920   110651113.803 8      -521.773    21056195.348    86221674.437 7
      -406.578                          49.000          44.000
  21434247.872   112637782.535 8     -1640.254    21434249.641    87769729.327 7
     -1278.119                          49.000          42.000
  22212122.234   116725517.319 7      2636.454    22212126.754    90954983.888 6
      2054.376                          44.000          36.000
  22657648.796   119066687.800 8     -3618.135    22657651.083    92779210.736 8
     -2819.321                          46.000          48.000
  23260231.187   122233322.178 7      2110.624    23260232.921    95246744.943 5
      1644.645                          42.000          31.000
  23354278.821   122727508.091 7     -3203.296    23354284.343    95631819.289 7
     -2496.073                          44.000          44.000
  24186683.687   127101876.461 7      2217.635    24186689.494    99040438.369 6
      1728.023                          39.000          36.000
  25131612.953   132067378.927 5     -4085.439    25131618.314   102909600.254 1
     -3183.536                          27.000           3.000
  25152583.520   132177650.654 6     -2515.640    25152586.754   102995547.600 3
     -1960.237                          38.000          17.000
 23 12 16 11 15  0.0000000  0 11G13G15G22G14G24G05G23G30G17G20G18
  20054471.179   105386941.299 8     -1222.164    20054471.090    82119689.266 8
      -952.337                          49.000          46.000
  20256266.324   106447385.033 8      1005.181    20256266.842    82946010.431 9
       783.254                          50.000          57.000
  21059227.560   110667045.637 8      -541.482    21059227.721    86234088.867 7
      -421.937                          49.000          44.000
  21443660.773   112687245.803 8     -1658.482    21443662.399    87808272.138 7
     -1292.331                          48.000          42.000
  22197093.688   116646541.397 8      2627.333    22197097.673    90893444.309 6
      2047.264                          45.000          37.000
  22678330.957   119175370.960 8     -3628.498    22678333.173    92863898.808 8
     -2827.405                          46.000          49.000
  23248224.776   122170227.666 7      2094.502    23248226.706    95197580.425 5
      1632.075                          43.000          32.000
  23372576.719   122823662.706 7     -3208.130    23372582.240    95706744.819 7
     -2499.842                          43.000          43.000
  24174044.087   127035457.650 7      2209.119    24174049.912    98988683.571 6
      1721.385                          40.000          37.000
  25154925.792   132189885.320 5     -4083.463
                                        27.000
  25166974.785   132253277.273 7     -2527.207    25166978.340   103054477.408 3
     -1969.254                          39.000          18.000
 23 12 16 11 15 30.0000000  0 11G13G15G22G14G24G05G23G30G17G20G18
  20061486.182   105423804.456 8     -1235.690    20061486.129    82148413.772 8
      -962.875                          49.000          46.000
  20250572.145   106417462.192 8       989.402    20250572.770    82922693.920 9
       770.964                          49.000          57.000
  21062368.881   110683555.548 8      -559.406    21062369.846    86246953.744 7
      -435.901                          49.000          44.000
  21453175.206   112737243.633 8     -1674.919    21453176.850    87847231.491 7
     -1305.130                          48.000          42.000
  22182115.284   116567830.067 8      2619.847    22182119.215    90832110.908 6
      2041.436                          45.000          38.000
  22699068.959   119284350.887 8     -3637.025    22699071.443    92948818.140 8
     -2834.040                          46.000          48.000
  23236307.657   122107605.319 7      2080.069    23236310.319    95148783.830 6
      1620.838                          43.000          33.000
  23390899.400   122919948.934 7     -3211.157    23390905.011    95781772.907 7
     -2502.195                          43.000          44.000
  24161451.644   126969283.227 7      2202.266    24161457.022    98937119.209 6
      1716.047                          41.000          38.000
  25178227.784   132312332.502 4     -4080.178
                                        26.000
  25181429.037   132329237.278 6     -2536.955    25181433.790   103113666.997 3
     -1976.851                          38.000          19.000
 23 12 16 11 16  0.0000000  0 11G13G15G22G14G24G05G23G30G17G18G20
  20068579.970   105461083.019 8     -1249.091    20068579.863    82177461.976 8
      -973.316                          49.000          46.000
  20244970.546   106388025.235 8       973.578    20244971.064    82899756.024 9
       758.636                          49.000          57.000
  21065615.200   110700614.565 8      -577.327    21065615.664    86260246.489 7
      -449.864                          49.000          44.000
  21462785.345   112787745.723 8     -1691.351    21462787.275    87886583.773 7
     -1317.938                          48.000          42.000
  22167182.034   116489355.695 8      2612.373    22167185.786    90770962.141 6
      2035.618                          46.000          38.000
  22719857.638   119393595.272 8     -3645.400    22719859.961    93033943.543 8
     -2840.568                          46.000          48.000
  23224475.719   122045428.797 7      2065.599    23224478.578    95100334.621 6
      1609.559                          43.000          33.000
  23409241.899   123016336.923 7     -3214.124    23409247.438    95856880.286 7
     -2504.509                          42.000          44.000
  24148900.764   126903327.232 7      2195.305    24148905.999    98885725.050 6
      1710.625                          40.000          38.000
  25195942.043   132405499.024 6     -2546.614    25195945.992   103173091.672 4
     -1984.381                          37.000          21.000
  25201511.478   132434688.936 4     -4076.428
                                        26.000
 23 12 16 11 16 30.0000000  0 11G13G15G22G14G24G05G23G30G17G18G20
  20075751.434   105498769.518 8     -1265.324    20075751.274    82206828.043 8
      -985.965                          49.000          46.000
  20239459.900   106359067.930 8       954.933    20239460.811    82877191.880 9
       744.111                          50.000          57.000
  21068964.301   110718214.321 8      -597.942    21068964.444    86273960.582 7
      -465.924                          49.000          44.000
  21472489.511   112838743.047 8     -1710.409    21472491.673    87926321.941 7
     -1332.783                          48.000          42.000
  22152292.528   116411111.988 8      2602.011    22152296.637    90709993.103 6
      2027.542                          46.000          38.000
  22740694.991   119503094.268 8     -3656.403    22740697.046    93119267.347 8
     -2849.133                          46.000          48.000
  23212728.302   121983693.126 7      2048.152    23212730.803    95052228.927 6
      1595.966                          43.000          34.000
  23427601.909   123112818.209 7     -3219.877    23427607.234    95932060.354 7
     -2508.986                          42.000          43.000
  24136390.679   126837585.466 7      2185.483    24136395.700    98834497.817 6
      1702.975                          39.000          38.000
  25210509.943   132482052.142 6     -2558.789    25210513.463   103232743.370 3
     -1993.846                          37.000          20.000
  25224776.285   132556945.241 5     -4075.408
                                        27.000
 23 12 16 11 17  0.0000000  0 10G13G15G22G14G24G05G23G30G17G18
  20083013.548   105536930.703 8     -1278.230    20083013.298    82236563.989 8
      -996.022                          49.000          46.000
  20234054.020   106330659.110 8       939.497    20234054.717    82855055.127 9
       732.074                          50.000          57.000
  21072428.998   110736420.634 8      -615.284    21072429.427    86288147.308 7
      -479.442                          49.000          44.000
  21482300.480   112890300.619 8     -1726.206    21482302.625    87966496.661 7
     -1345.096                          48.000          42.000
  22137460.363   116333166.787 7      2594.895    22137464.241    90649256.658 6
      2021.994                          44.000          37.000
  22761592.367   119612911.311 8     -3664.132    22761594.708    93204838.973 8
     -2855.168                          46.000          48.000
  23201077.484   121922467.447 7      2033.996    23201079.575    95004520.621 6
      1584.931                          43.000          33.000
  23445991.832   123209458.422 7     -3222.220    23445997.014    96007364.266 7
     -2510.816                          42.000          43.000
  24123934.165   126772127.547 7      2178.833    24123939.776    98783491.761 6
      1697.787                          40.000          38.000
  25225145.245   132558960.526 6     -2567.688    25225148.425   103292671.912 3
     -2000.786                          35.000          18.000
 23 12 16 11 17 30.0000000  0 10G13G15G22G14G24G05G23G30G17G18
  20090353.785   105575503.795 8     -1292.983    20090353.625    82266620.906 8
     -1007.519                          49.000          46.000
  20228740.773   106302737.642 8       922.301    20228741.542    82833298.126 9
       718.679                          50.000          57.000
  21075996.852   110755170.665 8      -634.307    21075997.531    86302757.706 7
      -494.261                          50.000          44.000
  21492206.155   112942354.321 8     -1743.683    21492208.139    88007057.958 7
     -1358.717                          48.000          42.000
  22122672.710   116255458.690 8      2586.060    22122676.516    90588704.968 6
      2015.115                          45.000          38.000
  22782537.846   119722981.344 8     -3673.436    22782540.276    93290607.732 8
     -2862.409                          46.000          47.000
  23189512.063   121861691.675 7      2018.019    23189514.457    94957162.895 6
      1572.486                          44.000          34.000
  23464399.838   123306193.991 7     -3226.361    23464405.538    96082742.473 7
     -2514.046                          43.000          43.000
  24111520.108   126706893.834 7      2170.528    24111525.933    98732660.401 6
      1691.319                          41.000          37.000
  25239836.137   132636158.777 6     -2578.502    25239839.031   103352826.293 3
     -2009.203                          34.000          17.000
 23 12 16 11 18  0.0000000  0 10G13G15G22G14G24G05G23G30G17G18
  20097774.916   105614503.783 8     -1307.269    20097775.005    82297010.474 8
     -1018.654                          49.000          46.000
  20223523.412   106275319.970 8       905.341    20223524.269    82811933.703 9
       705.457                          50.000          57.000
  21079671.188   110774478.725 8      -653.025    21079671.402    86317802.925 7
      -508.855                          49.000          44.000
  21502209.020   112994917.541 8     -1760.745    21502210.557    88048016.283 7
     -1372.009                          48.000          42.000
  22107933.232   116178003.854 8      2577.432    22107937.395    90528350.609 6
      2008.381                          46.000          38.000
  22803534.001   119833316.664 8     -3682.377    22803536.146    93376583.214 8
     -2869.384                          46.000          47.000
  23178035.915   121801383.229 7      2002.366    23178038.042    94910169.312 6
      1560.280                          44.000          34.000
  23482828.769   123403038.852 7     -3230.066    23482834.612    96158205.850 7
     -2516.932                          43.000          43.000
  24099152.457   126641902.205 7      2162.224    24099157.603    98682017.692 6
      1684.846                          40.000          37.000
  25254582.333   132713658.898 6     -2588.591    25254586.658   103413215.970 3
     -2017.086                          35.000          16.000
 23 12 16 11 18 30.0000000  0 10G13G15G22G14G24G05G23G30G17G18
  20105275.528   105653919.376 8     -1321.497    20105275.635    82327723.896 8
     -1029.738                          49.000          46.000
  20218400.131   106248396.887 8       888.504    20218400.792    82790954.675 9
       692.347                          50.000          57.000
  21083449.396   110794332.977 8      -671.585    21083449.557    86333273.736 7
      -523.309                          49.000          44.000
  21512305.751   113047977.717 8     -1777.641    21512307.412    88089361.848 7
     -1385.175                          48.000          42.000
  22093240.678   116100792.336 8      2568.957    22093244.645    90468185.826 7
      2001.787                          46.000          39.000
  22824577.957   119943902.855 8     -3691.047    22824580.530    93462754.185 8
     -2876.130                          46.000          48.000
  23166647.111   121741533.454 7      1986.637    23166649.059    94863533.142 6
      1548.036                          44.000          34.000
  23501276.766   123499980.979 7     -3233.702    23501281.698    96233745.028 7
     -2519.766                          42.000          42.000
  24086829.389   126577144.360 7      2153.967    24086834.785    98631557.180 6
      1678.416                          40.000          37.000
  25269384.728   132791446.968 6     -2598.369    25269389.088   103473830.014 3
     -2024.709                          35.000          17.000
 23 12 16 11 19  0.0000000  0 10G13G15G22G14G24G05G23G30G17G18
  20112860.660   105693779.251 8     -1334.766    20112860.785    82358783.514 8
     -1040.077                          49.000          46.000
  20213376.684   106221998.060 8       872.477    20213377.345    82770384.161 9
       679.857                          49.000          58.000
  21087336.891   110814761.025 8      -689.224    21087337.213    86349191.662 7
      -537.053                          48.000          44.000
  21522502.315   113101561.500 8     -1793.586    21522504.388    88131115.404 7
     -1397.600                          48.000          42.000
  22078599.980   116023853.772 8      2561.331    22078603.607    90408233.710 7
      1995.849                          45.000          39.000
  22845674.447   120054764.940 8     -3698.652    22845677.270    93549140.131 8
     -2882.058                          45.000          47.000
  23155351.012   121682173.198 7      1971.744    23155353.371    94817278.404 6
      1536.429                          44.000          34.000
  23519748.065   123597047.735 7     -3236.379    23519753.408    96309381.322 7
     -2521.854                          42.000          43.000
  24074556.890   126512651.971 7      2146.437    24074562.876    98581303.597 6
      1672.543                          40.000          38.000
  25284247.235   132869548.551 6     -2607.391    25284252.023   103534688.338 3
     -2031.726                          33.000          17.000
 23 12 16 11 19 30.0000000  0 10G13G15G22G14G24G05G23G30G17G18
  20120527.614   105734068.943 8     -1350.532    20120527.793    82390178.049 8
     -1052.361                          49.000          46.000
  20208450.408   106196111.046 8       854.040    20208451.427    82750212.462 9
       665.488                          50.000          58.000
  21091330.421   110835748.027 8      -709.211    21091330.725    86365545.131 7
      -552.628                          49.000          44.000
  21532795.838   113155653.059 8     -1811.844    21532798.000    88173264.622 7
     -1411.826                          48.000          42.000
  22064008.350   115947175.123 8      2551.286    22064012.067    90348484.100 6
      1988.018                          46.000          38.000
  22866820.416   120165886.275 8     -3708.666    22866822.829    93635728.095 8
     -2889.866                          45.000          47.000
  23144145.776   121623290.673 8      1954.401    23144148.260    94771395.927 6
      1522.913                          45.000          34.000
  23538240.359   123694223.984 7     -3241.359    23538245.970    96385102.924 7
     -2525.732                          42.000          43.000
  24062332.620   126448413.635 7      2136.710    24062338.177    98531248.029 6
      1664.958                          41.000          38.000
  25299166.171   132947946.536 6     -2618.694    25299170.656   103595777.613 3
     -2040.529                          34.000          17.000
 23 12 16 11 20  0.0000000  0 10G13G15G22G14G24G05G23G30G17G18
  20128279.214   105774803.559 8     -1365.717    20128279.268    82421919.286 8
     -1064.193                          49.000          46.000
  20203625.057   106170752.473 8       835.971    20203625.594    82730452.533 9
       651.408                          49.000          58.000
  21095433.095   110857308.259 8      -728.664    21095433.435    86382345.270 7
      -567.785                          49.000          44.000
  21543188.211   113210265.753 8     -1829.605    21543189.962    88215819.913 7
     -1425.664                          48.000          42.000
  22049469.345   115870772.556 8      2541.702    22049473.062    90288949.614 6
      1980.550                          46.000          38.000
  22888017.849   120277278.882 8     -3718.053    22888019.689    93722527.447 8
     -2897.179                          46.000          47.000
  23133035.050   121564903.275 7      1937.501    23133037.141    94725899.255 6
      1509.749                          44.000          34.000
  23556755.740   123791523.639 7     -3245.925    23556761.244    96460920.697 7
     -2529.284                          42.000          42.000
  24050159.813   126384447.114 7      2127.125    24050165.138    98481404.314 6
      1657.493                          41.000          38.000
  25314143.486   133026653.071 6     -2629.202    25314148.221   103657107.314 3
     -2048.727                          34.000          18.000
 23 12 16 11 20 30.0000000  0 10G13G15G22G14G24G05G23G30G17G18
  20136116.961   105815991.474 8     -1379.668    20136117.014    82454013.735 8
     -1075.064                          49.000          46.000
  20198902.007   106145932.791 8       819.065    20198902.668    82711112.523 9
       638.231                          49.000          58.000
  21099646.611   110879449.679 8      -746.935    21099646.986    86399598.286 7
      -582.028                          49.000          44.000
  21553681.277   113265406.715 8     -1846.060    21553682.831    88258786.837 7
     -1438.488                          48.000          42.000
  22034984.929   115794656.054 8      2533.175    22034988.449    90229638.024 6
      1973.904                          45.000          38.000
  22909267.994   120388948.518 8     -3726.092    22909269.674    93809542.675 8
     -2903.449                          45.000          46.000
  23122020.620   121507022.257 7      1921.659    23122023.050    94680797.177 6
      1497.394                          44.000          34.000
  23575296.210   123888954.607 7     -3249.068    23575302.053    96536840.778 7
     -2531.741                          42.000          43.000
  24038041.095   126320764.415 7      2118.835    24038046.456    98431781.784 6
      1651.026                          41.000          38.000
  25329180.769   133105674.093 6     -2638.503    25329185.862   103718682.086 3
     -2055.962                          35.000          18.000
 23 12 16 11 21  0.0000000  0 10G13G15G22G14G24G05G23G30G17G18
  20144035.797   105857604.697 8     -1393.693    20144035.761    82486439.598 8
     -1085.991                          49.000          46.000
  20194276.306   106121625.487 8       802.205    20194277.289    82692171.776 9
       625.093                          50.000          58.000
  21103965.071   110902143.529 8      -765.169    21103965.590    86417281.776 7
      -596.235                          49.000          44.000
  21564269.406   113321046.310 8     -1862.447    21564270.942    88302142.304 7
     -1451.256                          48.000          42.000
  22020549.653   115718798.828 8      2524.732    22020553.513    90170528.470 6
      1967.326                          46.000          38.000
  22930564.957   120500864.613 8     -3734.093    22930567.280    93896749.939 8
     -2909.679                          45.000          47.000
  23111097.626   121449621.984 7      1905.817    23111100.092    94636069.705 6
      1485.053                          44.000          34.000
  23593856.496   123986487.952 7     -3252.348    23593862.464    96612840.639 7
     -2534.292                          43.000          43.000
  24025971.535   126257340.703 7      2110.330    24025976.735    98382361.084 6
      1644.403                          41.000          38.000
  25344272.356   133184978.767 6     -2647.641    25344276.948   103780477.845 3
     -2063.097                          36.000          18.000
 23 12 16 11 21 30.0000000  0 10G13G15G22G14G24G05G23G30G17G18
  20152032.685   105899628.965 8     -1408.414    20152032.792    82519185.755 8
     -1097.463                          49.000          46.000
  20189746.009   106097817.925 8       784.465    20189746.598    82673620.429 9
       611.276                          50.000          58.000
  21108386.029   110925374.850 8      -784.067    21108386.493    86435384.072 7
      -610.961                          49.000          44.000
  21574949.024   113377168.590 8     -1879.550    21574950.596    88345873.887 7
     -1464.575                          48.000          42.000
  22006161.355   115643187.803 8      2515.554    22006165.572    90111610.756 7
      1960.171                          45.000          39.000
  22951905.502   120613010.123 8     -3742.731    22951908.522    93984135.955 8
     -2916.405                          45.000          47.000
  23100263.977   121392690.560 7      1889.100    23100266.282    94591707.563 6
      1472.027                          44.000          33.000
  23612433.025   124084108.376 7     -3256.173    23612438.832    96688908.374 7
     -2537.268                          42.000          42.000
  24013949.721   126194164.261 7      2100.936    24013955.225    98333133.077 7
      1637.082                          41.000          39.000
  25359414.530   133264549.784 6     -2657.547    25359418.283   103842481.166 3
     -2070.796                          36.000          20.000
 23 12 16 11 22  0.0000000  0 10G13G15G22G14G24G05G23G30G17G18
  20160107.464   105942062.632 8     -1422.683    20160107.697    82552250.924 8
     -1108.585                          49.000          46.000
  20185310.560   106074509.963 8       767.145    20185311.203    82655458.382 9
       597.775                          50.000          58.000
  21112908.732   110949141.136 8      -802.567    21112909.250    86453903.221 7
      -625.376                          49.000          44.000
  21585720.131   113433770.373 8     -1896.141    21585721.525    88389979.109 7
     -1477.512                          48.000          41.000
  21991820.035   115567822.581 8      2506.647    21991824.180    90052884.584 7
      1953.233                          46.000          39.000
  22973288.630   120725380.113 8     -3750.822    22973291.489    94071696.904 8
     -2922.714                          46.000          47.000
  23089519.691   121336228.791 7      1872.808    23089522.175    94547711.389 6
      1459.332                          44.000          34.000
  23631026.208   124181813.439 7     -3259.629    23631031.801    96765042.066 7
     -2539.971                          43.000          42.000
  24001975.063   126131236.464 7      2091.929    24001979.852    98284098.799 6
      1630.064                          41.000          38.000
  25374605.237   133344382.751 6     -2667.004    25374609.669   103904688.638 3
     -2078.177                          36.000          18.000
 23 12 16 11 22 30.0000000  0 10G13G15G22G14G24G05G23G30G17G18
  20168264.030   105984925.616 8     -1434.855    20168264.352    82585650.621 8
     -1118.068                          49.000          46.000
  20180974.355   106051723.210 8       751.942    20180975.106    82637702.476 9
       585.927                          50.000          58.000
  21117536.523   110973461.659 8      -818.846    21117537.166    86472854.253 7
      -638.057                          49.000          44.000
  21596585.498   113490869.924 8     -1910.552    21596587.106    88434472.206 7
     -1488.742                          48.000          42.000
  21977529.230   115492724.459 8      2499.839    21977533.465    89994366.548 7
      1947.929                          46.000          39.000
  22994717.966   120837992.450 8     -3756.639    22994720.646    94159446.699 8
     -2927.251                          46.000          46.000
  23078868.788   121280259.079 7      1858.500    23078871.254    94504098.631 6
      1448.183                          44.000          34.000
  23649638.475   124279622.200 7     -3260.959    23649644.622    96841256.563 7
     -2541.005                          42.000          42.000
  23990050.939   126068580.368 7      2085.102    23990055.871    98235276.200 6
      1624.741                          40.000          38.000
  25389850.962   133424494.853 6     -2673.861    25389855.054   103967113.550 3
     -2083.530                          35.000          19.000
 23 12 16 11 23  0.0000000  0 10G13G15G22G14G24G05G23G30G17G18
  20176501.971   106028216.477 8     -1449.491    20176502.311    82619383.735 8
     -1129.472                          49.000          46.000
  20176737.288   106029457.986 8       734.150    20176737.789    82620352.953 9
       572.068                          50.000          58.000
  21122269.956   110998334.590 8      -837.580    21122269.938    86492235.735 7
      -652.654                          49.000          44.000
  21607545.356   113548464.329 8     -1927.352    21607546.928    88479350.908 7
     -1501.831                          48.000          41.000
  21963289.263   115417893.327 8      2490.632    21963293.123    89936056.562 6
      1940.760                          45.000          38.000
  23016192.690   120950842.172 8     -3764.929    23016195.602    94247381.469 8
     -2933.704                          45.000          46.000
  23068311.859   121224782.586 7      1841.668    23068314.307    94460870.188 6
      1435.071                          44.000          33.000
  23668270.470   124377532.475 7     -3264.740    23668276.063    96917550.158 7
     -2543.947                          42.000          42.000
  23978180.261   126006197.813 7      2075.631    23978184.800    98186666.744 7
      1617.368                          41.000          39.000
  25405147.775   133504882.005 6     -2683.442    25405152.135   104029752.793 3
     -2090.974                          35.000          16.000
 23 12 16 11 23 30.0000000  0 11G15G13G22G14G24G05G23G30G17G19G18
  20172603.898   106007735.697 8       716.015    20172604.273    82603426.496 9
       557.936                          50.000          58.000
  20184825.452   106071955.199 8     -1464.396    20184825.702    82653465.822 8
     -1141.086                          49.000          46.000
  21127111.550   111023778.770 8      -856.604    21127111.871    86512062.348 7
      -667.485                          49.000          44.000
  21618603.136   113606571.962 8     -1944.430    21618604.709    88524629.528 7
     -1515.138                          48.000          42.000
  21949104.314   115343350.496 8      2480.951    21949108.227    89877971.235 6
      1933.205                          45.000          38.000
  23037716.017   121063947.082 8     -3773.305    23037719.037    94335515.074 8
     -2940.233                          45.000          47.000
  23057853.227   121169821.708 7      1824.394    23057855.478    94418043.525 6
      1421.601                          44.000          33.000
  23686925.462   124475563.438 7     -3268.677    23686930.233    96993937.809 7
     -2547.016                          42.000          42.000
  23966364.977   125944111.683 7      2065.579    23966370.445    98138288.225 7
      1609.534                          42.000          40.000
  25360979.249   133272844.279 6      2976.329
                                        33.000
  25420500.679   133585561.366 6     -2693.145    25420504.896   104092619.697 3
     -2098.552                          36.000          17.000
 23 12 16 11 24  0.0000000  0 11G15G13G22G14G24G23G05G30G17G19G18
  20168566.946   105986521.087 8       698.954    20168567.482    82586895.641 9
       544.638                          50.000          58.000
  20193226.519   106116104.510 8     -1478.202    20193226.841    82687867.859 8
     -1151.845                          49.000          46.000
  21132055.068   111049756.508 8      -874.493    21132055.515    86532304.732 7
      -681.421                          48.000          44.000
  21629750.958   113665154.090 8     -1960.292    21629752.745    88570277.889 7
     -1527.499                          48.000          42.000
  21934967.344   115269060.198 8      2472.427    21934971.311    89820082.700 6
      1926.565                          45.000          38.000
  23047486.156   121115341.804 7      1808.285    23047488.389    94375591.645 6
      1409.052                          44.000          33.000
  23059280.068   121177266.507 8     -3780.517    23059283.035    94423815.833 8
     -2945.853                          45.000          47.000
  23705596.143   124573677.196 7     -3271.581    23705601.396    97070389.965 7
     -2549.281                          41.000          42.000
  23954600.120   125882287.735 7      2056.661    23954604.730    98090113.971 7
      1602.582                          41.000          39.000
  25343986.684   133183547.446 5      2977.523    25343990.419   103779402.001 3
      2320.165                          31.000          15.000
  25435901.829   133666493.007 6     -2701.664    25435906.100   104155683.214 3
     -2105.198                          36.000          18.000
 23 12 16 11 24 30.0000000  0 11G15G13G22G14G24G23G05G30G17G19G18
  20164633.098   105965849.216 8       679.935    20164633.491    82570787.689 9
       529.821                          50.000          58.000
  20201712.429   106160698.407 8     -1493.948    20201712.733    82722616.325 8
     -1164.116                          49.000          46.000
  21137106.302   111076300.531 8      -894.294    21137106.820    86552988.382 7
      -696.854                          49.000          44.000
  21640995.130   113724242.560 8     -1978.131    21640997.096    88616320.796 7
     -1541.399                          48.000          42.000
  21920884.981   115195057.189 8      2461.876    21920888.627    89762418.038 6
      1918.342                          45.000          38.000
  23037217.472   121061378.779 7      1790.063    23037219.616    94333542.535 6
      1394.859                          43.000          33.000
  23080890.775   121290831.462 8     -3789.598    23080893.885    94512307.910 8
     -2952.929                          45.000          46.000
  23724288.463   124671906.419 7     -3276.310    23724293.663    97146932.109 7
     -2552.966                          41.000          41.000
  23942892.211   125820762.684 7      2045.720    23942896.517    98042172.611 7
      1594.058                          41.000          39.000
  25326992.654   133094245.094 6      2976.617    25326997.139   103709815.585 3
      2319.426                          35.000          17.000
  25451356.765   133747707.691 6     -2711.958    25451361.286   104218967.259 3
     -2113.210                          36.000          19.000
 23 12 16 11 25  0.0000000  0 11G15G13G22G14G24G23G05G30G17G19G18
  20160801.872   105945715.290 8       663.212    20160802.248    82555098.916 9
       516.781                          50.000          58.000
  20210282.108   106205730.391 8     -1507.309    20210282.073    82757706.148 8
     -1174.527                          49.000          46.000
  21142263.856   111103403.866 8      -911.682    21142264.088    86574107.861 7
      -710.408                          49.000          43.000
  21652334.366   113783829.526 8     -1993.477    21652336.349    88662752.136 7
     -1553.357                          48.000          42.000
  21906856.315   115121336.564 8      2453.727    21906859.978    89704973.438 6
      1911.984                          45.000          38.000
  23027046.174   121007928.843 7      1774.120    23027048.532    94291893.213 6
      1382.419                          43.000          33.000
  23102546.762   121404633.407 8     -3796.216    23102549.729    94600984.654 8
     -2958.095                          45.000          46.000
  23743001.440   124770244.088 7     -3278.673    23743007.015    97223558.732 7
     -2554.809                          41.000          41.000
  23931240.857   125759533.190 7      2037.121    23931245.343    97994461.557 7
      1587.350                          40.000          39.000
  25309997.444   133004934.308 6      2978.235    25310001.947   103640222.539 3
      2320.741                          34.000          16.000
  25466863.789   133829196.399 6     -2719.728    25466867.631   104282464.840 3
     -2119.250                          36.000          20.000
 23 12 16 11 25 30.0000000  0 11G15G13G22G14G24G23G05G30G17G19G18
  20157080.309   105926159.418 8       642.134    20157081.113    82539860.572 9
       500.359                          50.000          59.000
  20218941.919   106251238.380 8     -1524.991    20218941.937    82793166.883 8
     -1188.305                          49.000          46.000
  21147534.717   111131103.920 8      -933.347    21147535.378    86595692.319 7
      -727.288                          49.000          44.000
  21663774.900   113843951.667 8     -2013.073    21663777.277    88709600.500 7
     -1568.626                          48.000          42.000
  21892889.011   115047937.942 8      2441.052    21892892.978    89647779.767 7
      1902.111                          46.000          39.000
  23016980.803   120955032.720 7      1753.832    23016982.715    94250675.441 6
      1366.619                          44.000          33.000
  23124254.713   121518707.815 8     -3807.090    23124257.465    94689873.710 8
     -2966.570                          45.000          47.000
  23761741.685   124868727.739 7     -3285.278    23761747.546    97300299.132 7
     -2559.953                          42.000          41.000
  23919652.921   125698640.838 7      2024.007    23919657.478    97947013.200 7
      1577.136                          42.000          40.000
  25293008.381   132915656.341 5      2975.426    25293013.027   103570655.036 2
      2318.430                          32.000          14.000
  25482429.352   133910994.674 6     -2731.993    25482433.640   104346203.668 3
     -2128.814                          36.000          20.000
 23 12 16 11 26  0.0000000  0 11G15G13G22G14G24G23G05G30G17G19G18
  20153460.777   105907137.945 8       623.850    20153461.296    82525038.642 9
       486.110                          50.000          58.000
  20227683.731   106297177.719 8     -1539.790    20227683.803    82828963.747 8
     -1199.833                          49.000          46.000
  21152911.113   111159354.891 8      -952.170    21152911.327    86617706.063 7
      -741.953                          49.000          44.000
  21675308.997   113904562.403 8     -2029.747    21675311.070    88756829.595 7
     -1581.620                          48.000          42.000
  21878974.582   114974817.653 8      2431.368    21878979.067    89590802.991 7
      1894.567                          46.000          40.000
  23007012.569   120902647.856 7      1736.399    23007013.927    94209856.048 6
      1353.033                          44.000          33.000
  23146005.084   121633006.439 8     -3814.946    23146007.747    94778937.478 8
     -2972.687                          45.000          46.000
  23780502.033   124967311.640 7     -3289.026    23780507.768    97377117.614 7
     -2562.872                          42.000          42.000
  23908121.505   125638043.437 7      2013.692    23908125.775    97899794.638 7
      1569.102                          43.000          41.000
  25276018.389   132826369.501 6      2975.065    25276022.892   103501080.687 3
      2318.204                          35.000          18.000
  25498044.769   133993054.723 6     -2741.007    25498049.451   104410146.462 4
     -2135.831                          37.000          21.000
 23 12 16 11 26 30.0000000  0 11G15G13G22G14G24G23G05G30G17G19G18
  20149944.690   105888661.214 8       607.042    20149945.351    82510641.187 9
       473.018                          50.000          58.000
  20236509.635   106343556.996 8     -1553.059    20236509.599    82865103.412 8
     -1210.175                          49.000          46.000
  21158393.401   111188164.859 8      -969.382    21158393.669    86640155.382 7
      -755.360                          49.000          44.000
  21686936.889   113965668.708 8     -2044.905    21686939.301    88804444.841 7
     -1593.430                          48.000          42.000
  21865115.439   114901985.720 8      2423.099    21865119.620    89534050.920 7
      1888.128                          46.000          40.000
  22997142.971   120850785.330 7      1720.205    22997145.080    94169443.682 6
      1340.419                          44.000          34.000
  23167799.181   121747535.707 8     -3821.216    23167801.986    94868180.963 8
     -2977.572                          45.000          46.000
  23799282.519   125066003.693 7     -3291.319    23799287.861    97454020.373 7
     -2564.660                          42.000          41.000
  23896648.269   125577752.855 7      2004.667    23896653.594    97852815.160 7
      1562.067                          41.000          40.000
  25259028.128   132737085.439 6      2976.292    25259033.168   103431508.423 3
      2319.183                          34.000          17.000
  25513711.918   134075382.519 6     -2748.386    25513716.063   104474297.912 3
     -2141.595                          35.000          19.000
 23 12 16 11 27  0.0000000  0 11G15G13G22G14G24G23G05G30G17G19G18
  20146533.136   105870733.152 8       588.786    20146533.922    82496671.271 9
       458.794                          50.000          58.000
  20245419.326   106390378.149 8     -1567.788    20245419.594    82901587.395 8
     -1221.649                          49.000          45.000
  21163982.045   111217534.941 8      -987.973    21163982.706    86663041.150 7
      -769.849                          49.000          44.000
  21698659.700   114027270.959 8     -2061.318    21698661.845    88852446.537 7
     -1606.216                          48.000          41.000
  21851311.190   114829445.430 8      2413.448    21851315.139    89477526.097 7
      1880.606                          47.000          40.000
  22987373.851   120799449.538 8      1702.687    22987376.460    94129441.749 6
      1326.767                          45.000          34.000
  23189637.003   121862294.572 8     -3828.854    23189640.005    94957603.355 8
     -2983.518                          45.000          46.000
  23818084.197   125164805.189 7     -3294.825    23818089.665    97531008.394 7
     -2567.385                          42.000          41.000
  23885235.342   125517774.285 7      1994.410    23885239.416    97806078.793 7
      1554.081                          41.000          39.000
  25242039.888   132647809.289 6      2976.077    25242044.122   103361942.292 2
      2319.025                          33.000          14.000
  25529429.064   134157977.324 6     -2757.336    25529432.655   104538657.397 4
     -2148.562                          38.000          21.000
 23 12 16 11 27 30.0000000  0 12G15G13G22G14G24G23G05G30G17G19G18G10
  20143224.990   105853347.663 8       570.181    20143225.419    82483124.125 9
       444.298                          50.000          58.000
  20254411.894   106437634.016 8     -1582.709    20254412.091    82938410.119 8
     -1233.278                          49.000          45.000
  21169676.295   111247456.608 8     -1006.891    21169676.652    86686356.719 7
      -784.587                          49.000          43.000
  21710475.056   114089360.140 8     -2078.051    21710476.807    88900827.665 7
     -1619.258                          48.000          41.000
  21837561.155   114757190.868 8      2403.392    21837565.122    89421223.909 7
      1872.771                          46.000          39.000
  22977704.476   120748635.570 7      1684.796    22977707.014    94089846.424 6
      1312.834                          44.000          34.000
  23211516.996   121977273.442 8     -3836.518    23211519.802    95047197.179 8
     -2989.488                          45.000          45.000
  23836904.371   125263708.074 7     -3298.541    23836910.750    97608075.437 7
     -2570.282                          41.000          40.000
  23873879.185   125458103.256 7      1983.657    23873883.545    97759582.022 7
      1545.702                          42.000          39.000
  25225052.558   132558537.243 6      2975.279    25225056.489   103292379.408 3
      2318.416                          34.000          16.000
  25545194.438   134240829.010 6     -2766.396    25545198.941   104603217.057 4
     -2155.629                          38.000          21.000
  25868908.997   135935360.85916      3064.261
                                        34.000
 23 12 16 11 28  0.0000000  0 12G15G13G22G14G24G23G05G30G17G19G18G10
  20140020.538   105836508.935 8       552.598    20140021.128    82470003.030 9
       430.601                          50.000          58.000
  20263487.553   106485326.984 8     -1596.620    20263487.678    82975573.445 8
     -1244.116                          49.000          46.000
  21175475.400   111277931.958 8     -1024.630    21175475.865    86710103.724 7
      -798.411                          49.000          44.000
  21722382.866   114151937.312 8     -2093.603    21722384.760    88949589.038 7
     -1631.374                          48.000          41.000
  21823866.819   114685225.956 8      2394.435    21823870.786    89365147.432 7
      1865.795                          46.000          39.000
  22968135.132   120698348.452 7      1667.917    22968137.580    94050661.646 6
      1299.681                          44.000          34.000
  23233438.428   122092471.409 7     -3843.069    23233441.108    95136961.726 8
     -2994.589                          44.000          46.000
  23855745.165   125362714.303 7     -3301.450    23855751.115    97685222.980 7
     -2572.550                          42.000          41.000
  23862583.497   125398745.518 7      1973.950    23862588.161    97713329.390 7
      1538.144                          41.000          40.000
  25208066.658   132469275.037 6      2975.395    25208071.036   103222824.209 3
      2318.520                          34.000          17.000
  25561009.917   134323937.449 6     -2774.088    25561014.474   104667976.781 4
     -2161.616                          36.000          21.000
  25851431.913   135850197.632 6      3058.162    25851438.024   105857313.555 2
      2383.006                          34.000          11.000
 23 12 16 11 28 30.0000000  0 12G15G13G22G14G24G23G05G17G30G19G18G10
  20136919.959   105820215.460 8       533.425    20136920.692    82457306.804 9
       415.662                          50.000          58.000
  20272645.660   106533453.564 8     -1611.994    20272646.017    83013074.642 8
     -1256.096                          49.000          46.000
  21181379.379   111308956.422 8     -1043.841    21181379.558    86734278.609 7
      -813.383                          49.000          43.000
  21734383.076   114214997.373 8     -2110.595    21734384.738    88998726.690 7
     -1644.617                          48.000          41.000
  21810227.161   114613548.667 8      2383.916    21810231.253    89309295.081 7
      1857.594                          46.000          39.000
  22958665.926   120648587.156 7      1649.386    22958668.124    94011886.589 6
      1285.241                          44.000          34.000
  23255400.797   122207883.324 7     -3851.182    23255403.352    95226892.992 8
     -3000.908                          44.000          45.000
  23851348.098   125339700.789 7      1962.234    23851352.047    97667320.673 7
      1529.016                          42.000          40.000
  23874604.078   125461819.726 7     -3305.698    23874609.849    97762447.829 7
     -2575.861                          41.000          40.000
  25191081.973   132380022.368 6      2974.515    25191087.298   103153276.403 3
      2317.816                          33.000          15.000
  25576872.963   134407296.448 6     -2783.286    25576877.806   104732931.774 3
     -2168.790                          37.000          20.000
  25833995.588   135758566.912 5      3050.328    25834001.682   105785912.665 2
      2376.867                          31.000           9.000
 23 12 16 11 29  0.0000000  0 12G15G13G22G14G24G23G05G17G30G19G18G10
  20133923.699   105804470.076 8       515.497    20133924.271    82445037.655 9
       401.685                          50.000          58.000
  20281886.732   106582015.490 8     -1626.267    20281887.000    83050915.072 8
     -1267.218                          50.000          46.000
  21187387.785   111340531.032 8     -1061.904    21187388.285    86758882.180 7
      -827.454                          49.000          44.000
  21746474.901   114278540.224 8     -2126.371    21746477.063    89048240.548 7
     -1656.911                          48.000          41.000
  21796642.915   114542161.929 8      2374.542    21796646.739    89253669.127 7
      1850.296                          46.000          40.000
  22949297.608   120599355.642 8      1631.933    22949299.484    93973524.357 6
      1271.640                          45.000          34.000
  23277403.140   122323507.397 8     -3857.887    23277406.159    95316989.576 8
     -3006.143                          45.000          45.000
  23840172.400   125280973.593 7      1951.937    23840176.278    97621559.359 7
      1520.983                          42.000          40.000
  23893482.593   125561025.284 7     -3308.663    23893488.633    97839750.687 7
     -2578.178                          42.000          41.000
  25174100.969   132290783.841 5      2974.027    25174106.347   103083739.599 3
      2317.456                          32.000          16.000
  25592782.863   134490905.014 6     -2791.295    25592787.723   104798081.214 3
     -2175.020                          36.000          18.000
  25816599.719   135667144.685 5      3043.491    25816604.365   105714674.225 2
      2371.530                          31.000           9.000
 23 12 16 11 29 30.0000000  0 12G15G13G22G14G24G23G05G17G30G19G18G10
  20131032.956   105789279.862 8       498.410    20131033.563    82433201.116 9
       388.387                          50.000          58.000
  20291211.700   106631018.178 8     -1639.416    20291211.968    83089098.951 8
     -1277.463                          49.000          46.000
  21193501.778   111372660.378 8     -1078.827    21193502.278    86783918.007 7
      -840.635                          49.000          44.000
  21758659.520   114342569.833 8     -2141.045    21758661.592    89098133.697 7
     -1668.346                          47.000          41.000
  21783114.778   114471072.713 8      2366.052    21783118.495    89198275.010 7
      1843.684                          47.000          40.000
  22940031.340   120550661.842 8      1615.481    22940033.967    93935581.129 6
      1258.830                          45.000          34.000
  23299446.188   122439346.556 8     -3863.535    23299449.744    95407253.778 8
     -3010.530                          45.000          45.000
  23829059.548   125222572.620 7      1942.572    23829062.550    97576052.240 7
      1513.703                          42.000          39.000
  23912380.997   125660335.939 7     -3310.754    23912386.465    97917135.449 7
     -2579.799                          42.000          40.000
  25157124.128   132201568.465 6      2974.646    25157129.042   103014220.901 3
      2317.899                          34.000          15.000
  25608741.204   134574765.983 6     -2798.028    25608746.083   104863427.351 3
     -2180.277                          34.000          16.000
  25799243.841   135575939.628 5      3037.894    25799248.809   105643605.054 2
      2367.179                          31.000          12.000
 23 12 16 11 30  0.0000000  0 12G15G13G22G24G14G23G05G17G30G19G18G10
  20128240.045   105774601.875 8       480.822    20128240.546    82421763.709 9
       374.667                          50.000          58.000
  20300611.914   106680416.932 8     -1653.116    20300612.271    83127591.443 8
     -1288.139                          50.000          46.000
  21199712.693   111405298.904 8     -1096.320    21199713.211    86809350.590 7
      -854.275                          49.000          43.000
  21769635.460   114400237.719 8      2357.026    21769638.694    89143078.968 7
      1836.640                          47.000          40.000
  21770927.765   114407039.864 8     -2156.195    21770929.731    89148370.042 7
     -1680.143                          48.000          41.000
  22930859.617   120502463.506 8      1598.435    22930862.280    93898023.969 6
      1245.533                          45.000          34.000
  23321521.954   122555353.589 7     -3869.609    23321525.152    95497648.796 7
     -3015.279                          44.000          44.000
  23817999.873   125164456.351 7      1932.494    23818003.429    97530766.945 7
      1505.835                          41.000          40.000
  23931290.480   125759706.302 7     -3313.287    23931296.359    97994566.754 7
     -2581.770                          42.000          41.000
  25140144.304   132112335.120 6      2974.781    25140148.467   102944688.099 3
      2318.019                          35.000          17.000
  25624738.608   134658831.959 5     -2805.336    25624743.236   104928933.224 2
     -2185.963                          32.000          14.000
  25781921.056   135484909.854 5      3031.422    25781926.578   105572672.473 2
      2362.172                          30.000          12.000
 23 12 16 11 30 30.0000000  0 12G15G13G22G24G14G23G05G17G30G19G18G10
  20125544.789   105760440.226 8       463.850    20125545.629    82410728.638 9
       361.438                          50.000          58.000
  20310088.124   106730214.692 8     -1666.112    20310088.482    83166394.855 8
     -1298.267                          49.000          46.000
  21206020.905   111438448.531 8     -1113.026    21206021.405    86835181.437 7
      -867.295                          49.000          44.000
  21756205.031   114329661.024 8      2348.603    21756208.444    89088084.180 7
      1830.075                          46.000          40.000
  21783279.674   114471951.380 8     -2170.588    21783281.675    89198950.407 7
     -1691.365                          47.000          41.000
  22921783.226   120454765.676 8      1581.976    22921785.620    93860856.819 6
      1232.704                          45.000          35.000
  23343629.473   122671528.537 7     -3874.848    23343632.547    95588174.659 7
     -3019.361                          44.000          44.000
  23806995.861   125106630.377 7      1923.033    23807000.239    97485707.886 7
      1498.459                          40.000          40.000
  23950212.220   125859138.496 7     -3314.966    23950217.867    98072046.214 7
     -2583.087                          41.000          40.000
  25123161.388   132023089.405 6      2975.489    25123166.212   102875145.673 3
      2318.570                          33.000          16.000
  25640774.948   134743102.879 5     -2812.061    25640779.469   104994598.794 2
     -2191.219                          32.000          13.000
  25764633.205   135394060.839 4      3025.751    25764639.102   105501880.802 2
      2357.696                          26.000          10.000
 23 12 16 11 31  0.0000000  0 12G15G13G22G24G14G23G05G17G30G19G18G10
  20122958.909   105746849.282 8       444.389    20122959.356    82400138.273 9
       346.280                          50.000          58.000
  20319650.303   106780463.961 8     -1681.599    20319650.857    83205550.093 8
     -1310.334                          49.000          46.000
  21212435.777   111472160.731 8     -1132.246    21212436.563    86861450.651 7
      -882.270                          50.000          44.000
  21742833.980   114259396.783 8      2337.780    21742837.876    89033332.856 7
      1821.642                          46.000          40.000
  21795726.074   114537355.464 8     -2187.414    21795728.111    89249914.590 7
     -1704.476                          48.000          41.000
  22912812.369   120407623.451 8      1562.946    22912814.692    93824122.620 6
      1217.878                          45.000          35.000
  23365778.914   122787921.515 7     -3882.533    23365781.683    95678870.401 8
     -3025.348                          44.000          45.000
  23796058.107   125049150.651 7      1911.058    23796062.145    97440918.636 7
      1489.131                          41.000          40.000
  23969154.975   125958684.629 7     -3319.194    23969160.961    98149614.456 7
     -2586.381                          41.000          40.000
  25106187.460   131933887.673 6      2973.722    25106192.231   102805637.500 3
      2317.197                          34.000          15.000
  25656859.660   134827628.850 5     -2820.905    25656864.270   105060463.180 2
     -2198.120                          31.000          11.000
  25747392.618   135303448.517 5      3017.446    25747396.335   105431273.617 2
      2351.267                          28.000          13.000
 23 12 16 11 31 30.0000000  0 12G15G13G22G24G14G23G05G17G30G19G18G10
  20120471.827   105733779.639 8       427.533    20120472.435    82389954.122 9
       333.142                          49.000          58.000
  20329288.872   106831113.885 8     -1694.445    20329289.230    83245017.530 8
     -1320.346                          50.000          46.000
  21218948.571   111506384.117 8     -1148.737    21218948.803    86888118.195 7
      -895.119                          49.000          44.000
  21729513.231   114189395.516 8      2329.548    21729517.162    88978786.432 7
      1815.230                          46.000          40.000
  21808255.547   114603199.574 8     -2201.569    21808257.512    89301221.661 7
     -1715.508                          48.000          41.000
  22903937.844   120360988.287 8      1546.640    22903940.184    93787783.531 6
      1205.171                          45.000          35.000
  23387958.678   122904478.804 7     -3887.395    23387962.019    95769694.171 8
     -3029.137                          44.000          45.000
  23785177.034   124991969.167 7      1901.622    23785179.803    97396361.736 7
      1481.781                          42.000          40.000
  23988110.113   126058293.228 7     -3320.786    23988115.742    98227231.383 7
     -2587.620                          41.000          40.000
  25089211.906   131844682.143 6      2973.986    25089217.910   102736126.412 3
      2317.399                          35.000          17.000
  25672981.843   134912356.280 5     -2826.837    25672987.436   105126484.561 1
     -2202.704                          30.000           8.000
  25730183.963   135213025.182 5      3011.583    25730189.699   105360813.681 2
      2346.677                          32.000          13.000
 23 12 16 11 32  0.0000000  0 12G15G13G22G24G14G23G05G17G30G19G18G10
  20118085.580   105721240.491 8       408.337    20118086.223    82380183.339 9
       318.190                          50.000          58.000
  20339004.778   106882171.806 8     -1709.501    20339005.064    83284802.881 8
     -1332.077                          50.000          46.000
  21225559.806   111541125.169 8     -1167.370    21225559.949    86915189.113 7
      -909.637                          49.000          43.000
  21716244.302   114119666.096 8      2319.043    21716248.073    88924451.821 7
      1807.051                          47.000          40.000
  21820870.469   114669489.498 8     -2217.833    21820871.810    89352876.124 7
     -1728.181                          48.000          41.000
  22895161.741   120314869.991 8      1527.934    22895164.189    93751847.199 6
      1190.599                          45.000          35.000
  23410171.035   123021205.222 7     -3894.422    23410174.233    95860649.730 7
     -3034.605                          43.000          44.000
  23774353.623   124935096.684 7      1889.854    23774357.572    97352045.620 7
      1472.614                          42.000          41.000
  24007078.724   126157971.127 7     -3324.486    24007085.032    98304902.302 7
     -2590.502                          41.000          41.000
  25072237.889   131755484.160 6      2972.486    25072243.928   102666621.323 3
      2316.231                          36.000          18.000
  25689145.464   134997290.077 5     -2835.402    25689149.896   105192666.603 1
     -2209.343                          29.000           4.000
  25713015.245   135122800.888 6      3003.264    25713020.963   105290508.929 2
      2340.206                          33.000          14.000
 23 12 16 11 32 30.0000000  0 12G15G13G22G24G14G23G05G17G30G19G10G18
  20115811.282   105709288.588 8       388.607    20115811.854    82370870.157 9
       302.810                          50.000          58.000
  20348809.154   106933693.067 8     -1725.080    20348809.386    83324949.275 8
     -1344.218                          49.000          46.000
  21232279.541   111576438.207 8     -1186.604    21232279.827    86942705.736 7
      -924.626                          50.000          44.000
  21703037.951   114050265.388 8      2307.914    21703041.346    88870373.329 7
      1798.374                          48.000          41.000
  21833580.026   114736278.947 8     -2234.608    21833581.742    89404919.823 7
     -1741.252                          47.000          41.000
  22886494.800   120269326.301 8      1508.538    22886497.230    93716358.616 6
      1175.484                          45.000          35.000
  23432425.813   123138153.758 7     -3901.998    23432428.761    95951778.366 7
     -3040.513                          44.000          44.000
  23763601.189   124878591.497 7      1877.420    23763605.067    97308015.710 7
      1462.920                          42.000          41.000
  24026070.476   126257773.217 7     -3328.811    24026077.087    98382669.984 7
     -2593.875                          41.000          40.000
  25055276.934   131666351.977 6      2969.912    25055282.866   102597167.614 3
      2314.238                          36.000          18.000
  25695894.648   135032834.502 6      2994.656    25695901.063   105220405.071 3
      2333.499                          35.000          15.000
  25705355.152   135082482.940 5     -2844.298    25705361.889   105259050.680 1
     -2216.294                          29.000           4.000
 23 12 16 11 33  0.0000000  0 12G15G13G22G24G14G23G05G17G30G19G10G18
  20113636.586   105697860.587 8       371.646    20113637.301    82361965.207 9
       289.592                          50.000          58.000
  20358689.258   106985612.800 8     -1737.860    20358689.473    83365406.164 8
     -1354.175                          50.000          46.000
  21239095.626   111612257.534 8     -1202.921    21239096.163    86970616.870 7
      -937.340                          50.000          44.000
  21689881.775   113981129.762 8      2299.543    21689885.331    88816501.386 7
      1791.851                          48.000          41.000
  21846372.067   114803501.235 8     -2248.414    21846373.675    89457300.790 7
     -1752.009                          47.000          40.000
  22877925.817   120224294.505 8      1491.994    22877928.248    93681268.914 6
      1162.591                          45.000          35.000
  23454709.699   123255256.937 7     -3906.518    23454712.701    96043027.518 7
     -3044.036                          44.000          44.000
  23752906.489   124822391.645 7      1867.597    23752910.206    97264223.706 7
      1455.268                          42.000          41.000
  24045073.056   126357633.855 7     -3330.167    24045079.328    98460483.324 7
     -2594.933                          41.000          39.000
  25038315.371   131577224.268 6      2970.421    25038321.482   102527717.505 3
      2314.626                          36.000          19.000
  25678812.452   134943063.642 6      2988.613    25678818.098   105150453.628 3
      2328.813                          35.000          15.000
  25721605.349   135167866.944 5     -2849.426
     -2220.724                          27.000
 23 12 16 11 33 30.0000000  0 11G15G13G22G24G14G23G05G17G30G19G10
  20111571.124   105687005.347 8       353.515    20111571.606    82353506.567 9
       275.474                          50.000          58.000
  20368654.080   107037978.425 8     -1751.679    20368654.330    83406210.509 8
     -1364.940                          50.000          45.000
  21246017.175   111648629.426 8     -1220.299    21246017.746    86998958.575 7
      -950.880                          50.000          43.000
  21676785.247   113912308.088 8      2290.068    21676789.160    88762874.082 7
      1784.471                          47.000          40.000
  21859254.793   114871202.121 8     -2263.325    21859256.883    89510054.691 7
     -1763.626                          48.000          40.000
  22869463.298   120179824.353 8      1474.211    22869466.032    93646616.868 6
      1148.736                          45.000          34.000
  23477031.540   123372558.828 7     -3912.042    23477034.899    96134431.511 7
     -3048.332                          44.000          44.000
  23742279.692   124766547.654 7      1856.843    23742283.355    97220709.004 7
      1446.894                          42.000          40.000
  24064096.579   126457599.955 7     -3332.691    24064102.386    98538378.847 7
     -2596.897                          41.000          39.000
  25021366.871   131488151.933 6      2969.544    25021371.374   102458310.652 3
      2313.947                          37.000          18.000
  25661776.536   134853538.800 6      2981.042    25661782.183   105080693.892 3
      2322.873                          35.000          16.000
 23 12 16 11 34  0.0000000  0 11G15G13G22G24G14G23G05G17G30G19G10
  20109606.067   105676679.389 8       334.851    20109606.603    82345460.357 9
       260.926                          50.000          58.000
  20378695.130   107090744.896 8     -1766.125    20378695.416    83447327.203 8
     -1376.199                          50.000          46.000
  21253035.287   111685508.277 8     -1238.242    21253035.537    87027695.314 7
      -964.864                          49.000          44.000
  21663740.538   113843757.046 8      2279.972    21663744.380    88709457.662 7
      1776.601                          46.000          40.000
  21872220.145   114939335.171 8     -2278.789    21872222.271    89563145.338 7
     -1775.680                          48.000          40.000
  22861099.470   120135873.370 8      1455.852    22861102.222    93612369.370 6
      1134.436                          45.000          35.000
  23499382.614   123490012.244 7     -3918.096    23499385.902    96225953.565 7
     -3053.057                          43.000          44.000
  23731712.756   124711018.136 7      1845.132    23731715.883    97177439.318 7
      1437.770                          42.000          40.000
  24083130.894   126557626.158 7     -3335.641    24083137.559    98616321.185 7
     -2599.196                          41.000          40.000
  25004418.406   131399093.210 6      2967.779    25004423.463   102388914.437 4
      2312.552                          37.000          21.000
  25644778.378   134764218.157 6      2973.296    25644785.382   105011093.293 3
      2316.857                          34.000          16.000
 23 12 16 11 34 30.0000000  0 11G15G13G22G24G14G23G05G17G30G19G10
  20107748.618   105666918.170 8       315.470    20107749.226    82337854.203 9
       245.819                          49.000          58.000
  20388818.879   107143946.258 8     -1781.139    20388819.379    83488782.766 8
     -1387.901                          50.000          46.000
  21260155.592   111722926.955 8     -1256.767    21260155.985    87056852.693 7
      -979.297                          49.000          44.000
  21650753.976   113775512.040 8      2269.209    21650757.925    88656279.722 7
      1768.218                          46.000          41.000
  21885273.716   115007932.692 8     -2294.794    21885275.735    89616597.908 7
     -1788.152                          48.000          40.000
  22852841.801   120092477.823 7      1436.773    22852844.267    93578554.680 6
      1119.569                          44.000          34.000
  23521767.997   123607649.281 7     -3924.715    23521771.428    96317618.695 7
     -3058.216                          42.000          43.000
  23721212.525   124655839.991 7      1832.919    23721215.795    97134443.393 7
      1428.248                          43.000          40.000
  24102183.240   126657745.958 7     -3339.294    24102189.583    98694336.481 6
     -2602.051                          41.000          38.000
  24987480.288   131310085.400 6      2965.575    24987486.078   102319558.000 3
      2310.808                          36.000          20.000
  25627828.537   134675138.882 6      2964.664    25627834.381   104941680.776 3
      2310.127                          34.000          17.000
 23 12 16 11 35  0.0000000  0 11G15G13G22G24G14G23G05G17G30G19G10
  20105998.133   105657718.835 8       297.367    20105998.598    82330685.886 9
       231.713                          50.000          59.000
  20399024.628   107197578.382 8     -1794.808    20399025.075    83530573.991 8
     -1398.552                          50.000          46.000
  21267377.537   111760880.183 8     -1273.885    21267378.180    87086426.606 7
      -992.641                          50.000          44.000
  21637824.933   113707570.239 8      2259.769    21637829.043    88603338.045 7
      1760.854                          48.000          42.000
  21898415.060   115076988.665 8     -2309.403    21898417.151    89670407.693 7
     -1799.532                          47.000          41.000
  22844689.131   120049635.662 7      1418.904    22844691.311    93545171.201 6
      1105.635                          44.000          34.000
  23544186.902   123725462.588 7     -3929.906    23544190.172    96409421.175 7
     -3062.264                          43.000          43.000
  23710778.659   124601011.143 7      1821.846    23710782.591    97091719.634 7
      1419.620                          41.000          41.000
  24121251.631   126757954.437 7     -3341.566    24121258.493    98772420.886 7
     -2603.813                          41.000          39.000
  24970552.462   131221127.684 6      2964.437    24970558.037   102250240.603 4
      2309.932                          37.000          22.000
  25610923.030   134586299.642 6      2957.339    25610929.159   104872455.271 3
      2304.416                          35.000          18.000
 23 12 16 11 35 30.0000000  0 11G15G13G22G24G14G23G05G17G30G19G10
  20104358.418   105649104.266 8       277.419    20104359.222    82323973.225 9
       216.168                          49.000          58.000
  20409316.524   107251662.209 8     -1810.265    20409317.186    83572717.194 8
     -1410.595                          50.000          46.000
  21274705.980   111799387.955 8     -1292.779    21274706.016    87116432.625 7
     -1007.362                          49.000          44.000
  21624958.183   113639954.456 8      2248.474    21624961.935    88550650.422 7
      1752.056                          48.000          42.000
  21911646.679   115146522.782 8     -2325.718    21911648.984    89724590.049 7
     -1812.243                          48.000          41.000
  22836646.302   120007370.534 7      1399.189    22836648.500    93512237.368 6
      1090.271                          44.000          34.000
  23566643.457   123843471.131 7     -3936.724    23566646.888    96501375.795 7
     -3067.577                          42.000          43.000
  23700417.181   124546556.880 7      1808.862    23700421.166    97049287.780 7
      1409.498                          41.000          41.000
  24140342.502   126858272.483 7     -3345.811    24140349.132    98850590.614 7
     -2607.119                          41.000          40.000
  24953638.574   131132244.885 6      2961.511    24953644.078   102180981.604 4
      2307.678                          38.000          23.000
  25594068.110   134497724.842 6      2948.117    25594074.007   104803435.784 3
      2297.243                          34.000          17.000
 23 12 16 11 36  0.0000000  0 11G15G13G22G24G14G23G05G17G30G19G10
  20102820.681   105641022.126 8       259.680    20102821.342    82317675.451 9
       202.348                          50.000          59.000
  20419684.275   107306143.992 8     -1823.507    20419685.168    83615170.492 8
     -1420.911                          50.000          46.000
  21282128.808   111838395.968 8     -1309.419    21282129.112    87146828.441 7
     -1020.321                          49.000          44.000
  21612143.645   113572612.192 8      2239.285    21612146.897    88498175.933 7
      1744.900                          47.000          41.000
  21924959.297   115216479.390 8     -2339.762    21924961.442    89779101.607 7
     -1823.192                          48.000          41.000
  22828703.235   119965630.732 8      1381.675    22828705.826    93479712.880 6
      1076.636                          45.000          34.000
  23589126.816   123961618.155 7     -3941.369    23589129.639    96593438.319 7
     -3071.194                          42.000          43.000
  23690116.119   124492426.002 7      1798.077    23690120.318    97007107.866 7
      1401.099                          43.000          42.000
  24159442.790   126958645.652 6     -3347.463    24159449.581    98928803.329 6
     -2608.413                          38.000          37.000
  24936729.547   131043386.401 6      2960.695    24936734.979   102111741.468 4
      2307.011                          38.000          22.000
  25577253.949   134409363.614 6      2940.955    25577259.881   104734582.676 3
      2291.657                          33.000          16.000
 23 12 16 11 36 30.0000000  0 11G15G13G22G24G14G23G05G17G30G19G10
  20101390.266   105633504.369 8       241.531    20101390.766    82311817.459 9
       188.207                          50.000          59.000
  20430133.329   107361053.919 8     -1837.112    20430134.079    83657957.409 8
     -1431.513                          50.000          46.000
  21289652.489   111877933.564 8     -1326.352    21289652.953    87177636.918 7
     -1033.517                          50.000          44.000
  21599387.039   113505575.355 8      2229.742    21599390.363    88445939.455 7
      1737.461                          46.000          41.000
  21938357.366   115286887.295 8     -2354.112    21938359.492    89833964.823 7
     -1834.369                          48.000          40.000
  22820866.596   119924448.923 8      1363.772    22820869.080    93447623.180 6
      1062.684                          45.000          34.000
  23611640.373   124079931.083 7     -3946.127    23611644.036    96685630.118 7
     -3074.904                          43.000          43.000
  23679883.315   124438652.088 7      1786.930    23679886.996    96965206.073 7
      1392.412                          41.000          41.000
  24178559.697   127059103.926 7     -3349.574    24178565.986    99007082.348 7
     -2610.055                          41.000          39.000
  24919830.687   130954586.027 7      2959.362    24919836.029   102042546.560 4
      2306.006                          39.000          22.000
  25560486.623   134321249.702 5      2932.951    25560492.537   104665922.281 3
      2285.448                          32.000          15.000
 23 12 16 11 37  0.0000000  0 11G15G13G22G24G14G23G05G17G30G19G10
  20100066.028   105626546.917 8       222.085    20100066.743    82306396.068 9
       173.061                          50.000          59.000
  20440662.829   107416386.606 8     -1851.896    20440663.347    83701073.752 8
     -1443.031                          50.000          46.000
  21297275.932   111917994.246 8     -1344.469    21297276.576    87208853.004 7
     -1047.628                          49.000          44.000
  21586687.292   113438839.976 8      2219.145    21586691.080    88393937.904 7
      1729.209                          48.000          41.000
  21951839.883   115357739.374 8     -2369.530    21951842.402    89889174.152 7
     -1846.384                          47.000          40.000
  22813135.778   119883821.907 8      1344.582    22813137.922    93415965.788 6
      1047.742                          45.000          34.000
  23634184.737   124198402.167 7     -3952.101    23634188.149    96777945.156 7
     -3079.550                          43.000          43.000
  23669718.075   124385232.805 7      1774.279    23669721.774    96923580.646 7
      1382.561                          43.000          42.000
  24197691.237   127159641.354 7     -3352.956    24197697.420    99085423.066 7
     -2612.689                          41.000          39.000
  24902942.870   130865841.361 7      2956.782    24902947.623   101973394.975 4
      2303.994                          39.000          22.000
  25543765.720   134233380.863 6      2924.277    25543771.688   104597452.900 3
      2278.660                          34.000          17.000
 23 12 16 11 37 30.0000000  0 11G15G13G22G24G14G23G05G17G30G19G10
  20098851.113   105620162.570 8       203.031    20098851.846    82301421.250 9
       158.209                          50.000          59.000
  20451274.902   107472153.497 8     -1866.379    20451275.403    83744528.438 8
     -1454.321                          50.000          46.000
  21305000.550   111958588.270 8     -1362.260    21305001.033    87240484.693 7
     -1061.504                          50.000          44.000
  21574047.478   113372418.939 8      2208.619    21574051.945    88342181.307 7
      1720.998                          47.000          42.000
  21965409.226   115429045.323 8     -2384.590    21965412.013    89944737.129 7
     -1858.118                          47.000          40.000
  22805512.406   119843763.318 8      1325.628    22805515.140    93384751.325 6
      1032.956                          45.000          35.000
  23656761.407   124317041.195 7     -3957.622    23656764.445    96870391.056 7
     -3083.858                          42.000          43.000
  23659622.756   124332182.593 7      1761.975    23659626.330    96882242.803 7
      1372.969                          43.000          42.000
  24216839.682   127260268.910 7     -3355.926    24216846.616    99163833.986 7
     -2614.999                          40.000          39.000
  24886068.883   130777167.975 6      2954.330    24886073.618   101904298.855 4
      2302.060                          38.000          21.000
  25527093.421   134145771.336 6      2915.832    25527100.247   104529185.549 3
      2272.086                          37.000          18.000
 23 12 16 11 38  0.0000000  0 11G15G13G22G24G14G23G17G05G30G19G10
  20097747.719   105614363.889 8       183.219    20097748.434    82296902.799 9
       142.765                          50.000          59.000
  20461971.746   107528365.730 8     -1881.468    20461972.390    83788330.137 8
     -1466.077                          50.000          46.000
  21312828.665   111999725.895 8     -1380.631    21312829.148    87272539.969 7
     -1075.815                          50.000          44.000
  21561470.598   113306325.028 8      2197.410    21561474.833    88290679.622 7
      1712.265                          47.000          42.000
  21979066.645   115500814.812 8     -2400.301    21979069.451    90000661.304 7
     -1870.359                          47.000          40.000
  22798000.644   119804286.732 7      1305.891    22798002.842    93353990.361 6
      1017.575                          44.000          34.000
  23649600.682   124279515.829 7      1748.875    23649604.256    96841203.741 7
      1362.756                          42.000          42.000
  23679371.332   124435856.354 7     -3963.632    23679374.441    96962974.206 7
     -3088.543                          43.000          43.000
  24236007.908   127360997.379 7     -3359.428    24236015.306    99242323.524 7
     -2617.734                          41.000          40.000
  24869211.336   130688580.446 6      2951.171    24869216.608   101835269.609 4
      2299.633                          38.000          21.000
  25510474.783   134058435.668 6      2906.368    25510480.930   104461131.569 3
      2264.713                          37.000          18.000
 23 12 16 11 38 30.0000000  0 11G15G13G22G24G14G23G17G05G30G19G10
  20096753.004   105609136.806 8       164.519    20096753.594    82292829.750 9
       128.194                          50.000          59.000
  20472750.269   107585007.554 8     -1895.405    20472750.931    83832466.586 8
     -1476.936                          50.000          46.000
  21320757.329   112041390.631 8     -1397.786    21320757.651    87305005.988 7
     -1089.184                          50.000          44.000
  21548953.115   113240544.020 8      2187.354    21548956.993    88239421.769 7
      1704.429                          47.000          43.000
  21992809.103   115573030.435 8     -2414.777    21992811.605    90056933.126 7
     -1881.640                          47.000          40.000
  22790596.507   119765378.593 7      1287.227    22790598.937    93323672.358 6
      1003.035                          44.000          34.000
  23639648.637   124227219.783 7      1736.924    23639653.211    96800453.589 7
      1353.442                          42.000          41.000
  23702010.795   124554828.785 7     -3968.558    23702014.386    97055679.900 7
     -3092.384                          43.000          43.000
  24255192.288   127461810.760 7     -3361.944    24255199.561    99320879.231 6
     -2619.693                          39.000          37.000
  24852367.352   130600066.445 7      2949.136    24852372.498   101766297.658 4
      2298.022                          39.000          21.000
  25493904.588   133971361.129 6      2897.871    25493911.361   104393281.100 3
      2258.085                          37.000          19.000
 23 12 16 11 39  0.0000000  0 11G15G13G22G24G14G23G17G05G30G19G10
  20095865.378   105604472.523 8       147.215    20095866.093    82289195.239 9
       114.719                          50.000          59.000
  20483608.667   107642069.106 8     -1907.939    20483609.507    83876930.095 8
     -1486.702                          50.000          46.000
  21328783.969   112083571.250 8     -1413.497    21328784.380    87337873.995 7
     -1101.425                          50.000          44.000
  21536493.403   113175067.449 8      2178.609    21536496.798    88188401.140 7
      1697.617                          47.000          43.000
  22006634.241   115645680.596 8     -2427.752    22006636.332    90113543.554 7
     -1891.748                          46.000          40.000
  22783299.316   119727031.171 7      1270.056    22783301.747    93293791.273 6
       989.657                          44.000          34.000
  23629766.621   124175287.514 7      1726.192    23629770.605    96759986.913 7
      1345.091                          42.000          42.000
  23724677.990   124673946.553 7     -3971.902    23724681.617    97148498.851 7
     -3094.979                          43.000          43.000
  24274391.034   127562698.599 7     -3362.955    24274397.878    99399492.965 6
     -2620.473                          40.000          38.000
  24835537.055   130511619.957 7      2948.130    24835541.380   101697378.297 4
      2297.254                          39.000          22.000
  25477383.783   133884541.068 6      2890.871    25477390.502   104325628.965 3
      2252.636                          38.000          19.000
 23 12 16 11 39 30.0000000  0 11G15G13G22G24G14G23G17G05G30G19G10
  20095081.196   105600350.621 8       128.634    20095081.911    82285983.365 9
       100.234                          50.000          59.000
  20494542.901   107699528.306 8     -1921.634    20494543.651    83921703.465 8
     -1497.373                          50.000          46.000
  21336904.547   112126244.779 8     -1430.314    21336905.119    87371126.092 7
     -1114.529                          50.000          44.000
  21524087.387   113109874.824 8      2168.633    21524090.550    88137601.756 7
      1689.843                          48.000          42.000
  22020536.734   115718741.648 8     -2441.896    22020539.111    90170474.184 7
     -1902.770                          47.000          40.000
  22776104.872   119689224.676 8      1251.457    22776107.463    93264331.699 6
       975.154                          45.000          34.000
  23619949.755   124123700.154 7      1714.063    23619953.489    96719788.995 7
      1335.632                          44.000          42.000
  23747368.164   124793185.655 7     -3976.330    23747372.006    97241412.350 7
     -3098.440                          43.000          42.000
  24293599.180   127663638.548 7     -3365.242    24293605.791    99478147.299 6
     -2622.259                          40.000          38.000
  24818715.747   130423222.404 7      2945.973    24818720.553   101628497.143 4
      2295.572                          40.000          23.000
  25460906.793   133797956.775 6      2882.497    25460913.511   104258160.571 3
      2246.112                          38.000          19.000
 23 12 16 11 40  0.0000000  0 11G15G13G22G24G14G23G17G05G30G19G10
  20094406.105   105596803.216 8       108.376    20094406.712    82283219.149 9
        84.452                          50.000          59.000
  20505558.689   107757415.815 8     -1936.985    20505559.207    83966810.578 8
     -1509.334                          50.000          46.000
  21345124.458   112169440.937 8     -1448.827    21345124.905    87404785.438 7
     -1128.956                          50.000          44.000
  21511741.429   113044998.463 8      2157.029    21511744.699    88087048.802 7
      1680.804                          47.000          42.000
  22034523.587   115792242.699 8     -2457.603    22034526.571    90227747.676 7
     -1915.013                          47.000          40.000
  22769019.733   119651992.078 7      1231.196    22769022.592    93235319.307 6
       959.373                          44.000          35.000
  23610204.543   124072491.511 7      1700.286    23610208.868    96679886.178 7
      1324.900                          42.000          42.000
  23770087.823   124912573.352 7     -3982.304    23770090.914    97334441.633 7
     -3103.088                          43.000          42.000
  24312822.657   127764660.984 7     -3369.093    24312829.733    99556865.907 6
     -2625.255                          41.000          38.000
  24801909.520   130334908.327 7      2942.132    24801914.559   101559681.071 4
      2292.593                          40.000          23.000
  25444482.873   133711642.498 7      2872.383    25444489.163   104190902.604 3
      2238.220                          39.000          18.000
 23 12 16 11 40 30.0000000  0 11G15G13G22G24G14G23G17G05G30G19G10
  20093841.265   105593834.491 8        88.666    20093841.765    82280905.849 9
        69.087                          50.000          59.000
  20516656.317   107815734.289 8     -1951.755    20516656.996    84012253.502 8
     -1520.845                          50.000          46.000
  21353444.240   112213161.457 8     -1466.709    21353444.633    87438853.385 7
     -1142.891                          50.000          44.000
  21499456.708   112980442.485 8      2145.906    21499460.210    88036745.484 7
      1672.132                          47.000          42.000
  22048594.370   115866184.696 8     -2472.695    22048597.336    90285364.773 7
     -1926.775                          47.000          40.000
  22762044.828   119615338.144 8      1211.511    22762047.669    93206757.823 6
       944.031                          45.000          35.000
  23600533.435   124021667.355 7      1687.057    23600537.992    96640283.007 7
      1314.583                          42.000          42.000
  23792834.607   125032110.591 7     -3987.634    23792838.323    97427587.442 7
     -3107.248                          43.000          42.000
  24332062.841   127865768.153 7     -3372.289    24332070.275    99635650.563 6
     -2627.752                          40.000          37.000
  24785120.733   130246683.475 7      2938.690    24785125.807   101490934.612 4
      2289.871                          39.000          23.000
  25428109.666   133625603.564 7      2862.681    25428116.599   104123859.210 3
      2230.680                          40.000          18.000
 23 12 16 11 41  0.0000000  0 11G15G13G22G24G14G23G17G05G30G19G10
  20093383.961   105591431.303 8        70.967    20093384.586    82279033.231 9
        55.300                          50.000          59.000
  20527833.302   107874469.437 8     -1964.527    20527833.927    84058021.101 8
     -1530.799                          50.000          46.000
  21361860.746   112257390.491 8     -1482.486    21361861.300    87473317.576 7
     -1155.184                          50.000          44.000
  21487230.794   112916194.095 8      2136.686    21487234.618    87986681.847 7
      1664.947                          48.000          42.000
  22062746.404   115940551.636 8     -2485.745    22062749.370    90343312.999 7
     -1936.945                          47.000          40.000
  22755177.888   119579250.737 8      1193.713    22755180.032    93178637.775 6
       930.161                          45.000          35.000
  23590933.338   123971216.454 7      1675.690    23590936.662    96600970.667 7
      1305.732                          44.000          42.000
  23815607.247   125151780.112 7     -3990.819    23815610.928    97520836.328 7
     -3109.728                          43.000          43.000
  24351316.535   127966945.376 7     -3373.476    24351324.344    99714489.777 6
     -2628.677                          42.000          38.000
  24768346.849   130158537.252 7      2937.270    24768352.495   101422249.496 4
      2288.770                          40.000          25.000
  25411787.332   133539829.038 7      2854.987    25411794.373   104057021.857 3
      2224.666                          41.000          19.000
 23 12 16 11 41 30.0000000  0 11G15G13G22G24G14G23G17G05G30G19G10
  20093032.173   105589583.047 8        51.748    20093032.817    82277593.022 9
        40.328                          50.000          59.000
  20539087.069   107933609.280 8     -1978.639    20539087.713    84104104.055 8
     -1541.796                          50.000          46.000
  21370371.619   112302115.470 8     -1499.635    21370372.137    87508168.222 7
     -1168.547                          49.000          44.000
  21475061.453   112852242.877 8      2126.174    21475065.420    87936849.766 7
      1656.760                          47.000          43.000
  22076976.168   116015329.897 8     -2499.979    22076978.884    90401581.756 7
     -1948.039                          46.000          39.000
  22748416.768   119543720.002 8      1174.557    22748418.805    93150951.499 6
       915.243                          45.000          35.000
  23581401.751   123921130.071 7      1662.861    23581405.128    96561942.367 7
      1295.735                          43.000          41.000
  23838402.438   125271567.888 7     -3995.462    23838405.762    97614177.358 7
     -3113.341                          43.000          43.000
  24370580.843   128068180.346 7     -3376.013    24370588.759    99793374.022 6
     -2630.658                          41.000          38.000
  24751586.581   130070461.203 7      2934.072    24751591.888   101353619.117 4
      2286.290                          39.000          25.000
  25395513.513   133454309.803 7      2845.888    25395520.732   103990383.495 3
      2217.576                          39.000          19.000
 23 12 16 11 42  0.0000000  0 11G15G13G22G24G14G23G17G05G30G19G10
  20092789.994   105588309.992 8        33.079    20092790.620    82276601.023 9
        25.773                          50.000          59.000
  20550421.641   107993172.236 8     -1992.255    20550422.195    84150516.700 8
     -1552.405                          50.000          46.000
  21378980.235   112347353.874 8     -1516.261    21378980.664    87543418.939 7
     -1181.505                          50.000          44.000
  21462952.349   112788609.213 8      2115.941    21462956.334    87887265.120 7
      1648.780                          48.000          43.000
  22091287.379   116090536.632 8     -2513.838    22091289.845    90460184.390 7
     -1958.832                          47.000          39.000
  22741764.988   119508766.971 8      1155.677    22741767.418    93123715.394 6
       900.526                          45.000          35.000
  23571943.588   123871429.406 7      1650.403    23571947.412    96523214.640 7
      1286.029                          43.000          41.000
  23861222.806   125391490.197 7     -3999.414    23861226.219    97707623.222 7
     -3116.427                          43.000          43.000
  24389860.500   128169491.593 7     -3378.035    24389867.773    99872317.685 6
     -2632.224                          40.000          37.000
  24734843.217   129982478.076 7      2931.429    24734848.667   101285061.184 4
      2284.214                          39.000          25.000
  25379292.192   133369068.405 7      2836.959    25379299.269   103923961.598 3
      2210.623                          40.000          19.000
 23 12 16 11 42 30.0000000  0 11G15G13G22G24G14G23G17G05G30G19G10
  20092659.068   105587621.982 8        12.485    20092659.837    82276064.897 9
         9.720                          50.000          59.000
  20561838.124   108053166.547 8     -2007.610    20561838.785    84197265.468 8
     -1564.372                          50.000          46.000
  21387687.899   112393113.464 8     -1534.644    21387688.292    87579075.759 7
     -1195.834                          50.000          44.000
  21450905.393   112725302.937 8      2104.042    21450909.307    87837935.563 7
      1639.503                          48.000          43.000
  22105681.610   116166178.502 8     -2529.286    22105683.951    90519126.082 7
     -1970.872                          47.000          39.000
  22735225.801   119474402.032 8      1134.922    22735228.107    93096937.540 6
       884.343                          45.000          35.000
  23562562.172   123822126.100 7      1636.156    23562565.603    96484796.549 7
      1274.916                          42.000          43.000
  23884070.103   125511553.377 7     -4005.363    23884073.749    97801178.841 7
     -3121.069                          43.000          43.000
  24409155.471   128270887.066 7     -3381.889    24409162.315    99951326.986 7
     -2635.235                          41.000          39.000
  24718119.830   129894599.615 6      2926.788    24718125.566   101216584.880 4
      2280.565                          38.000          24.000
  25363127.160   133284116.267 7      2826.318    25363133.271   103857765.107 4
      2202.303                          41.000          21.000
 23 12 16 11 43  0.0000000  0 11G15G13G22G24G14G23G17G05G30G19G10
  20092631.050   105587475.412 8        -5.350    20092631.961    82275950.673 9
        -4.173                          50.000          59.000
  20573328.638   108113547.996 8     -2020.353    20573329.157    84244315.907 8
     -1574.300                          50.000          46.000
  21396486.392   112439348.219 8     -1550.221    21396486.517    87615102.830 7
     -1207.963                          49.000          44.000
  21438912.563   112662280.936 8      2094.887    21438916.387    87788827.515 7
      1632.381                          47.000          43.000
  22120149.711   116242209.136 8     -2541.972    22120151.570    90578370.718 7
     -1980.759                          46.000          39.000
  22728790.380   119440582.652 7      1117.032    22728791.917    93070584.804 6
       870.408                          44.000          35.000
  23553247.658   123773178.694 7      1624.458    23553251.607    96446655.793 7
      1265.805                          43.000          43.000
  23906935.109   125631709.450 7     -4007.929    23906939.022    97894806.841 7
     -3123.057                          43.000          43.000
  24428457.625   128372321.801 7     -3383.108    24428464.594   100030366.889 6
     -2636.189                          39.000          36.000
  24701410.060   129806784.793 7      2924.969    24701414.528   101148158.181 4
      2279.181                          39.000          24.000
  25347008.497   133199411.696 7      2818.122    25347014.268   103791761.566 4
      2195.937                          40.000          22.000
 23 12 16 11 43 30.0000000  0 11G15G13G22G24G14G23G17G05G30G19G10
  20092716.178   105587922.014 8       -24.931    20092716.946    82276298.661 9
       -19.424                          50.000          59.000
  20584901.976   108174366.567 8     -2034.741    20584902.494    84291706.962 8
     -1585.512                          50.000          46.000
  21405384.182   112486107.340 8     -1567.497    21405384.647    87651538.497 7
     -1221.419                          49.000          44.000
  21426984.132   112599595.249 8      2083.702    21426987.402    87739981.532 7
      1623.670                          47.000          42.000
  22134701.279   116318677.358 8     -2556.363    22134702.833    90637956.337 7
     -1991.976                          46.000          39.000
  22722468.409   119407361.366 7      1097.219    22722470.124    93044698.128 6
       854.981                          44.000          35.000
  23544010.856   123724640.910 7      1610.861    23544014.752    96408834.216 7
      1255.214                          43.000          42.000
  23929827.114   125752006.996 7     -4012.366    23929830.866    97988545.067 7
     -3126.516                          43.000          43.000
  24447777.488   128473845.969 7     -3385.570    24447783.974   100109476.468 6
     -2638.106                          39.000          35.000
  24684721.465   129719087.998 7      2921.084    24684726.468   101079823.505 4
      2276.157                          39.000          25.000
  25330946.782   133115008.400 7      2808.294    25330952.929   103725992.780 4
      2188.281                          41.000          22.000
 23 12 16 11 44  0.0000000  0 11G15G13G22G24G14G23G17G05G30G19G10
  20092911.843   105588949.573 8       -42.892    20092912.415    82277099.342 9
       -33.425                          50.000          59.000
  20596556.170   108235608.600 8     -2047.394    20596556.581    84339427.983 8
     -1595.371                          50.000          46.000
  21414379.145   112533375.916 8     -1583.023    21414379.824    87688371.131 7
     -1233.523                          49.000          44.000
  21415117.207   112537233.727 8      2074.371    21415120.173    87691388.138 7
      1616.393                          48.000          42.000
  22149333.096   116395567.768 8     -2568.986    22149335.008    90697870.919 7
     -2001.812                          46.000          39.000
  22716257.691   119374726.558 8      1079.174    22716259.781    93019268.438 6
       840.917                          45.000          35.000
  23534850.195   123676501.307 7      1599.063    23534854.019    96371322.912 7
      1246.017                          43.000          41.000
  23952742.957   125872429.379 7     -4015.127    23952746.119    98082380.566 7
     -3128.668                          42.000          42.000
  24467111.324   128575445.533 7     -3386.808    24467118.507   100188644.821 6
     -2639.073                          39.000          36.000
  24668053.687   129631498.833 7      2918.858    24668057.976   101011572.715 4
      2274.418                          39.000          24.000
  25314940.498   133030896.139 7      2799.967    25314947.074   103660450.722 4
      2181.794                          41.000          22.000
 23 12 16 11 44 30.0000000  0 11G15G13G24G22G14G23G17G05G30G19G10
  20093217.153   105590554.737 8       -64.793    20093217.815    82278350.106 9
       -50.487                          50.000          59.000
  20608289.596   108297269.372 8     -2064.091    20608290.400    84387475.292 8
     -1608.382                          50.000          46.000
  21403311.286   112475193.349 8      2060.993    21403314.270    87643044.968 7
      1605.966                          48.000          43.000
  21423469.814   112581148.385 8     -1602.509    21423470.653    87725596.404 7
     -1248.710                          49.000          44.000
  22164043.894   116472874.098 8     -2585.442    22164046.199    90758109.593 7
     -2014.629                          46.000          39.000
  22710158.600   119342675.664 8      1056.911    22710160.959    92994293.740 6
       823.561                          45.000          35.000
  23525765.690   123628758.568 7      1583.059    23525768.264    96334120.833 7
      1233.550                          43.000          43.000
  23975681.225   125992969.836 7     -4021.663    23975684.048    98176308.074 7
     -3133.758                          42.000          42.000
  24486458.901   128677115.666 7     -3391.801    24486465.799   100267868.103 6
     -2642.952                          39.000          36.000
  24651405.762   129544016.361 7      2912.629    24651409.496   100943405.074 4
      2269.554                          39.000          24.000
  25298989.875   132947073.368 7      2787.521    25298996.666   103595134.233 4
      2172.091                          41.000          24.000
 23 12 16 11 45  0.0000000  0 11G15G13G24G22G14G23G17G05G30G19G10
  20093633.430   105592742.192 8       -83.144    20093634.234    82280054.598 9
       -64.789                          50.000          60.000
  20620103.522   108359352.309 8     -2076.969    20620104.541    84435851.556 8
     -1618.415                          50.000          46.000
  21391567.336   112413478.976 8      2051.224    21391570.659    87594955.826 7
      1598.358                          48.000          43.000
  21432656.868   112629426.875 8     -1618.214    21432657.636    87763215.972 7
     -1260.944                          49.000          44.000
  22178834.388   116550597.986 8     -2598.216    22178836.997    90818673.610 7
     -2024.579                          46.000          39.000
  22704171.780   119311214.057 8      1038.328    22704173.692    92969778.226 6
       809.084                          45.000          36.000
  23516757.273   123581419.215 7      1570.665    23516760.025    96297233.097 7
      1223.891                          42.000          43.000
  23998641.740   126113629.827 7     -4024.456    23998645.349    98270328.741 7
     -3135.938                          43.000          42.000
  24505820.524   128778859.311 7     -3393.194    24505826.045   100347148.717 6
     -2644.042                          41.000          36.000
  24634779.511   129456647.602 7      2909.843    24634783.353   100875326.025 4
      2267.388                          40.000          26.000
  25283095.111   132863546.635 7      2778.707    25283102.599   103530048.458 4
      2165.235                          41.000          24.000
 23 12 16 11 45 30.0000000  0 11G15G13G24G22G14G23G17G05G30G19G10
  20094158.226   105595499.382 8      -101.390    20094158.976    82282203.049 9
       -79.004                          50.000          60.000
  20631995.321   108421843.389 8     -2089.793    20631996.232    84484545.866 8
     -1628.409                          50.000          46.000
  21379883.032   112352078.342 8      2041.476    21379886.945    87547111.160 7
      1590.760                          48.000          43.000
  21441937.449   112678196.477 8     -1633.782    21441938.039    87801218.221 7
     -1273.077                          50.000          44.000
  22193701.487   116628723.919 8     -2610.838    22193703.756    90879550.899 7
     -2034.415                          46.000          39.000
  22698294.498   119280329.921 8      1019.842    22698296.606    92945712.692 6
       794.679                          45.000          36.000
  23507823.083   123534472.295 7      1558.292    23507826.478    96260651.180 7
      1214.247                          43.000          42.000
  24021622.447   126234392.923 7     -4027.091    24021626.110    98364429.747 7
     -3137.987                          43.000          43.000
  24525192.635   128880662.425 7     -3394.420    24525198.496   100426475.698 6
     -2644.998                          39.000          35.000
  24618173.185   129369382.218 7      2907.073    24618177.027   100807327.516 5
      2265.234                          41.000          27.000
  25267254.919   132780305.407 7      2769.922    25267261.978   103465185.104 4
      2158.387                          41.000          23.000
 23 12 16 11 46  0.0000000  0 11G15G13G24G22G14G23G17G05G30G19G10
  20094785.750   105598797.318 8      -118.934    20094786.518    82284772.857 9
       -92.681                          50.000          60.000
  20643958.918   108484712.456 8     -2101.923    20643959.722    84533534.710 8
     -1637.861                          50.000          46.000
  21368252.960   112290962.890 8      2032.449    21368257.517    87499488.739 7
      1583.723                          48.000          43.000
  21451305.570   112727426.058 8     -1648.608    21451306.249    87839578.896 7
     -1284.630                          50.000          44.000
  22208638.810   116707220.109 8     -2622.675    22208640.919    90940716.693 7
     -2043.643                          46.000          39.000
  22692522.250   119249995.137 8      1002.054    22692524.251    92922075.221 6
       780.817                          45.000          36.000
  23498958.618   123487890.512 7      1546.677    23498962.174    96224353.745 7
      1205.198                          43.000          42.000
  24044616.324   126355226.035 7     -4028.852    24044619.790    98458585.295 7
     -3139.367                          43.000          42.000
  24544571.144   128982494.628 6     -3394.862    24544577.791   100505825.281 6
     -2645.344                          38.000          37.000
  24601581.047   129282193.581 7      2904.991    24601585.139   100739388.801 5
      2263.609                          40.000          27.000
  25251463.796   132697322.888 7      2761.806    25251470.550   103400523.348 4
      2152.057                          40.000          23.000
 23 12 16 11 46 30.0000000  0 11G15G13G24G22G14G23G17G05G30G19G10
  20095523.830   105602675.420 8      -139.337    20095524.509    82287794.744 9
      -108.574                          50.000          60.000
  20656001.746   108547997.962 8     -2116.819    20656002.478    84582848.055 8
     -1649.465                          50.000          46.000
  21356685.287   112230172.581 8      2020.564    21356689.576    87452119.681 7
      1574.469                          48.000          43.000
  21460768.522   112777152.933 8     -1666.195    21460768.737    87878327.072 7
     -1298.329                          49.000          43.000
  22223653.507   116786123.251 8     -2637.251    22223655.401    91002199.597 7
     -2054.989                          46.000          39.000
  22686861.843   119220250.097 8       981.337    22686863.773    92898897.286 6
       764.676                          45.000          35.000
  23490171.812   123441715.167 7      1532.090    23490175.332    96188372.998 7
      1193.837                          42.000          42.000
  24067630.410   126476165.799 7     -4033.387    24067633.770    98552823.956 7
     -3142.894                          43.000          42.000
  24563961.804   129084394.028 7     -3398.189    24563969.327   100585227.228 6
     -2647.928                          40.000          37.000
  24585011.548   129195123.933 7      2899.904    24585015.569   100671542.775 4
      2259.657                          39.000          26.000
  25235730.336   132614640.470 7      2750.673    25235736.500   103336095.437 4
      2143.379                          40.000          22.000
 23 12 16 11 47  0.0000000  0 11G15G13G24G22G14G23G17G05G19G30G10
  20096374.074   105607143.150 8      -158.254    20096374.735    82291276.078 9
      -123.322                          50.000          60.000
  20668125.199   108611707.578 8     -2130.225    20668125.842    84632491.880 8
     -1659.916                          50.000          46.000
  21345181.050   112169717.074 8      2010.075    21345184.820    87405011.505 7
      1566.287                          49.000          44.000
  21470326.913   112827383.559 8     -1682.238    21470327.431    87917467.781 7
     -1310.838                          50.000          44.000
  22238746.720   116865439.778 8     -2650.239    22238748.775    91064004.619 7
     -2065.122                          46.000          39.000
  22681315.602   119191104.824 8       962.012    22681317.550    92876186.704 6
       749.609                          45.000          36.000
  23481464.523   123395957.679 7      1518.709    23481467.793    96152717.875 7
      1183.399                          42.000          43.000
  24090665.564   126597217.756 7     -4036.354    24090669.567    98647150.024 7
     -3145.213                          42.000          42.000
  24568468.193   129108185.024 6      2896.151    24568471.338   100603798.580 4
      2256.716                          38.000          26.000
  24583366.205   129186368.467 7     -3399.964    24583373.799   100664687.710 6
     -2649.326                          39.000          35.000
  25220055.486   132532269.740 7      2740.957    25220061.096   103271910.393 4
      2135.807                          40.000          24.000
 23 12 16 11 47 30.0000000  0 11G15G13G24G22G14G23G17G05G19G30G10
  20097335.249   105612195.026 8      -178.151    20097336.178    82295212.600 9
      -138.822                          50.000          60.000
  20680328.348   108675834.634 8     -2144.557    20680328.938    84682460.977 8
     -1671.080                          50.000          45.000
  21333739.407   112109591.148 8      1998.654    21333742.659    87358160.148 7
      1557.391                          48.000          43.000
  21479979.884   112878110.043 8     -1699.131    21479980.599    87956994.868 7
     -1323.996                          49.000          43.000
  22253917.271   116945161.206 8     -2664.144    22253919.808    91126125.134 7
     -2075.952                          47.000          39.000
  22675882.508   119162554.504 8       941.730    22675884.831    92853939.725 6
       733.814                          46.000          36.000
  23472835.875   123350613.981 7      1504.531    23472839.503    96117385.180 7
      1172.361                          44.000          44.000
  24113721.303   126718372.675 7     -4040.206    24113724.770    98741556.323 7
     -3148.213                          42.000          41.000
  24551947.995   129021373.881 7      2891.476    24551951.390   100536153.903 4
      2253.074                          40.000          26.000
  24602784.883   129288410.944 7     -3402.481    24602792.138   100744201.174 6
     -2651.279                          39.000          36.000
  25204439.586   132450207.171 7      2730.277    25204445.876   103207965.534 4
      2127.487                          40.000          25.000
 23 12 16 11 48  0.0000000  0 11G15G13G24G22G14G23G17G05G19G30G10
  20098404.495   105617813.773 8      -197.064    20098405.281    82299590.835 9
      -153.558                          50.000          60.000
  20692607.190   108740360.129 8     -2157.831    20692607.619    84732740.548 8
     -1681.424                          50.000          45.000
  21322357.268   112049777.693 8      1988.206    21322360.377    87311552.281 7
      1549.244                          48.000          43.000
  21489723.791   112929313.019 8     -1715.001    21489724.202    87996893.250 7
     -1336.370                          49.000          43.000
  22269160.905   117025267.164 8     -2676.918    22269163.925    91188545.281 7
     -2085.906                          47.000          39.000
  22670559.701   119134582.412 8       922.402    22670561.971    92832143.307 6
       718.749                          45.000          36.000
  23464282.671   123305668.475 7      1491.136    23464286.406    96082362.747 7
      1161.920                          43.000          43.000
  24136792.660   126839609.619 7     -4042.843    24136795.394    98836026.547 7
     -3150.269                          41.000          41.000
  24535449.651   128934675.417 7      2887.658    24535452.314   100468596.993 4
      2250.111                          40.000          25.000
  24622212.406   129390502.538 7     -3404.216    24622220.054   100823752.905 6
     -2652.624                          40.000          37.000
  25188878.847   132368437.063 7      2720.489    25188885.977   103144248.540 4
      2119.869                          40.000          25.000
 23 12 16 11 48 30.0000000  0 11G15G13G24G22G14G23G17G05G19G30G10
  20099582.153   105624002.504 9      -214.867    20099582.993    82304413.214 9
      -167.425                          51.000          60.000
  20704962.100   108805286.180 8     -2169.970    20704962.726    84783332.246 8
     -1690.885                          50.000          45.000
  21311035.384   111990280.483 8      1978.916    21311038.690    87265190.870 7
      1542.012                          48.000          43.000
  21499558.061   112980993.357 8     -1729.683    21499558.579    88037163.608 7
     -1347.804                          50.000          43.000
  22284478.107   117105758.175 8     -2688.520    22284480.787    91251265.467 7
     -2094.949                          47.000          39.000
  22665347.486   119107192.616 8       904.223    22665349.755    92810800.626 6
       704.593                          46.000          36.000
  23455806.482   123261126.529 7      1478.865    23455809.806    96047654.787 7
      1152.364                          43.000          43.000
  24159878.526   126960928.136 7     -4044.346    24159881.671    98930560.337 7
     -3151.429                          42.000          40.000
  24518973.804   128848095.658 7      2884.871    24518976.181   100401132.543 4
      2247.950                          41.000          26.000
  24641649.668   129492645.168 7     -3404.699    24641657.495   100903344.432 6
     -2653.011                          40.000          36.000
  25173375.272   132286965.008 7      2711.687    25173382.777   103080763.810 4
      2112.993                          39.000          23.000
 23 12 16 11 49  0.0000000  0 11G15G13G24G22G14G23G17G05G19G30G10
  20100869.974   105630770.319 8      -235.521    20100870.867    82309686.832 9
      -183.530                          50.000          60.000
  20717395.134   108870620.949 8     -2184.915    20717395.724    84834242.428 8
     -1702.534                          50.000          45.000
  21299775.130   111931109.297 8      1966.654    21299779.114    87219083.516 7
      1532.447                          48.000          44.000
  21509484.464   113033157.661 8     -1747.106    21509485.393    88077811.089 7
     -1361.387                          50.000          43.000
  22299869.465   117186640.793 8     -2702.841    22299872.145    91314290.806 6
     -2106.110                          47.000          38.000
  22660248.650   119080395.295 8       883.136    22660250.455    92789919.612 6
       688.149                          45.000          36.000
  23447409.239   123216998.458 7      1463.748    23447413.241    96013269.339 7
      1140.571                          43.000          44.000
  24182981.779   127082334.812 7     -4048.498    24182984.746    99025162.827 7
     -3154.678                          42.000          41.000
  24502522.420   128761646.623 7      2879.229    24502525.762   100333769.935 4
      2243.536                          41.000          26.000
  24661098.224   129594846.938 6     -3407.830    24661106.640   100982982.020 6
     -2655.445                          38.000          35.000
  25157930.468   132205802.637 6      2699.928    25157937.973   103017520.400 4
      2103.842                          38.000          23.000
 23 12 16 11 49 30.0000000  0 11G15G13G24G22G14G23G17G05G19G30G10
  20102261.559   105638082.983 8      -253.347    20102262.185    82315385.004 9
      -197.415                          50.000          59.000
  20729898.697   108936328.640 8     -2196.976    20729899.823    84885443.192 8
     -1711.927                          50.000          45.000
  21288571.002   111872229.971 8      1957.273    21288574.683    87173203.592 7
      1525.144                          48.000          44.000
  21519496.281   113085769.393 8     -1761.666    21519497.085    88118807.225 7
     -1372.728                          49.000          43.000
  22315328.814   117267877.591 8     -2714.318    22315330.512    91377592.136 6
     -2115.056                          46.000          38.000
  22655255.098   119054156.540 8       864.752    22655257.403    92769473.850 6
       673.829                          45.000          36.000
  23439084.543   123173251.836 7      1451.295    23439088.599    95979181.119 7
      1130.877                          44.000          43.000
  24206093.484   127203791.104 7     -4049.860    24206097.612    99119803.968 7
     -3155.735                          42.000          40.000
  24486090.389   128675296.267 7      2876.087    24486093.551   100266484.176 4
      2241.101                          39.000          26.000
  24680551.032   129697071.844 7     -3408.434    24680559.448   101062637.647 6
     -2655.921                          39.000          36.000
  25142538.431   132124917.322 6      2690.986    25142545.632   102954492.877 4
      2096.873                          37.000          22.000
 23 12 16 11 50  0.0000000  0 11G15G13G24G22G14G23G17G05G19G30G10
  20103768.222   105646000.239 8      -275.268    20103768.937    82321554.290 9
      -214.503                          50.000          60.000
  20742484.422   109002467.454 8     -2213.083    20742485.369    84936979.902 8
     -1724.478                          50.000          45.000
  21277433.419   111813702.523 8      1943.812    21277436.832    87127597.864 7
      1514.653                          48.000          44.000
  21529604.073   113138885.885 8     -1780.249    21529604.770    88160196.692 7
     -1387.208                          50.000          43.000
  22330865.679   117349525.320 8     -2729.633    22330867.734    91441213.683 6
     -2126.986                          46.000          38.000
  22650380.035   119028536.666 8       842.395    22650381.965    92749510.332 6
       656.404                          46.000          36.000
  23430843.940   123129948.128 7      1434.790    23430846.709    95945438.005 7
      1118.008                          43.000          42.000
  24229226.203   127325352.969 7     -4055.109    24229230.206    99214527.364 7
     -3159.829                          41.000          40.000
  24469689.252   128589106.191 6      2869.003    24469692.147   100199323.298 4
      2235.574                          38.000          26.000
  24700019.850   129799378.134 6     -3412.859    24700026.980   101142356.701 6
     -2659.372                          38.000          35.000
  25127210.919   132044370.979 6      2677.928    25127218.103   102891729.532 4
      2086.691                          38.000          23.000
 23 12 16 11 50 30.0000000  0 11G15G13G24G22G14G23G17G05G19G30G10
  20105387.727   105654511.037 8      -293.446    20105388.567    82328186.074 9
      -228.661                          50.000          60.000
  20755150.110   109069025.510 8     -2225.455    20755150.932    84988843.286 8
     -1734.119                          50.000          45.000
  21266361.236   111755516.751 8      1933.952    21266364.274    87082258.377 7
      1506.971                          48.000          44.000
  21539805.266   113192493.783 8     -1794.934    21539805.855    88201969.071 7
     -1398.652                          49.000          43.000
  22346478.149   117431570.511 8     -2741.322    22346480.954    91505144.942 7
     -2136.093                          47.000          39.000
  22645620.138   119003525.717 8       823.756    22645622.622    92730021.297 6
       641.886                          46.000          37.000
  23422686.266   123087078.484 7      1421.898    23422689.107    95912033.123 7
      1107.968                          43.000          44.000
  24252376.112   127447006.497 7     -4056.524    24252380.186    99309322.175 7
     -3160.927                          41.000          40.000
  24453316.134   128503068.601 7      2865.528    24453319.458   100132281.243 4
      2232.848                          39.000          26.000
  24719501.570   129901753.830 6     -3413.508    24719507.807   101222129.847 6
     -2659.871                          37.000          34.000
  25111946.592   131964154.847 6      2668.425    25111953.597   102829223.473 4
      2079.291                          37.000          24.000
 23 12 16 11 51  0.0000000  0 11G15G13G24G22G14G23G17G05G19G30G10
  20107116.877   105663597.821 8      -312.101    20107117.592    82335266.682 9
      -243.197                          50.000          59.000
  20767891.850   109135983.903 8     -2238.272    20767892.654    85041018.619 7
     -1744.110                          50.000          44.000
  21255350.523   111697655.538 8      1923.641    21255353.971    87037171.793 7
      1498.938                          49.000          44.000
  21550096.393   113246573.607 8     -1810.123    21550096.787    88244109.191 7
     -1410.488                          50.000          43.000
  22362162.773   117513992.840 8     -2753.278    22362165.257    91569370.097 6
     -2145.411                          46.000          38.000
  22640973.764   118979106.871 8       804.438    22640976.015    92710993.632 6
       626.833                          46.000          36.000
  23414607.538   123044627.288 7      1408.435    23414611.844    95878954.332 7
      1097.478                          43.000          43.000
  24275539.298   127568731.033 7     -4058.294    24275543.515    99404172.314 7
     -3162.302                          41.000          39.000
  24436970.196   128417169.091 7      2861.441    24436973.519   100065346.782 4
      2229.683                          40.000          26.000
  24738992.636   130004180.077 6     -3414.610    24738999.248   101301942.386 6
     -2660.729                          37.000          34.000
  25096741.769   131884253.532 6      2658.536    25096749.292   102766962.749 4
      2071.585                          36.000          24.000
 23 12 16 11 51 30.0000000  0 11G15G13G24G22G14G23G17G05G19G30G10
  20108956.421   105673264.114 8      -333.155    20108957.243    82342798.854 9
      -259.602                          50.000          60.000
  20780710.318   109203344.945 8     -2253.352    20780710.926    85093507.701 7
     -1755.857                          50.000          44.000
  21244401.940   111640122.736 8      1911.035    21244406.068    86992341.107 7
      1489.111                          49.000          44.000
  21560477.313   113301126.042 8     -1827.563    21560477.903    88286617.582 7
     -1424.076                          49.000          43.000
  22377919.391   117596792.872 8     -2767.549    22377921.714    91633889.570 6
     -2156.531                          46.000          38.000
  22636440.392   118955284.139 8       782.840    22636442.572    92692430.468 6
       610.003                          46.000          36.000
  23406610.399   123002599.496 7      1392.571    23406614.688    95846205.457 7
      1085.118                          43.000          43.000
  24298716.528   127690526.142 7     -4062.179    24298720.549    99499077.443 7
     -3165.333                          41.000          39.000
  24420651.560   128331413.316 7      2854.792    24420654.831    99998524.281 4
      2224.504                          40.000          26.000
  24758494.066   130106659.103 6     -3418.125    24758500.767   101381796.049 6
     -2663.471                          38.000          35.000
  25081597.915   131804672.596 6      2646.170    25081605.706   102704951.656 4
      2061.948                          35.000          23.000
 23 12 16 11 52  0.0000000  0 11G15G13G24G22G14G23G17G05G19G30G10
  20110911.257   105683537.322 8      -350.941    20110912.221    82350803.949 9
      -273.466                          50.000          60.000
  20793610.413   109271134.691 8     -2265.169    20793611.110    85146330.848 7
     -1765.069                          49.000          44.000
  21233521.599   111582946.150 8      1901.563    21233525.387    86947787.994 7
      1481.728                          48.000          44.000
  21570952.777   113356175.951 8     -1841.647    21570953.635    88329513.624 7
     -1435.055                          49.000          43.000
  22393752.614   117679995.148 8     -2778.500    22393754.491    91698722.497 6
     -2165.068                          46.000          38.000
  22632025.707   118932085.648 8       764.457    22632027.852    92674353.725 6
       595.674                          46.000          36.000
  23398698.997   122961024.061 7      1379.949    23398702.428    95813809.039 7
      1075.281                          43.000          43.000
  24321911.575   127812415.808 7     -4062.902    24321915.613    99594056.261 6
     -3165.905                          41.000          38.000
  24404364.911   128245831.510 7      2851.356    24404368.860    99931837.345 4
      2221.824                          39.000          25.000
  24778009.398   130209216.734 6     -3418.140    24778017.171   101461710.944 6
     -2663.481                          38.000          35.000
  25066521.624   131725441.556 6      2636.931    25066528.432   102643213.219 4
      2054.749                          36.000          24.000
 23 12 16 11 52 30.0000000  0 11G15G13G24G22G14G23G17G05G19G30G10
  20112970.733   105694360.084 8      -370.484    20112971.501    82359237.263 9
      -288.692                          50.000          60.000
  20806580.589   109339294.653 8     -2278.714    20806581.572    85199442.470 7
     -1775.620                          50.000          44.000
  21222698.582   111526069.081 8      1890.371    21222701.548    86903468.252 7
      1473.015                          48.000          44.000
  21581512.298   113411664.082 8     -1857.450    21581512.709    88372751.136 7
     -1447.363                          49.000          43.000
  22409650.077   117763539.696 8     -2791.032    22409652.811    91763822.133 6
     -2174.830                          47.000          38.000
  22627719.362   118909454.798 8       744.355    22627721.453    92656719.309 6
       580.021                          46.000          36.000
  23390862.751   122919845.765 7      1365.406    23390866.700    95781722.078 7
      1063.949                          43.000          44.000
  24345112.750   127934339.575 7     -4065.181    24345117.574    99689061.648 7
     -3167.671                          41.000          39.000
  24388101.545   128160368.883 7      2846.096    24388105.208    99865243.266 4
      2217.713                          40.000          26.000
  24797528.786   130311794.622 7     -3420.173    24797537.416   101541641.620 6
     -2665.064                          39.000          35.000
  25051499.476   131646505.137 6      2625.407    25051506.677   102581704.356 4
      2045.769                          37.000          23.000
 23 12 16 11 53  0.0000000  0 11G15G13G24G22G14G23G17G05G19G30G10
  20115145.071   105705786.277 8      -389.992    20115145.822    82368140.788 9
      -303.894                          50.000          59.000
  20819631.659   109407877.517 8     -2292.213    20819632.606    85252883.621 7
     -1786.139                          49.000          44.000
  21211942.377   111469546.073 8      1879.123    21211945.594    86859424.398 7
      1464.250                          49.000          44.000
  21592163.987   113467642.078 8     -1873.135    21592164.970    88416370.362 7
     -1459.586                          49.000          43.000
  22425623.250   117847477.771 8     -2803.479    22425625.555    91829228.411 6
     -2184.530                          46.000          38.000
  22623531.524   118887446.329 8       724.160    22623533.365    92639569.869 6
       564.277                          46.000          36.000
  23383113.277   122879120.128 7      1350.894    23383116.976    95749987.869 7
      1052.638                          42.000          43.000
  24368330.346   128056348.870 7     -4067.339    24368334.957    99784133.686 6
     -3169.354                          40.000          37.000
  24371872.952   128075082.245 7      2840.758    24371875.185    99798786.344 4
      2213.575                          40.000          25.000
  24817062.969   130414445.551 7     -3422.010    24817071.439   101621629.222 6
     -2666.495                          39.000          35.000
  25036544.390   131567919.986 6      2614.445    25036552.002   102520469.175 4
      2037.229                          34.000          21.000
 23 12 16 11 53 30.0000000  0 11G15G13G24G22G14G23G17G19G05G30G10
  20117432.557   105717806.702 8      -410.882    20117433.307    82377507.346 9
      -320.166                          50.000          60.000
  20832761.031   109476872.811 8     -2306.988    20832761.889    85306646.149 7
     -1797.650                          50.000          44.000
  21201252.109   111413368.317 8      1866.548    21201255.755    86815649.567 8
      1454.452                          49.000          45.000
  21602907.362   113524098.092 8     -1890.106    21602907.808    88460362.071 7
     -1472.812                          50.000          43.000
  22441668.203   117931797.280 8     -2817.253    22441670.865    91894931.918 6
     -2195.260                          46.000          38.000
  22619459.960   118866051.556 8       702.642    22619461.926    92622898.636 6
       547.512                          46.000          37.000
  23375448.146   122838839.849 7      1334.918    23375451.612    95718600.652 7
      1040.198                          43.000          43.000
  24355675.129   127989965.158 7      2834.061    24355678.113    99732461.502 4
      2208.362                          40.000          26.000
  24391561.524   128178430.132 7     -4070.785    24391565.991    99879261.791 6
     -3172.032                          40.000          37.000
  24836608.857   130517159.002 7     -3425.069    24836617.327   101701665.542 6
     -2668.879                          39.000          36.000
  25021656.599   131489678.638 6      2602.059    25021663.300   102459501.912 4
      2027.588                          35.000          23.000
 23 12 16 11 54  0.0000000  0 11G15G13G24G22G14G23G17G19G05G30G10
  20119831.741   105730415.056 8      -430.394    20119832.545    82387332.033 9
      -335.375                          50.000          60.000
  20845967.686   109546273.217 8     -2320.372    20845968.258    85360724.354 7
     -1808.080                          49.000          44.000
  21190626.223   111357530.209 8      1855.298    21190630.387    86772139.387 7
      1445.683                          48.000          44.000
  21613740.278   113581024.018 8     -1905.649    21613740.492    88504719.937 7
     -1484.924                          49.000          42.000
  22457784.739   118016489.390 8     -2829.593    22457786.991    91960925.768 6
     -2204.878                          46.000          38.000
  22615504.884   118845264.998 8       682.395    22615506.582    92606701.320 6
       531.732                          46.000          37.000
  23367866.784   122799000.695 7      1320.336    23367870.179    95687557.164 7
      1028.828                          42.000          42.000
  24339509.417   127905014.176 7      2828.638    24339512.455    99666266.103 5
      2204.122                          40.000          27.000
  24414805.066   128300574.018 7     -4072.800    24414809.391    99974438.685 6
     -3173.609                          39.000          36.000
  24856165.663   130619927.693 6     -3426.992    24856174.311   101781744.891 6
     -2670.380                          38.000          36.000
  25006831.868   131411777.267 6      2590.573    25006839.248   102398799.561 4
      2018.629                          33.000          21.000
 23 12 16 11 54 30.0000000  0 11G15G13G24G22G14G23G17G19G05G30G10
  20122336.120   105743574.845 8      -448.319    20122336.817    82397586.414 9
      -349.345                          50.000          60.000
  20859243.959   109616041.093 8     -2332.169    20859244.764    85415088.889 7
     -1817.273                          49.000          44.000
  21180058.644   111301995.820 8      1845.680    21180061.985    86728865.860 7
      1438.191                          48.000          43.000
  21624654.749   113638380.820 8     -1919.520    21624655.303    88549413.552 7
     -1495.729                          49.000          42.000
  22473964.907   118101514.854 8     -2840.228    22473967.034    92027179.372 6
     -2213.165                          46.000          38.000
  22611657.880   118825050.803 8       663.809    22611660.185    92590949.997 6
       517.253                          46.000          37.000
  23360363.385   122759567.433 7      1307.209    23360366.529    95656829.970 7
      1018.599                          43.000          44.000
  24323368.543   127820195.348 7      2824.631    24323371.367    99600173.674 5
      2200.997                          40.000          27.000
  24438052.612   128422740.616 6     -4072.935    24438056.739   100069633.268 6
     -3173.716                          38.000          36.000
  24875724.952   130722713.927 6     -3427.008    24875734.387   101861837.922 6
     -2670.397                          38.000          34.000
  24992068.195   131334181.788 5      2581.112    24992073.467   102338335.574 3
      2011.244                          31.000          20.000
 23 12 16 11 55  0.0000000  0 11G15G13G24G22G14G23G17G19G05G30G10
  20124952.234   105757322.651 8      -467.935    20124952.949    82408298.983 9
      -364.624                          50.000          60.000
  20872596.783   109686211.599 8     -2345.559    20872597.748    85469767.170 7
     -1827.704                          50.000          44.000
  21169555.554   111246802.369 8      1834.162    21169558.431    86685857.978 7
      1429.224                          49.000          44.000
  21635657.886   113696202.987 8     -1935.019    21635658.493    88594469.791 7
     -1507.801                          49.000          42.000
  22490214.872   118186907.629 8     -2852.444    22490217.141    92093719.178 6
     -2222.685                          46.000          38.000
  22607927.043   118805446.314 8       643.418    22607929.401    92575673.769 6
       501.372                          47.000          37.000
  23352943.559   122720578.925 7      1292.256    23352947.669    95626449.322 7
      1006.956                          43.000          44.000
  24307260.727   127735548.140 7      2818.780    24307263.550    99534214.950 5
      2196.454                          41.000          27.000
  24461310.860   128544964.076 7     -4074.811    24461315.435   100164872.149 6
     -3175.169                          39.000          36.000
  24895295.106   130825553.239 7     -3428.720    24895303.880   101941972.309 6
     -2671.724                          39.000          35.000
  24977366.635   131256930.860 6      2569.542    24977373.515   102278140.048 4
      2002.249                          36.000          23.000
 23 12 16 11 55 30.0000000  0 11G15G13G24G22G14G23G17G19G05G30G10
  20127681.424   105771665.607 8      -488.233    20127682.192    82419475.310 9
      -380.446                          50.000          60.000
  20886027.802   109756790.752 8     -2359.678    20886028.642    85524763.868 7
     -1838.707                          49.000          44.000
  21159118.990   111191957.558 8      1822.112    21159121.974    86643121.755 7
      1419.826                          48.000          44.000
  21646750.385   113754495.077 8     -1951.071    21646751.118    88639892.197 7
     -1520.314                          49.000          42.000
  22506534.740   118272672.096 8     -2865.213    22506537.635    92160548.616 6
     -2232.635                          46.000          38.000
  22604313.819   118786459.232 8       622.429    22604316.035    92560878.634 6
       485.008                          46.000          37.000
  23345610.505   122682043.840 7      1276.664    23345614.347    95596422.001 7
       994.794                          41.000          43.000
  24291187.594   127651082.372 7      2812.199    24291190.418    99468397.592 5
      2191.313                          39.000          27.000
  24484581.153   128667247.498 7     -4077.285    24484585.567   100260157.772 6
     -3177.104                          39.000          37.000
  24914876.571   130928451.612 6     -3431.140    24914884.523   102022152.734 6
     -2673.613                          38.000          35.000
  24962732.603   131180033.930 6      2557.046    24962740.501   102218220.371 4
      1992.500                          36.000          22.000
 23 12 16 11 56  0.0000000  0 11G15G13G24G22G14G23G17G19G05G30G10
  20130521.258   105786587.570 8      -506.877    20130521.777    82431102.812 9
      -394.974                          50.000          59.000
  20899533.281   109827761.532 8     -2372.061    20899534.032    85580065.733 7
     -1848.362                          50.000          43.000
  21148745.558   111137446.017 8      1811.673    21148749.418    86600645.225 8
      1411.688                          49.000          45.000
  21657928.978   113813239.061 8     -1965.460    21657929.693    88685666.725 7
     -1531.531                          49.000          42.000
  22522922.331   118358789.635 8     -2876.289    22522925.369    92227653.158 6
     -2241.263                          47.000          37.000
  22600815.886   118768074.206 8       602.987    22600817.477    92546552.637 6
       469.856                          46.000          37.000
  23338361.274   122643947.912 7      1262.672    23338364.259    95566736.869 7
       983.899                          43.000          43.000
  24275146.072   127566784.956 7      2807.244    24275149.485    99402711.400 4
      2187.456                          40.000          26.000
  24507858.754   128789571.726 7     -4077.969    24507863.596   100355475.177 6
     -3177.639                          40.000          37.000
  24934465.238   131031391.945 6     -3431.684    24934473.297   102102365.853 6
     -2674.033                          38.000          34.000
  24948164.488   131103477.258 7      2546.446    24948172.029   102158565.812 4
      1984.235                          39.000          24.000
 23 12 16 11 56 30.0000000  0 12G15G13G24G22G14G23G17G19G05G10G30G12
  20133466.574   105802065.178 8      -525.885    20133467.235    82443163.285 9
      -409.776                          50.000          60.000
  20913108.342   109899099.338 8     -2384.750    20913109.414    85635653.590 7
     -1858.243                          50.000          44.000
  21138431.468   111083244.839 8      1800.689    21138435.560    86558410.541 8
      1403.133                          48.000          45.000
  21669188.893   113872409.115 8     -1980.154    21669189.268    88731773.255 7
     -1542.980                          49.000          42.000
  22539372.304   118445234.058 8     -2887.613    22539375.163    92295012.410 6
     -2250.079                          46.000          38.000
  22597427.455   118750268.392 8       583.163    22597429.546    92532677.966 6
       454.415                          46.000          37.000
  23331190.989   122606269.691 7      1248.200    23331194.099    95537377.223 7
       972.630                          44.000          43.000
  24259133.319   127482635.158 7      2801.996    24259135.946    99337140.231 5
      2183.380                          41.000          28.000
  24531139.518   128911910.688 7     -4078.876    24531144.360   100450804.067 6
     -3178.338                          39.000          37.000
  24933656.629   131027239.619 7      2535.239    24933664.420   102099159.867 4
      1975.514                          39.000          24.000
  24954057.442   131134349.718 6     -3432.947    24954065.930   102182592.559 6
     -2675.013                          38.000          34.000
  25073469.189   131761980.483 6      3723.428
                                        34.000
 23 12 16 11 57  0.0000000  0 12G15G13G24G22G14G23G17G19G05G10G30G12
  20136520.640   105818115.651 8      -544.667    20136521.605    82455670.148 9
      -424.419                          50.000          60.000
  20926756.577   109970820.018 8     -2397.171    20926757.345    85691539.800 7
     -1867.926                          49.000          44.000
  21128179.885   111029371.946 8      1790.083    21128183.566    86516431.654 8
      1394.870                          49.000          45.000
  21680532.399   113932020.301 8     -1994.468    21680532.970    88778223.519 7
     -1554.131                          49.000          42.000
  22555887.319   118532020.026 8     -2898.624    22555889.767    92362637.785 6
     -2258.668                          46.000          37.000
  22594152.599   118733059.669 8       563.525    22594154.815    92519268.562 6
       439.112                          46.000          37.000
  23324104.189   122569028.081 7      1233.963    23324107.065    95508357.821 7
       961.527                          43.000          43.000
  24243151.640   127398653.231 7      2796.431    24243153.820    99271699.853 5
      2179.035                          42.000          28.000
  24554424.838   129034277.748 7     -4079.434    24554429.859   100546154.853 6
     -3178.778                          39.000          36.000
  24919214.009   130951340.653 6      2524.233    24919221.210   102040017.825 4
      1966.931                          38.000          24.000
  24973656.008   131237341.055 7     -3433.423    24973664.567   102262845.429 6
     -2675.396                          39.000          34.000
  25052215.166   131650287.201 6      3722.158    25052219.383   102584648.624 4
      2900.390                          34.000          21.000
 23 12 16 11 57 30.0000000  0 12G15G13G24G22G14G23G17G19G05G10G30G12
  20139691.802   105834779.034 8      -564.842    20139692.463    82468654.602 9
      -440.138                          50.000          60.000
  20940484.615   110042962.975 8     -2410.955    20940485.365    85747755.061 7
     -1878.662                          50.000          43.000
  21117998.509   110975868.353 8      1778.117    21118001.761    86474740.522 7
      1385.548                          48.000          44.000
  21691967.323   113992110.583 8     -2010.123    21691967.734    88825047.104 7
     -1566.328                          49.000          42.000
  22572474.204   118619185.252 8     -2910.932    22572476.652    92430558.685 6
     -2268.252                          46.000          37.000
  22590998.770   118716489.020 8       542.542    22591001.361    92506356.359 6
       422.758                          47.000          37.000
  23317108.591   122532265.364 7      1218.250    23317110.878    95479711.562 7
       949.285                          44.000          43.000
  24227210.667   127314882.522 7      2789.686    24227212.364    99206424.063 5
      2173.776                          41.000          28.000
  24577723.703   129156710.513 6     -4081.322    24577727.777   100641556.838 6
     -3180.240                          38.000          35.000
  24904844.312   130875823.301 6      2511.674    24904850.727   101981173.149 4
      1957.157                          38.000          25.000
  24993268.565   131340405.389 7     -3435.954    24993277.464   102343155.191 6
     -2677.362                          40.000          35.000
  25030974.937   131538672.435 6      3719.848    25030980.352   102497676.244 4
      2898.577                          33.000          22.000
 23 12 16 11 58  0.0000000  0 12G15G13G24G22G23G14G17G19G05G10G12G30
  20142974.520   105852029.773 8      -585.321    20142975.110    82482096.736 9
      -456.095                          50.000          59.000
  20954288.292   110115501.178 8     -2425.037    20954288.899    85804278.300 7
     -1889.640                          49.000          43.000
  21107882.605   110922708.869 8      1765.742    21107885.732    86433317.526 7
      1375.902                          48.000          44.000
  21703487.732   114052651.925 8     -2026.007    21703488.625    88872222.157 7
     -1578.707                          49.000          42.000
  22587962.716   118700531.208 8       521.161    22587964.556    92493921.700 6
       406.099                          46.000          37.000
  22589128.134   118706701.270 8     -2923.599    22589130.528    92498752.905 6
     -2278.127                          46.000          37.000
  23310199.498   122495957.304 7      1202.099    23310202.232    95451419.581 7
       936.700                          44.000          44.000
  24211305.038   127231299.748 7      2782.462    24211307.647    99141294.708 5
      2168.151                          41.000          28.000
  24601028.787   129279180.134 6     -4083.459    24601032.789   100736987.527 6
     -3181.916                          38.000          35.000
  24890542.447   130800663.693 6      2498.816    24890548.611   101922607.250 4
      1947.124                          38.000          26.000
  25009745.645   131427112.245 6      3717.222    25009751.059   102410746.407 4
      2896.525                          33.000          23.000
  25012889.127   131443515.835 6     -3438.370    25012898.866   102423500.872 6
     -2679.246                          38.000          34.000
 23 12 16 11 58 30.0000000  0 12G15G13G24G22G23G14G17G19G05G10G12G30
  20146370.653   105869877.701 8      -603.853    20146371.421    82496004.211 9
      -470.536                          50.000          59.000
  20968168.931   110188443.411 8     -2437.076    20968169.592    85861116.376 7
     -1899.022                          50.000          43.000
  21097834.442   110869904.529 8      1755.226    21097837.730    86392171.278 8
      1367.707                          48.000          45.000
  21715095.842   114113652.399 8     -2039.931    21715096.557    88919754.974 7
     -1589.559                          49.000          42.000
  22585044.812   118685197.151 8       501.754    22585046.384    92481973.087 6
       390.973                          45.000          37.000
  22605849.572   118794575.782 8     -2934.033    22605853.021    92567226.456 6
     -2286.253                          46.000          37.000
  23303378.570   122460116.092 7      1187.915    23303382.859    95423491.405 7
       925.649                          44.000          44.000
  24195438.043   127147918.411 7      2776.975    24195441.081    99076322.316 5
      2163.871                          41.000          28.000
  24624342.983   129401694.456 6     -4083.473    24624346.807   100832453.059 6
     -3181.919                          38.000          36.000
  24876310.449   130725874.289 7      2487.733    24876316.721   101864329.804 4
      1938.497                          39.000          25.000
  24988529.075   131315618.661 6      3716.340    24988533.989   102323868.442 4
      2895.853                          33.000          24.000
  25032521.573   131546681.687 6     -3438.631    25032530.168   102503889.716 5
     -2679.451                          37.000          32.000
 23 12 16 11 59  0.0000000  0 12G15G13G24G22G23G14G17G19G05G10G12G30
  20149871.713   105888274.730 8      -622.490    20149872.070    82510339.555 9
      -485.054                          50.000          60.000
  20982116.847   110261740.859 8     -2449.240    20982117.776    85918231.234 7
     -1908.494                          50.000          44.000
  21087844.479   110817407.874 8      1744.723    21087848.267    86351264.792 8
      1359.529                          48.000          45.000
  21726781.754   114175061.493 8     -2053.849    21726782.255    88967606.200 7
     -1600.398                          49.000          42.000
  22582236.462   118670439.332 8       482.259    22582238.249    92470473.482 6
       375.793                          46.000          37.000
  22622630.193   118882758.166 8     -2944.592    22622633.534    92635939.918 6
     -2294.486                          46.000          37.000
  23296638.625   122424695.656 7      1173.641    23296642.788    95395891.095 8
       914.529                          44.000          45.000
  24179601.175   127064693.228 7      2771.432    24179603.730    99011471.606 5
      2159.567                          41.000          28.000
  24647654.857   129524200.879 7     -4083.496    24647659.557   100927912.430 6
     -3181.933                          39.000          36.000
  24862140.367   130651409.770 7      2476.625    24862146.389   101806305.520 5
      1929.835                          40.000          27.000
  24967317.508   131204145.518 6      3715.431    24967321.260   102237006.434 4
      2895.137                          34.000          26.000
  25052155.054   131649853.877 6     -3439.302    25052163.542   102584283.507 6
     -2679.969                          38.000          34.000
 23 12 16 11 59 30.0000000  0 12G15G13G24G22G23G14G17G19G05G10G12G30
  20153488.617   105907282.608 8      -644.395    20153489.279    82525150.886 9
      -502.129                          50.000          60.000
  20996144.531   110335453.869 8     -2464.667    20996145.031    85975669.907 7
     -1920.516                          49.000          44.000
  21077925.063   110765281.201 8      1730.734    21077928.761    86310646.605 8
      1348.625                          48.000          45.000
  21738556.422   114236938.836 8     -2070.971    21738556.940    89015822.298 7
     -1613.740                          49.000          42.000
  22579549.515   118656319.913 8       459.347    22579551.856    92459471.334 6
       357.934                          45.000          37.000
  22639480.574   118971307.404 8     -2958.338    22639483.558    92704939.242 6
     -2305.195                          46.000          37.000
  23289990.169   122389758.991 7      1155.777    23289994.350    95368667.758 8
       900.600                          44.000          45.000
  24163805.602   126981688.789 7      2762.458    24163808.389    98946792.896 5
      2152.557                          41.000          29.000
  24670976.934   129646758.554 7     -4086.572    24670982.045   101023411.726 6
     -3184.344                          39.000          37.000
  24848043.191   130577333.816 7      2462.136    24848050.035   101748584.031 4
      1918.550                          41.000          26.000
  24946119.432   131092756.441 6      3710.633    24946124.811   102150209.888 5
      2891.392                          35.000          27.000
  25071800.276   131753093.007 6     -3443.086    25071809.747   102664729.489 6
     -2682.924                          38.000          35.000
                            4  1
RINEX FILE SPLICE; other post-header comments skipped       COMMENT
 23 12 16 12  0  0.0000000  0 12G15G13G24G22G23G14G17G19G05G10G12G30
  20157219.723   105926889.186 8      -662.508    20157220.331    82540428.740 9
      -516.240                          50.000          59.000
  21010247.639   110409569.107 8     -2476.209    21010248.640    86033422.010 7
     -1929.513                          50.000          43.000
  21068074.031   110713513.088 8      1720.627    21068077.408    86270307.818 7
      1340.749                          49.000          44.000
  21750417.879   114299269.851 8     -2084.235    21750418.040    89064391.899 7
     -1624.080                          49.000          41.000
  22576982.237   118642827.284 8       440.344    22576984.524    92448957.597 6
       343.125                          45.000          37.000
  22656398.769   119060208.814 8     -2968.194    22656400.985    92774212.985 6
     -2312.881                          45.000          36.000
  23283431.987   122355296.022 7      1141.934    23283435.847    95341813.556 7
       889.815                          43.000          44.000
  24148050.573   126898895.675 7      2757.143    24148053.075    98882278.858 5
      2148.422                          41.000          29.000
  24694305.694   129769352.350 7     -4085.917    24694311.251   101118939.162 6
     -3183.825                          40.000          37.000
  24834018.564   130503636.626 7      2451.151    24834025.264   101691157.672 4
      1909.986                          41.000          25.000
  24924936.778   130981441.263 6      3710.295    24924942.085   102063470.897 5
      2891.141                          36.000          27.000
  25091457.131   131856386.043 6     -3442.908    25091466.190   102745217.480 6
     -2682.787                          38.000          35.000
 23 12 16 12  0 30.0000000  0 12G15G13G24G22G23G14G17G19G05G10G12G30
  20161053.754   105947037.136 8      -680.329    20161054.326    82556128.438 9
      -530.127                          50.000          59.000
  21024417.024   110484028.869 8     -2487.472    21024418.239    86091442.572 7
     -1938.287                          50.000          44.000
  21058280.341   110662047.279 8      1710.794    21058283.736    86230204.604 8
      1333.088                          49.000          45.000
  21762354.297   114361995.338 8     -2097.090    21762354.619    89113268.881 7
     -1634.095                          49.000          41.000
  22574522.852   118629905.077 8       421.502    22574525.461    92438888.340 6
       328.440                          46.000          37.000
  22673371.660   119149402.846 8     -2977.727    22673374.323    92843714.742 6
     -2320.305                          45.000          36.000
  23276953.555   122321251.610 8      1128.111    23276957.593    95315285.498 8
       879.045                          45.000          45.000
  24132325.851   126816260.031 7      2752.154    24132328.049    98817887.521 5
      2144.534                          41.000          29.000
  24717630.398   129891922.477 7     -4084.945    24717635.473   101214448.153 6
     -3183.070                          40.000          38.000
  24820056.870   130430263.742 7      2440.659    24820062.410   101633983.999 4
      1901.811                          42.000          25.000
  24903758.251   130870145.011 6      3709.553    24903762.700   101976746.648 5
      2890.550                          36.000          28.000
  25111112.931   131959675.080 6     -3442.546    25111121.830   102825702.364 6
     -2682.504                          38.000          35.000
 23 12 16 12  1  0.0000000  0 12G15G13G24G22G23G14G17G19G05G10G12G30
  20164997.322   105967761.290 8      -701.225    20164998.270    82572277.128 9
      -546.409                          50.000          60.000
  21038658.403   110558866.641 8     -2501.720    21038659.350    86149757.689 7
     -1949.391                          50.000          43.000
  21048551.212   110610919.495 8      1697.812    21048554.571    86190364.796 8
      1322.971                          49.000          45.000
  21774371.877   114425148.325 8     -2113.069    21774372.520    89162478.980 7
     -1646.543                          48.000          41.000
  22572179.330   118617588.768 8       399.607    22572181.510    92429291.223 6
       311.388                          45.000          37.000
  22690406.325   119238921.960 8     -2990.172    22690409.559    92913469.809 6
     -2330.003                          45.000          36.000
  23270561.859   122287661.956 7      1111.153    23270565.379    95289111.781 7
       865.833                          43.000          44.000
  24116637.331   126733819.919 7      2743.921    24116639.851    98753648.557 5
      2138.115                          41.000          27.000
  24740956.549   130014501.013 7     -4086.865    24740961.177   101309963.710 6
     -3184.563                          40.000          38.000
  24806163.616   130357252.465 7      2426.797    24806169.119   101577092.101 4
      1891.011                          42.000          26.000
  24882590.267   130758904.318 6      3706.322    24882593.894   101890065.668 5
      2888.045                          36.000          29.000
  25130773.645   132062994.177 6     -3445.226    25130782.562   102906210.667 6
     -2684.586                          38.000          34.000
 23 12 16 12  1 30.0000000  0 12G15G24G13G22G23G14G17G19G05G10G12G30
  20169057.986   105989099.713 8      -720.650    20169058.791    82588904.466 9
      -561.551                          50.000          59.000
  21038893.613   110560168.359 8      1686.370    21038896.883    86150818.486 8
      1314.052                          49.000          45.000
  21052978.137   110634119.036 8     -2514.427    21052979.513    86208395.890 7
     -1959.293                          50.000          44.000
  21786477.425   114488764.153 8     -2127.295    21786478.408    89212049.748 7
     -1657.634                          49.000          41.000
  22569958.246   118605916.788 8       379.251    22569960.158    92420196.171 6
       295.517                          46.000          37.000
  22707510.071   119328801.507 8     -3000.997    22707513.216    92983505.728 6
     -2338.442                          45.000          36.000
  23264264.029   122254567.018 7      1095.780    23264266.960    95263323.563 7
       853.850                          44.000          44.000
  24100994.646   126651616.250 7      2737.076    24100997.237    98689593.821 5
      2132.784                          41.000          28.000
  24764290.991   130137122.442 7     -4087.209    24764295.262   101405512.682 6
     -3184.839                          40.000          37.000
  24792346.680   130284642.998 7      2414.407    24792352.719   101520513.351 4
      1881.355                          41.000          25.000
  24861440.438   130647759.545 6      3704.161    24861443.100   101803459.396 5
      2886.353                          37.000          30.000
  25150447.421   132166380.335 6     -3446.357    25150456.124   102986771.222 6
     -2685.476                          37.000          34.000
 23 12 16 12  2  0.0000000  0 12G15G24G13G22G23G14G17G19G10G05G12G30
  20173231.583   106011032.438 8      -742.531    20173232.351    82605994.896 9
      -578.589                          50.000          59.000
  21029303.683   110509774.989 8      1672.225    21029307.186    86111550.965 8
      1303.033                          49.000          45.000
  21067373.279   110709765.469 8     -2529.647    21067374.727    86267341.130 7
     -1971.150                          50.000          44.000
  21798666.958   114552821.067 8     -2144.101    21798667.994    89261964.231 7
     -1670.723                          49.000          41.000
  22567855.759   118594870.028 8       356.249    22567858.189    92411588.311 6
       277.604                          46.000          37.000
  22724678.128   119419019.363 8     -3014.431    22724680.880    93053805.278 6
     -2348.907                          45.000          35.000
  23258057.099   122221948.919 8      1077.700    23258060.012    95237906.917 8
       839.770                          45.000          45.000
  24085393.738   126569632.181 7      2727.554    24085396.007    98625710.208 5
      2125.367                          41.000          29.000
  24778602.739   130212418.341 7      2399.505    24778608.314   101464234.401 4
      1869.748                          41.000          24.000
  24787629.347   130259764.689 7     -4089.915    24787633.493   101501077.876 6
     -3186.935                          39.000          37.000
  24840304.671   130536692.967 6      3699.272    24840307.548   101716914.017 5
      2882.557                          38.000          30.000
  25170129.471   132269813.028 7     -3450.056    25170138.924   103067368.034 6
     -2688.350                          39.000          35.000
 23 12 16 12  2 30.0000000  0 12G15G24G13G22G23G14G17G19G10G05G12G30
  20177531.263   106033626.590 8      -763.301    20177531.906    82623600.722 9
      -594.779                          50.000          60.000
  21019795.451   110459807.409 8      1659.311    21019798.650    86072615.237 8
      1292.963                          49.000          45.000
  21081855.872   110785872.117 8     -2543.689    21081857.123    86326644.986 7
     -1982.096                          50.000          44.000
  21810952.840   114617384.320 8     -2159.634    21810953.626    89312273.260 7
     -1682.835                          49.000          42.000
  22565885.878   118584516.282 8       334.423    22565887.897    92403520.452 6
       260.586                          45.000          37.000
  22741922.754   119509640.330 8     -3026.582    22741925.184    93124418.953 6
     -2358.371                          45.000          35.000
  23251953.755   122189876.812 7      1060.835    23251956.579    95212915.697 7
       826.620                          44.000          44.000
  24069848.206   126487937.929 7      2719.256    24069850.440    98562052.448 5
      2118.897                          41.000          29.000
  24764945.069   130140648.065 7      2385.668    24764951.252   101408309.550 4
      1858.957                          41.000          26.000
  24810983.552   130382491.656 7     -4091.394    24810987.930   101596709.089 6
     -3188.096                          40.000          37.000
  24819198.049   130425773.672 6      3695.636    24819200.855   101630483.395 5
      2879.714                          37.000          31.000
  25189833.857   132373358.714 6     -3452.659    25189843.167   103148052.891 6
     -2690.381                          38.000          35.000
 23 12 16 12  3  0.0000000  0 12G15G24G13G22G23G14G17G19G10G12G05G30
  20181941.570   106056803.451 8      -782.290    20181942.285    82641660.614 9
      -609.579                          50.000          60.000
  21010353.156   110410187.767 8      1648.182    21010356.444    86033950.631 8
      1284.296                          49.000          46.000
  21096411.085   110862359.372 8     -2555.933    21096412.139    86386245.422 7
     -1991.636                          50.000          44.000
  21823319.794   114682373.000 8     -2173.365    21823320.545    89362913.790 7
     -1693.531                          49.000          42.000
  22564032.413   118574777.402 8       314.313    22564034.504    92395931.717 6
       244.921                          46.000          37.000
  22759228.527   119600583.273 8     -3036.814    22759231.065    93195283.543 6
     -2366.348                          45.000          35.000
  23245939.704   122158273.701 8      1045.557    23245943.295    95188289.951 8
       814.715                          45.000          45.000
  24054342.576   126406457.997 7      2712.385    24054345.220    98498561.670 5
      2113.541                          42.000          30.000
  24751359.251   130069255.564 7      2373.406    24751365.541   101352679.067 4
      1849.410                          41.000          25.000
  24798104.347   130314925.004 6      3693.904    24798107.367   101544107.798 6
      2878.367                          38.000          33.000
  24834338.330   130505221.140 7     -4091.122    24834342.851   101692342.275 6
     -3187.881                          40.000          37.000
  25209544.569   132476937.857 6     -3453.174    25209553.843   103228763.835 6
     -2690.788                          37.000          34.000
 23 12 16 12  3 30.0000000  0 12G15G24G13G22G23G14G17G19G10G12G05G30
  20186463.398   106080565.285 8      -802.880    20186464.041    82660176.321 9
      -625.618                          50.000          59.000
  21000977.422   110360919.030 8      1635.357    21000981.032    85995559.467 8
      1274.303                          49.000          46.000
  21111038.560   110939228.176 8     -2569.693    21111040.043    86446143.170 7
     -2002.356                          50.000          44.000
  21835767.677   114747786.897 8     -2188.599    21835768.642    89413885.664 7
     -1705.402                          49.000          41.000
  22562296.223   118565656.039 8       292.661    22562298.689    92388824.170 6
       228.054                          46.000          37.000
  22776595.574   119691847.897 8     -3048.597    22776598.879    93266398.781 6
     -2375.528                          45.000          35.000
  23240015.640   122127143.922 7      1028.694    23240020.018    95164033.037 7
       801.578                          44.000          44.000
  24038879.277   126325197.683 7      2703.877    24038881.636    98435241.995 5
      2106.923                          41.000          28.000
  24737846.499   129998246.108 7      2359.526    24737852.664   101297347.060 4
      1838.591                          40.000          24.000
  24777023.939   130204151.216 7      3690.136    24777027.906   101457790.554 6
      2875.434                          39.000          33.000
  24857693.804   130627953.509 7     -4092.192    24857698.289   101787977.700 6
     -3188.716                          40.000          37.000
  25229261.821   132580551.936 6     -3455.395    25229270.755   103309502.001 5
     -2692.514                          37.000          32.000
 23 12 16 12  4  0.0000000  0 12G15G24G13G22G23G14G17G19G10G12G05G30
  20191095.388   106104907.641 8      -820.207    20191096.192    82679144.382 9
      -639.126                          50.000          60.000
  20991668.090   110311997.763 8      1625.774    20991671.485    85957439.057 8
      1266.833                          49.000          45.000
  21125737.761   111016473.126 8     -2580.238    21125739.262    86506334.016 7
     -2010.574                          50.000          44.000
  21848295.310   114813619.771 8     -2200.528    21848296.346    89465184.015 7
     -1714.700                          49.000          42.000
  22560677.772   118557148.439 8       274.195    22560679.756    92382194.876 6
       213.651                          46.000          37.000
  22794022.499   119783427.469 8     -3057.019    22794026.073    93337759.437 6
     -2382.090                          46.000          36.000
  23234181.994   122096484.898 7      1014.964    23234185.782    95140142.958 8
       790.875                          44.000          45.000
  24023457.381   126244155.574 7      2698.617    24023459.990    98372092.325 5
      2102.806                          41.000          28.000
  24724405.527   129927617.145 7      2348.808    24724412.246   101242311.550 4
      1830.238                          41.000          24.000
  24755958.023   130093450.449 7      3689.646    24755962.472   101371530.232 6
      2875.042                          40.000          35.000
  24881048.117   130750680.887 7     -4089.939    24881053.084   101883609.252 6
     -3186.967                          41.000          38.000
  25248984.880   132684195.871 6     -3454.518    25248993.171   103390263.445 5
     -2691.823                          36.000          32.000
 23 12 16 12  4 30.0000000  0 12G15G24G13G22G23G14G17G19G10G12G05G30
  20195835.361   106129815.952 8      -839.269    20195836.147    82698553.449 9
      -653.980                          50.000          59.000
  20982421.889   110263410.481 8      1614.507    20982425.338    85919578.889 8
      1258.053                          49.000          45.000
  21140505.830   111094079.078 8     -2592.409    21140506.759    86566806.156 7
     -2020.058                          50.000          43.000
  21860899.404   114879855.219 8     -2214.078    21860900.226    89516796.057 7
     -1725.259                          49.000          41.000
  22559173.147   118549240.781 8       253.974    22559175.273    92376033.065 6
       197.897                          45.000          37.000
  22811506.409   119875305.308 8     -3067.128    22811509.214    93409352.509 6
     -2389.969                          45.000          35.000
  23228434.744   122066283.831 7       999.490    23228438.532    95116609.725 8
       778.813                          43.000          45.000
  24008075.101   126163320.975 7      2691.442    24008077.710    98309104.337 5
      2097.226                          41.000          28.000
  24711035.549   129857357.406 7      2336.206    24711042.840   101187563.756 4
      1820.419                          41.000          24.000
  24734903.650   129982810.511 7      3687.442    24734908.796   101285317.339 6
      2873.322                          40.000          35.000
  24904398.069   130873387.087 7     -4089.363    24904403.894   101979224.298 6
     -3186.521                          41.000          38.000
  25268710.691   132787854.522 6     -3454.999    25268718.964   103471036.353 5
     -2692.206                          37.000          32.000
 23 12 16 12  5  0.0000000  0 12G15G24G13G22G23G14G17G19G10G12G05G30
  20200685.764   106155305.671 8      -859.580    20200686.657    82718415.556 9
      -669.811                          50.000          59.000
  20973242.536   110215173.399 8      1601.854    20973246.021    85881991.603 8
      1248.193                          49.000          45.000
  21155345.106   111172060.378 8     -2605.860    21155346.160    86627570.778 7
     -2030.538                          50.000          43.000
  21873582.693   114946506.312 8     -2228.875    21873583.265    89568731.975 7
     -1736.785                          49.000          41.000
  22557785.474   118541948.941 8       232.561    22557787.618    92370351.114 6
       181.209                          45.000          37.000
  22829049.715   119967494.332 8     -3078.341    22829052.342    93481188.058 6
     -2398.709                          45.000          35.000
  23222778.072   122036557.898 7       982.733    23222781.021    95093446.731 7
       765.755                          44.000          44.000
  23992736.314   126082711.938 7      2682.885    23992738.315    98246292.128 5
      2090.556                          40.000          29.000
  24697739.423   129787484.457 7      2322.327    24697746.124   101133117.313 4
      1809.601                          41.000          23.000
  24713864.573   129872249.259 7      3683.981    24713869.719   101199165.772 6
      2870.627                          40.000          36.000
  24927746.610   130996083.503 7     -4089.879    24927752.346   102074831.726 6
     -3186.923                          41.000          38.000
  25288440.916   132891542.591 6     -3457.134    25288450.386   103551832.190 5
     -2693.869                          38.000          31.000
 23 12 16 12  5 30.0000000  0 12G15G24G13G22G23G14G17G19G10G12G05G30
  20205650.011   106181392.443 8      -878.709    20205650.869    82738742.899 9
      -684.707                          50.000          59.000
  20964133.516   110167303.034 8      1590.377    20964136.697    85844690.070 8
      1239.249                          49.000          45.000
  21170258.736   111250431.651 8     -2618.085    21170260.058    86688639.271 7
     -2040.064                          50.000          43.000
  21886347.626   115013586.814 8     -2242.334    21886348.359    89621002.494 7
     -1747.275                          49.000          41.000
  22556517.792   118535289.008 8       212.267    22556520.204    92365161.562 6
       165.399                          46.000          37.000
  22846654.974   120060007.810 7     -3088.309    22846657.207    93553276.421 6
     -2406.471                          44.000          35.000
  23217214.981   122007324.691 8       966.978    23217217.876    95070667.691 8
       753.489                          45.000          45.000
  23977442.789   126002347.397 7      2675.482    23977445.398    98183670.407 5
      2084.791                          42.000          31.000
  24684520.081   129718016.575 7      2309.650    24684526.371   101078986.513 4
      1799.725                          41.000          24.000
  24692843.758   129761783.610 7      3681.363    24692848.475   101113088.731 6
      2868.592                          40.000          37.000
  24951095.723   131118783.810 7     -4089.417    24951101.334   102170442.195 6
     -3186.553                          40.000          37.000
  25308180.307   132995275.049 6     -3457.561    25308190.171   103632662.590 5
     -2694.197                          37.000          31.000
 23 12 16 12  6  0.0000000  0 12G15G24G13G22G23G14G17G19G10G12G05G30
  20210726.815   106208071.024 8      -897.708    20210727.744    82759531.395 9
      -699.519                          50.000          59.000
  20955092.916   110119795.541 8      1578.940    20955096.347    85807671.295 8
      1230.337                          49.000          45.000
  21185245.414   111329186.815 8     -2630.172    21185246.682    86750006.901 7
     -2049.481                          49.000          43.000
  21899193.292   115081089.703 8     -2255.699    21899193.756    89673602.150 7
     -1757.691                          49.000          41.000
  22555369.993   118529256.721 8       192.052    22555372.102    92360461.088 6
       149.643                          46.000          37.000
  22864320.057   120152838.655 7     -3098.181    22864322.488    93625612.071 6
     -2414.164                          44.000          35.000
  23211745.237   121978580.909 7       951.385    23211748.686    95048270.037 7
       741.328                          43.000          44.000
  23962195.455   125922225.595 7      2668.119    23962198.332    98121237.798 5
      2079.042                          42.000          29.000
  24671377.308   129648951.192 7      2296.894    24671383.079   101025169.345 4
      1789.780                          40.000          23.000
  24671840.919   129651411.674 7      3678.916    24671845.404   101027084.758 6
      2866.679                          40.000          38.000
  24974444.443   131241480.596 7     -4088.442    24974449.482   102266049.929 6
     -3185.802                          40.000          37.000
  25327928.079   133099046.421 6     -3458.346    25327936.442   103713523.353 5
     -2694.813                          37.000          31.000
 23 12 16 12  6 30.0000000  0 12G15G24G13G22G23G14G17G19G12G10G05G30
  19916118.696   104659895.485 8      -917.761    19916119.733    81553160.838 9
      -715.138                          50.000          59.000
  20646323.722   108497203.461 8      1566.522    20646327.135    84543313.871 8
      1220.665                          49.000          45.000
  20900507.643   109832880.774 8     -2643.205    20900509.162    85584054.108 7
     -2059.640                          50.000          43.000
  21612321.335   113573568.227 8     -2269.950    21612321.942    88498910.091 7
     -1768.791                          49.000          41.000
  22254543.812   116948405.603 8       170.823    22254546.225    91128629.062 6
       133.109                          46.000          37.000
  22582247.988   118670540.867 7     -3108.973    22582250.472    92470574.757 6
     -2422.571                          44.000          35.000
  22906571.595   120374880.696 7       934.670    22906574.400    93798633.601 7
       728.311                          44.000          44.000
  23647197.388   124266900.521 7      2659.522    23647199.961    96831374.042 5
      2072.353                          41.000          28.000
  24351056.844   127965684.625 7      3675.286    24351061.884    99713531.355 6
      2863.850                          41.000          38.000
  24358514.338   128004841.987 7      2282.962    24358520.414    99744045.296 4
      1778.928                          40.000          23.000
  24697995.272   129788728.428 7     -4088.346    24697999.775   101134035.116 6
     -3185.723                          40.000          36.000
  25047885.645   131627412.747 6     -3459.923    25047893.596   102566795.785 5
     -2696.044                          37.000          31.000
 23 12 16 12  7  0.0000000  0 12G15G24G13G22G23G14G17G19G12G10G05G30
  19921410.715   104687705.590 8      -936.771    19921411.733    81574831.041 9
      -729.953                          50.000          59.000
  20637412.244   108450372.511 8      1554.975    20637415.425    84506822.258 8
      1211.666                          49.000          46.000
  20915630.233   109912349.050 8     -2655.194    20915631.073    85645977.410 7
     -2068.981                          50.000          42.000
  21625316.528   113641857.548 8     -2283.145    21625317.207    88552122.533 7
     -1779.076                          49.000          41.000
  22253625.470   116943578.077 8       150.535    22253627.578    91124867.356 6
       117.298                          46.000          37.000
  22600023.056   118763947.529 7     -3118.564    22600025.432    92543359.081 6
     -2430.050                          44.000          35.000
  22901278.576   120347069.699 7       918.870    22901282.721    93776962.804 8
       715.997                          44.000          45.000
  23632035.486   124187222.030 7      2651.914    23632038.131    96769286.835 5
      2066.433                          42.000          29.000
  24330081.453   127855454.045 7      3672.619    24330085.366    99627637.566 6
      2861.771                          41.000          38.000
  24345516.250   127936537.453 7      2270.141    24345521.932    99690820.961 4
      1768.939                          39.000          22.000
  24721330.947   129911357.581 7     -4087.362    24721335.826   101229590.153 6
     -3184.954                          41.000          36.000
  25067637.509   131731208.134 6     -3460.464    25067645.317   102647675.262 5
     -2696.467                          35.000          30.000
 23 12 16 12  7 30.0000000  0 12G15G24G13G22G23G14G17G19G12G10G05G30
  19926818.381   104716121.823 8      -956.418    19926819.221    81596973.547 9
      -745.264                          50.000          59.000
  20628572.813   108403921.325 8      1542.964    20628576.066    84470626.556 8
      1202.305                          49.000          46.000
  20930827.569   109992212.687 8     -2667.793    20930828.802    85708208.779 7
     -2078.801                          50.000          43.000
  21638393.383   113710577.122 8     -2296.841    21638394.187    88605670.228 7
     -1789.750                          49.000          41.000
  22252829.172   116939393.735 8       129.612    22252831.102    91121606.837 6
       100.996                          46.000          37.000
  22617859.146   118857678.762 8     -3128.881    22617862.434    92616396.311 6
     -2438.087                          45.000          35.000
  22896083.211   120319768.272 7       902.425    22896086.391    93755689.072 7
       703.181                          44.000          44.000
  23616924.636   124107810.186 7      2643.417    23616927.227    96707407.422 5
      2059.804                          41.000          29.000
  24309126.664   127745337.809 7      3669.515    24309130.738    99541832.899 7
      2859.349                          41.000          39.000
  24332598.680   127868657.481 6      2256.542    24332605.684    99637927.506 4
      1758.336                          38.000          23.000
  24744666.641   130033988.949 7     -4086.899    24744671.983   101325146.931 6
     -3184.595                          40.000          36.000
  25087398.629   131835054.652 6     -3461.414    25087407.385   102728594.576 5
     -2697.209                          33.000          28.000
 23 12 16 12  8  0.0000000  0 12G15G24G13G22G23G14G17G19G12G10G05G30
  19932339.731   104745136.860 8      -976.258    19932340.606    81619582.659 9
      -760.718                          50.000          59.000
  20619804.591   108357844.252 8      1530.576    20619807.825    84434722.371 8
      1192.658                          49.000          45.000
  20946099.097   110072463.540 8     -2680.594    20946100.330    85770741.876 7
     -2088.774                          49.000          43.000
  21651550.237   113779718.487 8     -2310.798    21651551.023    88659546.584 7
     -1800.617                          49.000          41.000
  22252153.938   116935846.378 8       108.542    22252155.921    91118842.662 6
        84.582                          46.000          37.000
  22635756.134   118951725.662 7     -3139.203    22635758.921    92689679.510 6
     -2446.130                          44.000          35.000
  22890984.303   120292970.986 7       885.727    22890986.912    93734808.191 8
       690.177                          44.000          45.000
  23601863.015   124028661.624 7      2634.695    23601866.107    96645733.158 5
      2053.014                          42.000          30.000
  24288192.746   127635331.347 7      3665.962    24288197.088    99456113.795 7
      2856.590                          42.000          40.000
  24319761.520   127801198.192 7      2242.457    24319768.007    99585361.837 4
      1747.370                          40.000          23.000
  24768001.333   130156613.463 7     -4086.435    24768006.765   101420698.356 6
     -3184.230                          40.000          35.000
  25107168.005   131938945.148 6     -3462.768    25107177.904   102809548.170 5
     -2698.261                          34.000          29.000
 23 12 16 12  8 30.0000000  0 12G15G24G13G22G23G14G17G19G12G10G05G30
  19937968.151   104774715.141 8      -995.632    19937969.170    81642630.661 9
      -775.824                          50.000          59.000
  20611100.822   108312106.560 8      1518.613    20611104.146    84399082.629 8
      1183.334                          49.000          45.000
  20961437.349   110153065.804 8     -2692.891    20961438.313    85833548.799 7
     -2098.356                          49.000          42.000
  21664780.498   113849243.560 8     -2324.181    21664781.194    88713721.925 7
     -1811.050                          49.000          41.000
  22251593.422   116932900.731 8        87.868    22251595.799    91116547.360 6
        68.469                          46.000          37.000
  22653705.496   119046050.267 7     -3149.012    22653707.748    92763179.094 6
     -2453.774                          44.000          34.000
  22885973.990   120266644.191 7       869.380    22885977.742    93714293.946 8
       677.431                          44.000          45.000
  23586845.156   123949743.572 7      2626.449    23586848.319    96584238.536 5
      2046.577                          42.000          30.000
  24267273.231   127525401.437 7      3662.749    24267277.752    99370454.356 7
      2854.079                          42.000          40.000
  24306998.088   127734125.604 7      2228.878    24307003.967    99533097.508 4
      1736.790                          39.000          24.000
  24791327.091   130279192.049 7     -4085.414    24791332.791   101516214.005 6
     -3183.441                          40.000          35.000
  25126939.882   132042843.335 6     -3463.770    25126949.746   102890507.765 5
     -2699.049                          34.000          29.000
 23 12 16 12  9  0.0000000  0 12G15G24G13G22G23G14G17G19G12G10G05G30
  19943706.949   104804872.314 8     -1015.073    19943707.950    81666129.753 9
      -790.964                          50.000          59.000
  20602464.974   108266725.318 8      1506.570    20602468.422    84363720.645 8
      1173.949                          49.000          46.000
  20976844.967   110234034.328 8     -2705.223    20976846.147    85896641.117 7
     -2107.967                          50.000          43.000
  21678086.648   113919166.692 8     -2337.524    21678087.094    88768207.436 7
     -1821.446                          49.000          41.000
  22251150.592   116930573.326 8        67.093    22251152.986    91114733.793 6
        52.280                          46.000          37.000
  22671710.163   119140666.415 7     -3158.896    22671713.022    92836905.849 6
     -2461.479                          44.000          35.000
  22881057.185   120240805.628 7       852.871    22881060.187    93694160.126 8
       664.572                          44.000          45.000
  23571875.543   123871075.910 7      2617.902    23571877.526    96522939.018 5
      2039.927                          42.000          30.000
  24246372.353   127415566.359 7      3659.276    24246376.159    99284868.814 7
      2851.377                          42.000          40.000
  24294312.064   127667459.232 7      2215.237    24294318.515    99481149.716 4
      1726.164                          39.000          25.000
  24814647.435   130401738.861 7     -4084.511    24814652.956   101611704.865 6
     -3182.726                          40.000          34.000
  25146715.512   132146764.748 6     -3464.446    25146724.285   102971485.478 5
     -2699.573                          34.000          28.000
 23 12 16 12  9 30.0000000  0 12G15G24G13G22G23G14G17G19G12G10G05G30
  19949557.910   104835619.154 8     -1034.244    19949558.857    81690088.322 9
      -805.893                          50.000          59.000
  20593899.350   108221711.868 8      1494.768    20593902.763    84328645.248 8
      1164.760                          49.000          46.000
  20992324.116   110315377.946 8     -2717.257    20992325.402    85960025.713 7
     -2117.339                          50.000          42.000
  21691470.224   113989495.989 8     -2350.628    21691470.403    88823009.436 7
     -1831.650                          49.000          41.000
  22250827.556   116928874.912 8        46.562    22250829.789    91113410.346 6
        36.290                          46.000          37.000
  22689772.118   119235582.238 8     -3168.349    22689775.816    92910866.113 6
     -2468.834                          45.000          35.000
  22876235.372   120215467.596 7       836.681    22876239.035    93674416.317 8
       651.964                          44.000          45.000
  23556955.391   123792671.982 7      2609.540    23556958.518    96461845.039 5
      2033.418                          42.000          30.000
  24225491.899   127305838.673 7      3656.198    24225495.634    99199366.945 7
      2848.989                          43.000          41.000
  24281705.415   127601211.621 7      2201.732    24281713.045    99429528.234 4
      1715.637                          39.000          26.000
  24837963.275   130524262.527 6     -4083.187    24837968.529   101707177.716 6
     -3181.687                          38.000          34.000
  25166497.431   132250719.197 6     -3465.242    25166505.115   103052488.933 5
     -2700.180                          35.000          28.000
 23 12 16 12 10  0.0000000  0 12G15G24G13G22G23G14G17G19G12G10G05G30
  19955518.427   104866941.885 8     -1054.603    19955519.320    81714495.636 9
      -821.761                          50.000          59.000
  20585401.290   108177053.789 8      1481.762    20585404.560    84293846.765 8
      1154.626                          49.000          45.000
  21007872.203   110397082.568 8     -2730.422    21007873.310    86023691.606 7
     -2127.599                          50.000          42.000
  21704927.582   114060216.258 8     -2364.751    21704928.475    88878116.088 7
     -1842.655                          49.000          41.000
  22250621.526   116927792.470 8        24.904    22250623.706    91112566.878 6
        19.419                          46.000          37.000
  22707888.233   119330782.145 7     -3178.876    22707891.771    92985047.754 6
     -2477.042                          44.000          35.000
  22871506.371   120190618.237 7       819.246    22871509.623    93655053.304 8
       638.373                          44.000          45.000
  23542083.986   123714521.802 7      2599.811    23542087.006    96400948.829 5
      2025.841                          42.000          30.000
  24204629.529   127196207.245 7      3651.800    24204633.549    99113940.083 7
      2845.560                          43.000          41.000
  24269176.675   127535371.721 7      2186.905    24269183.697    99378224.446 4
      1704.081                          39.000          26.000
  24861271.289   130646745.356 7     -4082.900    24861276.168   101802618.727 6
     -3181.464                          39.000          33.000
  25186281.781   132354692.776 6     -3466.859    25186290.823   103133507.270 5
     -2701.449                          35.000          27.000
 23 12 16 12 10 30.0000000  0 12G15G24G13G22G23G14G17G19G12G10G05G30
  19961588.802   104898840.968 8     -1072.369    19961589.517    81739352.057 9
      -835.610                          50.000          59.000
  20576970.988   108132752.744 8      1471.180    20576974.133    84259326.488 8
      1146.377                          49.000          46.000
  21023488.746   110479148.145 8     -2740.998    21023489.800    86087638.765 7
     -2135.838                          49.000          42.000
  21718459.346   114131325.840 8     -2376.297    21718460.007    88933526.095 7
     -1851.657                          49.000          41.000
  22250533.074   116927327.005 8         5.774    22250535.004    91112204.176 6
         4.506                          46.000          37.000
  22726057.849   119426264.531 8     -3186.916    22726060.940    93059449.512 6
     -2483.305                          45.000          34.000
  22866871.254   120166260.056 7       804.256    22866873.863    93636072.985 8
       626.692                          44.000          45.000
  23527261.685   123636629.222 7      2592.618    23527264.240    96340253.371 5
      2020.222                          42.000          29.000
  24183785.939   127086675.419 7      3649.859    24183789.942    99028590.823 7
      2844.042                          43.000          41.000
  24256725.450   127469942.700 7      2174.608    24256732.794    99327240.826 4
      1694.498                          41.000          26.000
  24884570.494   130769185.912 7     -4080.142    24884576.159   101898026.796 6
     -3179.326                          39.000          33.000
  25206072.046   132458685.672 6     -3466.243    25206080.337   103214540.668 5
     -2700.977                          34.000          27.000
 23 12 16 12 11  0.0000000  0 12G15G24G13G22G23G14G17G19G12G10G05G30
  19967773.807   104931343.693 8     -1093.470    19967774.718    81764678.849 9
      -852.059                          49.000          59.000
  20568613.932   108088837.270 8      1457.405    20568617.238    84225106.653 8
      1135.631                          49.000          46.000
  21039178.784   110561601.180 8     -2754.887    21039180.285    86151887.829 7
     -2146.664                          50.000          42.000
  21732070.110   114202850.282 8     -2391.035    21732070.824    88989259.365 7
     -1863.149                          49.000          41.000
  22250567.222   116927506.449 8       -16.711    22250569.206    91112344.002 6
       -13.022                          46.000          37.000
  22744285.700   119522054.746 8     -3198.161    22744289.667    93134091.128 6
     -2492.071                          46.000          35.000
  22862334.934   120142422.170 7       785.924    22862337.793    93617498.100 8
       612.401                          44.000          45.000
  23512494.081   123559025.195 7      2581.973    23512496.333    96279782.783 5
      2011.912                          42.000          30.000
  24162967.294   126977272.506 7      3644.566    24162971.029    98943341.992 7
      2839.907                          43.000          41.000
  24244358.585   127404955.232 7      2158.889    24244366.215    99276601.302 4
      1682.249                          40.000          26.000
  24907867.286   130891609.577 6     -4080.540    24907872.808   101993421.682 5
     -3179.643                          38.000          32.000
  25225869.422   132562724.807 6     -3468.773    25225878.446   103295610.115 5
     -2702.945                          34.000          28.000
 23 12 16 12 11 30.0000000  0 12G15G24G13G22G23G14G17G19G12G10G05G30
  19974070.886   104964435.216 8     -1112.238    19974071.690    81790464.442 9
      -866.676                          50.000          59.000
  20560328.227   108045293.615 8      1445.812    20560331.336    84191176.550 8
      1126.607                          49.000          46.000
  21054940.120   110644425.820 8     -2766.394    21054941.389    86216426.461 7
     -2155.630                          50.000          42.000
  21745756.530   114274773.038 8     -2403.401    21745757.406    89045303.009 7
     -1872.777                          49.000          41.000
  22250721.414   116928316.369 8       -36.858    22250723.451    91112975.111 6
       -28.719                          46.000          37.000
  22762569.642   119618135.821 8     -3206.903    22762573.126    93208959.402 6
     -2498.881                          45.000          35.000
  22857894.982   120119091.893 7       769.812    22857898.788    93599318.749 8
       599.852                          44.000          46.000
  23497779.298   123481698.142 7      2573.555    23497781.728    96219528.047 5
      2005.363                          42.000          31.000
  24142170.736   126867986.634 7      3641.579    24142174.488    98858184.338 7
      2837.587                          43.000          41.000
  24232073.936   127340396.747 7      2145.466    24232079.958    99226296.040 4
      1671.788                          40.000          25.000
  24931157.163   131013998.771 7     -4078.372    24931162.703   102088789.720 6
     -3177.946                          39.000          33.000
  25245672.499   132666794.947 6     -3468.811    25245681.773   103376703.709 4
     -2702.974                          33.000          26.000
 23 12 16 12 12  0.0000000  0 12G15G24G13G22G23G14G17G19G12G10G05G30
  19980479.540   104998113.989 8     -1131.977    19980480.487    81816707.633 9
      -882.050                          50.000          59.000
  20552112.819   108002121.567 8      1433.257    20552116.035    84157536.007 8
      1116.828                          50.000          46.000
  21070771.181   110727619.818 8     -2778.856    21070772.504    86281252.903 7
     -2165.337                          50.000          42.000
  21759518.269   114347090.626 8     -2416.752    21759518.948    89101654.313 7
     -1883.174                          49.000          41.000
  22250994.917   116929755.818 8       -58.052    22250997.365    91114096.749 6
       -45.226                          46.000          37.000
  22780908.030   119714504.342 8     -3216.607    22780910.961    93284051.670 6
     -2506.438                          45.000          34.000
  22853552.417   120096269.485 7       752.698    22853555.812    93581535.118 8
       586.526                          44.000          45.000
  23483117.354   123404649.979 7      2564.062    23483119.998    96159490.645 5
      1997.978                          42.000          30.000
  24121396.299   126758818.380 7      3637.405    24121400.355    98773118.319 7
      2834.344                          43.000          41.000
  24219870.787   127276268.277 7      2130.907    24219876.451    99176325.853 4
      1660.451                          41.000          26.000
  24954439.678   131136350.143 7     -4077.258    24954445.718   102184128.255 5
     -3177.063                          39.000          32.000
  25265483.635   132770894.440 6     -3469.755    25265491.622   103457820.211 4
     -2703.703                          34.000          26.000
 23 12 16 12 12 30.0000000  0 12G15G24G13G22G23G14G17G19G12G10G05G30
  19987000.768   105032382.316 8     -1152.025    19987001.662    81843410.214 9
      -897.676                          49.000          59.000
  20543968.601   107959324.708 8      1420.339    20543972.049    84124187.826 8
      1106.758                          49.000          46.000
  21086673.450   110811184.951 8     -2791.593    21086674.701    86346368.541 7
     -2175.267                          49.000          42.000
  21773354.950   114419803.620 8     -2430.256    21773355.790    89158313.724 7
     -1893.707                          49.000          41.000
  22251389.269   116931827.703 8       -79.572    22251391.538    91115711.195 6
       -62.004                          46.000          37.000
  22799301.634   119811160.733 7     -3226.564    22799304.529    93359368.247 6
     -2514.200                          44.000          34.000
  22849306.683   120073959.466 7       735.187    22849309.757    93564150.740 8
       572.877                          44.000          46.000
  23468509.928   123327886.675 7      2554.031    23468512.001    96099675.225 5
      1990.153                          42.000          30.000
  24100645.717   126649772.868 7      3632.892    24100649.613    98688147.916 7
      2830.824                          42.000          41.000
  24207750.425   127212575.499 7      2115.987    24207756.804    99126695.147 4
      1648.819                          40.000          26.000
  24977715.242   131258663.315 7     -4076.080    24977721.443   102279437.019 6
     -3176.162                          39.000          33.000
  25285298.809   132875025.393 6     -3471.320    25285306.832   103538961.184 4
     -2704.924                          34.000          25.000
 23 12 16 12 13  0.0000000  0 12G15G24G13G22G23G14G17G19G12G10G05G30
  19993635.537   105067248.954 8     -1171.991    19993636.430    81870579.014 9
      -913.240                          49.000          59.000
  20535897.878   107916912.870 8      1407.499    20535901.273    84091139.668 8
      1096.750                          49.000          46.000
  21102647.535   110895129.156 8     -2804.250    21102648.982    86411779.550 7
     -2185.128                          49.000          42.000
  21787268.379   114492918.930 8     -2443.661    21787269.344    89215286.642 7
     -1904.153                          49.000          41.000
  22251905.844   116934541.097 8      -100.971    22251907.988    91117825.523 6
       -78.676                          45.000          37.000
  22817750.400   119908111.611 8     -3236.380    22817753.955    93434914.305 6
     -2521.856                          45.000          34.000
  22845160.927   120052172.551 7       717.717    22845163.303    93547173.960 8
       559.260                          44.000          45.000
  23453958.021   123251420.351 7      2544.034    23453960.183    96040091.191 5
      1982.359                          43.000          29.000
  24079920.367   126540861.296 7      3628.300    24079924.316    98603281.866 7
      2827.244                          42.000          41.000
  24195715.138   127149329.499 7      2100.914    24195721.696    99077412.600 4
      1637.072                          40.000          26.000
  25000985.392   131380945.090 6     -4075.020    25000991.092   102374721.298 5
     -3175.334                          37.000          32.000
  25305122.024   132979196.229 6     -3473.011    25305130.297   103620133.246 4
     -2706.243                          33.000          25.000
 23 12 16 12 13 30.0000000  0 12G15G24G13G22G23G14G17G19G12G10G05G30
  20000380.128   105102691.304 8     -1192.754    20000380.878    81898196.416 9
      -929.414                          49.000          59.000
  20527896.504   107874864.812 8      1393.746    20527899.578    84058374.971 8
      1086.036                          49.000          46.000
  21118689.361   110979428.986 8     -2817.683    21118690.594    86477467.675 7
     -2195.597                          49.000          42.000
  21801253.945   114566412.170 8     -2457.824    21801255.035    89272554.045 7
     -1915.185                          49.000          41.000
  22252539.944   116937873.973 8      -123.224    22252542.142    91120422.563 6
       -96.016                          46.000          37.000
  22836251.075   120005332.554 8     -3246.945    22836254.720    93510670.802 6
     -2530.081                          45.000          34.000
  22841110.073   120030887.357 7       699.366    22841113.289    93530588.133 8
       544.968                          44.000          45.000
  23439459.918   123175232.017 7      2533.168    23439461.812    95980723.754 5
      1973.891                          43.000          30.000
  24059216.745   126432063.757 7      3622.917    24059220.712    98518504.650 7
      2823.057                          42.000          40.000
  24183761.155   127086510.433 7      2085.068    24183767.534    99028462.721 5
      1624.724                          41.000          27.000
  25024244.069   131503170.645 6     -4074.925    25024250.234   102469961.736 5
     -3175.251                          37.000          32.000
  25324948.723   133083384.081 5     -3474.892    25324956.568   103701318.523 4
     -2707.705                          32.000          21.000
 23 12 16 12 14  0.0000000  0 12G15G24G13G22G23G17G14G19G12G10G05G30
  20007240.582   105138743.010 8     -1209.914    20007241.457    81926288.649 9
      -942.787                          50.000          59.000
  20519970.878   107833215.206 8      1383.596    20519973.880    84025920.759 8
      1078.130                          50.000          46.000
  21134804.825   111064117.124 8     -2827.480    21134806.326    86543458.374 7
     -2203.228                          50.000          42.000
  21815317.277   114640315.256 8     -2468.311    21815318.153    89330140.803 7
     -1923.354                          49.000          41.000
  22253298.574   116941860.251 8      -141.854    22253300.557    91123528.746 6
      -110.529                          46.000          38.000
  22837162.341   120010139.941 7       684.509    22837165.951    93514421.359 8
       533.386                          44.000          46.000
  22854809.306   120102855.062 8     -3253.835    22854812.594    93586662.294 6
     -2535.456                          45.000          34.000
  23425021.640   123099358.516 7      2525.828    23425024.267    95921601.671 5
      1968.180                          43.000          31.000
  24038541.803   126323416.062 7      3621.001    24038545.466    98433844.179 7
      2821.560                          42.000          40.000
  24171895.301   127024154.683 7      2072.722    24171901.716    98979873.887 5
      1615.110                          41.000          27.000
  25047497.851   131625370.743 6     -4071.016    25047504.570   102565182.354 5
     -3172.210                          38.000          32.000
  25344783.106   133187622.362 5     -3473.247    25344792.041   103782543.144 3
     -2706.427                          31.000          19.000
 23 12 16 12 14 30.0000000  0 12G15G24G13G22G23G17G14G19G12G10G05G30
  20014207.553   105175355.812 8     -1230.612    20014208.607    81954818.096 9
      -958.924                          50.000          59.000
  20512112.064   107791917.428 8      1369.906    20512115.423    83993740.700 8
      1067.456                          50.000          47.000
  21150985.225   111149145.038 8     -2840.756    21150986.583    86609713.830 7
     -2213.577                          50.000          42.000
  21829448.941   114714578.469 8     -2482.214    21829449.620    89388008.187 7
     -1934.191                          49.000          41.000
  22254172.530   116946452.416 8      -163.973    22254174.442    91127107.048 6
      -127.776                          46.000          38.000
  22833307.707   119989883.974 8       666.142    22833310.798    93498637.521 8
       519.067                          45.000          45.000
  22873415.265   120200629.293 8     -3264.198    22873418.160    93662849.924 6
     -2543.529                          45.000          34.000
  23410635.004   123023755.604 7      2514.738    23410637.380    95862690.417 5
      1959.532                          42.000          31.000
  24017887.035   126214873.180 7      3615.477    24017890.466    98349265.372 7
      2817.247                          41.000          40.000
  24160108.805   126962216.908 7      2056.816    24160114.898    98931610.745 5
      1602.714                          41.000          27.000
  25070737.838   131747495.878 6     -4070.453    25070744.288   102660344.536 6
     -3171.780                          38.000          33.000
  25364620.920   133291862.844 5     -3475.571    25364628.801   103863769.507 3
     -2708.256                          30.000          18.000
 23 12 16 12 15  0.0000000  0 12G15G24G13G22G23G17G14G19G12G10G05G30
  20021289.029   105212568.829 8     -1250.384    20021290.030    81983815.243 9
      -974.332                          50.000          59.000
  20504328.032   107751011.857 8      1357.041    20504331.302    83961866.256 8
      1057.429                          49.000          46.000
  21167237.513   111234551.068 8     -2853.114    21167238.853    86676263.917 7
     -2223.204                          50.000          42.000
  21843656.404   114789239.038 8     -2495.213    21843657.137    89446185.204 7
     -1944.322                          49.000          40.000
  22255169.085   116951690.098 8      -185.259    22255171.444    91131188.350 6
      -144.359                          46.000          38.000
  22829554.551   119970160.299 8       648.579    22829556.910    93483268.453 8
       505.378                          45.000          46.000
  22892076.064   120298692.464 7     -3273.414    22892078.995    93739262.700 6
     -2550.713                          44.000          33.000
  23396307.728   122948466.015 7      2504.494    23396310.159    95804023.309 5
      1951.542                          42.000          30.000
  23997259.910   126106477.461 7      3610.749    23997263.306    98264801.239 7
      2813.560                          41.000          39.000
  24148410.045   126900739.113 7      2041.746    24148416.031    98883706.039 5
      1590.968                          40.000          27.000
  25093969.944   131869582.214 6     -4068.817    25093976.448   102755476.489 5
     -3170.509                          37.000          30.000
  25384462.916   133396144.707 5     -3477.426    25384472.672   103945028.074 3
     -2709.697                          29.000          17.000
 23 12 16 12 15 30.0000000  0 12G15G24G13G22G23G17G14G19G12G10G05G30
  20028476.772   105250339.708 8     -1267.826    20028477.701    82013247.088 9
      -987.910                          50.000          59.000
  20496610.651   107710457.342 8      1346.478    20496613.706    83930265.366 8
      1049.206                          50.000          46.000
  21183553.432   111320292.179 8     -2863.075    21183555.076    86743075.099 7
     -2230.962                          49.000          42.000
  21857931.413   114864252.786 8     -2505.762    21857931.931    89504637.427 7
     -1952.540                          48.000          40.000
  22256280.717   116957531.238 8      -204.201    22256283.040    91135739.883 6
      -159.114                          46.000          38.000
  22825894.653   119950928.529 8       633.370    22825897.387    93468282.697 8
       493.538                          45.000          46.000
  22910783.573   120397000.337 7     -3280.412    22910786.361    93815866.157 6
     -2556.160                          44.000          33.000
  23382032.577   122873450.820 7      2496.443    23382034.775    95745570.007 5
      1945.281                          41.000          30.000
  23976652.460   125998187.828 7      3608.428    23976656.534    98180419.760 7
      2811.767                          41.000          39.000
  24136790.587   126839681.546 7      2028.851    24136797.431    98836128.787 5
      1580.925                          41.000          27.000
  25117186.916   131991585.766 6     -4064.731    25117193.277   102850543.920 5
     -3167.311                          37.000          31.000
  25404307.538   133500424.959 4     -3475.572    25404316.884   104026285.407 2
     -2708.235                          26.000          13.000
 23 12 16 12 16  0.0000000  0 11G15G24G13G22G23G17G14G19G12G10G05
  20035772.962   105288681.208 8     -1286.536    20035773.802    82043123.577 9
     -1002.500                          50.000          59.000
  20488962.852   107670267.909 8      1334.521    20488965.872    83898948.949 8
      1039.886                          49.000          47.000
  21199935.502   111406380.116 8     -2874.371    21199936.717    86810156.540 7
     -2239.765                          49.000          41.000
  21872275.306   114939630.497 8     -2517.662    21872275.896    89563373.258 7
     -1961.815                          48.000          40.000
  22257509.945   116963989.000 8      -224.573    22257511.803    91140771.902 6
      -174.995                          46.000          38.000
  22822331.731   119932203.637 7       616.682    22822333.875    93453691.914 8
       480.525                          44.000          45.000
  22929539.901   120495563.693 7     -3288.852    22929542.706    93892668.688 6
     -2562.743                          43.000          33.000
  23367813.623   122798726.444 7      2486.963    23367814.696    95687343.284 5
      1937.887                          42.000          30.000
  23956069.132   125890020.317 7      3604.518    23956072.777    98096133.452 6
      2808.714                          41.000          38.000
  24125254.632   126779059.820 7      2014.388    24125260.511    98788891.115 5
      1569.655                          41.000          27.000
  25140391.039   132113516.546 6     -4062.240    25140395.971   102945554.634 5
     -3165.383                          35.000          29.000
 23 12 16 12 16 30.0000000  0 11G15G24G13G22G23G17G14G19G12G10G05
  20043175.973   105327584.497 8     -1306.366    20043176.813    82073437.821 9
     -1017.952                          49.000          59.000
  20481383.027   107630436.222 8      1321.499    20481386.475    83867911.303 8
      1029.734                          49.000          47.000
  21216381.883   111492805.784 8     -2886.721    21216382.883    86877501.143 7
     -2249.389                          49.000          41.000
  21886686.173   115015362.008 8     -2530.510    21886687.102    89622384.779 7
     -1971.827                          49.000          40.000
  22258854.249   116971055.140 8      -245.945    22258856.322    91146277.983 6
      -191.653                          46.000          38.000
  22818863.389   119913978.673 8       598.921    22818865.748    93439490.682 8
       466.684                          45.000          46.000
  22948342.205   120594372.077 7     -3297.963    22948345.225    93969662.156 6
     -2569.835                          43.000          33.000
  23353647.670   122724287.757 7      2476.227    23353649.421    95629339.160 5
      1929.511                          42.000          31.000
  23935507.373   125781969.011 7      3599.566    23935511.143    98011937.700 6
      2804.850                          42.000          38.000
  24113800.660   126718868.001 7      1998.990    24113806.950    98741988.469 5
      1557.654                          40.000          27.000
  25163578.187   132235364.584 6     -4060.466    25163582.887   103040500.835 5
     -3163.996                          34.000          28.000
 23 12 16 12 17  0.0000000  0 11G15G24G13G22G23G17G14G19G12G10G05
  20050691.809   105367080.256 8     -1325.015    20050692.667    82104213.728 9
     -1032.473                          50.000          59.000
  20473877.519   107590994.489 8      1309.619    20473880.896    83837177.517 8
      1020.484                          49.000          47.000
  21232898.203   111579599.080 8     -2897.884    21232899.632    86945132.205 7
     -2258.088                          49.000          41.000
  21901170.124   115091476.436 8     -2542.158    21901171.375    89681694.682 7
     -1980.899                          49.000          40.000
  22260320.564   116978760.899 8      -266.099    22260322.833    91152282.464 6
      -207.345                          46.000          38.000
  22815496.383   119896285.868 8       582.241    22815498.813    93425704.131 8
       453.699                          45.000          46.000
  22967197.866   120693454.564 7     -3305.898    22967200.457    94046869.192 6
     -2576.022                          43.000          33.000
  23339542.899   122650169.066 7      2466.636    23339545.312    95571584.386 5
      1922.057                          42.000          30.000
  23914974.704   125674067.937 7      3595.558    23914978.206    97927859.028 6
      2801.737                          41.000          38.000
  24102434.960   126659140.079 7      1984.563    24102441.375    98695447.323 5
      1546.414                          40.000          27.000
  25186754.649   132357158.021 6     -4057.610    25186760.117   103135404.496 5
     -3161.743                          36.000          30.000
 23 12 16 12 17 30.0000000  0 11G15G24G13G22G23G17G14G19G12G10G05
  20058320.042   105407166.838 8     -1346.036    20058320.846    82135450.021 9
     -1048.859                          50.000          59.000
  20466446.150   107551942.286 8      1295.233    20466449.187    83806747.249 8
      1009.274                          49.000          46.000
  21249483.908   111666757.968 8     -2911.413    21249485.463    87013048.146 7
     -2268.630                          50.000          41.000
  21915726.713   115167970.396 8     -2556.110    21915727.731    89741300.326 7
     -1991.770                          49.000          40.000
  22261908.548   116987104.956 8      -288.746    22261910.799    91158784.319 6
      -224.996                          46.000          38.000
  22812231.105   119879125.748 8       563.099    22812233.196    93412332.661 8
       438.779                          45.000          46.000
  22986103.882   120792807.605 7     -3316.244    22986106.687    94124287.073 6
     -2584.081                          44.000          33.000
  23325500.403   122576372.515 7      2454.419    23325503.119    95514080.631 5
      1912.533                          43.000          32.000
  23894470.679   125566317.547 7      3589.081    23894474.128    97843897.788 7
      2796.691                          41.000          39.000
  24091157.784   126599876.736 7      1967.770    24091163.949    98649268.166 5
      1533.329                          40.000          27.000
  25209919.729   132478893.200 6     -4056.874    25209926.519   103230262.732 5
     -3161.185                          37.000          31.000
 23 12 16 12 18  0.0000000  0 11G15G24G13G22G23G17G14G19G12G10G05
  20066058.419   105447833.424 8     -1365.121    20066059.366    82167138.261 9
     -1063.732                          50.000          59.000
  20459087.132   107513269.891 8      1282.823    20459090.063    83776612.927 8
       999.600                          50.000          46.000
  21266136.998   111754270.303 8     -2922.881    21266138.588    87081239.499 7
     -2277.566                          50.000          41.000
  21930353.115   115244831.271 8     -2568.028    21930353.884    89801191.876 7
     -2001.061                          48.000          40.000
  22263616.005   116996076.603 8      -309.477    22263617.917    91165775.207 6
      -241.150                          46.000          38.000
  22809064.661   119862489.136 8       545.869    22809066.805    93399369.127 8
       425.353                          45.000          45.000
  23005058.770   120892418.316 7     -3324.540    23005062.326    94201905.734 6
     -2590.546                          44.000          33.000
  23311517.159   122502890.349 7      2444.219    23311520.286    95456821.869 5
      1904.579                          42.000          31.000
  23873993.279   125458709.243 7      3584.565    23873997.031    97760047.266 7
      2793.164                          42.000          39.000
  24079966.683   126541069.985 7      1952.640    24079973.456    98603444.799 4
      1521.535                          40.000          26.000
  25233071.782   132600556.819 6     -4054.138    25233078.966   103325065.182 5
     -3159.060                          36.000          29.000
 23 12 16 12 18 30.0000000  0 11G15G24G13G22G23G17G14G19G12G10G05
  20073904.885   105489066.043 8     -1384.165    20073905.761    82199267.565 9
     -1078.557                          50.000          59.000
  20451798.000   107474965.383 8      1270.341    20451801.127    83746765.275 8
       989.884                          50.000          47.000
  21282854.773   111842122.363 8     -2934.345    21282856.292    87149695.580 7
     -2286.498                          49.000          41.000
  21945046.241   115322043.871 8     -2579.882    21945046.938    89861357.502 7
     -2010.296                          48.000          40.000
  22265439.789   117005662.874 8      -330.104    22265441.951    91173245.026 6
      -257.216                          47.000          38.000
  22805996.389   119846364.310 8       528.663    22805998.497    93386804.382 8
       411.955                          45.000          46.000
  23024060.206   120992271.698 7     -3332.618    23024063.959    94279713.490 6
     -2596.844                          43.000          33.000
  23297592.312   122429713.255 7      2433.776    23297594.653    95399800.816 5
      1896.461                          42.000          31.000
  23853540.967   125351232.411 7      3579.963    23853545.184    97676299.209 7
      2789.594                          42.000          40.000
  24068860.460   126482708.950 7      1937.545    24068867.197    98557968.725 4
      1509.774                          39.000          26.000
  25256208.093   132722134.019 6     -4051.572    25256214.633   103419800.324 5
     -3157.044                          36.000          30.000
 23 12 16 12 19  0.0000000  0 11G15G24G13G22G23G17G14G19G12G10G05
  20081859.656   105530868.182 8     -1403.241    20081860.335    82231840.654 9
     -1093.427                          50.000          59.000
  20444579.844   107437033.511 8      1257.842    20444582.882    83717207.979 8
       980.140                          50.000          47.000
  21299637.878   111930316.961 8     -2945.875    21299638.985    87218418.575 7
     -2295.483                          49.000          41.000
  21959806.823   115399610.064 8     -2591.763    21959807.216    89921798.657 7
     -2019.554                          48.000          40.000
  22267381.687   117015867.545 8      -350.839    22267383.903    91181196.713 6
      -273.378                          46.000          38.000
  22803026.378   119830756.798 8       511.221    22803029.380    93374642.760 8
       398.356                          45.000          46.000
  23043107.870   121092369.369 7     -3341.024    23043111.372    94357711.614 5
     -2603.396                          43.000          32.000
  23283726.201   122356848.204 7      2423.240    23283727.773    95343022.886 5
      1888.256                          43.000          31.000
  23833115.119   125243893.498 7      3575.275    23833118.675    97592658.628 7
      2785.931                          42.000          40.000
  24057841.116   126424800.284 7      1922.389    24057847.406    98512845.139 5
      1497.964                          39.000          27.000
  25279326.999   132843625.944 6     -4048.594    25279333.843   103514469.004 5
     -3154.730                          37.000          32.000
 23 12 16 12 19 30.0000000  0 11G15G24G13G22G23G17G14G19G12G10G05
  20089922.463   105573238.686 8     -1420.852    20089923.231    82264856.617 9
     -1107.160                          50.000          59.000
  20437432.610   107399474.385 8      1246.777    20437435.612    83687941.134 8
       971.511                          49.000          47.000
  21316485.346   112018852.046 8     -2955.802    21316486.919    87287406.875 7
     -2303.217                          49.000          41.000
  21974633.698   115477526.812 8     -2602.010    21974634.091    89982512.979 7
     -2027.542                          48.000          39.000
  22269440.895   117026689.635 8      -369.988    22269443.665    91189629.506 6
      -288.306                          46.000          38.000
  22800154.880   119815667.541 8       495.360    22800158.257    93362884.987 8
       385.986                          45.000          47.000
  23062201.636   121192708.264 7     -3347.549    23062204.816    94435897.699 5
     -2608.471                          44.000          32.000
  23269920.486   122284297.547 7      2414.083    23269921.719    95286489.945 5
      1881.095                          42.000          31.000
  23812715.396   125136694.062 7      3572.069    23812718.630    97509126.733 7
      2783.420                          43.000          41.000
  24046907.990   126367345.166 7      1908.629    24046914.155    98468074.988 5
      1487.241                          41.000          28.000
  25302429.591   132965029.102 6     -4044.161    25302436.363   103609068.472 6
     -3151.293                          37.000          33.000
 23 12 16 12 20  0.0000000  0 11G15G24G13G22G23G17G14G19G12G10G05
  20098091.751   105616168.953 8     -1440.497    20098092.502    82298308.764 9
     -1122.458                          50.000          59.000
  20430354.779   107362281.334 8      1233.556    20430358.049    83658959.536 8
       961.217                          50.000          47.000
  21333396.322   112107718.750 8     -2967.915    21333397.447    87356653.598 7
     -2312.661                          49.000          41.000
  21989525.563   115555784.461 8     -2614.407    21989526.474    90043492.930 7
     -2037.195                          48.000          40.000
  22271616.288   117038121.419 8      -391.363    22271619.093    91198537.375 6
      -304.955                          47.000          38.000
  22797380.803   119801089.577 8       477.264    22797383.787    93351525.623 8
       371.896                          46.000          47.000
  23081338.984   121293278.678 7     -3356.334    23081343.273    94514264.203 6
     -2615.324                          44.000          33.000
  23256173.561   122212056.937 7      2402.590    23256175.241    95230198.598 5
      1872.155                          42.000          30.000
  23792341.064   125029628.954 7      3566.507    23792344.674    97425699.508 7
      2779.099                          43.000          41.000
  24036059.635   126310338.382 7      1892.590    24036066.050    98423654.170 5
      1474.744                          40.000          28.000
  25325513.670   133086334.226 6     -4042.002    25325520.103   103703591.547 6
     -3149.593                          38.000          34.000
 23 12 16 12 20 30.0000000  0 11G15G24G13G22G23G17G14G19G12G10G05
  20106366.503   105659652.610 8     -1458.879    20106367.146    82332192.120 9
     -1136.786                          50.000          58.000
  20423345.977   107325448.935 8      1221.515    20423349.032    83630258.973 8
       951.833                          50.000          47.000
  21350368.874   112196910.124 8     -2978.680    21350370.196    87426153.308 7
     -2321.049                          49.000          41.000
  22004480.720   115634374.580 8     -2625.404    22004481.721    90104731.941 7
     -2045.766                          49.000          39.000
  22273906.918   117050156.343 8      -411.405    22273908.937    91207915.222 6
      -320.571                          46.000          37.000
  22794703.202   119787017.899 8       460.368    22794705.632    93340560.766 8
       358.730                          45.000          46.000
  23100519.951   121394072.060 7     -3363.710    23100523.989    94592804.435 5
     -2621.079                          43.000          32.000
  23242484.799   122140123.201 7      2392.412    23242486.551    95174146.389 5
      1864.219                          43.000          31.000
  23771992.232   124922693.481 7      3562.020    23771995.538    97342373.291 7
      2775.601                          44.000          42.000
  24025296.497   126253776.146 7      1877.702    24025302.483    98379579.735 5
      1463.142                          41.000          28.000
  25348576.897   133207531.964 7     -4038.311    25348583.437   103798030.949 6
     -3146.718                          39.000          34.000
 23 12 16 12 21  0.0000000  0 11G15G24G13G22G23G17G14G19G12G10G05
  20114751.989   105703718.486 8     -1478.876    20114752.560    82366529.154 9
     -1152.360                          50.000          59.000
  20416411.313   107289007.373 8      1207.869    20416414.404    83601862.955 8
       941.203                          50.000          47.000
  21367408.470   112286453.887 8     -2990.964    21367410.150    87495927.601 7
     -2330.616                          50.000          41.000
  22019504.405   115713324.113 8     -2637.971    22019504.834    90166251.021 7
     -2055.554                          48.000          39.000
  22276317.413   117062823.494 8      -433.131    22276319.164    91217785.723 6
      -337.492                          46.000          37.000
  22792127.311   119773483.824 8       441.816    22792129.830    93330014.820 8
       344.278                          45.000          46.000
  23119748.395   121495115.472 7     -3372.664    23119751.737    94671539.515 5
     -2628.045                          42.000          31.000
  23228860.581   122068528.558 7      2380.440    23228862.582    95118358.410 5
      1854.894                          43.000          32.000
  23751673.545   124815919.470 7      3556.090    23751677.244    97259172.880 7
      2770.987                          43.000          42.000
  24014622.793   126197689.725 7      1861.170    24014629.995    98335876.069 5
      1450.264                          40.000          28.000
  25371624.916   133328649.447 7     -4036.261    25371631.814   103892407.846 6
     -3145.118                          40.000          35.000
 23 12 16 12 21 30.0000000  0 11G15G24G13G22G23G17G14G19G12G10G05
  20123245.278   105748352.550 8     -1496.790    20123246.243    82401308.928 9
     -1166.330                          50.000          59.000
  20409548.643   107252944.628 8      1196.258    20409551.895    83573762.121 8
       932.154                          50.000          47.000
  21384512.413   112376335.702 8     -3001.246    21384514.182    87565965.317 7
     -2338.630                          49.000          41.000
  22034593.776   115792618.417 8     -2648.394    22034594.044    90228038.747 7
     -2063.681                          48.000          39.000
  22278845.344   117076109.714 8      -452.707    22278847.470    91228138.599 6
      -352.755                          46.000          37.000
  22789652.254   119760475.018 8       425.339    22789654.845    93319878.194 8
       331.425                          45.000          47.000
  23139021.352   121596393.830 7     -3379.448    23139024.103    94750457.659 5
     -2633.336                          42.000          31.000
  23215299.851   121997263.606 7      2370.445    23215301.334    95062827.320 5
      1847.105                          42.000          31.000
  23731383.823   124709296.627 7      3552.037    23731387.647    97176090.246 7
      2767.818                          43.000          42.000
  24004039.293   126142068.567 7      1846.643    24004045.511    98292534.939 5
      1438.942                          40.000          29.000
  25394655.174   133449670.951 7     -4031.975    25394661.750   103986709.925 6
     -3141.786                          39.000          34.000
 23 12 16 12 22  0.0000000  0 11G15G24G13G22G23G17G14G19G12G10G05
  20131849.159   105793564.820 8     -1518.461    20131849.892    82436539.255 9
     -1183.219                          50.000          59.000
  20402760.487   107217272.147 8      1180.831    20402763.543    83545965.382 8
       920.126                          50.000          47.000
  21401682.793   112466565.354 8     -3015.170    21401684.240    87636274.075 7
     -2349.484                          49.000          40.000
  22049749.906   115872265.557 8     -2662.520    22049750.460    90290101.414 7
     -2074.694                          49.000          39.000
  22281493.337   117090025.270 8      -476.072    22281495.570    91238981.866 6
      -370.971                          46.000          37.000
  22787278.533   119748003.697 8       404.992    22787281.875    93310160.373 8
       315.573                          45.000          47.000
  23158340.607   121697915.443 7     -3389.881    23158342.769    94829565.364 5
     -2641.466                          42.000          31.000
  23201803.485   121926341.776 7      2356.567    23201805.593    95007563.613 5
      1836.282                          43.000          32.000
  23711125.587   124602837.758 7      3544.095    23711128.857    97093135.370 7
      2761.627                          43.000          42.000
  23993545.405   126086925.554 7      1828.405    23993551.981    98249566.405 5
      1424.726                          40.000          29.000
  25417668.439   133570604.353 6     -4031.333    25417674.890   104080943.354 6
     -3141.289                          38.000          34.000
 23 12 16 12 22 30.0000000  0 11G15G24G13G22G23G17G14G19G12G10G05
  20140568.188   105839383.565 8     -1536.842    20140568.992    82472242.155 9
     -1197.541                          50.000          59.000
  20396051.973   107182019.940 8      1168.567    20396055.369    83518496.137 8
       910.569                          49.000          47.000
  21418924.524   112557170.599 8     -3025.894    21418925.793    87706875.498 7
     -2357.838                          49.000          40.000
  22064978.620   115952292.710 8     -2673.333    22064979.442    90352460.189 7
     -2083.118                          48.000          39.000
  22284266.806   117104599.029 8      -496.208    22284269.003    91250338.017 6
      -386.660                          46.000          37.000
  22785013.420   119736100.145 8       387.832    22785016.726    93300884.963 8
       302.202                          45.000          47.000
  23177711.056   121799707.289 7     -3396.954    23177713.111    94908883.630 5
     -2646.971                          42.000          30.000
  23188378.470   121855795.370 7      2345.844    23188380.990    94952592.452 6
      1827.924                          43.000          33.000
  23690904.089   124496574.326 7      3539.384    23690907.270    97010332.769 7
      2757.954                          43.000          43.000
  23983149.583   126032291.911 7      1813.162    23983155.873    98206994.791 5
      1412.851                          40.000          29.000
  25440669.660   133691477.350 7     -4027.233    25440676.879   104175129.705 6
     -3138.094                          39.000          36.000
 23 12 16 12 23  0.0000000  0 11G15G24G13G22G23G17G19G14G12G10G05
  20149396.379   105885775.302 8     -1556.327    20149397.147    82508391.544 9
     -1212.721                          50.000          59.000
  20389417.741   107147155.993 8      1155.323    20389421.119    83491329.443 8
       900.248                          49.000          47.000
  21436231.084   112648117.451 8     -3037.653    21436232.406    87777743.118 7
     -2366.999                          49.000          40.000
  22080272.896   116032665.081 8     -2685.213    22080274.147    90415087.965 7
     -2092.378                          48.000          40.000
  22287159.175   117119797.697 8      -517.443    22287161.248    91262181.107 6
      -403.201                          46.000          37.000
  22782850.286   119724733.457 8       369.562    22782853.520    93292027.896 8
       287.971                          45.000          47.000
  23175019.964   121785594.942 7      2333.775    23175021.018    94897890.879 5
      1818.523                          42.000          31.000
  23197125.607   121901734.307 7     -3405.149    23197129.002    94988385.132 5
     -2653.359                          42.000          31.000
  23670713.844   124390475.165 7      3533.463    23670717.364    96927658.178 7
      2753.346                          43.000          43.000
  23972843.767   125978137.428 7      1796.793    23972850.200    98164796.531 5
      1400.099                          41.000          30.000
  25463652.493   133812254.206 7     -4024.653    25463660.695   104269241.140 6
     -3136.080                          39.000          35.000
 23 12 16 12 23 30.0000000  0 11G15G24G13G22G23G17G19G14G12G10G05
  20158330.193   105932723.017 8     -1575.131    20158331.015    82544974.154 9
     -1227.379                          50.000          59.000
  20382854.288   107112664.782 8      1142.537    20382857.541    83464453.189 8
       890.284                          49.000          47.000
  21453599.363   112739388.510 8     -3048.729    21453600.989    87848863.353 7
     -2375.631                          49.000          40.000
  22095629.391   116113363.654 8     -2696.320    22095630.624    90477969.928 7
     -2101.028                          48.000          39.000
  22290166.925   117135604.558 8      -537.964    22290169.248    91274498.117 6
      -419.195                          46.000          37.000
  22780786.342   119713886.708 7       351.950    22780788.415    93283575.962 8
       274.241                          44.000          46.000
  23161724.678   121715726.964 7      2322.428    23161725.482    94843448.358 5
      1809.670                          43.000          32.000
  23216581.524   122003977.891 7     -3412.629    23216585.723    95068055.382 5
     -2659.196                          43.000          31.000
  23650552.422   124284526.544 7      3528.139    23650556.103    96845100.881 7
      2749.196                          43.000          43.000
  23962627.314   125924447.522 7      1781.066    23962633.139    98122960.261 5
      1387.845                          41.000          30.000
  25486614.384   133932916.413 7     -4021.089    25486622.318   104363263.246 6
     -3133.310                          39.000          35.000
 23 12 16 12 24  0.0000000  0 11G15G24G13G22G23G17G19G14G12G10G05
  20167376.065   105980259.138 8     -1593.322    20167376.833    82582015.267 9
     -1241.547                          50.000          59.000
  20376368.333   107078580.228 8      1130.397    20376371.300    83437893.805 8
       880.831                          50.000          47.000
  21471035.527   112831015.406 8     -3059.119    21471036.760    87920260.872 7
     -2383.726                          48.000          40.000
  22111053.968   116194419.340 8     -2706.711    22111055.254    90541130.149 7
     -2109.121                          48.000          39.000
  22293296.881   117152052.326 8      -557.912    22293299.132    91287314.541 6
      -434.731                          46.000          37.000
  22778827.433   119703594.843 8       334.804    22778829.720    93275556.414 8
       260.886                          45.000          46.000
  23148499.117   121646227.649 7      2311.469    23148501.208    94789293.135 6
      1801.140                          44.000          34.000
  23236084.526   122106468.919 7     -3419.461    23236089.029    95147918.424 5
     -2664.505                          42.000          31.000
  23630426.684   124178763.526 7      3523.297    23630430.276    96762688.223 7
      2745.423                          43.000          44.000
  23952505.674   125871257.448 7      1765.688    23952511.231    98081513.478 5
      1375.861                          41.000          30.000
  25509560.086   134053494.040 7     -4016.725    25509567.966   104457219.422 6
     -3129.900                          39.000          35.000
 23 12 16 12 24 30.0000000  0 11G15G24G13G22G23G17G19G14G12G10G05
  20176528.042   106028353.378 8     -1612.946    20176528.971    82619491.273 9
     -1256.842                          50.000          58.000
  20369954.051   107044873.953 8      1116.693    20369957.303    83411629.189 9
       870.147                          50.000          57.000
  21488533.339   112922967.421 8     -3071.043    21488534.857    87991911.727 7
     -2393.015                          49.000          40.000
  22126540.532   116275801.088 8     -2718.642    22126541.496    90604544.447 7
     -2118.423                          48.000          39.000
  22296543.253   117169111.243 8      -579.377    22296545.362    91300607.193 6
      -451.467                          46.000          37.000
  22776969.358   119693830.017 7       316.245    22776971.556    93267947.534 8
       246.421                          44.000          45.000
  23135338.725   121577070.881 7      2298.932    23135341.619    94735404.858 6
      1791.369                          43.000          33.000
  23255629.503   122209175.928 7     -3427.620    23255633.327    95227949.757 5
     -2670.865                          42.000          30.000
  23610330.734   124073159.515 7      3516.894    23610334.451    96680399.488 7
      2740.435                          43.000          43.000
  23942473.486   125818540.537 7      1748.751    23942479.597    98040435.400 5
      1362.661                          42.000          30.000
  25532483.702   134173956.003 6     -4013.929    25532491.618   104551085.443 6
     -3127.727                          38.000          33.000
 23 12 16 12 25  0.0000000  0 11G15G24G13G22G23G17G19G14G12G10G05
  20185791.469   106077032.376 8     -1632.328    20185792.362    82657422.930 9
     -1271.943                          50.000          58.000
  20363617.463   107011574.284 8      1103.259    20363620.554    83385681.405 9
       859.687                          50.000          58.000
  21506098.338   113015271.385 8     -3082.583    21506099.535    88063836.830 7
     -2402.008                          49.000          39.000
  22142093.676   116357533.951 8     -2730.196    22142094.962    90668232.331 7
     -2127.421                          48.000          39.000
  22299910.760   117186808.406 8      -600.429    22299913.154    91314397.169 6
      -467.860                          46.000          37.000
  22775217.282   119684620.685 8       297.694    22775218.998    93260771.495 8
       231.968                          45.000          46.000
  23122249.880   121508287.492 7      2286.581    23122252.006    94681807.524 5
      1781.752                          44.000          32.000
  23275219.795   122312124.264 7     -3435.528    23275223.583    95308169.130 5
     -2677.031                          42.000          30.000
  23590270.666   123967743.995 7      3510.730    23590274.150    96598257.643 7
      2735.631                          43.000          43.000
  23932537.416   125766326.265 7      1732.140    23932543.670    97999748.981 5
      1349.719                          42.000          31.000
  25555389.859   134294327.077 6     -4010.568    25555397.900   104644880.607 5
     -3125.102                          37.000          31.000
 23 12 16 12 25 30.0000000  0 11G15G24G13G22G23G17G19G14G12G10G05
  20195165.308   106126292.287 8     -1652.728    20195166.076    82695807.249 9
     -1287.838                          50.000          58.000
  20357357.623   106978678.862 8      1088.741    20357360.803    83360048.620 9
       848.367                          50.000          58.000
  21523729.310   113107922.507 8     -3095.171    21523730.596    88136032.447 7
     -2411.816                          49.000          39.000
  22157712.846   116439612.806 8     -2742.704    22157714.007    90732189.821 6
     -2137.169                          48.000          38.000
  22303399.401   117205140.125 8      -622.613    22303401.652    91328681.607 6
      -485.154                          46.000          37.000
  22773569.437   119675964.846 8       278.345    22773571.938    93254026.747 8
       216.891                          45.000          46.000
  23109231.725   121439877.418 7      2273.034    23109233.422    94628501.055 6
      1771.193                          44.000          33.000
  23294855.493   122415308.517 7     -3444.327    23294859.710    95388572.314 5
     -2683.876                          42.000          30.000
  23570246.192   123862516.007 7      3503.476    23570249.551    96516261.957 7
      2729.978                          43.000          43.000
  23922696.927   125714613.528 7      1714.447    23922703.253    97959453.399 5
      1335.936                          43.000          31.000
  25578277.469   134414601.863 6     -4008.475    25578285.492   104738600.717 5
     -3123.468                          36.000          29.000
 23 12 16 12 26  0.0000000  0 11G15G24G13G22G23G17G19G14G12G10G05
  20204650.025   106176134.562 8     -1671.360    20204650.596    82734645.360 9
     -1302.355                          50.000          58.000
  20351175.423   106946190.748 8      1075.912    20351178.604    83334733.222 9
       838.372                          50.000          58.000
  21541426.504   113200921.821 8     -3106.014    21541428.255    88208499.379 7
     -2420.268                          48.000          40.000
  22173397.595   116522037.592 8     -2753.505    22173398.703    90796416.874 6
     -2145.588                          48.000          38.000
  22307008.693   117224108.115 8      -643.084    22307011.141    91343461.838 6
      -501.102                          46.000          37.000
  22772028.108   119667865.657 8       260.461    22772031.307    93247715.739 8
       202.956                          46.000          46.000
  23096285.367   121371845.565 7      2261.119    23096287.708    94575489.345 6
      1761.914                          43.000          33.000
  23314535.988   122518728.753 7     -3451.504    23314539.758    95469159.373 5
     -2689.471                          42.000          30.000
  23550258.474   123757480.298 7      3497.673    23550261.869    96434416.120 7
      2725.453                          44.000          42.000
  23912952.734   125663406.631 7      1698.230    23912958.631    97919551.967 5
      1323.296                          43.000          31.000
  25601146.959   134534779.886 6     -4004.391    25601155.107   104832245.376 4
     -3120.295                          35.000          25.000
 23 12 16 12 26 30.0000000  0 11G15G24G13G22G23G17G19G14G12G10G05
  20214241.348   106226536.913 8     -1689.410    20214241.884    82773919.891 9
     -1316.422                          50.000          58.000
  20345066.701   106914089.516 8      1063.558    20345069.900    83309719.287 9
       828.750                          50.000          58.000
  21559185.847   113294246.844 8     -3116.286    21559187.295    88281220.109 7
     -2428.272                          49.000          39.000
  22189144.010   116604784.929 8     -2763.615    22189144.671    90860895.280 6
     -2153.462                          48.000          38.000
  22310734.617   117243690.555 8      -663.027    22310737.118    91358720.873 6
      -516.641                          46.000          36.000
  22770589.384   119660302.973 8       243.051    22770591.493    93241822.782 8
       189.391                          45.000          45.000
  23083408.092   121304173.824 7      2249.690    23083410.254    94522758.252 6
      1753.001                          44.000          33.000
  23334256.939   122622361.546 7     -3457.994    23334259.887    95549912.082 5
     -2694.543                          42.000          30.000
  23530303.636   123652617.608 7      3492.504    23530307.156    96352705.118 7
      2721.428                          43.000          42.000
  23903301.103   125612686.542 7      1682.476    23903306.803    97880029.891 5
      1311.021                          43.000          31.000
  25623994.024   134654838.101 6     -4000.187    25624001.958   104925796.635 4
     -3117.009                          33.000          22.000
 23 12 16 12 27  0.0000000  0 11G15G24G13G22G23G17G19G14G12G10G05
  20223939.081   106277499.405 8     -1708.123    20223939.760    82813630.899 9
     -1331.006                          50.000          58.000
  20339031.778   106882376.812 8      1050.582    20339035.084    83285008.095 9
       818.634                          50.000          58.000
  21577006.874   113387896.930 8     -3127.109    21577008.357    88354194.137 7
     -2436.709                          48.000          39.000
  22204951.377   116687853.442 8     -2774.227    22204952.663    90925623.940 7
     -2161.735                          48.000          39.000
  22314578.780   117263887.686 8      -683.518    22314580.656    91374458.888 6
      -532.614                          45.000          37.000
  22769252.317   119653278.587 8       225.032    22769253.961    93236349.289 8
       175.346                          45.000          46.000
  23070599.683   121236866.099 7      2237.491    23070601.863    94470310.795 6
      1743.493                          43.000          33.000
  23354018.255   122726205.525 7     -3464.994    23354021.668    95630829.343 5
     -2699.994                          41.000          30.000
  23510382.499   123547930.944 7      3486.582    23510385.822    96271131.297 7
      2716.808                          43.000          43.000
  23893742.337   125562456.212 7      1666.098    23893748.216    97840889.447 5
      1298.260                          43.000          31.000
  25646817.698   134774774.830 5     -3995.953    25646826.150   105019253.193 3
     -3113.717                          31.000          19.000
