     2.11           OBSERVATION DATA    G (GPS)             RINEX VERSION / TYPE
teqc  2019Feb25                         20230831 20:07:56UTCPGM / RUN BY / DATE
Linux 2.6.32-573.12.1.x86_64|x86_64|gcc|Linux 64|=+         COMMENT
teqc  2019Feb25                         20230831 20:07:55UTCCOMMENT
     2.11           OBSERVATION DATA    M (MIXED)           COMMENT
teqc  2019Feb25     IGN-RGP             20230831 13:02:13UTCCOMMENT
teqc  2019Feb25     Administrateur RGP  20230831 13:02:13UTCCOMMENT
teqc  2019Feb25     IGN-RGP             20230831 13:02:12UTCCOMMENT
teqc  2019Feb25     IGN-RGP             20230831 13:02:11UTCCOMMENT
BIT 2 OF LLI FLAGS DATA COLLECTED UNDER A/S CONDITION       COMMENT
IGNF                                                        MARKER NAME
10001M009                                                   MARKER NUMBER
Automatic           IGN                                     OBSERVER / AGENCY
1834194             LEICA GR50          4.51                REC # / TYPE / VERS
5000113963          TRM57971.00     NONE                    ANT # / TYPE
  4201694.1440   177888.8370  4779371.7670                  APPROX POSITION XYZ
        0.0000        0.0000        0.0000                  ANTENNA: DELTA H/E/N
     1     1                                                WAVELENGTH FACT L1/2
    21    L1    L2    C1    P1    P2    D1    D2    S1    S2# / TYPES OF OBSERV
          L5    C5    D5    S5    L7    C7    D7    S7    L8# / TYPES OF OBSERV
          C8    D8    S8                                    # / TYPES OF OBSERV
    30.0000                                                 INTERVAL
DefaultJobName                                              COMMENT
DefaultUserDiscription                                      COMMENT
Project creator:                                            COMMENT
 SNR is mapped to RINEX snr flag value [0-9]                COMMENT
  L1 & L2: min(max(int(snr_dBHz/6), 0), 9)                  COMMENT
    18                                                      LEAP SECONDS
Forced Modulo Decimation to 30 seconds                      COMMENT
teqc_2019 edited: all GLONASS satellites excluded           COMMENT
teqc_2019 edited: all SBAS satellites excluded              COMMENT
teqc_2019 edited: all Galileo satellites excluded           COMMENT
  2023     8    31    12     0    0.0000000     GPS         TIME OF FIRST OBS
                                                            END OF HEADER
 23  8 31 12  0  0.0000000  0 10G02G03G04G06G09G11G17G19G28G31
 134549701.411 6 104843883.50145  25603987.560                    25603994.800
     -3523.169       -2745.334          36.200          34.600



 112103197.956 8  87353199.21948  21332518.680                    21332520.160
     -2118.686       -1650.925          49.300          49.300    83713482.777 8
  21332521.180       -1582.170          53.400


 106726646.989 8  83163631.68148  20309383.360                    20309383.140
       165.691         129.110          50.000          50.000    79698545.428 9
  20309387.520         123.720          56.800


 112530654.123 8  87686258.59348  21413861.660                    21413864.520
      2249.672        1752.992          49.450          48.850    84032677.078 8
  21413865.120        1680.006          52.750


 110154463.741 8  85834701.55748  20961679.020                    20961680.020
      2101.949        1637.884          51.100          51.150    82258269.798 9
  20961682.900        1569.661          55.100


 131542697.381 6 102500808.17346  25031741.940                    25031746.920
      3589.058        2796.672          40.100          39.400    98229970.758 7
  25031750.560        2680.159          44.700


 119405748.023 7  93043438.69747  22722161.940                    22722163.580
     -2555.132       -1991.017          46.400          45.600



 114664945.004 8  89349315.43847  21820009.140                    21820007.740
     -1694.451       -1320.354          48.800          45.950



 131430824.962 6 102413671.21745  25010435.980                    25010437.220
     -2614.208       -2037.046          39.900          35.050    98146468.563 6
  25010443.880       -1952.280          41.600


 122463197.112 7  95425935.35047  23303949.500                    23303949.960
     -1281.360        -998.464          44.000          44.100



 23  8 31 12  0 30.0000000  0 10G02G03G04G06G09G11G17G19G28G31
 134655422.493 5 104926263.35445  25624105.760                    25624113.020
     -3525.288       -2746.966          31.950          32.450



 112166902.836 8  87402839.36048  21344641.280                    21344642.760
     -2127.917       -1658.118          48.850          49.000    83761054.577 8
  21344643.880       -1589.062          53.100


 106721953.940 8  83159974.77248  20308490.280                    20308490.200
       147.396         114.854          50.000          49.850    79695040.899 9
  20308494.380         110.081          56.750


 112463360.451 8  87633822.00548  21401056.160                    21401058.960
      2236.619        1742.821          49.750          48.650    83982425.347 8
  21401059.360        1670.160          52.400


 110091636.209 8  85785745.07748  20949723.320                    20949724.400
      2086.938        1626.187          51.250          51.300    82211353.187 9
  20949727.080        1558.282          54.900


 131435062.623 6 102416937.01646  25011259.600                    25011264.740
      3586.600        2794.759          39.350          38.950    98149594.227 7
  25011268.160        2678.354          45.250


 119482575.990 7  93103304.53147  22736782.080                    22736783.340
     -2566.490       -1999.865          47.250          44.400



 114716074.633 8  89389156.66147  21829738.940                    21829737.400
     -1713.942       -1335.540          49.050          45.600



 131509451.623 6 102474938.69645  25025398.040                    25025399.540
     -2627.118       -2047.108          40.950          33.900    98205183.251 7
  25025406.040       -1961.919          42.400


 122501943.274 7  95456127.16647  23311322.640                    23311323.260
     -1301.560       -1014.201          43.500          43.300



 23  8 31 12  1  0.0000000  0 10G02G03G04G06G09G11G17G19G28G31
 134761197.881 5 105008685.40045  25644234.400                    25644241.220
     -3526.873       -2748.221          35.800          34.650



 112230875.932 8  87452688.50148  21356814.940                    21356816.340
     -2136.896       -1665.116          48.600          48.550    83808826.667 8
  21356817.500       -1595.681          53.250


 106717800.229 8  83156738.12248  20307699.800                    20307699.920
       129.613         100.997          50.050          49.950    79691939.125 9
  20307703.960          96.718          57.050


 112396452.888 8  87581686.28048  21388324.180                    21388326.740
      2223.826        1732.853          49.900          48.400    83932461.942 8
  21388327.180        1660.602          52.700


 110029257.587 8  85737138.40048  20937853.100                    20937854.240
      2071.851        1614.430          51.500          51.250    82164771.786 9
  20937856.620        1547.151          55.150


 131327490.767 6 102333114.87546  24990789.260                    24990794.320
      3584.634        2793.224          39.900          39.300    98069264.704 7
  24990797.660        2676.849          45.450


 119559735.521 7  93163428.72447  22751465.300                    22751466.420
     -2577.408       -2008.375          47.300          44.000



 114767780.346 8  89429446.76947  21839578.320                    21839576.600
     -1732.976       -1350.373          48.800          45.850



 131588463.937 6 102536506.74745  25040433.840                    25040434.900
     -2640.241       -2057.328          39.950          33.900    98264185.887 6
  25040441.760       -1971.459          41.900


 122541286.568 7  95486784.27747  23318809.360                    23318810.280
     -1321.330       -1029.606          43.450          43.700



 23  8 31 12  1 30.0000000  0 10G02G03G04G06G09G11G17G19G28G31
 134867022.740 5 105091146.07745  25664372.400                    25664379.400
     -3528.329       -2749.359          35.900          33.650



 112295113.635 8  87502743.82048  21369039.000                    21369040.460
     -2145.610       -1671.905          49.650          49.700    83856796.363 8
  21369041.620       -1602.283          53.150


 106714182.670 8  83153919.25848  20307011.420                    20307011.640
       111.642          86.994          50.000          49.950    79689237.719 9
  20307015.680          83.329          56.850


 112329931.023 8  87529851.08948  21375665.580                    21375667.740
      2210.902        1722.782          49.950          48.200    83882786.545 8
  21375668.540        1651.044          52.350


 109967326.300 8  85688880.29748  20926067.980                    20926069.240
      2056.835        1602.730          51.500          51.400    82118524.449 9
  20926071.200        1535.977          54.800


 131219981.100 6 102249341.22746  24970330.460                    24970335.920
      3582.816        2791.811          38.750          38.950    97988981.631 7
  24970339.040        2675.310          45.100


 119637220.919 7  93223806.84847  22766210.460                    22766211.380
     -2588.317       -2016.874          46.550          44.400



 114820057.166 8  89470181.90247  21849526.320                    21849524.560
     -1752.168       -1365.327          48.800          45.050



 131667856.669 6 102598371.19746  25055541.840                    25055542.980
     -2652.926       -2067.211          39.600          36.250    98323472.667 6
  25055549.620       -1980.884          41.200


 122581222.954 7  95517903.54147  23326408.980                    23326410.140
     -1341.050       -1044.974          43.150          42.650



 23  8 31 12  2  0.0000000  0 10G02G03G04G06G09G11G17G19G28G31
 134972897.482 6 105173645.58145  25684519.960                    25684526.900
     -3529.689       -2750.415          39.650          31.200



 112359616.978 8  87553006.14448  21381313.720                    21381315.180
     -2154.375       -1678.734          49.650          49.600    83904964.418 8
  21381316.660       -1608.749          53.400


 106711102.707 8  83151519.29948  20306425.340                    20306425.580
        93.824          73.110          50.050          50.000    79686937.760 9
  20306429.740          70.047          56.750


 112263798.997 8  87478319.66947  21363081.200                    21363082.960
      2197.959        1712.696          50.550          47.600    83833402.274 8
  21363084.140        1641.325          52.300


 109905845.404 8  85640973.14748  20914368.440                    20914369.940
      2041.823        1591.033          51.200          51.000    82072613.438 9
  20914371.460        1524.780          54.550


 131112537.567 6 102165619.07746  24949884.600                    24949889.940
      3580.619        2790.098          38.950          38.300    97908747.936 7
  24949893.040        2673.701          44.700


 119715031.527 7  93284438.38447  22781017.400                    22781018.040
     -2598.978       -2025.181          46.600          43.350



 114872904.695 8  89511361.75747  21859582.900                    21859581.040
     -1770.975       -1379.981          48.600          45.200



 131747629.287 6 102660531.64845  25070722.020                    25070723.460
     -2665.387       -2076.921          39.850          34.200    98383043.122 7
  25070729.960       -1990.396          42.700


 122621753.145 7  95549485.51247  23334121.760                    23334122.800
     -1360.878       -1060.426          44.650          44.600



 23  8 31 12  2 30.0000000  0 10G02G03G04G06G09G11G17G19G28G31
 135078822.049 6 105256184.01345  25704677.160                    25704683.720
     -3531.625       -2751.917          40.850          35.450



 112424386.097 8  87603475.56948  21393638.980                    21393640.380
     -2163.260       -1685.658          49.050          48.850    83953330.950 8
  21393642.360       -1615.406          53.600


 106708560.765 8  83149538.57348  20305941.600                    20305941.840
        75.854          59.107          49.650          49.900    79685039.566 9
  20305946.140          56.704          56.700


 112198060.043 8  87427094.53747  21350571.580                    21350573.060
      2184.872        1702.499          50.400          47.250    83784311.526 8
  21350574.520        1631.531          52.550


 109844816.933 8  85593418.52848  20902755.020                    20902756.680
      2026.803        1579.328          50.800          50.750    82027040.276 9
  20902757.860        1513.567          54.550


 131005163.096 6 102081950.74646  24929451.960                    24929456.880
      3578.044        2788.087          39.400          38.250    97828565.789 7
  24929460.120        2671.933          45.050


 119793166.117 7  93345322.36347  22795885.900                    22795886.680
     -2609.601       -2033.459          45.600          44.650



 114926321.661 8  89552985.31147  21869747.860                    21869745.940
     -1789.829       -1394.674          48.400          44.550



 131827780.265 6 102722986.92545  25085974.320                    25085976.180
     -2677.655       -2086.482          39.250          35.450    98442896.037 6
  25085982.800       -1999.703          41.800


 122662876.693 7  95581529.83347  23341947.500                    23341948.280
     -1380.496       -1075.713          45.700          45.300



 23  8 31 12  3  0.0000000  0 10G02G03G04G06G09G11G17G19G28G31
 135184791.902 5 105338757.78945  25724843.020                    25724849.440
     -3533.405       -2753.299          33.600          31.800



 112489417.731 8  87654149.54748  21406014.100                    21406015.540
     -2171.800       -1692.312          48.300          48.550    84001893.501 9
  21406017.980       -1621.762          54.000


 106706553.938 8  83147974.81748  20305559.680                    20305559.800
        58.247          45.387          49.950          49.950    79683540.969 9
  20305564.200          43.522          56.750


 112132714.022 8  87376175.58447  21338136.660                    21338137.980
      2171.944        1692.425          50.750          46.900    83735514.196 8
  21338139.700        1621.896          52.950


 109784239.648 8  85546215.48448  20891227.400                    20891229.220
      2011.923        1567.733          50.700          50.550    81981804.039 9
  20891230.140        1502.415          54.650


 130897857.305 6 101998335.93446  24909032.460                    24909037.240
      3575.931        2786.438          40.600          39.900    97748434.967 7
  24909040.500        2670.298          44.950


 119871619.206 7  93406454.52047  22810814.960                    22810815.460
     -2620.220       -2041.733          46.800          42.400



 114980303.124 8  89595048.74847  21880020.240                    21880018.140
     -1808.581       -1409.286          48.450          44.600



 131908304.729 6 102785733.12745  25101297.700                    25101300.160
     -2690.135       -2096.220          40.400          34.600    98503027.891 7
  25101306.320       -2008.860          42.600


 122704589.659 7  95614033.46847  23349885.400                    23349885.980
     -1399.882       -1090.818          46.450          46.700



 23  8 31 12  3 30.0000000  0 11G02G03G04G06G07G09G11G17G19G28G31
                                  25745018.340                    25745025.580
     -3533.984       -2753.754          36.950          35.300



 112554716.812 8  87705031.92248  21418440.140                    21418441.620
     -2180.371       -1698.991          48.750          48.800    84050655.774 9
  21418444.300       -1628.172          54.150


 106705087.420 8  83146832.08748  20305280.560                    20305280.580
        40.557          31.603          49.950          50.100    79682445.849 9
  20305284.900          30.327          56.700


 112067768.988 8  87325569.08647  21325778.000                    21325779.080
      2158.896        1682.257          50.550          47.000    83687016.312 8
  21325781.260        1612.184          53.550


 135272798.950 6 105407418.75646  25741558.020                    25741568.260
      3261.153        2541.171          39.200          39.950



 109724120.379 8  85499369.33948  20879786.940                    20879788.880
      1997.051        1556.145          51.000          51.000    81936909.834 9
  20879789.600        1491.270          54.750


 130790628.025 6 101914780.75246  24888627.480                    24888631.940
      3573.834        2784.812          39.950          38.700    97668361.268 7
  24888635.480        2668.664          45.400


 119950393.751 7  93467837.17247  22825805.120                    22825805.800
     -2630.507       -2049.750          45.650          44.000



 115034853.031 8  89637555.12147  21890400.880                    21890398.600
     -1827.091       -1423.708          48.750          44.750



 131989205.955 6 102848773.07546  25116692.680                    25116694.940
     -2702.441       -2105.789          39.650          36.950    98563441.068 7
  25116701.640       -2017.976          42.800


 122746896.324 7  95646999.71047  23357936.180                    23357936.320
     -1419.390       -1106.017          45.750          45.650



 23  8 31 12  4  0.0000000  0 11G02G03G04G06G07G09G11G17G19G28G31
 135397036.013 5 105504220.26345  25765201.120                    25765208.620
     -3536.799       -2755.954          35.200          30.900



 112620275.180 8  87756116.35848  21430915.620                    21430917.080
     -2190.198       -1706.648          49.350          49.550    84099611.680 8
  21430919.520       -1635.509          53.600


 106704153.390 8  83146104.27948  20305102.780                    20305102.720
        21.654          16.873          49.850          50.000    79681748.369 9
  20305106.860          16.166          56.350


 112003219.863 8  87275271.10047  21313494.600                    21313495.500
      2144.500        1671.041          49.850          46.900    83638814.101 8
  21313498.200        1601.345          53.700


 135174926.776 5 105331155.29845  25722932.980                    25722943.160
      3263.802        2543.247          34.050          34.350



 109664452.943 8  85452875.27048  20868432.520                    20868434.440
      1980.814        1543.493          50.950          50.950    81892353.028 9
  20868435.100        1479.163          54.450


 130683470.030 6 101831281.12646  24868236.100                    24868240.120
      3570.040        2781.854          41.200          40.200    97588340.787 7
  24868244.100        2665.990          45.300


 120029480.443 7  93529463.04247  22840854.620                    22840855.680
     -2641.890       -2058.620          46.250          43.350



 115089961.332 8  89680496.61647  21900887.800                    21900885.240
     -1846.839       -1439.096          49.100          43.700



 132070474.144 6 102912098.80046  25132157.380                    25132159.860
     -2715.544       -2116.013          38.550          36.900    98624128.281 7
  25132166.420       -2027.963          42.350


 122789788.157 7  95680421.90147  23366098.240                    23366097.800
     -1439.938       -1122.031          46.100          45.850



 23  8 31 12  4 30.0000000  0 11G02G03G04G06G07G09G11G17G19G28G31
 135503135.534 5 105586894.88845  25785391.800                    25785399.240
     -3537.445       -2756.464          32.550          30.500



 112686090.608 8  87807401.08048  21443439.900                    21443441.400
     -2198.206       -1712.889          49.000          49.150    84148759.529 8
  21443443.560       -1641.469          53.200


 106703749.851 8  83145789.84548  20305025.960                    20305025.900
         4.674           3.643          49.800          49.900    79681447.032 9
  20305029.800           3.393          56.350


 111939067.538 8  87225282.30047  21301286.640                    21301287.460
      2131.822        1661.161          49.150          47.450    83590908.185 8
  21301290.540        1591.856          53.850


 135076939.120 6 105254800.09646  25704286.940                    25704296.760
      3267.695        2546.269          38.950          38.250



 109605237.036 8  85406733.03348  20857164.060                    20857165.860
      1966.184        1532.093          50.650          50.900    81848133.382 9
  20857166.500        1468.285          54.550


 130576383.876 6 101747837.46846  24847858.240                    24847862.300
      3568.524        2780.673          41.000          39.050    97508374.003 7
  24847866.500        2664.453          45.450


 120108874.814 7  93591328.69047  22855962.720                    22855963.780
     -2651.687       -2066.252          45.400          43.700



 115145624.336 8  89723870.33847  21911480.240                    21911477.600
     -1864.837       -1453.121          48.800          43.900



 132152105.347 6 102975707.43845  25147691.160                    25147694.260
     -2726.985       -2124.934          37.650          35.650    98685086.594 7
  25147700.200       -2036.466          42.900


 122833262.401 7  95714297.93747  23374371.160                    23374370.320
     -1458.830       -1136.751          47.250          47.300



 23  8 31 12  5  0.0000000  0 11G02G03G04G06G07G09G11G17G19G28G31
 135609278.759 6 105669603.61845  25805590.120                    25805597.400
     -3538.507       -2757.291          36.700          34.100



 112752169.657 8  87858891.21848  21456014.260                    21456015.820
     -2206.829       -1719.608          48.750          49.000    84198104.242 8
  21456017.540       -1647.948          53.000


 106703883.628 8  83145894.10048  20305051.400                    20305051.440
       -13.474         -10.498          49.950          49.800    79681546.933 9
  20305055.120          -9.882          56.550


 111875321.607 8  87175610.18247  21289155.920                    21289157.000
      2118.157        1650.514          48.400          47.850    83543305.753 9
  21289160.100        1581.744          54.150


 134978849.721 6 105178367.28646  25685620.920                    25685630.640
      3271.522        2549.260          38.350          38.100



 109546481.002 8  85360949.13848  20845983.160                    20845984.820
      1951.088        1520.329          50.650          50.700    81804257.161 9
  20845985.520        1456.940          54.750


 130469379.070 6 101664457.17346  24827495.840                    24827499.940
      3565.563        2778.363          41.800          39.550    97428467.892 7
  24827504.280        2662.616          45.700


 120188581.198 7  93653437.42147  22871130.300                    22871131.720
     -2661.986       -2074.280          45.900          43.500



 115201847.027 7  89767680.18747  21922179.000                    21922176.380
     -1883.396       -1467.583          47.800          44.650



 132234104.547 5 103039602.88445  25163294.780                    25163298.260
     -2739.507       -2134.690          35.300          35.250    98746319.651 7
  25163304.380       -2045.686          43.100


 122877324.895 7  95748632.36347  23382756.160                    23382754.920
     -1478.559       -1152.122          46.550          46.500



 23  8 31 12  5 30.0000000  0 11G02G03G04G06G07G09G11G17G19G28G31
 135715460.923 5 105752342.61445  25825795.760                    25825803.380
     -3540.631       -2758.939          35.150          32.350



 112818507.491 8  87910583.02048  21468637.960                    21468639.340
     -2216.061       -1726.801          48.950          48.850    84247642.208 8
  21468640.820       -1654.748          52.750


 106704550.106 8  83146413.43948  20305178.180                    20305178.360
       -31.455         -24.511          50.050          50.400    79682044.651 9
  20305182.000         -23.497          56.550


 111811980.394 8  87126253.42848  21277102.340                    21277103.760
      2104.146        1639.596          49.150          48.250    83496005.544 9
  21277106.700        1571.310          54.400


 134880652.964 6 105101850.85546  25666934.460                    25666943.700
      3274.538        2551.607          41.400          40.700



 109488181.985 8  85315521.36548  20834889.260                    20834890.720
      1935.295        1508.023          51.150          51.350    81760722.222 9
  20834891.540        1445.256          54.700


 130362453.652 6 101581138.79146  24807148.380                    24807152.540
      3562.628        2776.078          40.900          39.700    97348621.118 7
  24807157.300        2660.304          45.650


 120268593.112 7  93715784.25447  22886356.200                    22886357.820
     -2672.477       -2082.453          45.750          42.850



 115258623.103 7  89811921.26247  21932982.960                    21932980.640
     -1902.127       -1482.179          47.050          44.400



 132316465.157 6 103103779.91746  25178967.640                    25178970.880
     -2751.600       -2144.107          37.200          37.000    98807822.645 7
  25178977.240       -2054.946          43.400


 122921970.032 7  95783420.77747  23391252.060                    23391250.540
     -1498.260       -1167.476          46.100          46.000



 23  8 31 12  6  0.0000000  0 11G02G03G04G06G07G09G11G17G19G28G31
 135821680.313 6 105835110.65645  25846008.680                    25846016.400
     -3541.028       -2759.259          40.400          34.750



 112885104.476 8  87962476.75848  21481310.940                    21481312.240
     -2223.848       -1732.870          49.150          48.950    84297373.705 8
  21481313.620       -1660.680          52.650


 106705749.949 8  83147348.39448  20305406.420                    20305406.740
       -48.793         -38.021          49.450          49.450    79682940.641 9
  20305410.500         -36.278          56.300


 111749047.371 8  87077214.74448  21265126.640                    21265128.300
      2091.175        1629.488          49.850          48.400    83449010.148 9
  21265131.020        1561.649          54.000


 134782354.704 6 105025204.62345  25648227.900                    25648235.620
      3278.782        2554.912          36.350          35.150



 109430342.253 8  85270451.48148  20823882.740                    20823884.100
      1920.578        1496.555          51.100          51.250    81717530.267 9
  20823885.100        1434.200          54.300


 130255610.959 7 101497884.84446  24786816.780                    24786820.980
      3560.059        2774.075          42.200          40.500    97268836.098 7
  24786825.840        2658.597          45.600


 120348909.058 7  93778367.99447  22901640.020                    22901641.480
     -2682.012       -2089.883          46.200          43.250



 115315951.439 7  89856592.66447  21943891.940                    21943889.980
     -1920.068       -1496.158          47.200          45.100



 132399186.005 6 103168237.69945  25194708.720                    25194712.240
     -2763.019       -2152.995          37.850          35.300    98869594.643 6
  25194718.180       -2063.480          41.400


 122967197.731 7  95818663.14447  23399858.640                    23399857.200
     -1517.115       -1182.168          46.350          46.550



 23  8 31 12  6 30.0000000  0 10G03G04G06G07G09G11G17G19G28G31
 112951955.945 8  88014568.78948  21494032.300                    21494033.740
     -2232.499       -1739.610          48.550          48.200    84347295.225 8
  21494035.260       -1667.213          52.650


 106707478.596 8  83148695.38548  20305735.340                    20305735.760
       -66.497         -51.816          49.300          49.350    79684231.519 9
  20305739.700         -49.628          56.400


 111686520.839 8  87028492.81148  21253228.360                    21253230.160
      2077.446        1618.791          49.850          48.800    83402318.310 8
  21253232.600        1551.306          53.900


 134683949.787 6 104948525.84446  25629501.940                    25629509.120
      3281.733        2557.203          37.650          37.350



 109372958.940 8  85225737.24648  20812963.100                    20812964.340
      1905.121        1484.511          50.650          50.600    81674679.133 9
  20812965.500        1422.652          54.450


 130148849.175 6 101414693.92246  24766500.520                    24766504.680
      3557.183        2771.831          41.600          39.550    97189111.497 7
  24766509.660        2656.400          45.050


 120429522.719 7  93841183.71547  22916980.640                    22916982.380
     -2692.114       -2097.758          46.350          43.900



 115373825.488 7  89901689.28747  21954904.940                    21954903.200
     -1938.282       -1510.353          47.200          45.300



 132482260.612 6 103232971.06245  25210517.560                    25210520.440
     -2774.815       -2162.197          39.650          35.550    98931630.802 6
  25210526.500       -2072.376          40.750


 123013002.391 7  95854355.09347  23408574.800                    23408573.660
     -1536.217       -1197.052          45.600          45.600



 23  8 31 12  7  0.0000000  0 10G03G04G06G07G09G11G17G19G28G31
 113019065.861 8  88066862.20048  21506802.760                    21506804.560
     -2240.861       -1746.126          48.700          48.450    84397409.730 8
  21506805.940       -1673.359          52.450


 106709740.213 8  83150457.68948  20306165.720                    20306166.200
       -83.745         -65.256          50.050          50.100    79685920.398 9
  20306170.260         -62.619          56.800


 111624407.901 8  86980093.15948  21241408.740                    21241410.580
      2063.812        1608.166          50.250          48.750    83355935.313 9
  21241412.760        1541.226          54.050


 134585447.185 6 104871770.86646  25610757.200                    25610764.960
      3285.204        2559.905          37.400          36.550



 109316037.822 8  85181383.15948  20802131.400                    20802132.660
      1890.104        1472.810          50.700          50.750    81632173.143 9
  20802133.860        1411.410          54.900


 130042175.168 7 101331571.39946  24746201.040                    24746204.840
      3554.620        2769.837          42.650          38.150    97109452.440 7
  24746210.140        2654.566          45.350


 120510436.226 7  93904233.08047  22932378.220                    22932379.840
     -2701.578       -2105.130          46.900          43.250



 115432247.392 7  89947212.81947  21966022.200                    21966020.700
     -1956.057       -1524.201          47.850          46.050



 132565691.179 6 103297981.89145  25226394.240                    25226396.400
     -2786.578       -2171.357          38.700          35.050    98993932.806 7
  25226402.300       -2080.800          42.800


 123059387.336 7  95890499.19647  23417401.280                    23417400.680
     -1555.279       -1211.906          45.300          45.250



 23  8 31 12  7 30.0000000  0 10G03G04G06G07G09G11G17G19G28G31
 113086433.577 8  88119356.49948  21519622.420                    21519624.520
     -2249.628       -1752.957          49.150          49.200    84447716.778 8
  21519625.400       -1679.961          52.000


 106712534.373 8  83152634.96048  20306697.480                    20306697.920
      -101.940         -79.434          49.950          50.200    79688006.946 9
  20306702.060         -76.102          56.750


 111562710.995 8  86932017.68448  21229668.220                    21229670.000
      2049.640        1597.123          49.800          48.700    83309862.991 8
  21229672.060        1530.631          53.900


 134486849.046 5 104794941.44145  25591994.340                    25592002.440
      3287.719        2561.866          35.300          35.700



 109259580.173 8  85137390.21248  20791387.880                    20791389.200
      1874.231        1460.441          50.600          50.600    81590013.241 9
  20791390.400        1399.659          55.000


 129935591.328 7 101248519.15446  24725918.860                    24725922.420
      3551.460        2767.376          42.900          38.650    97029860.735 7
  24725927.780        2651.924          45.100


 120591646.774 7  93967513.92047  22947832.300                    22947833.760
     -2711.919       -2113.187          46.250          43.100



 115491215.427 8  89993161.90147  21977243.620                    21977242.100
     -1974.663       -1538.699          48.450          45.000



 132649475.541 6 103363268.36245  25242338.000                    25242339.820
     -2798.315       -2180.508          37.800          35.500    99056498.970 7
  25242346.180       -2089.754          43.350


 123106351.399 7  95927094.56147  23426337.940                    23426337.940
     -1574.964       -1227.246          45.350          45.450



 23  8 31 12  8  0.0000000  0 10G03G04G06G07G09G11G17G19G28G31
 113154055.967 8  88172049.24648  21532490.660                    21532492.940
     -2258.505       -1759.875          49.100          49.050    84498213.996 8
  21532493.140       -1686.604          51.850


 106715858.033 8  83155224.83048  20307330.040                    20307330.340
      -119.813         -93.361          50.150          50.050    79690488.913 9
  20307334.500         -89.540          56.750


 111501430.019 8  86884266.31348  21218006.720                    21218008.560
      2035.644        1586.217          49.600          48.950    83264101.276 8
  21218010.520        1519.978          53.900


 134388154.682 6 104718037.05046  25573213.320                    25573221.740
      3291.042        2564.460          36.250          36.550



 109203584.646 8  85093757.36048  20780732.280                    20780733.680
      1858.496        1448.180          50.700          50.800    81548198.433 9
  20780734.800        1387.844          55.150


 129829097.406 7 101165536.96346  24705653.780                    24705657.020
      3548.006        2764.683          43.500          36.950    96950336.169 7
  24705662.380        2649.441          44.900


 120673149.492 7  94031022.40347  22963341.880                    22963343.740
     -2721.825       -2120.907          46.500          43.000



 115550724.423 8  90039532.48847  21988567.940                    21988566.460
     -1992.810       -1552.841          48.350          45.350



 132733608.827 6 103428826.68146  25258348.060                    25258350.340
     -2810.314       -2189.863          37.700          37.750    99119325.715 7
  25258356.280       -2098.787          42.900


 123153890.470 7  95964137.97147  23435384.200                    23435384.360
     -1594.531       -1242.494          45.650          45.900



 23  8 31 12  8 30.0000000  0 10G03G04G06G07G09G11G17G19G28G31
 113221931.561 8  88224939.29348  21545407.040                    21545409.240
     -2266.463       -1766.076          48.800          48.600    84548900.297 8
  21545409.180       -1692.515          51.850


 106719709.880 8  83158226.28348  20308063.040                    20308063.260
      -137.158        -106.877          49.850          49.900    79693365.288 9
  20308067.400        -102.334          56.650


 111440566.560 8  86836840.27648  21206424.700                    21206426.620
      2021.868        1575.482          49.700          48.950    83218651.319 8
  21206428.500        1509.919          53.800


 134289365.656 5 104641058.87045  25554414.120                    25554423.000
      3295.076        2567.599          35.100          35.350



 109148051.536 8  85050484.82948  20770164.700                    20770166.160
      1843.490        1436.486          50.700          50.600    81506728.928 9
  20770167.200        1376.695          55.250


 129722694.864 7 101082625.96745  24685406.120                    24685408.840
      3545.237        2762.525          43.100          35.700    96870879.829 7
  24685414.240        2647.535          44.650


 120754940.974 7  94094755.91047  22978906.380                    22978908.100
     -2731.146       -2128.169          45.300          43.200



 115610771.430 8  90086322.31247  21999994.600                    21999993.140
     -2010.382       -1566.533          48.100          45.300



 132818087.737 6 103494654.35045  25274423.900                    25274426.380
     -2821.436       -2198.524          38.200          33.950    99182410.559 7
  25274432.500       -2107.027          43.250


 123202002.270 7  96001627.66447  23444539.600                    23444539.640
     -1613.223       -1257.058          45.850          45.850



 23  8 31 12  9  0.0000000  0 10G03G04G06G07G09G11G17G19G28G31
 113290059.325 8  88278025.85048  21558371.360                    21558373.300
     -2275.125       -1772.824          48.750          48.900    84599774.914 8
  21558373.400       -1699.044          51.900


 106724088.982 8  83161638.57648  20308896.340                    20308896.540
      -154.809        -120.630          49.600          49.550    79696635.409 9
  20308900.540        -115.637          56.400


 111380122.656 8  86789741.16148  21194922.540                    21194924.640
      2007.500        1564.287          49.700          49.300    83173514.672 8
  21194926.320        1499.211          53.450


 134190484.760 6 104564008.99046  25535597.620                    25535606.120
      3297.318        2569.346          40.600          41.050



 109092981.631 8  85007573.24148  20759685.220                    20759686.720
      1827.718        1424.196          51.300          51.300    81465605.333 9
  20759687.700        1364.962          55.200


 129616385.646 7 100999787.70846  24665176.100                    24665179.000
      3541.996        2760.000          42.650          38.350    96791493.172 7
  24665183.940        2645.021          44.800


 120837018.382 7  94158712.21247  22994525.200                    22994527.000
     -2740.826       -2135.711          45.450          44.150



 115671353.515 7  90133529.08147  22011522.980                    22011521.580
     -2028.432       -1580.598          47.850          45.300



 132902909.643 6 103560749.33345  25290564.760                    25290567.440
     -2833.168       -2207.652          37.200          31.250    99245751.580 7
  25290573.920       -2115.754          43.200


 123250685.189 7  96039562.40247  23453803.720                    23453803.540
     -1632.466       -1272.052          45.850          45.850



 23  8 31 12  9 30.0000000  0 10G03G04G06G07G09G11G17G19G28G31
 113358443.186 8  88331311.96148  21571384.300                    21571386.200
     -2283.419       -1779.288          48.600          48.550    84650840.757 8
  21571386.480       -1705.114          51.850


 106728999.374 8  83165464.86048  20309830.740                    20309830.960
      -172.227        -134.202          50.100          50.100    79700302.266 9
  20309834.700        -128.646          56.050


 111320105.204 8  86742974.35048  21183501.440                    21183503.820
      1993.722        1553.551          49.550          49.350    83128696.486 8
  21183505.220        1488.811          53.050


 134091518.547 6 104486892.62346  25516765.020                    25516772.720
      3300.421        2571.758          41.200          40.200



 109038380.574 8  84965026.99148  20749294.980                    20749296.420
      1812.448        1412.298          51.800          51.750    81424831.858 9
  20749297.440        1353.492          55.050


 129510176.642 7 100917027.50846  24644965.160                    24644967.960
      3538.792        2757.502          43.050          38.900    96712181.361 7
  24644972.760        2642.554          44.500


 120919383.628 7  94222892.79347  23010198.820                    23010201.060
     -2750.044       -2142.894          45.650          43.350



 115732472.952 7  90181154.56247  22023153.480                    22023152.060
     -2046.053       -1594.327          47.700          44.800



 132988076.678 6 103627113.25745  25306771.380                    25306774.500
     -2844.325       -2216.355          38.100          33.350    99309350.280 7
  25306781.040       -2124.159          43.250


 123299942.066 7  96077944.35447  23463177.180                    23463176.900
     -1650.993       -1286.489          46.150          46.500



 23  8 31 12 10  0.0000000  0 10G03G04G06G07G09G11G17G19G28G31
 113427076.138 8  88384792.15448  21584444.600                    21584446.620
     -2291.873       -1785.877          48.750          48.600    84702092.599 8
  21584446.940       -1711.444          52.000


 106734434.111 8  83169699.72648  20310864.900                    20310865.200
      -189.905        -147.978          50.150          50.400    79704360.681 9
  20310868.640        -141.753          56.150


 111260510.256 8  86696536.77548  21172160.680                    21172163.300
      1979.432        1542.415          49.750          48.800    83084193.808 8
  21172164.440        1478.169          53.000


 133992462.322 6 104409706.11746  25497915.060                    25497922.560
      3303.206        2573.934          38.100          38.250



 108984243.152 8  84922842.02748  20738993.000                    20738994.360
      1796.938        1400.213          52.200          52.350    81384404.603 9
  20738995.440        1341.841          55.350


 129404063.779 7 100834342.24846  24624772.580                    24624775.520
      3535.756        2755.134          43.200          39.650    96632941.338 7
  24624779.900        2640.113          44.550


 121002027.655 7  94287290.62647  23025925.500                    23025927.520
     -2759.327       -2150.130          45.600          42.750



 115794120.929 7  90229191.89247  22034884.480                    22034883.280
     -2063.461       -1607.893          47.400          44.900



 133073580.049 6 103693739.25245  25323042.280                    25323045.200
     -2855.672       -2225.193          37.250          35.650    99373200.206 7
  25323051.840       -2132.445          42.950


 123349764.957 7  96116767.35747  23472658.220                    23472658.080
     -1670.079       -1301.361          45.800          45.650



 23  8 31 12 10 30.0000000  0 10G03G04G06G07G09G11G17G19G28G31
 113495960.049 8  88438467.89148  21597552.720                    21597555.080
     -2300.365       -1792.494          48.850          48.600    84753531.854 8
  21597554.900       -1717.740          52.000


 106740395.137 8  83174344.68748  20311999.280                    20311999.540
      -207.672        -161.821          50.200          50.100    79708812.104 9
  20312002.840        -154.979          56.400


 111201342.742 8  86650432.26048  21160901.360                    21160903.980
      1964.998        1531.169          49.400          49.200    83040010.311 8
  21160904.920        1467.424          53.050


 133893321.498 6 104332453.68946  25479049.020                    25479056.860
      3305.953        2576.072          36.800          36.850



 108930572.957 8  84881021.13548  20728779.880                    20728781.140
      1781.052        1387.834          51.600          51.350    81344326.250 9
  20728782.360        1330.055          55.650


 129298051.970 7 100751735.74846  24604599.180                    24604602.220
      3531.771        2752.033          43.350          38.500    96553776.761 7
  24604606.360        2637.502          45.700


 121084950.782 7  94351905.94447  23041705.380                    23041707.440
     -2768.956       -2157.633          45.600          42.850



 115856297.323 7  90277640.97147  22046716.140                    22046714.880
     -2081.467       -1621.924          47.200          44.350



 133159420.047 6 103760627.57245  25339377.020                    25339380.080
     -2867.325       -2234.278          37.350          33.750    99437301.475 7
  25339386.820       -2140.908          43.850


 123400155.256 7  96156032.48047  23482247.040                    23482247.160
     -1689.310       -1316.347          44.600          44.600



 23  8 31 12 11  0.0000000  0 10G03G04G06G07G09G11G17G19G28G31
 113565095.120 8  88492339.32148  21610708.660                    21610711.200
     -2308.778       -1799.049          48.950          49.050    84805158.655 8
  21610711.040       -1724.028          52.500


 106746882.675 8  83179399.91848  20313233.880                    20313234.020
      -225.185        -175.468          49.900          50.000    79713656.705 9
  20313237.480        -168.092          56.600


 111142605.855 8  86604663.29648  21149724.080                    21149726.520
      1950.669        1520.003          48.950          48.600    82996148.396 8
  21149727.360        1456.599          53.050


 133794099.410 6 104255137.94846  25460167.560                    25460175.760
      3308.536        2578.085          38.100          37.900



 108877371.895 8  84839565.79448  20718656.060                    20718657.160
      1765.441        1375.670          51.400          51.500    81304598.227 9
  20718658.620        1318.388          55.750


 129192144.316 7 100669210.36946  24584445.600                    24584448.580
      3528.342        2749.361          42.300          39.950    96474689.994 7
  24584452.700        2634.776          45.500


 121168151.019 7  94416737.15747  23057538.040                    23057540.020
     -2777.999       -2164.682          45.350          42.400



 115919000.911 7  90326500.85047  22058648.320                    22058647.100
     -2099.015       -1635.598          47.700          44.500



 133245595.025 6 103827776.86545  25355775.700                    25355778.780
     -2878.422       -2242.925          38.300          34.900    99501652.926 7
  25355785.320       -2149.212          44.500


 123451111.976 7  96195738.96447  23491943.540                    23491944.040
     -1708.011       -1330.920          43.550          43.100



 23  8 31 12 11 30.0000000  0 10G03G04G06G07G09G11G17G19G28G31
 113634474.754 8  88546401.33548  21623911.300                    21623913.420
     -2316.588       -1805.134          49.150          49.400    84856968.085 8
  21623914.180       -1729.934          52.750


 106753890.165 8  83184860.30248  20314567.440                    20314567.440
      -242.027        -188.593          50.000          49.850    79718889.590 9
  20314571.240        -180.809          56.600


 111084296.034 8  86559227.11548  21138628.080                    21138630.360
      1936.636        1509.068          49.150          48.950    82952605.384 8
  21138631.180        1446.253          52.800


 133694792.701 6 104177756.26546  25441270.040                    25441278.320
      3311.445        2580.354          39.200          39.650



 108824635.139 8  84798472.26348  20708620.600                    20708621.600
      1750.205        1363.797          51.800          51.850    81265216.921 9
  20708623.320        1307.041          55.700


 129086337.227 6 100586763.39146  24564311.180                    24564314.100
      3525.329        2747.013          41.250          39.200    96395678.317 7
  24564318.100        2632.559          45.700


 121251619.529 7  94481777.45947  23073421.680                    23073422.920
     -2786.739       -2171.488          45.000          42.850



 115982223.570 8  90375765.19647  22070679.480                    22070678.140
     -2115.903       -1648.758          48.050          44.550



 133332096.585 6 103895180.64945  25372236.420                    25372239.520
     -2888.633       -2250.891          37.050          33.200    99566248.305 7
  25372245.960       -2157.022          43.750


 123502627.819 7  96235881.13547  23501746.500                    23501747.340
     -1726.358       -1345.215          43.150          43.050



 23  8 31 12 12  0.0000000  0 10G03G04G06G07G09G11G17G19G28G31
 113704107.582 8  88600660.66548  21637162.260                    21637163.540
     -2325.265       -1811.896          49.200          49.150    84908966.602 8
  21637165.440       -1736.456          52.750


 106761426.296 8  83190732.62048  20316001.480                    20316001.440
      -259.867        -202.493          49.800          49.950    79724517.230 9
  20316005.580        -194.185          56.550


 111026424.916 8  86514132.77048  21127615.580                    21127617.680
      1921.768        1497.482          48.950          48.700    82909389.986 8
  21127618.580        1435.006          52.800


 133595412.725 6 104100317.41546  25422358.640                    25422366.660
      3313.897        2582.261          39.600          39.250



 108772372.973 8  84757748.54148  20698675.460                    20698676.380
      1734.188        1351.316          51.850          51.950    81226190.034 9
  20698678.300        1294.947          55.600


 128980642.341 6 100504403.84746  24544198.060                    24544201.060
      3521.607        2744.114          41.600          40.500    96316750.464 7
  24544204.860        2629.447          45.950


 121335363.323 7  94547032.25047  23089357.720                    23089358.820
     -2795.866       -2178.601          45.050          43.400



 116045971.510 8  90425438.85447  22082810.680                    22082809.100
     -2133.627       -1662.569          48.300          44.750



 133418931.755 6 103962844.44245  25388760.780                    25388763.780
     -2899.796       -2259.588          37.550          34.250    99631092.790 6
  25388769.900       -2165.755          41.950


 123554710.534 7  96276464.99847  23511657.580                    23511658.500
     -1745.511       -1360.141          44.250          44.600



 23  8 31 12 12 30.0000000  0 10G03G04G06G07G09G11G17G19G28G31
 113773987.175 8  88655112.27448  21650460.020                    21650460.760
     -2332.684       -1817.677          48.700          48.600    84961149.384 8
  21650463.500       -1741.956          53.250


 106769484.604 8  83197011.82948  20317534.800                    20317534.860
      -276.568        -215.508          49.100          48.650    79730534.805 9
  20317539.240        -206.577          56.800


 110968989.087 8  86469377.60948  21116685.880                    21116687.940
      1908.032        1486.779          49.100          48.700    82866499.631 8
  21116688.900        1424.775          53.250


 133495956.231 6 104022818.95746  25403432.400                    25403440.920
      3317.183        2584.819          40.950          41.000



 108720580.662 8  84717390.93548  20688819.700                    20688820.640
      1719.420        1339.809          51.650          51.650    81187514.011 9
  20688822.640        1283.878          55.800


 128875056.303 6 100422129.10846  24524105.520                    24524108.580
      3518.637        2741.799          41.000          40.000    96237903.853 7
  24524112.260        2627.357          46.150


 121419374.027 7  94612495.00047  23105344.500                    23105345.620
     -2803.920       -2184.876          45.050          43.200



 116110236.605 8  90475515.48847  22095040.280                    22095038.520
     -2150.051       -1675.367          48.100          44.650



 133506092.322 6 104030761.87645  25405346.780                    25405349.760
     -2910.270       -2267.745          37.150          35.700    99696180.191 7
  25405355.760       -2173.104          43.950


 123607352.510 7  96317484.66747  23521675.260                    23521675.900
     -1763.179       -1373.908          45.300          45.650



 23  8 31 12 13  0.0000000  0 10G03G04G06G07G09G11G17G19G28G31
 113844110.647 8  88709753.92148  21663804.060                    21663804.380
     -2340.988       -1824.147          48.350          48.300    85013514.287 8
  21663807.780       -1748.265          53.300


 106778062.211 8  83203695.67948  20319166.900                    20319167.160
      -294.219        -229.262          49.600          49.750    79736940.156 9
  20319171.720        -219.702          56.750


 110911988.636 8  86424961.70848  21105839.100                    21105841.140
      1893.128        1475.165          49.200          48.950    82823934.399 8
  21105842.180        1413.609          53.500


 133396423.395 6 103945261.01546  25384491.960                    25384500.480
      3319.392        2586.541          40.700          40.700



 108669257.030 8  84677398.52348  20679053.060                    20679054.140
      1703.387        1327.315          51.100          51.350    81149187.957 9
  20679056.060        1271.921          55.600


 128769579.189 6 100339939.25146  24504033.640                    24504036.740
      3514.329        2738.439          40.800          40.300    96159138.589 7
  24504040.480        2624.348          46.150


 121503647.079 7  94678162.22047  23121381.300                    23121382.020
     -2813.149       -2192.069          44.500          43.200



 116175014.360 8  90525991.60647  22107367.340                    22107365.480
     -2167.418       -1688.898          48.050          44.500



 133593573.592 6 104098929.07846  25421993.860                    25421996.840
     -2920.757       -2275.914          39.050          38.600    99761507.125 7
  25422002.700       -2181.289          43.000


 123660549.786 7  96358937.03047  23531798.800                    23531799.000
     -1782.172       -1388.709          45.100          45.450



 23  8 31 12 13 30.0000000  0 10G03G04G06G07G09G11G17G19G28G31
 113914482.745 8  88764589.29648  21677195.440                    21677195.660
     -2349.690       -1830.929          48.550          48.300    85066064.824 8
  21677199.200       -1754.656          53.550


 106787163.707 8  83210787.76648  20320898.900                    20320899.180
      -312.012        -243.126          49.850          50.100    79743736.747 9
  20320903.860        -232.979          56.950


 110855431.225 8  86380891.02748  21095076.680                    21095078.680
      1877.871        1463.276          49.700          49.250    82781700.000 9
  21095079.920        1402.377          54.150


 133296822.290 6 103867649.93346  25365538.520                    25365547.140
      3321.267        2588.008          40.900          40.750



 108618408.377 8  84637776.22648  20669376.720                    20669378.060
      1687.246        1314.738          51.100          51.250    81111216.593 9
  20669379.840        1259.900          55.650


 128664218.676 6 100257840.26346  24483983.800                    24483987.020
      3510.403        2735.384          40.250          40.200    96080460.415 7
  24483990.740        2621.320          46.250


 121588184.745 7  94744035.61047  23137468.360                    23137469.280
     -2822.148       -2199.080          45.450          43.050



 116240307.217 7  90576869.09547  22119792.280                    22119790.340
     -2184.891       -1702.515          47.650          44.200



 133681378.510 6 104167348.49845  25438702.540                    25438705.740
     -2931.718       -2284.452          36.650          35.650    99827075.794 7
  25438710.940       -2189.538          44.300


 123714306.234 7  96400825.09447  23542028.540                    23542028.720
     -1801.252       -1403.576          45.400          45.250



 23  8 31 12 14  0.0000000  0 10G03G04G06G07G09G11G17G19G28G31
 113985099.163 8  88819615.04948  21690633.360                    21690633.700
     -2358.117       -1837.496          48.550          48.250    85118797.826 8
  21690637.020       -1760.891          53.800


 106796784.857 8  83218284.77848  20322729.840                    20322730.000
      -329.620        -256.847          50.050          50.050    79750921.374 9
  20322734.760        -246.032          56.850


 110799315.602 8  86337164.59248  21084398.380                    21084400.240
      1862.931        1451.635          50.250          48.450    82739795.515 9
  21084401.860        1391.234          54.550


 133197151.544 6 103789984.62346  25346571.560                    25346580.500
      3323.692        2589.896          38.050          37.450



 108568032.083 8  84598522.00048  20659790.280                    20659791.820
      1671.188        1302.226          50.550          50.500    81073597.971 9
  20659793.360        1248.001          55.550


 128558973.584 6 100175831.20946  24463956.080                    24463959.460
      3506.158        2732.073          41.050          40.600    96001868.427 7
  24463963.020        2618.163          46.600


 121672981.056 7  94810110.55347  23153604.640                    23153605.700
     -2830.854       -2205.863          43.950          43.050



 116306109.294 7  90628143.38847  22132313.880                    22132312.280
     -2202.076       -1715.906          47.650          44.350



 133769501.054 6 104236015.44446  25455471.540                    25455474.940
     -2942.671       -2292.986          40.000          36.850    99892881.646 7
  25455480.060       -2197.638          42.450


 123768616.590 7  96443144.78447  23552363.560                    23552363.920
     -1819.548       -1417.832          45.000          45.200



 23  8 31 12 14 30.0000000  0 10G03G04G06G07G09G11G17G19G28G31
 114055961.503 8  88874832.42148  21704118.040                    21704118.540
     -2366.459       -1843.995          48.600          48.450    85171714.472 8
  21704121.820       -1767.202          53.950


 106806927.149 8  83226187.87348  20324659.940                    20324659.960
      -346.946        -270.348          50.150          49.800    79758495.185 9
  20324664.640        -259.180          56.550


 110743646.337 8  86293785.96648  21073804.880                    21073806.680
      1847.880        1439.907          50.050          48.550    82698224.344 9
  21073808.680        1379.906          54.550


 133097416.023 6 103712268.85646  25327592.160                    25327601.340
      3324.993        2590.913          39.650          40.000



 108518131.396 8  84559638.37048  20650294.340                    20650296.100
      1655.115        1289.700          50.350          50.350    81036334.501 9
  20650297.400        1236.018          55.200


 128453848.539 6 100093915.69846  24443951.280                    24443954.580
      3501.930        2728.781          41.350          40.250    95923366.074 7
  24443958.240        2614.999          46.350


 121758035.571 7  94876386.67847  23169789.840                    23169791.260
     -2839.582       -2212.664          44.900          44.050



 116372420.088 7  90679814.08547  22144932.160                    22144930.880
     -2219.227       -1729.269          47.350          44.400



 133857941.162 6 104304929.81646  25472301.080                    25472304.280
     -2953.585       -2301.500          37.950          37.650    99958924.537 7
  25472309.620       -2205.754          42.500


 123823481.635 7  96485896.72247  23562804.020                    23562804.820
     -1838.374       -1432.500          44.800          45.000



 23  8 31 12 15  0.0000000  0 10G03G04G06G07G09G11G17G19G28G31
 114127064.317 8  88930237.16348  21717648.480                    21717649.100
     -2373.711       -1849.646          48.550          48.700    85224810.668 9
  21717652.380       -1772.610          54.000


 106817585.052 8  83234492.74148  20326688.080                    20326688.120
      -363.637        -283.353          50.100          49.950    79766454.009 9
  20326692.440        -271.552          56.250


 110688420.880 8  86250753.17548  21063295.760                    21063297.520
      1833.713        1428.868          49.700          49.300    82656984.602 9
  21063299.780        1369.323          54.600


 132997613.230 6 103634500.68946  25308600.120                    25308609.420
      3327.744        2593.058          36.950          38.100



 108468702.401 8  84521122.30148  20640888.240                    20640890.100
      1639.868        1277.820          50.900          50.800    80999423.281 9
  20640891.120        1224.644          55.150


 128348841.067 6 100012091.78646  24423968.860                    24423972.160
      3498.497        2726.104          41.550          41.000    95844951.517 7
  24423975.940        2612.513          46.150


 121843340.851 7  94942858.20147  23186022.860                    23186024.640
     -2847.386       -2218.746          43.850          43.450



 116439232.354 7  90731875.53447  22157645.980                    22157645.060
     -2235.254       -1741.757          47.650          45.650



 133946691.462 6 104374085.98146  25489189.860                    25489193.100
     -2963.194       -2308.978          38.350          36.900   100025199.117 7
  25489198.440       -2212.760          46.300


 123878894.647 7  96529075.61547  23573348.780                    23573349.960
     -1855.957       -1446.202          43.950          43.850



 23  8 31 12 15 30.0000000  0 10G03G04G06G07G09G11G17G19G28G31
 114198409.634 7  88985830.88647  21731225.120                    21731225.760
     -2382.063       -1856.155          47.950          47.800    85278087.968 8
  21731228.880       -1778.878          53.950


 106828760.510 8  83243200.89848  20328814.680                    20328814.820
      -381.237        -297.067          50.050          50.050    79774799.326 9
  20328818.640        -284.574          56.200


 110633644.227 8  86208070.09848  21052872.060                    21052873.820
      1818.542        1417.046          50.050          49.200    82616080.003 9
  21052876.200        1357.929          54.850


 132897748.494 6 103556684.37246  25289596.100                    25289605.820
      3330.081        2594.883          36.550          36.800



 108419748.734 8  84482976.62848  20631572.700                    20631574.540
      1624.093        1265.528          50.900          50.800    80962867.019 9
  20631575.220        1212.676          55.200


 128243956.305 7  99930363.50246  24404009.780                    24404012.940
      3494.055        2722.642          42.000          40.700    95766628.579 7
  24404017.100        2609.241          46.550


 121928896.882 7  95009525.12647  23202303.580                    23202305.700
     -2855.993       -2225.453          44.650          43.950



 116506546.153 8  90784327.78147  22170455.420                    22170454.580
     -2252.005       -1754.811          48.050          44.500



 134035752.311 5 104443483.95945  25506137.600                    25506140.900
     -2974.038       -2317.441          33.250          32.500   100091705.650 6
  25506145.720       -2220.511          38.900


 123934856.373 7  96572682.09747  23583997.920                    23583999.300
     -1874.613       -1460.740          44.350          44.000



 23  8 31 12 16  0.0000000  0 10G03G04G06G07G09G11G17G19G28G31
 114269995.884 7  89041612.34547  21744847.440                    21744848.340
     -2390.023       -1862.357          46.250          46.350    85331545.182 9
  21744851.200       -1784.769          54.000


 106840451.790 8  83252310.99048  20331039.440                    20331039.660
      -398.086        -310.196          49.450          49.250    79783529.845 9
  20331043.060        -297.265          56.250


 110579317.791 8  86165737.83748  21042534.100                    21042535.880
      1803.524        1405.345          49.900          49.800    82575511.596 9
  21042538.180        1346.790          54.750


 132797823.327 6 103478820.88446  25270580.880                    25270590.520
      3332.264        2596.578          40.050          40.550



 108371270.417 8  84445201.35148  20622347.640                    20622349.320
      1608.262        1253.192          50.950          51.000    80926665.720 9
  20622349.780        1200.931          55.050


 128139195.652 6  99848731.90846  24384074.380                    24384077.440
      3490.132        2719.584          41.500          40.600    95688398.336 7
  24384081.900        2606.310          46.350


 122014700.203 7  95076384.72847  23218631.560                    23218633.920
     -2863.798       -2231.536          43.900          44.050



 116574357.998 8  90837168.10647  22183359.780                    22183358.900
     -2268.544       -1767.699          48.050          45.900



 134125120.206 6 104513121.38345  25523143.920                    25523146.340
     -2983.527       -2324.828          37.600          35.200   100158441.493 6
  25523151.980       -2228.263          41.550


 123991364.258 7  96616714.17347  23594751.000                    23594752.360
     -1892.256       -1474.486          43.300          43.300



 23  8 31 12 16 30.0000000  0 10G03G04G06G07G09G11G17G19G28G31
 114341824.471 7  89097582.62747  21758515.540                    21758517.120
     -2398.321       -1868.823          46.250          46.350    85385183.345 8
  21758519.820       -1791.020          53.750


 106852660.170 8  83261824.02648  20333362.640                    20333362.860
      -415.309        -323.616          49.800          49.650    79792646.522 9
  20333366.220        -310.370          56.200


 110525445.840 8  86123759.71948  21032282.620                    21032284.440
      1788.098        1393.324          50.700          49.300    82535282.575 9
  21032286.500        1335.213          54.300


 132697842.415 6 103400913.97246  25251554.960                    25251564.640
      3333.673        2597.680          39.250          39.650



 108323270.379 8  84407798.76948  20613213.600                    20613215.100
      1591.874        1240.423          51.650          51.600    80890821.585 9
  20613215.360        1188.790          54.750


 128034563.602 6  99767200.56446  24364163.340                    24364166.520
      3485.513        2715.987          41.750          40.250    95610264.147 7
  24364171.220        2602.847          46.200


 122100750.334 7  95143436.65947  23235006.460                    23235008.900
     -2872.628       -2238.415          45.000          43.900



 116642667.090 8  90890395.90047  22196358.880                    22196357.800
     -2285.215       -1780.688          48.600          44.850



 134214795.158 6 104582998.01645  25540208.520                    25540210.360
     -2994.447       -2333.338          36.400          34.600   100225406.523 7
  25540216.560       -2236.044          44.350


 124048418.912 7  96661172.27647  23605608.020                    23605609.300
     -1910.956       -1489.060          43.500          43.400



 23  8 31 12 17  0.0000000  0 10G03G04G06G07G09G11G17G19G28G31
 114413891.552 7  89153738.74747  21772229.180                    21772231.260
     -2406.071       -1874.863          46.100          46.300    85438999.605 8
  21772233.640       -1796.826          53.650


 106865381.723 8  83271736.93248  20335783.420                    20335783.660
      -432.566        -337.064          49.600          49.300    79802146.383 9
  20335787.380        -323.049          56.700


 110472027.524 8  86082135.09548  21022117.480                    21022119.300
      1772.995        1381.556          50.350          49.250    82495392.310 9
  21022121.020        1324.048          54.150


 132597804.837 6 103322963.04546  25232518.060                    25232528.060
      3335.299        2598.946          39.500          39.900



 108275746.371 8  84370767.11548  20604170.180                    20604171.520
      1576.148        1228.169          52.050          51.950    80855332.930 9
  20604171.640        1176.980          54.800


 127930059.426 6  99685768.82846  24344276.700                    24344279.920
      3481.184        2712.612          41.750          39.550    95532225.418 7
  24344284.820        2599.711          45.800


 122187041.414 7  95210676.35347  23251427.240                    23251429.880
     -2880.462       -2244.519          44.800          43.750



 116711467.746 8  90944006.72347  22209451.400                    22209450.120
     -2301.508       -1793.385          48.250          45.350



 134304771.071 6 104653109.09046  25557330.320                    25557332.480
     -3004.083       -2340.839          38.500          36.200   100292596.405 6
  25557338.560       -2243.317          40.000


 124106015.028 7  96706052.32847  23616568.080                    23616569.280
     -1928.778       -1502.948          43.500          43.000



 23  8 31 12 17 30.0000000  0 10G03G04G06G07G09G11G17G19G28G31
 114486197.679 7  89210081.13347  21785988.620                    21785990.940
     -2414.405       -1881.357          46.950          46.900    85492994.366 8
  21785993.000       -1802.862          53.600


 106878616.769 8  83282049.96148  20338301.920                    20338302.120
      -449.922        -350.589          49.550          49.800    79812029.690 9
  20338306.380        -335.912          57.050


 110419066.270 8  86040866.61848  21012039.240                    21012041.080
      1757.570        1369.536          50.550          49.150    82455843.353 9
  21012042.540        1312.518          54.350


 132497714.591 6 103244971.02946  25213471.260                    25213481.040
      3337.311        2600.511          39.050          38.700



 108228700.427 8  84334107.98148  20595217.740                    20595218.820
      1560.026        1215.606          52.200          52.350    80820201.266 9
  20595219.080        1164.995          55.100


 127825686.689 7  99604439.52746  24324415.100                    24324418.460
      3476.879        2709.259          42.300          40.250    95454284.869 7
  24324423.380        2596.324          45.400


 122273571.700 7  95278102.43047  23267893.520                    23267896.160
     -2888.529       -2250.806          44.800          42.200



 116780758.381 8  90997999.35447  22222637.100                    22222635.540
     -2317.961       -1806.206          48.250          44.600



 134395047.002 6 104723454.05046  25574509.240                    25574511.500
     -3014.696       -2349.114          39.250          38.700   100360010.299 7
  25574517.320       -2250.887          43.500


 124164152.089 6  96751353.90446  23627631.100                    23627632.080
     -1947.040       -1517.175          41.800          41.950



 23  8 31 12 18  0.0000000  0 10G03G04G06G07G09G11G17G19G28G31
 114558743.604 8  89266610.38048  21799794.020                    21799796.420
     -2421.968       -1887.249          48.050          48.050    85547168.226 8
  21799797.980       -1808.537          53.400


 106892365.912 8  83292763.58848  20340918.340                    20340918.460
      -466.604        -363.588          50.300          50.050    79822296.914 9
  20340923.120        -348.382          57.050


 110366565.767 8  85999957.16848  21002048.720                    21002050.440
      1742.588        1357.861          50.900          49.050    82416638.467 9
  21002051.980        1301.362          54.500


 132397575.258 5 103166940.79346  25194414.920                    25194425.020
      3338.876        2601.738          35.950          36.950



 108182134.841 8  84297823.14948  20586356.680                    20586357.500
      1544.571        1203.563          52.200          52.050    80785428.314 9
  20586358.080        1153.355          55.200


 127721449.243 7  99523215.63146  24304579.320                    24304582.760
      3472.643        2705.960          42.200          39.300    95376445.338 7
  24304587.540        2593.122          45.350


 122360340.184 7  95345714.11647  23284405.000                    23284407.620
     -2895.721       -2256.410          44.100          42.250



 116850537.808 7  91052372.86847  22235915.580                    22235913.960
     -2333.785       -1818.537          47.550          43.900



 134485621.977 6 104794031.97845  25591745.020                    25591746.940
     -3023.617       -2356.062          38.100          34.100   100427647.498 7
  25591753.460       -2257.997          43.950


 124222829.668 6  96797076.65046  23638797.100                    23638797.740
     -1964.696       -1530.934          41.600          40.400



 23  8 31 12 18 30.0000000  0 10G03G04G06G07G09G11G17G19G28G31
 114631525.159 7  89323323.23347  21813644.380                    21813646.620
     -2430.212       -1893.674          47.800          47.850    85601518.043 8
  21813647.940       -1814.836          53.200


 106906624.778 8  83303874.40148  20343631.800                    20343631.880
      -484.125        -377.240          50.250          50.400    79832944.780 9
  20343636.600        -361.563          56.750


 110314524.749 8  85959405.75248  20992145.660                    20992147.320
      1726.646        1345.439          50.800          49.250    82377776.707 9
  20992149.060        1289.363          54.450


 132297385.808 6 103088871.51146  25175348.920                    25175359.360
      3340.077        2602.671          39.450          39.000



 108136046.945 8  84261910.53648  20577586.440                    20577587.040
      1527.949        1190.611          51.900          52.050    80751012.065 9
  20577588.060        1140.947          55.300


 127617345.999 7  99442096.31346  24284769.200                    24284772.660
      3467.627        2702.052          42.050          40.250    95298706.022 7
  24284776.980        2589.330          44.850


 122447340.562 7  95413506.49047  23300960.660                    23300963.480
     -2904.409       -2263.180          43.700          42.300



 116920799.853 7  91107122.44447  22249285.800                    22249284.200
     -2350.415       -1831.495          46.650          44.400



 134576490.074 6 104864838.37045  25609036.560                    25609038.980
     -3034.568       -2364.593          37.050          33.700   100495503.590 6
  25609045.200       -2265.636          41.500


 124282042.691 7  96843216.63847  23650065.100                    23650065.440
     -1983.210       -1545.359          43.100          42.650



 23  8 31 12 19  0.0000000  0 10G03G04G06G07G09G11G17G19G28G31
 114704544.452 7  89380221.33647  21827539.800                    21827541.940
     -2437.737       -1899.537          47.700          47.650    85656045.390 8
  21827543.140       -1820.494          53.150


 106921395.285 8  83315383.89748  20346442.620                    20346442.760
      -500.749        -390.193          50.700          50.550    79843974.720 9
  20346447.220        -373.967          56.650


 110262948.168 8  85919216.23748  20982330.960                    20982332.600
      1711.582        1333.702          50.650          49.900    82339261.759 9
  20982334.460        1278.070          54.400


 132197151.666 6 103010767.38046  25156274.780                    25156285.140
      3341.735        2603.962          39.750          40.000



 108090440.350 8  84226372.96648  20568907.780                    20568908.160
      1512.462        1178.543          52.050          52.000    80716955.241 9
  20568909.660        1129.308          55.650


 127513382.170 7  99361085.64546  24264985.780                    24264988.920
      3463.209        2698.607          42.600          39.600    95221070.801 7
  24264992.940        2586.143          44.600


 122534573.019 7  95481479.70847  23317560.380                    23317563.240
     -2911.546       -2268.743          42.750          42.050



 116991544.856 7  91162248.35947  22262748.000                    22262746.260
     -2365.999       -1843.637          46.650          44.150



 134667651.705 6 104935873.42345  25626383.880                    25626386.440
     -3043.128       -2371.267          39.050          33.300   100563578.923 7
  25626392.700       -2272.700          42.100


 124341791.530 7  96889774.14547  23661435.080                    23661435.240
     -2000.381       -1558.739          42.850          42.900



 23  8 31 12 19 30.0000000  0 10G03G04G06G07G09G11G17G19G28G31
 114777798.309 7  89437302.19247  21841479.420                    21841481.680
     -2445.371       -1905.487          47.000          46.950    85710747.868 8
  21841482.880       -1826.256          53.100


 106936673.980 8  83327289.38848  20349350.100                    20349350.340
      -517.497        -403.244          50.200          50.050    79855384.156 9
  20349354.440        -386.531          56.650


 110211835.702 8  85879388.37048  20972604.620                    20972606.240
      1696.151        1321.678          50.800          49.700    82301093.384 9
  20972607.940        1266.547          54.250


 132096872.649 6 102932628.18346  25137192.080                    25137202.520
      3343.809        2605.577          39.600          39.750



 108045313.245 8  84191209.02548  20560320.340                    20560320.600
      1496.394        1166.022          52.100          52.150    80683256.465 9
  20560322.560        1117.399          55.950


 127409557.577 7  99280183.45646  24245228.860                    24245231.600
      3458.570        2694.993          43.300          40.000    95143539.552 7
  24245235.300        2582.820          44.800


 122622032.248 7  95549629.62447  23334203.400                    23334206.100
     -2919.001       -2274.550          43.950          42.300



 117062766.938 7  91217746.00147  22276301.080                    22276299.140
     -2381.788       -1855.941          46.400          44.550



 134759101.611 6 105007133.24645  25643786.080                    25643788.220
     -3053.282       -2379.176          37.150          35.400   100631869.540 7
  25643794.780       -2279.938          42.100


 124402072.154 7  96936746.02747  23672906.160                    23672906.380
     -2017.955       -1572.435          43.500          42.850



 23  8 31 12 20  0.0000000  0 10G03G04G06G07G09G11G17G19G28G31
 114851286.396 7  89494565.57147  21855463.580                    21855465.860
     -2452.897       -1911.351          47.300          47.350    85765625.263 8
  21855467.120       -1831.835          52.450


 106952460.312 8  83339590.43848  20352354.040                    20352354.420
      -534.058        -416.147          49.650          49.450    79867172.670 9
  20352358.280        -398.915          56.200


 110161189.914 8  85839924.15048  20962967.020                    20962968.640
      1680.924        1309.812          51.000          49.800    82263273.499 8
  20962970.060        1255.184          53.650


 131996551.983 6 102854456.56546  25118101.540                    25118111.640
      3345.262        2606.710          39.300          39.400



 108000666.813 8  84156419.63248  20551824.360                    20551824.660
      1480.737        1153.822          51.850          51.750    80649916.632 9
  20551826.880        1105.729          55.800


 127305875.063 7  99199391.98846  24225499.020                    24225501.320
      3454.193        2691.581          43.550          39.050    95066114.409 7
  24225504.780        2579.430          44.550


 122709716.172 7  95617954.60247  23350889.240                    23350891.760
     -2926.110       -2280.093          44.550          42.000



 117134463.851 7  91273613.65647  22289944.580                    22289942.400
     -2397.182       -1867.937          45.950          45.100



 134850837.879 6 105078616.05245  25661242.900                    25661245.360
     -3061.959       -2385.949          36.600          35.950   100700373.937 7
  25661251.320       -2286.675          44.350


 124462882.560 7  96984130.74747  23684478.000                    23684478.520
     -2035.458       -1586.072          42.800          42.000



 23  8 31 12 20 30.0000000  0 10G03G04G06G07G09G11G17G19G28G31
 114925009.305 8  89552011.93247  21869492.720                    21869494.740
     -2461.474       -1918.033          48.000          47.800    85820678.011 8
  21869496.080       -1838.129          52.600


 106968754.660 8  83352287.33948  20355454.580                    20355455.100
      -551.829        -429.996          49.300          49.300    79879340.532 9
  20355458.860        -412.041          56.450


 110111014.252 8  85800826.25848  20953418.920                    20953420.440
      1664.368        1296.911          50.800          49.700    82225804.679 8
  20953421.740        1242.907          53.850


 131896192.661 6 102776254.88946  25099003.160                    25099013.320
      3345.593        2606.969          37.250          36.650



 107956503.082 8  84122006.37748  20543420.220                    20543420.700
      1463.872        1140.681          51.650          51.650    80616937.266 9
  20543423.000        1093.167          56.050


 127202338.307 7  99118714.09346  24205796.740                    24205798.860
      3448.803        2687.382          43.100          39.850    94988798.128 7
  24205802.180        2575.293          44.700


 122797623.152 7  95686453.41446  23367617.600                    23367619.760
     -2934.073       -2286.295          44.250          41.750



 117206634.561 7  91329850.48947  22303678.260                    22303675.940
     -2413.788       -1880.878          45.600          44.400



 134942859.389 6 105150321.12346  25678754.000                    25678756.620
     -3072.533       -2394.180          37.150          36.250   100769091.312 6
  25678762.580       -2294.246          40.900


 124524222.540 7  97031928.09947  23696150.660                    23696151.380
     -2053.830       -1600.388          42.800          42.800



 23  8 31 12 21  0.0000000  0 10G03G04G06G07G09G11G17G19G28G31
 114998964.328 8  89609639.15548  21883565.980                    21883567.840
     -2469.005       -1923.901          48.250          48.250    85875904.086 8
  21883569.260       -1843.768          52.700


 106985553.989 8  83365377.72748  20358651.280                    20358651.900
      -568.276        -442.812          49.600          49.700    79891885.495 9
  20358655.640        -424.424          56.600


 110061308.855 8  85762094.80148  20943960.320                    20943961.700
      1649.036        1284.964          50.950          49.000    82188687.034 9
  20943963.160        1231.438          54.250


 131795795.544 6 102698023.59946  25079897.960                    25079907.140
      3347.405        2608.375          39.800          40.250



 107912820.747 8  84087968.22848  20535107.660                    20535108.460
      1448.029        1128.336          52.000          52.100    80584317.378 9
  20535110.660        1081.324          56.200


 127098947.760 7  99038150.12646  24186122.320                    24186124.140
      3443.971        2683.616          44.150          40.100    94911591.005 7
  24186127.580        2571.738          45.400


 122885748.407 7  95755122.33746  23384387.640                    23384389.080
     -2941.108       -2291.775          45.200          41.800



 117279273.692 7  91386452.32147  22317501.080                    22317498.780
     -2429.108       -1892.815          46.100          44.850



 135035161.827 5 105222245.08445  25696318.640                    25696321.100
     -3081.816       -2401.425          31.750          31.150   100838018.467 6
  25696327.140       -2301.038          41.350


 124586087.989 7  97080134.95447  23707923.380                    23707924.340
     -2070.945       -1613.726          44.400          44.050



 23  8 31 12 21 30.0000000  0 10G03G04G06G07G09G11G17G19G28G31
 115073152.685 7  89667448.19347  21897683.560                    21897685.340
     -2476.878       -1930.037          47.850          47.850    85931304.387 8
  21897686.980       -1849.469          52.450


 107002859.260 8  83378862.36048  20361944.380                    20361944.940
      -585.162        -455.971          49.800          49.600    79904808.270 9
  20361948.760        -436.926          56.400


 110012077.767 8  85723732.93748  20934592.000                    20934593.260
      1633.265        1272.675          50.700          49.100    82151923.589 9
  20934595.020        1219.652          54.200


 131695365.277 6 102619766.60046  25060786.640                    25060795.460
      3348.078        2608.907          39.700          39.750



 107869622.422 8  84054307.23548  20526887.180                    20526888.320
      1431.840        1115.721          51.950          52.050    80552058.929 9
  20526890.240        1069.354          55.950


 126995707.643 7  98957703.38846  24166476.340                    24166478.040
      3439.004        2679.747          43.500          40.800    94834496.234 7
  24166481.620        2568.036          45.300


 122974091.024 7  95823960.56846  23401198.800                    23401200.040
     -2948.171       -2297.282          44.150          41.600



 117352380.308 7  91443418.43247  22331412.820                    22331410.800
     -2444.468       -1904.783          46.350          43.700



 135127744.330 5 105294387.29845  25713936.760                    25713938.700
     -3090.579       -2408.252          35.500          31.350   100907154.744 6
  25713945.580       -2307.869          38.600


 124648478.734 7  97128751.15447  23719796.140                    23719797.360
     -2088.194       -1627.163          44.150          44.250



 23  8 31 12 22  0.0000000  0 10G03G04G06G07G09G11G17G19G28G31
 115147573.704 8  89725438.54248  21911845.500                    21911847.280
     -2484.955       -1936.330          48.000          48.000    85986878.466 8
  21911848.980       -1855.691          52.050


 107020669.550 8  83392740.51248  20365333.660                    20365334.080
      -602.417        -469.416          50.000          49.950    79918108.168 9
  20365338.020        -449.895          56.500


 109963323.219 8  85685742.39648  20925314.340                    20925315.560
      1616.769        1259.820          50.600          49.250    82115515.987 9
  20925317.520        1207.354          54.100


 131594904.385 6 102541485.56846  25041669.760                    25041677.760
      3348.764        2609.430          41.250          40.800



 107826908.910 8  84021024.01248  20518759.060                    20518760.300
      1415.295        1102.828          51.850          52.000    80520162.515 9
  20518761.900        1056.849          55.800


 126892620.553 7  98877375.88246  24146859.360                    24146861.140
      3433.276        2675.283          43.650          40.150    94757515.713 7
  24146864.920        2563.784          45.600


 123062648.482 7  95892966.23646  23418050.860                    23418051.640
     -2955.777       -2303.205          44.200          41.600



 117425951.672 7  91500746.68947  22345413.060                    22345411.320
     -2460.341       -1917.152          45.900          44.800



 135220604.624 5 105366745.97945  25731607.460                    25731610.100
     -3100.146       -2415.699          32.150          31.150   100976498.522 5
  25731615.780       -2315.158          35.550


 124711392.946 7  97177775.23847  23731768.580                    23731769.920
     -2106.107       -1641.120          43.950          44.100



 23  8 31 12 22 30.0000000  0 10G03G04G06G07G09G11G17G19G28G31
 115222222.962 7  89783606.73447  21926050.880                    21926052.580
     -2491.818       -1941.679          47.200          47.250    86042622.965 8
  21926054.360       -1860.682          51.850


 107038980.048 8  83407008.44748  20368818.180                    20368818.300
      -618.335        -481.819          49.800          50.100    79931781.600 9
  20368822.480        -461.706          56.750


 109915043.490 8  85648121.84648  20916127.060                    20916128.240
      1601.909        1248.241          50.800          49.650    82079462.970 9
  20916130.260        1196.136          54.350


 131494411.462 6 102463179.58246  25022546.520                    25022554.100
      3350.547        2610.825          38.500          38.550



 107784677.049 8  83988116.09648  20510722.560                    20510723.880
      1400.098        1090.986          51.800          51.900    80488625.777 9
  20510725.100        1045.532          55.900


 126789685.039 7  98797166.47346  24127271.140                    24127272.940
      3429.216        2672.118          43.350          41.050    94680648.394 7
  24127276.980        2560.675          46.250


 123151414.395 7  95962134.33247  23434942.580                    23434943.640
     -2961.915       -2307.991          42.500          42.200



 117499981.238 7  91558431.97347  22359500.480                    22359499.120
     -2474.896       -1928.495          46.100          44.250



 135313736.465 5 105439213.38754  25749329.720                    25749332.960
     -3108.394       -2422.125          31.750          29.550   101045936.102 5
  25749338.740       -2321.584          31.150


 124774824.713 7  97227202.59547  23743839.520                    23743840.760
     -2122.430       -1653.841          44.350          44.100



 23  8 31 12 23  0.0000000  0  9G03G04G06G07G09G11G17G19G31
 115297102.241 7  89841954.15847  21940299.980                    21940301.820
     -2499.501       -1947.665          47.550          47.850    86098539.241 8
  21940303.440       -1866.561          51.300


 107057792.232 8  83421667.30648  20372398.080                    20372397.960
      -635.083        -494.869          49.750          49.850    79945829.675 9
  20372402.380        -474.298          56.800


 109867243.230 8  85610874.89948  20907031.000                    20907032.160
      1585.576        1235.514          51.550          48.750    82043767.979 9
  20907034.220        1184.062          54.400


 131393891.585 6 102384852.61946  25003418.300                    25003425.480
      3351.218        2611.343          40.300          40.650



 107742930.020 8  83955585.97248  20502778.380                    20502779.580
      1383.792        1078.280          52.050          52.250    80457451.082 9
  20502780.520        1033.335          55.850


 126686906.107 7  98717079.09146  24107712.600                    24107714.500
      3423.760        2667.868          43.700          40.250    94603898.001 7
  24107718.720        2556.630          46.250


 123240388.425 7  96031464.58047  23451873.620                    23451875.120
     -2968.707       -2313.282          43.200          42.950



 117574468.883 7  91616474.22047  22373675.020                    22373674.080
     -2490.171       -1940.396          46.550          44.500



 124838774.688 7  97277033.76747  23756008.920                    23756009.780
     -2139.865       -1667.429          43.900          43.900



 23  8 31 12 23 30.0000000  0  9G03G04G06G07G09G11G17G19G31
 115372213.031 7  89900481.98347  21954593.060                    21954595.260
     -2507.690       -1954.047          47.050          46.850    86154628.388 8
  21954596.320       -1872.553          50.850


 107077107.259 8  83436717.98548  20376073.520                    20376073.360
      -652.425        -508.383          49.500          49.600    79960253.234 9
  20376077.920        -487.091          56.750


 109819926.694 8  85574004.88548  20898026.960                    20898028.140
      1568.993        1222.593          51.300          49.000    82008434.217 9
  20898030.160        1171.735          54.400


 131293349.270 6 102306508.17646  24984285.520                    24984292.600
      3350.947        2611.135          38.200          38.250



 107701670.645 8  83923435.84148  20494926.900                    20494928.020
      1367.146        1065.311          52.100          52.300    80426640.549 9
  20494928.780        1020.894          55.750


 126584288.394 7  98637117.33546  24088184.800                    24088186.780
      3417.696        2663.143          43.700          40.550    94527267.988 7
  24088191.180        2552.249          46.400


 123329569.837 7  96100956.47347  23468844.400                    23468846.100
     -2976.160       -2319.089          43.000          42.950



 117649413.673 7  91674872.67947  22387936.640                    22387936.100
     -2505.996       -1952.727          46.950          45.250



 124903242.588 7  97327268.52147  23768276.620                    23768277.160
     -2157.632       -1681.271          44.150          44.350



 23  8 31 12 24  0.0000000  0  9G03G04G06G07G09G11G17G19G31
 115447549.474 7  89959185.65247  21968929.180                    21968931.420
     -2515.155       -1959.863          47.550          47.500    86210886.085 8
  21968932.080       -1878.232          50.850


 107096918.974 8  83452155.68948  20379843.360                    20379843.380
      -668.790        -521.135          49.150          49.150    79975047.716 9
  20379847.880        -499.453          56.550


 109773090.856 8  85537509.44648  20889114.340                    20889115.640
      1552.981        1210.116          50.800          49.200    81973459.429 9
  20889117.500        1159.673          54.400


 131192781.903 6 102228144.24546  24965148.140                    24965155.640
      3352.706        2612.506          40.350          40.200



 107660894.460 8  83891662.22148  20487167.400                    20487168.420
      1350.938        1052.680          51.750          51.700    80396190.838 9
  20487169.160        1008.839          55.750


 126481829.217 7  98557279.10446  24068687.120                    24068689.300
      3412.390        2659.007          43.650          41.950    94450756.370 7
  24068693.620        2548.251          46.600


 123418950.965 6  96170603.95146  23485853.100                    23485855.260
     -2983.208       -2324.583          41.750          41.350



 117724807.562 7  91733621.09647  22402283.740                    22402283.340
     -2520.723       -1964.200          46.950          43.800



 124968221.556 7  97377901.50147  23780641.440                    23780641.720
     -2174.591       -1694.486          43.050          43.350



 23  8 31 12 24 30.0000000  0  9G03G04G06G07G09G11G17G19G31
 115523113.051 8  90018066.31248  21983308.620                    21983310.680
     -2522.835       -1965.847          48.000          48.000    86267313.370 8
  21983311.480       -1883.859          51.000


 107117228.425 8  83467981.24148  20383708.000                    20383708.180
      -685.561        -534.202          49.000          49.100    79990213.873 9
  20383712.460        -511.879          56.150


 109726739.941 8  85501391.86948  20880293.940                    20880295.400
      1536.827        1197.528          50.550          50.000    81938846.750 9
  20880297.020        1147.558          54.150


 131092194.846 6 102149764.97446  24946006.880                    24946014.880
      3352.956        2612.702          39.300          39.000



 107620604.224 8  83860267.25648  20479500.440                    20479501.320
      1334.614        1039.959          51.600          51.750    80366104.003 9
  20479502.060         996.698          55.550


 126379533.128 7  98477567.96246  24049220.560                    24049222.780
      3406.915        2654.741          44.000          41.100    94374366.547 7
  24049227.200        2544.144          46.550


 123508531.098 7  96240406.50447  23502899.680                    23502902.460
     -2989.421       -2329.421          44.050          43.100



 117800649.784 7  91792718.84747  22416716.160                    22416715.780
     -2535.677       -1975.854          47.200          44.150



 125033711.343 7  97428932.52047  23793103.440                    23793103.460
     -2191.632       -1707.765          43.100          43.300



 23  8 31 12 25  0.0000000  0  9G03G04G06G07G09G11G17G19G31
 115598902.578 8  90077123.02348  21997730.900                    21997732.760
     -2529.608       -1971.125          48.050          48.100    86323909.387 8
  21997734.020       -1889.038          51.250


 107138034.059 8  83484193.43048  20387667.080                    20387667.380
      -701.469        -546.600          49.550          49.600    80005750.563 9
  20387671.480        -523.748          56.100


 109680875.510 8  85465653.36248  20871566.160                    20871567.660
      1520.986        1185.186          50.800          49.550    81904597.349 9
  20871569.160        1135.847          54.250


 130991589.047 6 102071371.08446  24926862.080                    24926870.180
      3354.437        2613.855          40.150          39.550



 107580800.005 8  83829251.01548  20471926.040                    20471926.780
      1319.076        1027.853          52.250          52.100    80336380.113 9
  20471927.500         985.045          55.350


 126277402.150 7  98397985.46346  24029785.620                    24029787.580
      3402.017        2650.927          43.550          40.950    94298100.003 7
  24029792.100        2540.509          46.500


 123598306.818 7  96310361.50747  23519983.900                    23519986.460
     -2995.186       -2333.915          42.650          42.300



 117876936.730 7  91852163.13847  22431233.280                    22431232.780
     -2550.003       -1987.018          47.250          43.850



 125099709.375 7  97480359.57947  23805662.300                    23805662.120
     -2208.011       -1720.528          44.050          44.500



 23  8 31 12 25 30.0000000  0  9G03G04G06G07G09G11G17G19G31
 115674918.805 7  90136356.38747  22012196.220                    22012198.060
     -2537.573       -1977.332          47.650          47.650    86380674.682 8
  22012199.440       -1895.035          51.750


 107159336.207 8  83500792.51648  20391720.720                    20391721.060
      -718.262        -559.684          49.400          49.600    80021658.035 9
  20391725.140        -536.427          56.300


 109635501.014 8  85430296.62248  20862931.700                    20862933.220
      1504.438        1172.290          50.800          49.800    81870713.813 9
  20862934.680        1123.324          54.600


 130890969.039 6 101992966.17746  24907714.480                    24907722.820
      3354.282        2613.736          37.350          36.900



 107541483.813 8  83798615.05448  20464444.480                    20464445.120
      1302.520        1014.951          52.050          52.150    80307020.670 9
  20464445.820         972.520          55.400


 126175440.178 7  98318534.66246  24010382.900                    24010384.560
      3396.006        2646.240          44.000          40.250    94221959.670 7
  24010389.160        2535.899          46.650


 123688277.242 7  96380468.15947  23537104.980                    23537107.640
     -3002.157       -2339.348          44.250          43.350



 117953667.344 7  91911953.14847  22445834.740                    22445834.080
     -2564.987       -1998.693          47.650          43.700



 125166215.281 7  97532182.37147  23818317.940                    23818317.540
     -2225.306       -1734.002          44.100          44.250



 23  8 31 12 26  0.0000000  0  9G03G04G06G07G09G11G17G19G31
 115751158.415 7  90195763.79847  22026703.980                    22026705.880
     -2544.807       -1982.969          47.250          47.300    86437606.769 8
  22026707.480       -1900.342          52.000


 107181131.157 8  83517775.60848  20395868.220                    20395868.460
      -734.307        -572.187          49.700          49.400    80037933.506 9
  20395872.720        -548.414          56.350


 109590615.938 8  85395321.24648  20854390.420                    20854392.040
      1488.318        1159.729          51.100          50.050    81837195.746 9
  20854393.440        1111.372          54.900


 130790334.689 6 101914550.07346  24888564.040                    24888572.820
      3354.994        2614.291          40.600          40.800



 107502653.657 8  83768357.82048  20457055.360                    20457056.000
      1286.647        1002.583          52.350          52.300    80278024.154 9
  20457056.720         960.759          55.550


 126073647.086 7  98239215.46346  23991012.460                    23991013.700
      3390.751        2642.147          44.050          41.550    94145945.475 7
  23991018.480        2531.833          46.550


 123778436.840 7  96450722.25246  23554262.260                    23554264.580
     -3008.146       -2344.014          46.000          41.800



 118030835.748 7  91972084.29647  22460519.560                    22460518.400
     -2579.173       -2009.746          47.550          43.050



 125233224.032 7  97584396.98747  23831069.160                    23831068.840
     -2241.648       -1746.739          45.750          45.900



 23  8 31 12 26 30.0000000  0  9G03G04G06G07G09G11G17G19G31
 115827624.118 7  90255347.38047  22041254.880                    22041256.640
     -2552.444       -1988.921          47.250          47.350    86494707.677 8
  22041258.640       -1905.949          52.450


 107203421.215 8  83535144.50948  20400109.940                    20400110.100
      -751.021        -585.211          49.800          49.750    80054578.696 9
  20400114.580        -560.766          56.800


 109546225.702 8  85360731.46648  20845943.260                    20845945.040
      1471.599        1146.701          50.550          50.350    81804047.201 9
  20845946.380        1099.062          55.250


 130689692.034 6 101836127.54146  24869412.020                    24869420.660
      3355.173        2614.434          40.550          40.500



 107464313.457 8  83738482.37048  20449759.440                    20449760.120
      1270.140         989.720          52.150          52.150    80249393.521 9
  20449760.920         948.523          55.900


 125972028.731 7  98160032.41246  23971675.300                    23971676.100
      3384.671        2637.410          44.050          41.550    94070061.719 7
  23971681.060        2527.558          46.850


 123868786.331 7  96521124.30146  23571455.580                    23571457.660
     -3014.616       -2349.058          44.850          41.400



 118108442.477 7  92032556.99447  22475287.680                    22475286.280
     -2593.803       -2021.148          46.850          43.600



 125300737.165 7  97637004.63147  23843916.320                    23843916.020
     -2258.482       -1759.855          44.100          44.400



 23  8 31 12 27  0.0000000  0  9G03G04G06G07G09G11G17G19G31
 115904311.918 7  90315104.03647  22055848.180                    22055849.780
     -2560.127       -1994.906          47.550          47.750    86551974.457 8
  22055852.160       -1911.869          52.300


 107226201.985 8  83552895.78548  20404445.020                    20404445.140
      -767.814        -598.297          49.700          49.600    80071590.336 9
  20404449.820        -573.392          56.750


 109502329.037 8  85326526.29048  20837589.860                    20837591.800
      1454.715        1133.544          50.100          50.000    81771267.254 9
  20837593.200        1086.262          55.200


 130589040.096 6 101757697.78646  24850258.540                    24850266.900
      3355.024        2614.317          41.450          41.500



 107426460.525 8  83708986.60848  20442556.180                    20442557.000
      1253.407         976.683          52.000          52.150    80221126.756 9
  20442557.900         935.879          55.900


 125870584.367 7  98080984.95046  23952371.220                    23952371.820
      3378.096        2632.286          43.150          41.350    93994307.905 7
  23952376.860        2522.667          46.900


 123959319.465 7  96591669.44646  23588683.760                    23588685.380
     -3020.840       -2353.907          45.600          41.900



 118186481.246 7  92093366.35547  22490138.060                    22490136.240
     -2608.743       -2032.790          46.850          42.850



 125368748.969 7  97690000.84247  23856858.320                    23856858.160
     -2275.621       -1773.212          43.700          43.750



 23  8 31 12 27 30.0000000  0  9G03G04G06G07G09G11G17G19G31
 115981221.012 7  90375033.13247  22070483.640                    22070484.980
     -2567.094       -2000.335          47.650          47.900    86609406.491 8
  22070487.620       -1917.048          51.850


 107249472.191 8  83571028.42448  20408873.180                    20408873.360
      -783.754        -610.718          49.600          49.550    80088967.442 9
  20408878.120        -585.206          56.750


 109458927.799 8  85292707.15548  20829330.700                    20829332.680
      1438.409        1120.838          50.500          49.850    81738857.244 9
  20829334.240        1074.201          55.350


 130488381.323 6 101679262.73146  24831103.760                    24831111.680
      3355.501        2614.689          40.550          40.250



 107389095.220 8  83679870.81348  20435445.680                    20435446.580
      1237.497         964.283          51.850          51.900    80193224.121 9
  20435447.680         924.111          56.050


 125769316.273 7  98002074.84346  23933100.560                    23933101.180
      3372.868        2628.214          43.800          41.600    93918685.755 7
  23933106.360        2518.602          47.150


 124050033.466 7  96662355.52846  23605946.260                    23605947.580
     -3026.627       -2358.415          45.900          41.550



 118264949.045 7  92154510.02847  22505070.120                    22505068.020
     -2622.584       -2043.574          46.900          42.700



 125437256.962 7  97743383.68547  23869894.740                    23869894.900
     -2291.704       -1785.743          43.350          43.350



 23  8 31 12 28  0.0000000  0  9G03G04G06G07G09G11G17G19G31
 116058354.591 7  90435137.15648  22085161.780                    22085162.760
     -2574.777       -2006.322          47.800          48.000    86667006.167 8
  22085165.560       -1922.740          51.650


 107273234.500 8  83589544.52148  20413394.960                    20413395.300
      -800.281        -623.595          49.300          49.200    80106712.047 9
  20413399.980        -597.604          56.600


 109416027.865 8  85259278.64048  20821167.040                    20821168.860
      1421.596        1107.736          50.650          49.650    81706821.595 9
  20821170.660        1061.629          55.400


 130387722.317 6 101600827.55446  24811948.820                    24811956.280
      3355.343        2614.565          41.550          41.900



 107352221.921 8  83651138.39848  20428428.740                    20428429.760
      1220.794         951.269          51.600          51.650    80165688.891 9
  20428431.060         911.702          56.100


 125668230.881 7  97923307.08146  23913864.540                    23913865.420
      3366.523        2623.268          43.350          41.000    93843200.017 7
  23913870.680        2513.871          47.400


 124140929.628 7  96733183.55646  23623243.260                    23623244.520
     -3032.768       -2363.199          45.100          41.150



 118343847.104 7  92215988.96847  22520084.040                    22520081.880
     -2637.146       -2054.920          46.200          43.500



 125506263.218 7  97797154.79447  23883026.080                    23883026.480
     -2308.405       -1798.758          43.900          43.950



 23  8 31 12 28 30.0000000  0  9G03G04G06G07G09G11G17G19G31
 116135704.916 7  90495410.08247  22099881.160                    22099881.700
     -2581.803       -2011.797          47.200          47.650    86724767.699 8
  22099884.720       -1928.104          51.650


 107297480.766 8  83608437.72548  20418008.900                    20418009.380
      -816.134        -635.948          49.650          49.550    80124818.043 9
  20418013.780        -609.564          56.350


 109373624.230 8  85226236.84648  20813097.820                    20813099.600
      1405.063        1094.855          50.600          49.400    81675156.553 9
  20813101.520        1049.268          55.450


 130287058.268 7 101522388.40647  24792792.840                    24792799.840
      3355.648        2614.802          42.650          42.750



 107315834.085 8  83622784.27348  20421504.280                    20421505.300
      1204.735         938.757          51.650          51.550    80138516.191 9
  20421506.700         899.668          56.000


 125567323.643 7  97844678.15246  23894662.360                    23894663.540
      3360.708        2618.736          43.100          41.800    93767847.313 7
  23894668.840        2509.496          47.550


 124231997.911 7  96804145.66846  23640572.880                    23640574.580
     -3038.378       -2367.573          44.550          40.400



 118423165.070 7  92277795.08747  22535177.940                    22535175.900
     -2650.950       -2065.681          46.750          43.550



 125575758.196 7  97851306.70447  23896250.660                    23896251.180
     -2324.617       -1811.390          44.550          44.350



 23  8 31 12 29  0.0000000  0  9G03G04G06G07G09G11G17G19G31
 116213277.745 7  90555856.38047  22114642.880                    22114643.380
     -2589.552       -2017.835          47.050          47.050    86782695.382 8
  22114646.320       -1933.707          51.900


 107322216.244 8  83627712.13648  20422715.960                    20422716.500
      -832.548        -648.738          49.650          49.550    80143289.351 9
  20422720.540        -621.788          56.050


 109331725.228 8  85193588.27948  20805124.640                    20805126.500
      1388.204        1081.717          49.900          49.950    81643868.351 9
  20805128.440        1036.650          55.350


 130186398.379 7 101443952.49947  24773637.860                    24773643.900
      3355.325        2614.551          42.200          42.650



 107279938.656 8  83594813.84048  20414673.560                    20414674.560
      1188.223         925.889          51.800          51.800    80111711.200 9
  20414675.980         887.361          55.800


 125466603.505 7  97766195.04246  23875495.660                    23875497.260
      3354.005        2613.516          43.600          40.650    93692634.325 7
  23875502.580        2504.799          47.550


 124323241.861 7  96875244.67946  23657935.920                    23657937.840
     -3044.496       -2372.340          44.250          40.950



 118502905.869 7  92339930.70747  22550352.200                    22550350.460
     -2665.072       -2076.683          46.450          44.650



 125645746.487 7  97905843.01447  23909569.180                    23909569.960
     -2341.120       -1824.250          44.400          44.650



 23  8 31 12 29 30.0000000  0  9G03G04G06G07G09G11G17G19G31
 116291070.712 7  90616474.20347  22129446.480                    22129447.300
     -2596.921       -2023.577          47.350          47.550    86840787.451 8
  22129450.180       -1939.185          52.150


 107347438.129 8  83647365.57348  20427515.540                    20427516.020
      -848.929        -661.502          50.150          49.800    80162123.897 9
  20427519.800        -633.958          55.850


 109290331.250 8  85161333.24248  20797247.520                    20797249.580
      1371.148        1068.428          50.100          49.900    81612957.283 9
  20797251.440        1023.947          55.150


 130085743.356 6 101365520.42147  24754483.540                    24754489.040
      3355.091        2614.370          41.400          42.050



 107244534.489 8  83567226.20248  20407936.380                    20407937.340
      1171.816         913.104          52.300          52.350    80085273.059 9
  20407938.660         875.078          55.700


 125366071.403 7  97687858.41346  23856364.920                    23856366.840
      3347.778        2608.661          44.100          40.550    93617561.770 7
  23856372.020        2499.941          47.400


 124414657.384 7  96946477.40246  23675331.540                    23675333.840
     -3050.406       -2376.946          43.850          40.600



 118583065.147 7  92402392.40647  22565606.040                    22565604.740
     -2679.025       -2087.555          46.800          44.650



 125716223.864 7  97960760.42947  23922980.780                    23922981.720
     -2357.630       -1837.116          44.200          43.850



 23  8 31 12 30  0.0000000  0 10G03G04G06G07G09G11G17G19G20G31
 116369077.744 7  90677258.83247  22144290.760                    22144291.880
     -2604.104       -2029.175          47.550          47.850    86899039.358 8
  22144294.900       -1944.646          52.150


 107373139.724 8  83667392.80348  20432406.320                    20432406.720
      -864.786        -673.858          49.550          49.200    80181316.662 9
  20432410.400        -645.880          55.750


 109249438.748 8  85129468.97948  20789465.920                    20789468.080
      1354.510        1055.463          50.650          49.650    81582420.698 9
  20789469.820        1011.441          54.900


 129985090.325 6 101287089.98546  24735329.380                    24735334.860
      3354.772        2614.124          40.800          40.050



 107209616.555 8  83540017.44848  20401291.740                    20401292.660
      1155.458         900.357          52.550          52.400    80059198.000 9
  20401293.900         862.901          55.600


 125265724.312 7  97609665.95646  23837269.540                    23837271.380
      3341.497        2603.767          44.950          40.150    93542627.356 7
  23837276.560        2495.305          47.300


 124506236.172 7  97017837.33947  23692758.180                    23692760.940
     -3055.637       -2381.021          43.150          42.300



 118663634.507 7  92465173.64247  22580937.840                    22580937.020
     -2692.758       -2098.254          46.900          43.800



 135128730.548 5                  25714144.780
      3293.540                          35.500



 125787182.482 7  98016052.79547  23936483.800                    23936484.840
     -2373.557       -1849.525          42.600          42.350



 23  8 31 12 30 30.0000000  0 10G03G04G06G07G09G11G17G19G20G31
 116447302.365 7  90738213.01647  22159176.460                    22159177.840
     -2610.958       -2034.516          47.950          47.750    86957453.768 8
  22159180.760       -1949.688          51.800


 107399324.121 8  83687796.23748  20437388.960                    20437389.240
      -880.646        -686.218          49.500          49.250    80200869.957 9
  20437393.000        -657.643          55.850


 109209053.924 8  85098000.29748  20781781.020                    20781783.200
      1337.775        1042.423          50.950          49.800    81552263.213 9
  20781784.740         999.021          54.950


 129884446.212 7 101208666.42747  24716177.200                    24716181.860
      3354.818        2614.159          42.600          42.700



 107175189.511 8  83513191.21848  20394740.520                    20394741.400
      1139.540         887.955          51.950          52.150    80033489.533 9
  20394742.560         850.971          55.700


 125165569.069 7  97531622.99246  23818210.780                    23818212.500
      3335.500        2599.095          45.650          41.600    93467836.202 7
  23818217.500        2490.765          47.300


 124597979.222 7  97089325.26246  23710216.080                    23710219.260
     -3060.943       -2385.156          43.800          41.100



 118744614.982 7  92528275.23747  22596347.860                    22596347.400
     -2705.876       -2108.479          46.650          44.100



 135029882.860 6 105218114.12745  25695334.220                    25695337.460
      3295.951        2568.282          38.750          31.100



 125858624.374 7  98071721.75447  23950078.660                    23950079.800
     -2389.347       -1861.832          43.300          43.600



 23  8 31 12 31  0.0000000  0 10G03G04G06G07G09G11G17G19G20G31
 116525743.757 7  90799336.10948  22174103.460                    22174104.860
     -2618.327       -2040.258          47.950          48.050    87016030.041 8
  22174107.620       -1955.136          51.650


 107425989.926 8  83708574.79848  20442463.220                    20442463.440
      -896.812        -698.813          49.300          49.300    80220782.742 9
  20442467.320        -669.683          55.950


 109169178.539 8  85066928.58248  20774193.140                    20774195.240
      1320.586        1029.028          51.100          49.950    81522486.151 9
  20774196.600         986.301          55.100


 129783813.270 7 101130251.58246  24697027.000                    24697031.840
      3354.155        2613.643          42.100          41.500



 107141253.680 8  83486747.74148  20388282.680                    20388283.640
      1123.051         875.105          51.700          51.700    80008147.883 9
  20388284.700         838.612          55.750


 125065608.071 7  97453731.39146  23799188.920                    23799190.540
      3328.820        2593.890          45.650          41.500    93393190.086 7
  23799195.300        2485.792          46.950


 124689884.346 6  97160939.51946  23727705.180                    23727708.600
     -3066.454       -2389.451          41.750          40.700



 118826003.629 7  92591694.87847  22611835.580                    22611835.280
     -2719.736       -2119.278          45.800          44.850



 134931000.434 5 105141061.00645  25676517.200                    25676521.020
      3295.926        2568.247          35.850          30.550



 125930547.338 7  98127765.55947  23963765.160                    23963766.360
     -2405.276       -1874.242          42.850          42.800



 23  8 31 12 31 30.0000000  0 10G03G04G06G07G09G11G17G19G20G31
 116604402.872 8  90860628.87948  22189071.960                    22189073.140
     -2625.419       -2045.783          48.050          48.200    87074768.925 8
  22189075.980       -1960.606          51.750


 107453137.563 8  83729728.80948  20447629.200                    20447629.400
      -912.735        -711.222          49.250          49.050    80241055.351 9
  20447633.380        -681.674          55.850


 109129816.153 8  85036256.60248  20766702.780                    20766704.780
      1303.675        1015.851          51.350          49.850    81493092.179 9
  20766706.140         973.506          55.000


 129683195.650 6 101051848.66146  24677879.580                    24677884.640
      3354.047        2613.557          41.400          41.700



 107107811.099 8  83460688.61448  20381918.640                    20381919.740
      1106.678         862.347          51.550          51.550    79983174.555 9
  20381920.720         826.354          55.700


 124965845.484 7  97375994.38847  23780204.840                    23780206.240
      3322.303        2588.811          45.600          42.100    93318692.141 7
  23780210.740        2480.868          47.050


 124781950.224 7  97232678.99646  23745224.760                    23745228.340
     -3071.400       -2393.308          42.350          41.700



 118907798.926 7  92655431.37947  22627400.660                    22627400.440
     -2733.148       -2129.730          46.100          44.750



 134832085.359 6 105063984.48645  25657694.260                    25657697.780
      3297.856        2569.764          40.600          34.250



 126002950.723 7  98184183.71147  23977543.340                    23977544.220
     -2421.277       -1886.713          44.550          44.700



 23  8 31 12 32  0.0000000  0 11G03G04G06G07G09G11G17G19G20G26G31
 116683275.219 7  90922087.78547  22204080.940                    22204082.320
     -2632.707       -2051.462          46.850          47.000    87133667.019 8
  22204085.060       -1965.843          51.850


 107480761.981 8  83751254.34048  20452885.940                    20452886.200
      -928.882        -723.804          49.300          49.200    80261683.983 9
  20452890.180        -693.534          56.050


 109090964.877 8  85005982.89448  20759309.620                    20759311.580
      1286.409        1002.397          51.150          49.950    81464079.881 9
  20759312.940         960.736          55.200


 129582592.271 6 100973456.87046  24658735.040                    24658740.160
      3353.046        2612.776          41.950          41.900



 107074858.367 8  83435011.19548  20375647.800                    20375649.000
      1090.236         849.536          51.200          50.900    79958567.029 9
  20375649.960         814.153          55.900


 124866280.043 7  97298411.00346  23761258.180                    23761259.440
      3315.508        2583.515          45.200          41.250    93244341.407 7
  23761263.580        2475.917          47.050


 124874170.161 7  97304538.53446  23762773.840                    23762777.620
     -3076.654       -2397.398          44.250          41.600



 118989993.745 7  92719479.21047  22643041.840                    22643041.560
     -2746.563       -2140.183          45.100          44.550



 134733134.880 6 104986880.37245  25638864.360                    25638867.280
      3298.607        2570.351          40.250          35.150



 133496561.656 6 104023317.33746  25403552.260                    25403557.820
      1772.217        1380.954          38.250          37.900    99689024.389 6
  25403559.040        1323.340          37.000


 126075828.511 7  98240971.55147  23991411.760                    23991412.260
     -2437.287       -1899.187          43.900          44.200



 23  8 31 12 32 30.0000000  0 11G03G04G06G07G09G11G17G19G20G26G31
 116762362.719 7  90983714.33347  22219130.740                    22219132.520
     -2639.950       -2057.107          46.350          46.650    87192725.795 8
  22219135.100       -1971.427          51.500


 107508864.534 8  83773152.45448  20458233.740                    20458234.020
      -944.793        -736.201          49.850          49.750    80282669.689 9
  20458238.060        -705.588          55.950


 109052629.146 8  84976110.91548  20752014.580                    20752016.480
      1269.106         988.914          50.950          50.350    81435452.579 9
  20752017.820         947.632          54.950


 129482008.236 7 100895080.14447  24639594.240                    24639599.500
      3352.243        2612.152          42.300          42.550



 107042398.494 8  83409717.82248  20369470.760                    20369472.000
      1073.538         836.524          51.100          51.100    79934327.548 9
  20369472.960         801.696          55.800


 124766916.905 7  97220985.25747  23742349.940                    23742351.200
      3308.509        2578.061          44.750          42.350    93170141.745 7
  23742354.980        2470.699          47.100


 124966544.117 7  97376518.09947  23780352.460                    23780356.240
     -3081.842       -2401.440          43.250          42.250



 119072588.107 7  92783838.36547  22658759.080                    22658758.640
     -2759.730       -2150.441          46.000          44.550



 134634152.138 6 104909751.07445  25620028.420                    25620031.900
      3299.631        2571.143          37.950          34.600



 133443588.452 6 103982039.56546  25393471.540                    25393478.160
      1759.211        1370.812          36.200          36.300    99649466.546 6
  25393478.200        1313.699          37.900


 126149180.997 7  98298129.29347  24005370.480                    24005370.760
     -2453.034       -1911.456          43.350          42.700



 23  8 31 12 33  0.0000000  0 11G03G04G06G07G09G11G17G19G20G26G31
 116841665.582 7  91045508.69047  22234221.560                    22234223.520
     -2647.017       -2062.612          46.800          46.550    87251945.378 8
  22234225.960       -1976.627          51.600


 107537444.817 8  83795422.82348  20463672.400                    20463672.680
      -960.534        -748.467          49.650          49.600    80304012.120 9
  20463676.840        -717.260          56.000


 109014811.733 8  84946642.81148  20744818.220                    20744819.980
      1251.988         975.575          51.250          50.350    81407212.308 9
  20744821.360         934.945          55.050


 129381446.826 7 100816721.06147  24620457.760                    24620463.520
      3351.941        2611.917          43.100          43.100



 107010432.641 8  83384809.39048  20363387.780                    20363389.000
      1057.533         824.052          50.850          50.900    79910456.975 9
  20363390.000         789.644          55.850


 124667759.470 7  97143719.81346  23723480.820                    23723482.000
      3301.987        2572.980          44.900          41.200    93096095.697 7
  23723485.600        2465.723          47.500


 125059070.113 7  97448616.10747  23797959.840                    23797963.540
     -3086.752       -2405.265          44.800          42.100



 119155579.542 7  92848506.90147  22674551.840                    22674551.400
     -2772.890       -2160.698          46.000          44.600



 134535138.413 6 104832597.64645  25601186.620                    25601190.160
      3300.975        2572.188          39.200          34.950



 133390997.434 5 103941059.63945  25383463.640                    25383469.940
      1746.192        1360.673          34.600          34.700    99610194.123 6
  25383470.480        1304.627          37.550


 126223006.261 7  98355655.40947  24019419.040                    24019419.440
     -2468.552       -1923.549          44.400          44.050



 23  8 31 12 33 30.0000000  0 11G03G04G06G07G09G11G17G19G20G26G31
 116921177.246 7  91107465.76747  22249352.300                    22249354.220
     -2653.698       -2067.819          47.100          47.100    87311320.903 8
  22249356.480       -1981.739          51.550


 107566495.777 8  83818059.94548  20469200.560                    20469200.860
      -976.176        -760.655          49.250          49.200    80325706.027 9
  20469205.140        -728.965          55.950


 108977508.687 8  84917575.51548  20737719.740                    20737721.360
      1234.860         962.229          51.250          50.300    81379356.158 9
  20737722.860         922.211          55.050


 129280905.104 7 100738377.26146  24601324.920                    24601330.680
      3350.963        2611.153          42.350          41.300



 106978955.417 8  83360281.70848  20357397.840                    20357399.040
      1041.058         811.215          51.300          51.350    79886951.272 9
  20357400.040         777.479          55.900


 124568804.503 7  97066612.12146  23704650.200                    23704651.340
      3295.271        2567.747          44.350          41.350    93022200.860 7
  23704654.940        2460.601          47.800


 125151739.610 7  97520825.93746  23815594.800                    23815598.380
     -3091.420       -2408.903          45.350          41.750



 119238959.033 7  92913477.84747  22690418.520                    22690417.960
     -2785.792       -2170.749          45.350          43.850



 134436089.271 6 104755416.63645  25582338.080                    25582341.840
      3302.194        2573.144          39.300          32.000



 133338785.470 5 103900375.00646  25373528.040                    25373534.440
      1734.023        1351.190          35.850          36.000    99571204.718 6
  25373534.840        1294.898          39.550


 126297296.471 7  98413543.82147  24033555.920                    24033556.580
     -2484.068       -1935.640          42.650          42.300



 23  8 31 12 34  0.0000000  0 11G03G04G06G07G09G11G17G19G20G26G31
 117000903.331 7  91169589.92747  22264523.880                    22264525.520
     -2660.693       -2073.270          46.950          46.800    87370856.541 8
  22264527.780       -1986.839          51.300


 107596022.340 8  83841067.66048  20474819.200                    20474819.540
      -991.749        -772.791          49.000          48.900    80347755.087 9
  20474823.820        -740.521          55.700


 108940728.092 8  84888915.32348  20730720.680                    20730722.260
      1217.718         948.871          51.000          50.800    81351890.145 9
  20730723.740         909.401          54.900


 129180391.642 7 100660055.46947  24582197.620                    24582203.280
      3350.525        2610.811          43.000          42.550



 106947973.370 8  83336139.87248  20351502.260                    20351503.440
      1024.833         798.572          51.650          51.650    79863815.353 9
  20351504.380         765.351          56.000


 124470060.878 7  96989669.11346  23685859.800                    23685860.820
      3288.406        2562.397          44.600          40.500    92948463.821 7
  23685864.520        2455.565          47.850


 125244556.219 7  97593150.39246  23833257.620                    23833260.840
     -3095.834       -2412.346          44.150          41.150



 119322729.816 7  92978753.67147  22706359.560                    22706359.000
     -2798.413       -2180.582          46.200          43.050



 134337011.502 6 104678213.23746  25563484.180                    25563487.940
      3303.439        2574.107          39.550          36.400



 133286961.061 5 103859992.44445  25363666.040                    25363672.740
      1721.162        1341.168          34.200          33.950    99532504.781 6
  25363672.960        1285.490          39.650


 126372055.412 7  98471797.47647  24047781.960                    24047782.800
     -2499.464       -1947.637          43.100          43.050



 23  8 31 12 34 30.0000000  0 11G03G04G06G07G09G11G17G19G20G26G31
 117080838.440 7  91231876.95847  22279735.000                    22279736.480
     -2668.214       -2079.130          46.700          46.800    87430548.263 8
  22279738.840       -1992.427          51.650


 107626018.542 8  83864441.33248  20480527.200                    20480527.580
     -1007.827        -785.319          49.400          49.250    80370154.858 9
  20480531.800        -752.598          55.800


 108904467.068 8  84860659.99048  20723820.420                    20723822.180
      1199.791         934.902          51.050          50.600    81324812.121 9
  20723823.440         896.036          55.000


 129079904.112 7 100581753.88647  24563075.200                    24563081.100
      3349.092        2609.695          42.850          42.650



 106917482.157 8  83312380.51148  20345700.060                    20345701.260
      1008.072         785.512          52.250          52.150    79841045.974 9
  20345702.240         752.784          56.250


 124371526.409 7  96912889.08346  23667109.160                    23667110.160
      3280.800        2556.471          44.650          41.100    92874882.970 8
  23667113.980        2449.972          48.000


 125337512.597 7  97665583.77346  23850946.920                    23850949.860
     -3100.781       -2416.198          44.650          40.250



 119406884.201 7  93044328.41647  22722373.560                    22722373.060
     -2811.706       -2190.942          45.550          42.650



 134237901.118 6 104600984.47745  25544623.980                    25544627.860
      3304.095        2574.622          38.800          34.550



 133235522.257 5 103819910.40045  25353877.520                    25353884.280
      1707.491        1330.517          34.300          34.400    99494092.785 6
  25353884.700        1275.502          41.100


 126447276.192 7  98530411.01247  24062095.920                    24062096.880
     -2515.037       -1959.771          42.600          42.350



 23  8 31 12 35  0.0000000  0 11G03G04G06G07G09G11G17G19G20G26G31
 117160984.189 7  91294328.12647  22294986.100                    22294987.720
     -2675.088       -2084.487          46.100          46.250    87490397.279 8
  22294990.100       -1997.587          51.550


 107656485.372 8  83888181.73248  20486324.840                    20486325.180
     -1023.476        -797.513          49.450          49.200    80392906.076 9
  20486329.320        -764.247          55.350


 108868729.721 8  84832812.71948  20717019.760                    20717021.740
      1182.432         921.375          50.900          50.700    81298125.153 9
  20717022.740         882.991          54.550


 128979447.646 7 100503476.49447  24543958.700                    24543964.840
      3347.962        2608.814          42.850          42.700



 106887484.357 8  83289005.63148  20339991.800                    20339992.920
       991.730         772.777          52.350          52.300    79818645.053 9
  20339993.960         740.533          55.950


 124273205.970 7  96836275.82946  23648399.340                    23648400.280
      3273.563        2550.832          44.700          41.150    92801461.957 7
  23648404.280        2444.680          47.800


 125430607.915 7  97738125.42646  23868662.740                    23868665.300
     -3105.375       -2419.778          44.500          41.650



 119491421.376 7  93110201.44347  22738460.380                    22738459.980
     -2824.365       -2200.807          44.050          43.650



 134138761.400 6 104523732.82445  25525758.260                    25525762.300
      3304.967        2575.299          37.650          33.600



 133184473.860 5 103780132.53545  25344163.240                    25344169.820
      1695.146        1320.898          35.000          35.300    99455972.389 6
  25344170.760        1265.674          39.650


 126522958.845 7  98589384.42047  24076497.860                    24076498.940
     -2530.398       -1971.742          42.750          42.650



 23  8 31 12 35 30.0000000  0 11G03G04G06G07G09G11G17G19G20G26G31
 117241339.486 7  91356942.56947  22310277.100                    22310278.940
     -2681.933       -2089.819          46.600          46.800    87550402.777 8
  22310281.280       -2002.771          51.800


 107687421.083 8  83912287.49948  20492211.800                    20492212.040
     -1039.073        -809.666          49.150          49.250    80416007.436 9
  20492216.080        -775.913          55.400


 108833517.439 8  84805374.59148  20710319.000                    20710321.100
      1164.922         907.731          50.850          50.800    81271830.280 9
  20710321.980         869.881          54.350


 128879024.304 7 100425224.96147  24524848.220                    24524854.980
      3346.758        2607.876          42.350          42.450



 106857979.866 8  83266015.14948  20334377.360                    20334378.360
       975.261         759.944          52.350          52.300    79796612.508 9
  20334379.480         728.276          55.950


 124175101.770 7  96759831.07447  23629730.540                    23629731.480
      3266.399        2545.247          44.000          42.000    92728202.414 7
  23629735.640        2439.238          47.750


 125523839.042 7  97810772.88546  23886403.960                    23886406.420
     -3109.984       -2423.369          43.050          40.850



 119576337.499 7  93176369.75747  22754619.260                    22754619.080
     -2836.708       -2210.424          44.350          43.300



 134039592.835 6 104446458.60345  25506887.220                    25506891.260
      3306.034        2576.125          38.550          30.750



 133133818.082 6 103740660.56846  25334523.820                    25334529.920
      1681.904        1310.578          37.350          37.700    99418145.123 6
  25334531.280        1255.979          36.550


 126599100.534 7  98648715.54047  24090987.260                    24090988.440
     -2545.901       -1983.821          42.900          42.850



 23  8 31 12 36  0.0000000  0 11G03G04G06G07G09G11G17G19G20G26G31
 117321904.450 7  91419720.38547  22325608.100                    22325610.120
     -2688.900       -2095.250          47.050          47.150    87610564.837 8
  22325612.500       -2007.970          51.950


 107718825.104 8  83936758.16948  20498187.900                    20498188.100
     -1054.664        -821.816          49.700          49.550    80439458.503 9
  20498192.040        -787.502          55.300


 108798832.775 8  84778347.59148  20703718.700                    20703720.780
      1147.438         894.107          51.200          50.550    81245929.407 9
  20703721.540         856.794          54.150


 128778637.469 7 100347001.77747  24505744.880                    24505751.860
      3345.850        2607.167          43.000          42.950



 106828969.708 8  83243409.84948  20328857.000                    20328857.860
       958.825         747.137          52.550          52.750    79774949.110 9
  20328858.980         715.949          55.850


 124077217.110 7  96683557.38446  23611103.500                    23611104.600
      3259.184        2539.626          44.300          41.650    92655106.816 7
  23611108.840        2433.797          47.700


 125617203.943 7  97883524.56046  23904170.740                    23904173.080
     -3114.327       -2426.756          44.150          40.050



 119661630.369 7  93242831.64247  22770849.860                    22770849.800
     -2849.289       -2220.229          44.250          43.300



 133940396.741 6 104369163.05345  25488010.840                    25488015.000
      3306.986        2576.873          38.750          35.450



 133083558.148 6 103701497.02946  25324959.740                    25324965.580
      1668.701        1300.292          37.800          37.800    99380613.434 6
  25324967.040        1246.222          39.550


 126675699.139 7  98708402.69547  24105563.620                    24105565.000
     -2560.792       -1995.424          43.250          43.100



 23  8 31 12 36 30.0000000  0 11G03G04G06G07G09G11G17G19G20G26G31
 117402673.849 7  91482657.51547  22340978.020                    22340980.180
     -2695.948       -2100.741          46.900          46.950    87670879.577 8
  22340982.600       -2013.236          52.300


 107750691.620 8  83961589.23148  20504252.040                    20504252.160
     -1070.148        -833.882          49.900          49.650    80463254.937 9
  20504256.060        -799.136          55.550


 108764673.011 8  84751729.59548  20697218.360                    20697220.340
      1129.717         880.299          51.300          50.250    81220420.490 9
  20697220.860         843.613          54.100


 128678285.373 7 100268805.62946  24486648.160                    24486655.400
      3344.468        2606.085          42.550          41.900



 106800449.653 8  83221186.45248  20323429.880                    20323430.580
       942.371         734.315          52.550          52.350    79753651.692 9
  20323431.700         703.665          56.050


 123979550.106 7  96607453.30746  23592517.880                    23592519.040
      3251.772        2533.852          44.000          40.050    92582173.760 7
  23592523.420        2428.125          47.950


 125710695.570 7  97956375.03146  23921961.600                    23921963.580
     -3118.698       -2430.160          44.250          40.550



 119747292.248 7  93309581.07347  22787150.980                    22787150.840
     -2861.617       -2229.836          44.600          42.800



 133841169.719 6 104291843.39945  25469128.520                    25469132.440
      3307.891        2577.586          40.400          35.300



 133033692.002 6 103662640.41746  25315470.420                    25315476.460
      1655.143        1289.727          38.050          37.950    99343375.871 6
  25315477.740        1236.104          40.700


 126752748.096 7  98768440.76847  24120225.600                    24120227.200
     -2575.714       -2007.053          42.850          43.200



 23  8 31 12 37  0.0000000  0 11G03G04G06G07G09G11G17G19G20G26G31
 117483649.605 7  91545755.43747  22356387.120                    22356389.580
     -2702.874       -2106.138          45.750          45.650    87731348.408 8
  22356392.040       -2018.398          52.200


 107783021.897 8  83986781.65248  20510404.340                    20510404.340
     -1085.600        -845.922          50.000          49.400    80487397.672 9
  20510408.320        -810.679          55.100


 108731042.484 8  84725523.99048  20690818.620                    20690820.680
      1112.048         866.531          50.600          50.400    81195306.787 8
  20690820.900         830.381          53.750


 128577973.012 7 100190640.51047  24467559.100                    24467566.300
      3342.978        2604.929          42.400          42.700



 106772422.557 8  83199347.17548  20318096.520                    20318097.160
       925.831         721.427          52.450          52.400    79732722.392 9
  20318098.260         691.335          55.650


 123882105.946 7  96531522.85746  23573974.660                    23573975.720
      3244.325        2528.047          43.700          40.950    92509407.092 7
  23573980.420        2422.608          47.600


 125804313.916 7  98029324.23846  23939776.520                    23939778.160
     -3122.999       -2433.510          42.250          39.400



 119833322.788 7  93376617.75847  22803522.300                    22803522.120
     -2874.001       -2239.485          45.750          43.550



 133741915.234 6 104214502.29746  25450240.920                    25450244.840
      3309.276        2578.662          38.350          36.100



 132984224.740 6 103624094.65046  25306057.020                    25306063.360
      1641.914        1279.421          38.250          39.200    99306436.156 6
  25306064.300        1226.251          41.550


 126830247.583 6  98828829.91146  24134973.300                    24134975.160
     -2591.031       -2018.988          41.900          41.950



 23  8 31 12 37 30.0000000  0 11G03G04G06G07G09G11G17G19G20G26G31
 117564834.921 7  91609016.65947  22371836.120                    22371838.720
     -2709.652       -2111.419          45.750          45.550    87791973.724 8
  22371841.300       -2023.521          52.250


 107815818.436 8  84012337.39348  20516645.300                    20516645.300
     -1100.948        -857.883          49.750          49.850    80511888.594 9
  20516649.320        -822.235          55.050


 108697946.815 8  84699735.16648  20684520.640                    20684522.760
      1094.135         852.573          50.450          50.350    81170592.490 9
  20684522.900         817.063          54.000


 128477706.794 7 100112511.32847  24448478.680                    24448486.060
      3341.514        2603.789          42.750          42.850



 106744892.514 8  83177895.22048  20312857.660                    20312858.260
       909.445         708.660          52.400          52.500    79712164.273 9
  20312859.420         679.059          55.700


 123784891.124 7  96455771.11346  23555475.080                    23555476.100
      3236.575        2522.009          43.900          41.500    92436811.690 7
  23555481.060        2416.926          47.750


 125898059.900 6  98102372.88046  23957615.660                    23957617.420
     -3127.116       -2436.717          41.800          37.850



 119919722.595 7  93443942.17647  22819964.100                    22819963.620
     -2885.958       -2248.803          46.250          43.350



 133642638.271 6 104137143.68246  25431349.200                    25431353.040
      3309.809        2579.078          39.300          36.000



 132935162.767 6 103585864.59346  25296720.860                    25296727.220
      1628.612        1269.052          38.550          38.300    99269799.072 6
  25296727.980        1216.212          40.950


 126908199.061 7  98889571.23847  24149807.000                    24149808.880
     -2605.913       -2030.583          42.750          43.000



 23  8 31 12 38  0.0000000  0 11G03G04G06G07G09G11G17G19G20G26G31
 117646220.743 7  91672434.13047  22387323.440                    22387326.040
     -2715.977       -2116.348          46.050          46.150    87852748.776 8
  22387328.520       -2028.360          52.200


 107849071.539 8  84038248.89948  20522973.200                    20522973.220
     -1116.000        -869.610          49.800          49.500    80536720.451 9
  20522977.180        -833.463          55.300


 108665379.347 8  84674357.92948  20678323.140                    20678325.240
      1076.903         839.146          50.500          50.300    81146272.648 9
  20678325.600         804.074          54.650


 128377481.091 7 100034413.68447  24429406.160                    24429413.460
      3340.264        2602.812          43.250          43.100



 106717851.418 8  83156824.25948  20307711.820                    20307712.380
       893.279         696.063          52.050          52.000    79691971.272 9
  20307713.540         666.959          56.100


 123687899.823 7  96380193.56146  23537018.180                    23537018.960
      3229.357        2516.385          43.500          40.200    92364383.215 8
  23537024.160        2411.419          48.250


 125991922.135 7  98175512.09646  23975476.800                    23975479.000
     -3130.654       -2439.478          42.200          40.550



 120006480.230 7  93511545.40947  22836473.900                    22836473.160
     -2897.804       -2258.032          47.000          42.200



 133543330.894 6 104059761.39245  25412451.680                    25412455.020
      3310.522        2579.636          38.100          33.650



 132886500.059 6 103547945.70846  25287460.540                    25287466.980
      1615.509        1258.843          38.700          38.500    99233460.172 7
  25287467.780        1206.248          42.200


 126986591.536 7  98950656.19847  24164724.700                    24164726.520
     -2620.346       -2041.831          42.350          42.400



 23  8 31 12 38 30.0000000  0 11G03G04G06G07G09G11G17G19G20G26G31
 117727814.168 7  91736013.36947  22402850.200                    22402852.780
     -2723.358       -2122.100          46.100          46.300    87913678.852 8
  22402855.020       -2033.609          51.600


 107882787.536 8  84064521.11148  20529389.160                    20529389.180
     -1131.383        -881.597          49.600          49.450    80561897.991 9
  20529393.020        -844.944          55.100


 108633349.570 8  84649399.66548  20672228.000                    20672230.080
      1058.704         824.964          50.450          50.400    81122354.313 9
  20672230.720         790.599          54.550


 128277306.192 7  99956355.62847  24410343.280                    24410350.260
      3338.437        2601.390          43.250          43.200



 106691307.178 8  83136140.46448  20302660.500                    20302661.060
       876.517         683.001          52.050          52.050    79672149.300 9
  20302662.140         654.589          56.000


 123591142.452 7  96304798.26546  23518605.720                    23518606.380
      3221.668        2510.395          42.800          41.100    92292129.419 8
  23518611.800        2405.554          48.350


 126085905.693 6  98248745.86546  23993360.980                    23993363.700
     -3134.602       -2442.548          41.200          40.050



 120093600.291 7  93579431.07547  22853052.600                    22853051.720
     -2909.969       -2267.513          46.400          42.650



 133444001.966 6 103982362.26246  25393550.060                    25393553.500
      3311.101        2580.080          38.850          36.700



 132838246.852 6 103510345.91546  25278278.100                    25278284.360
      1601.931        1248.261          39.350          39.250    99197427.063 6
  25278285.280        1196.074          41.300


 127065430.678 7  99012089.23647  24179727.340                    24179729.040
     -2635.313       -2053.493          42.850          42.750



 23  8 31 12 39  0.0000000  0 11G03G04G06G07G09G11G17G19G20G26G31
 117809610.597 7  91799750.78747  22418415.540                    22418418.200
     -2729.942       -2127.230          46.000          46.000    87974760.535 8
  22418420.380       -2038.666          51.350


 107916961.153 8  84091149.90548  20535892.120                    20535892.120
     -1146.758        -893.577          49.300          49.300    80587417.258 9
  20535895.920        -856.393          54.850


 108601855.262 8  84624858.65248  20666234.820                    20666236.920
      1040.843         811.047          51.050          50.500    81098835.845 9
  20666237.660         777.196          54.300


 128177180.669 7  99878336.06747  24391289.680                    24391296.580
      3336.654        2600.001          42.750          43.050



 106665256.104 8  83115840.94648  20297703.080                    20297703.680
       860.106         670.214          51.900          51.850    79652695.597 9
  20297704.600         642.271          55.950


 123494617.721 7  96229584.26247  23500237.640                    23500238.320
      3213.646        2504.143          43.350          42.000    92220049.343 8
  23500243.860        2399.739          48.550


 126180004.037 6  98322069.05646  24011267.280                    24011270.420
     -3138.618       -2445.682          40.950          40.500



 120181075.546 7  93647593.48647  22869698.680                    22869697.580
     -2921.756       -2276.699          45.750          42.800



 133344648.308 6 103904943.95045  25374643.740                    25374647.480
      3312.050        2580.823          39.600          35.350



 132790401.824 6 103473064.11846  25269173.480                    25269179.460
      1587.683        1237.157          38.550          37.600    99161698.690 6
  25269180.360        1185.722          40.750


 127144709.720 7  99073865.05147  24194813.740                    24194815.040
     -2649.974       -2064.915          42.400          42.450



 23  8 31 12 39 30.0000000  0 11G03G04G06G07G09G11G17G19G20G26G31
 117891607.162 7  91863644.13247  22434019.040                    22434022.000
     -2736.658       -2132.465          46.300          46.200    88035991.642 8
  22434024.140       -2043.641          51.450


 107951588.875 8  84118132.53848  20542481.420                    20542481.380
     -1161.895        -905.372          49.250          49.250    80613275.605 9
  20542485.260        -867.722          54.900


 108570895.883 8  84600734.46948  20660343.540                    20660345.620
      1023.066         797.194          51.700          50.550    81075716.843 9
  20660346.300         763.854          54.450


 128077105.069 7  99800355.42647  24372245.740                    24372252.660
      3334.791        2598.551          43.050          43.200



 106639696.174 8  83095924.13248  20292839.060                    20292839.820
       843.649         657.390          51.800          51.750    79633608.660 9
  20292840.700         629.939          56.200


 123398326.028 7  96154551.84846  23481913.940                    23481914.660
      3205.800        2498.027          43.800          41.200    92148143.295 8
  23481920.240        2393.855          49.200


 126274212.419 7  98395477.98646  24029194.720                    24029198.040
     -3142.025       -2448.338          42.350          38.300



 120268900.447 7  93716028.36847  22886411.180                    22886410.020
     -2933.390       -2285.762          45.850          42.500



 133245268.808 6 103827505.44745  25355732.440                    25355736.080
      3313.052        2581.602          40.500          32.600



 132742965.037 6 103436100.44546  25260146.540                    25260152.340
      1574.150        1226.612          38.450          38.600    99126275.186 6
  25260153.140        1175.563          40.750


 127224424.278 7  99135980.22647  24209982.960                    24209983.720
     -2664.561       -2076.283          43.250          43.200



 23  8 31 12 40  0.0000000  0 11G03G04G06G07G09G11G17G19G20G26G31
 117973808.511 7  91927697.04347  22449661.520                    22449664.760
     -2742.673       -2137.151          46.350          46.450    88097375.681 8
  22449666.860       -2048.146          51.050


 107986674.566 8  84145472.04048  20549157.940                    20549157.800
     -1176.591        -916.823          49.650          49.300    80639475.953 9
  20549161.740        -878.559          54.700


 108540478.505 8  84577032.62248  20654555.480                    20654557.400
      1005.463         783.478          51.850          50.750    81053002.564 9
  20654558.020         750.886          54.400


 127977087.306 7  99722419.84347  24353212.720                    24353219.560
      3333.243        2597.343          42.900          43.100



 106614632.892 8  83076394.32048  20288069.580                    20288070.420
       827.855         645.083          51.450          51.600    79614892.590 9
  20288071.400         618.189          56.200


 123302275.354 7  96079707.24347  23463636.160                    23463636.920
      3198.359        2492.231          44.200          42.550    92076417.230 8
  23463642.540        2388.316          49.450


 126368533.414 7  98468974.66446  24047143.720                    24047147.320
     -3145.082       -2450.720          43.450          40.800



 120357077.317 7  93784737.48647  22903190.460                    22903189.320
     -2944.383       -2294.330          44.650          42.800



 133145869.770 6 103750051.76245  25336817.540                    25336820.840
      3314.536        2582.757          38.850          35.000



 132695944.298 6 103399460.95046  25251198.480                    25251204.260
      1561.166        1216.495          39.100          39.500    99091162.375 6
  25251205.340        1165.672          40.500


 127304577.158 7  99198436.94647  24225235.440                    24225235.820
     -2678.332       -2087.014          42.700          42.750



 23  8 31 12 40 30.0000000  0 11G03G04G06G07G09G11G17G19G20G26G31
 118056209.564 7  91991905.57847  22465342.060                    22465345.340
     -2749.956       -2142.826          45.950          45.700    88158908.847 8
  22465347.440       -2053.663          51.000


 108022212.403 8  84173163.85448  20555920.600                    20555920.420
     -1192.168        -928.963          49.700          49.400    80666013.938 9
  20555924.220        -890.264          54.650


 108510600.273 8  84553750.88948  20648869.940                    20648871.700
       986.974         769.071          51.700          50.350    81030690.911 9
  20648872.300         736.924          54.550


 127877125.491 7  99644527.86947  24334190.220                    24334196.780
      3331.129        2595.697          42.850          42.850



 106590061.967 8  83057248.15748  20283393.840                    20283394.680
       810.843         631.826          51.600          51.450    79596544.200 9
  20283395.860         605.448          56.350


 123206463.892 7  96005049.03447  23445403.900                    23445404.760
      3189.648        2485.442          45.100          42.750    92004869.797 8
  23445410.400        2381.919          49.850


 126462959.433 7  98542553.15846  24065112.720                    24065116.260
     -3149.101       -2453.854          44.000          39.400



 120445598.579 7  93853714.97647  22920035.380                    22920034.300
     -2956.509       -2303.779          44.250          42.650



 133046447.686 6 103672580.13345  25317898.240                    25317901.080
      3314.199        2582.495          40.400          32.300



 132649337.749 6 103363144.20546  25242329.580                    25242335.360
      1546.561        1205.114          39.200          39.200    99056358.836 6
  25242336.400        1154.936          40.400


 127385161.301 7  99261229.72347  24240570.120                    24240569.900
     -2693.339       -2098.708          42.800          42.650



 23  8 31 12 41  0.0000000  0 11G03G04G06G07G09G11G17G19G20G26G31
 118138809.979 7  92056269.47147  22481060.560                    22481063.700
     -2756.437       -2147.876          45.750          45.400    88220590.897 8
  22481065.700       -2058.448          50.250


 108058201.359 8  84201207.20248  20562769.140                    20562769.040
     -1206.967        -940.494          49.350          49.350    80692888.799 9
  20562772.620        -901.261          54.450


 108481263.202 8  84530890.84048  20643287.300                    20643289.000
       968.999         755.064          51.300          50.500    81008783.356 9
  20643289.580         723.651          54.350


 127777222.256 7  99566681.55147  24315178.960                    24315185.340
      3329.239        2594.226          42.100          42.050



 106565983.909 8  83038486.05148  20278811.980                    20278812.740
       794.503         619.094          51.750          51.700    79578563.850 9
  20278814.020         593.350          56.150


 123110894.608 7  95930579.54046  23427217.760                    23427218.600
      3181.826        2479.347          45.400          41.900    91933503.230 8
  23427224.300        2375.989          49.800


 126557488.462 7  98616211.93246  24083101.440                    24083105.000
     -3152.463       -2456.474          44.100          39.500



 120534461.507 7  93922958.68346  22936945.260                    22936944.340
     -2967.659       -2312.467          44.250          41.700



 132947003.589 6 103595091.31445  25298974.700                    25298977.320
      3315.342        2583.386          40.100          35.100



 132603148.026 6 103327152.25646  25233540.100                    25233545.980
      1532.787        1194.381          39.050          39.750    99021866.558 6
  25233546.620        1144.673          40.250


 127466174.754 7  99324357.01547  24255986.600                    24255985.940
     -2707.415       -2109.677          43.150          42.950



 23  8 31 12 41 30.0000000  0 11G03G04G06G07G09G11G17G19G20G26G31
 118221609.776 7  92120788.71747  22496816.820                    22496819.900
     -2763.393       -2153.296          45.850          45.750    88282421.834 8
  22496821.660       -2063.675          50.050


 108094640.657 8  84229601.43948  20569703.260                    20569703.360
     -1222.340        -952.473          49.550          49.100    80720099.956 9
  20569706.780        -912.816          54.900


 108452469.591 8  84508454.26048  20637807.960                    20637809.660
       950.575         740.708          50.900          50.650    80987281.637 9
  20637810.300         709.775          54.900


 127677381.285 7  99488883.76747  24296179.760                    24296185.840
      3326.586        2592.157          43.450          43.400



 106542399.492 8  83020108.60748  20274324.080                    20274324.780
       777.742         606.034          52.100          52.050    79560952.135 9
  20274326.060         580.774          56.550


 123015570.850 7  95856301.36347  23409078.320                    23409079.100
      3173.122        2472.565          45.750          42.300    91862319.996 8
  23409084.840        2369.521          50.250


 126652118.300 7  98689949.26846  24101109.320                    24101112.860
     -3156.081       -2459.295          44.150          40.250



 120623663.443 7  93992466.59346  22953919.800                    22953919.240
     -2979.188       -2321.445          44.550          41.950



 132847539.378 6 103517586.80845  25280047.260                    25280049.320
      3315.804        2583.745          39.850          32.750



 132557378.194 6 103291487.50146  25224830.360                    25224836.500
      1518.692        1183.397          37.950          37.500    98987687.848 6
  25224836.600        1133.952          40.400


 127547615.720 7  99387817.43047  24271484.400                    24271483.560
     -2721.882       -2120.948          42.400          42.550



 23  8 31 12 42  0.0000000  0 11G03G04G06G07G09G11G17G19G20G26G31
 118304609.599 7  92185463.82647  22512611.160                    22512614.120
     -2769.958       -2158.411          45.450          45.400    88344402.134 8
  22512615.660       -2068.498          49.700


 108131530.168 8  84258346.50248  20576723.020                    20576723.160
     -1237.058        -963.941          49.100          49.150    80747647.306 9
  20576726.740        -923.857          55.050


 108424222.327 8  84486443.41448  20632432.540                    20632434.260
       932.487         726.614          50.950          50.200    80966187.911 9
  20632435.040         696.311          55.050


 127577606.273 7  99411137.36247  24277192.840                    24277198.480
      3324.640        2590.641          43.150          43.000



 106519310.127 8  83002116.91948  20269930.340                    20269931.040
       761.597         593.453          52.050          52.000    79543710.110 9
  20269932.240         568.586          56.600


 122920496.528 7  95782217.54947  23390986.240                    23390987.000
      3164.918        2466.173          46.000          42.600    91791323.023 8
  23390992.740        2363.378          50.050


 126746847.459 7  98763764.00846  24119136.020                    24119139.640
     -3159.410       -2461.885          44.500          40.400



 120713202.440 7  94062237.10947  22970958.580                    22970958.640
     -2990.352       -2330.148          44.800          43.250



 132748057.489 6 103440068.58245  25261116.420                    25261118.280
      3316.577        2584.350          40.100          34.350



 132512031.917 6 103256152.81446  25216201.180                    25216207.600
      1504.550        1172.380          37.800          38.050    98953825.441 6
  25216206.980        1123.276          41.100


 127629482.822 7  99451609.90247  24287063.220                    24287062.460
     -2735.941       -2131.904          42.550          42.500



 23  8 31 12 42 30.0000000  0 11G03G04G06G07G09G11G17G19G20G26G31
 118387805.930 7  92250292.07547  22528442.920                    22528445.840
     -2776.174       -2163.255          46.150          45.950    88406529.216 8
  22528447.360       -2073.349          49.850


 108168865.658 8  84287439.09148  20583827.760                    20583827.660
     -1251.812        -975.437          49.650          49.250    80775527.695 9
  20583831.640        -934.773          54.900


 108396520.200 8  84464857.35148  20627160.920                    20627162.540
       914.450         712.559          50.950          50.050    80945501.272 9
  20627163.580         682.839          54.900


 127477897.201 7  99333442.35447  24258218.640                    24258223.960
      3322.492        2588.967          43.550          43.350



 106496713.167 8  82984508.91748  20265630.280                    20265631.040
       745.233         580.702          52.300          52.300    79526835.769 9
  20265632.120         556.440          56.400


 122825671.494 7  95708327.98246  23372941.460                    23372942.200
      3156.914        2459.936          45.350          41.250    91720512.212 8
  23372947.960        2357.350          49.650


 126841670.333 7  98837651.79046  24137180.620                    24137184.260
     -3162.158       -2464.026          43.900          40.800



 120803072.590 7  94132265.69547  22988060.540                    22988060.820
     -3000.872       -2338.346          45.400          43.350



 132648555.949 6 103362535.00045  25242181.660                    25242183.920
      3317.224        2584.855          39.450          31.200



 132467108.776 6 103221147.81446  25207652.460                    25207659.020
      1490.382        1161.339          38.900          39.500    98920278.965 6
  25207658.160        1113.010          41.400


 127711770.897 7  99515730.39647  24302722.020                    24302721.520
     -2749.944       -2142.815          42.450          43.050



 23  8 31 12 43  0.0000000  0 11G03G04G06G07G09G11G17G19G20G26G31
 118471199.770 7  92315274.21147  22544312.500                    22544315.200
     -2783.410       -2168.893          46.900          46.900    88468803.730 8
  22544317.140       -2078.365          50.550


 108206647.298 8  84316879.33048  20591017.520                    20591017.180
     -1266.880        -987.179          49.300          49.050    80803741.249 9
  20591021.380        -946.075          54.800


 108369366.421 8  84443698.56948  20621993.780                    20621995.120
       895.919         698.118          51.300          49.900    80925224.112 9
  20621996.420         668.986          54.800


 127378258.181 7  99255801.94047  24239257.760                    24239263.060
      3319.881        2586.933          44.100          43.800



 106474610.270 8  82967285.90248  20261424.240                    20261425.020
       728.174         567.409          52.050          51.950    79510330.382 9
  20261426.080         543.909          56.400


 122731100.036 7  95634635.99946  23354944.800                    23354945.680
      3147.952        2452.951          44.100          41.850    91649890.737 8
  23354951.340        2350.810          49.150


 126936585.793 7  98911611.70246  24155242.660                    24155246.220
     -3165.392       -2466.544          43.600          40.400



 120893272.237 7  94202551.02147  23005225.200                    23005225.940
     -3012.100       -2347.094          45.250          42.900



 132549037.110 6 103284987.92244  25223243.660                    25223245.840
      3317.441        2585.017          39.600          29.750



 132422612.696 6 103186475.59146  25199185.080                    25199191.480
      1476.063        1150.183          39.200          39.550    98887051.430 6
  25199190.960        1102.239          40.500


 127794478.604 6  99580177.89546  24318460.660                    24318460.640
     -2764.193       -2153.919          41.450          41.650



 23  8 31 12 43 30.0000000  0 11G03G04G06G07G09G11G17G19G20G26G31
 118554788.863 7  92380408.50047  22560219.240                    22560221.740
     -2789.343       -2173.517          46.950          46.800    88531224.084 8
  22560224.040       -2083.103          50.400


 108244872.163 8  84346664.92748  20598291.540                    20598291.280
     -1281.419        -998.510          49.250          49.150    80832285.778 9
  20598295.380        -956.947          54.650


 108342761.025 8  84422967.09448  20616931.080                    20616932.140
       877.863         684.049          51.450          50.400    80905356.452 9
  20616933.600         655.464          54.800


 127278690.402 7  99178217.01447  24220310.420                    24220315.220
      3317.771        2585.287          43.750          43.550



 106452999.966 8  82950446.72848  20257311.900                    20257312.680
       712.135         554.911          51.950          52.100    79494192.847 9
  20257313.800         531.803          56.400


 122636783.198 7  95561142.44747  23336996.560                    23336997.660
      3139.815        2446.612          43.350          42.550    91579459.446 8
  23337003.140        2344.582          48.950


 127031589.795 7  98985640.56846  24173321.500                    24173325.260
     -3168.034       -2468.604          43.200          40.000



 120983796.613 7  94273089.36947  23022451.660                    23022452.580
     -3022.853       -2355.475          45.250          43.950



 132449500.611 6 103207427.19245  25204302.180                    25204304.040
      3318.433        2585.805          38.450          31.200



 132378544.534 6 103152136.80646  25190799.240                    25190805.400
      1461.773        1139.048          38.350          38.700    98854143.441 6
  25190805.280        1091.720          40.700


 127877602.506 6  99644949.69246  24334278.500                    24334278.800
     -2777.495       -2164.283          41.750          41.750



 23  8 31 12 44  0.0000000  0 11G03G04G06G07G09G11G17G19G20G26G31
 118638574.893 7  92445696.24247  22576163.440                    22576165.840
     -2796.234       -2178.887          46.450          46.600    88593791.487 8
  22576168.080       -2088.191          50.500


 108283541.037 8  84376796.50348  20605649.840                    20605649.820
     -1296.521       -1010.277          48.950          48.750    80861161.873 9
  20605653.820        -968.211          54.800


 108316707.846 8  84402665.92448  20611973.400                    20611974.360
       858.967         669.325          51.750          50.250    80885901.165 9
  20611975.940         641.471          55.150


 127179199.020 7  99100691.61847  24201377.680                    24201382.020
      3314.807        2582.978          43.900          43.800



 106431884.645 8  82933993.24548  20253293.760                    20253294.480
       695.386         541.859          51.800          51.650    79478424.932 9
  20253295.660         519.253          56.700


 122542726.033 7  95487851.22747  23319097.880                    23319099.220
      3130.646        2439.467          44.000          42.100    91509222.051 8
  23319104.360        2337.810          49.000


 127126681.790 7  99059738.04246  24191417.020                    24191420.660
     -3171.352       -2471.191          42.350          40.200



 121074644.825 7  94343880.07547  23039739.740                    23039740.540
     -3033.824       -2364.023          44.550          44.100



 132349949.797 6 103129855.16645  25185358.000                    25185359.980
      3318.293        2585.688          40.500          33.400



 132334908.942 6 103118135.08746  25182495.560                    25182501.740
      1447.115        1127.624          38.900          38.650    98821558.472 6
  25182501.940        1080.466          41.050


 127961141.934 6  99710045.30146  24350175.440                    24350175.940
     -2791.732       -2175.377          41.600          41.500



 23  8 31 12 44 30.0000000  0 11G03G04G06G07G09G11G17G19G20G26G31
 118722552.593 7  92511133.34247  22592143.920                    22592146.360
     -2802.753       -2183.965          46.000          46.000    88656502.015 8
  22592148.380       -2092.995          50.300


 108322647.886 8  84407269.35848  20613091.520                    20613091.600
     -1311.223       -1021.732          49.150          49.150    80890365.016 9
  20613095.580        -979.085          54.550


 108291203.793 8  84382792.64448  20607120.120                    20607121.240
       840.642         655.045          51.450          50.700    80866855.934 9
  20607122.900         627.760          55.250


 127079781.232 7  99023223.55647  24182459.000                    24182463.180
      3312.346        2581.060          43.850          43.650



 106411259.735 8  82917921.90048  20249368.940                    20249369.580
       678.921         529.029          51.700          51.800    79463023.227 9
  20249370.820         507.078          56.600


 122448926.585 7  95414760.83147  23301248.560                    23301249.840
      3121.967        2432.704          44.850          43.150    91439177.081 8
  23301254.680        2331.437          49.000


 127221854.681 7  99133898.57746  24209527.940                    24209531.260
     -3174.080       -2473.315          42.650          41.300



 121165809.199 7  94414917.12547  23057087.880                    23057088.740
     -3044.506       -2372.346          45.400          44.400



 132250381.042 6 103052269.30145  25166410.520                    25166413.040
      3318.887        2586.157          40.600          31.850



 132291703.562 6 103084468.60846  25174273.780                    25174279.980
      1432.493        1116.229          38.500          38.850    98789294.762 6
  25174280.220        1069.848          41.650


 128045090.263 6  99775459.52946  24366150.360                    24366150.860
     -2805.459       -2186.075          41.700          41.500



 23  8 31 12 45  0.0000000  0 11G03G04G06G07G09G11G17G19G20G26G31
 118806725.187 7  92576722.30047  22608161.340                    22608164.020
     -2809.012       -2188.842          45.050          44.650    88719358.088 8
  22608165.740       -2097.691          50.250


 108362195.134 8  84438085.37548  20620617.000                    20620617.180
     -1325.559       -1032.903          48.650          48.850    80919897.042 9
  20620621.120        -989.895          54.450


 108266254.264 8  84363351.46548  20602372.280                    20602373.640
       822.464         640.882          51.100          50.850    80848224.806 9
  20602375.420         614.137          55.250


 126980443.799 7  98945818.11647  24163555.480                    24163559.520
      3309.715        2579.010          44.150          44.200



 106391129.184 8  82902235.77348  20245538.160                    20245538.780
       662.652         516.354          51.650          51.750    79447990.683 9
  20245540.060         494.904          56.600


 122355391.404 7  95341876.34147  23283449.580                    23283450.860
      3113.200        2425.872          45.650          43.350    91369329.450 8
  23283455.420        2324.988          49.050


 127317109.493 7  99208122.88446  24227654.380                    24227657.940
     -3176.337       -2475.074          43.300          40.000



 121257290.175 7  94486200.89047  23074496.320                    23074497.120
     -3054.529       -2380.155          44.750          43.400



 132150799.111 6 102974673.07145  25147460.640                    25147462.580
      3319.712        2586.795          40.350          32.000



 132248934.528 6 103051142.16046  25166135.000                    25166141.260
      1418.297        1105.170          38.950          39.050    98757356.912 7
  25166141.520        1059.232          42.000


 128129448.228 6  99841192.94646  24382203.220                    24382203.880
     -2818.970       -2196.604          40.100          40.650



 23  8 31 12 45 30.0000000  0 11G03G04G06G07G09G11G17G19G20G26G31
 118891092.062 7  92642462.62847  22624215.640                    22624218.600
     -2815.211       -2193.674          44.950          45.100    88782359.218 8
  22624220.120       -2102.260          50.100


 108402181.342 8  84469243.44348  20628226.060                    20628226.260
     -1339.759       -1043.969          48.600          48.750    80949756.859 9
  20628230.200       -1000.531          54.300


 108241860.807 8  84344343.59548  20597730.300                    20597731.780
       804.255         626.692          50.750          50.700    80830008.932 9
  20597733.740         600.464          55.250


 126881189.647 7  98868477.52847  24144667.960                    24144671.540
      3307.406        2577.209          44.500          44.450



 106371492.982 8  82886934.85948  20241801.500                    20241802.120
       646.570         503.822          52.100          52.150    79433327.312 9
  20241803.440         482.870          56.450


 122262123.217 7  95269199.89247  23265701.500                    23265702.560
      3104.673        2419.228          46.150          43.900    91299681.200 8
  23265707.140        2318.473          49.200


 127412443.391 7  99282408.84646  24245795.840                    24245799.620
     -3178.702       -2476.919          42.850          41.600



 121349084.549 7  94557728.84247  23091964.180                    23091964.680
     -3064.850       -2388.198          45.400          43.050



 132051205.200 6 102897067.53745  25128508.420                    25128510.340
      3320.446        2587.363          40.050          35.900



 132206604.237 6 103018157.56546  25158079.800                    25158086.100
      1403.973        1094.007          39.400          38.700    98725746.686 6
  25158086.220        1048.425          41.700


 128214213.403 7  99907243.69947  24398333.540                    24398334.260
     -2831.905       -2206.681          42.950          43.100



 23  8 31 12 46  0.0000000  0 11G03G04G06G07G09G11G17G19G20G26G31
 118975649.038 7  92708351.09447  22640306.280                    22640309.160
     -2821.703       -2198.732          45.900          45.800    88845502.312 8
  22640310.800       -2107.066          50.600


 108442601.541 8  84500739.68748  20635917.840                    20635917.840
     -1354.532       -1055.480          48.800          48.750    80979940.750 9
  20635921.940       -1011.454          54.500


 108218021.394 8  84325767.43548  20593193.740                    20593195.340
       785.501         612.079          50.600          50.500    80812206.779 9
  20593197.380         586.575          55.600


 126782017.527 7  98791200.85847  24125795.940                    24125799.460
      3304.631        2575.046          44.000          43.950



 106352347.692 8  82872016.47448  20238158.260                    20238158.880
       630.126         491.007          51.900          51.850    79419030.529 9
  20238160.180         470.493          56.700


 122169121.162 7  95196730.82547  23248003.880                    23248004.860
      3095.709        2412.242          45.650          44.300    91230231.685 8
  23248009.580        2311.708          49.850


 127507850.089 7  99356751.54346  24263951.240                    24263955.120
     -3181.674       -2479.229          42.550          41.300



 121441185.753 7  94629495.90647  23109490.460                    23109490.700
     -3074.939       -2396.062          43.650          43.000



 131951596.815 6 102819450.75545  25109553.480                    25109555.660
      3320.656        2587.525          41.350          33.700



 132164711.415 6 102985513.87146  25150107.860                    25150114.160
      1389.229        1082.520          38.400          37.800    98694463.168 7
  25150114.160        1037.390          42.050


 128299379.998 6  99973607.23247  24414540.420                    24414541.040
     -2845.490       -2217.265          41.150          42.000



 23  8 31 12 46 30.0000000  0 11G03G04G06G07G09G11G17G19G20G26G31
 119060397.358 7  92774388.67647  22656433.480                    22656436.080
     -2828.072       -2203.695          46.350          46.300    88908788.306 8
  22656438.160       -2111.823          50.900


 108483456.086 8  84532574.39248  20643692.320                    20643692.120
     -1368.864       -1066.648          49.150          48.900    81010449.012 9
  20643696.300       -1022.266          54.350


 108194739.385 8  84307625.61248  20588763.260                    20588765.000
       766.923         597.603          50.800          50.750    80794820.873 9
  20588766.960         572.641          55.600


 126682932.283 7  98713991.88247  24106940.360                    24106943.820
      3301.508        2572.613          44.800          44.900



 106333695.217 8  82857482.08648  20234608.820                    20234609.420
       613.637         478.159          52.000          51.950    79405101.746 9
  20234610.680         458.231          56.650


 122076389.855 7  95124472.73147  23230357.640                    23230358.640
      3086.528        2405.090          45.750          44.400    91160984.343 8
  23230363.560        2304.908          50.100


 127603328.818 7  99431150.34446  24282120.260                    24282124.520
     -3183.702       -2480.812          42.100          39.850



 121533592.326 7  94701500.88646  23127074.760                    23127075.000
     -3084.998       -2403.899          44.800          41.550



 131851977.396 6 102741825.36545  25090596.520                    25090598.320
      3320.936        2587.750          41.850          34.850



 132123260.189 6 102953214.23946  25142219.860                    25142226.080
      1374.240        1070.840          38.550          38.800    98663509.387 7
  25142226.320        1026.353          42.250


 128384947.033 6 100040282.82646  24430823.360                    24430823.960
     -2858.918       -2227.732          40.800          40.800



 23  8 31 12 47  0.0000000  0 11G03G04G06G07G09G11G17G19G20G26G31
 119145339.572 7  92840577.34347  22672597.560                    22672599.880
     -2834.604       -2208.786          46.000          46.150    88972219.083 8
  22672602.420       -2116.722          50.550


 108524746.739 8  84564748.92648  20651549.780                    20651549.420
     -1383.427       -1077.995          49.150          49.150    81041282.936 9
  20651553.580       -1033.195          54.000


 108172019.381 8  84289921.72348  20584439.660                    20584441.700
       748.061         582.904          51.000          50.750    80777854.650 9
  20584443.420         558.553          55.350


 126583939.554 7  98636854.95347  24088102.480                    24088105.740
      3298.313        2570.123          44.650          44.400



 106315538.725 8  82843334.18248  20231153.760                    20231154.340
       597.036         465.224          51.950          51.900    79391543.349 9
  20231155.520         445.796          56.250


 121983935.163 7  95052430.17147  23212764.020                    23212765.060
      3077.142        2397.774          45.700          43.950    91091943.564 8
  23212770.140        2297.921          50.100


 127698880.352 7  99505605.85646  24300303.000                    24300307.660
     -3185.885       -2482.516          42.050          41.550



 121626304.139 7  94773743.74146  23144717.340                    23144717.180
     -3095.522       -2412.098          44.500          41.800



 131752349.993 6 102664193.77446  25071637.900                    25071639.500
      3321.019        2587.808          41.000          36.650



 132082255.972 6 102921262.95446  25134416.980                    25134423.240
      1359.463        1059.324          39.200          39.550    98632889.412 7
  25134423.700        1015.110          42.650


 128470915.202 6 100107270.95646  24447182.580                    24447182.960
     -2872.138       -2238.031          41.150          41.250



 23  8 31 12 47 30.0000000  0 11G03G04G06G07G09G11G17G19G20G26G31
 119230467.329 7  92906910.59147  22688796.820                    22688799.020
     -2840.696       -2213.532          45.750          45.700    89035788.416 8
  22688801.780       -2121.241          50.700


 108566464.274 8  84597256.08248  20659488.420                    20659488.060
     -1397.636       -1089.068          48.800          48.650    81072435.625 9
  20659492.240       -1043.710          54.400


 108149855.163 8  84272650.90848  20580221.900                    20580224.180
       729.536         568.470          50.900          50.850    80761303.458 9
  20580225.540         544.775          55.450


 126485034.468 7  98559786.30447  24069281.200                    24069284.200
      3295.432        2567.876          43.950          43.800



 106297870.442 8  82829566.69748  20227791.620                    20227792.200
       580.935         452.677          51.700          51.650    79378349.516 9
  20227793.300         433.752          56.350


 121891752.040 7  94980599.22947  23195222.020                    23195223.120
      3068.293        2390.881          45.300          43.900    91023105.604 8
  23195228.360        2291.253          50.600


 127794494.083 7  99580109.86146  24318497.800                    24318502.380
     -3188.315       -2484.408          42.500          40.100



 121719310.587 7  94846216.15847  23162415.900                    23162415.940
     -3105.038       -2419.516          43.600          43.250



 131652708.837 6 102586551.44646  25052676.780                    25052678.100
      3321.456        2588.152          40.750          36.200



 132041693.355 6 102889655.79646  25126698.160                    25126704.520
      1344.797        1047.897          39.250          39.200    98602599.216 7
  25126705.140        1004.095          43.150


 128557274.431 6 100174563.83846  24463616.300                    24463616.500
     -2885.025       -2248.070          40.050          40.200



 23  8 31 12 48  0.0000000  0 11G03G04G06G07G09G11G17G19G20G26G31
 119315784.793 7  92973391.67847  22705032.300                    22705034.260
     -2846.773       -2218.267          46.150          46.300    89099499.430 8
  22705037.100       -2125.991          50.750


 108608612.063 8  84630098.50948  20667508.980                    20667508.680
     -1411.880       -1100.167          48.700          48.600    81103909.603 9
  20667512.900       -1054.360          54.900


 108128252.965 8  84255818.03948  20576111.180                    20576113.600
       710.880         553.933          51.100          50.700    80745171.961 9
  20576114.540         530.844          55.550


 126386224.536 7  98482791.78547  24050478.060                    24050480.840
      3292.324        2565.455          44.250          43.850



 106280695.204 8  82816183.41448  20224523.260                    20224523.900
       564.592         439.942          51.700          51.650    79365523.876 9
  20224524.900         421.487          56.500


 121799848.041 7  94908985.78347  23177733.080                    23177734.280
      3058.937        2383.590          45.350          43.800    90954476.083 8
  23177739.640        2284.268          50.700


 127890172.149 6  99654663.94046  24336704.760                    24336709.540
     -3189.969       -2485.700          41.050          40.500



 121812613.434 7  94918919.53247  23180171.000                    23180171.240
     -3114.903       -2427.204          43.100          43.200



 131553059.723 6 102508902.95346  25033714.020                    25033715.660
      3321.981        2588.560          41.250          36.650



 132001579.383 6 102858398.20246  25119064.640                    25119071.060
      1330.082        1036.429          38.050          39.400    98572644.064 7
  25119072.020         993.073          42.950


 128644027.292 6 100242163.44146  24480124.900                    24480125.220
     -2897.993       -2258.178          41.850          41.600



 23  8 31 12 48 30.0000000  0 11G03G04G06G07G09G11G17G19G20G26G31
 119401290.468 7  93040019.42447  22721303.600                    22721305.720
     -2853.456       -2223.474          46.050          46.050    89163350.980 8
  22721308.080       -2130.787          50.300


 108651187.711 8  84663274.31848  20675610.840                    20675610.700
     -1426.458       -1111.527          48.950          49.000    81135703.083 9
  20675615.120       -1065.198          54.950


 108107213.332 8  84239423.53048  20572107.500                    20572110.000
       691.792         539.060          51.550          51.400    80729460.545 9
  20572110.580         516.612          55.350


 126287511.272 7  98405872.58447  24031693.240                    24031696.060
      3288.485        2562.464          44.350          44.750



 106264012.106 8  82803183.61848  20221348.520                    20221349.260
       547.695         426.776          51.750          51.850    79353065.734 9
  20221350.180         409.078          56.450


 121708225.031 7  94837591.29847  23160297.720                    23160298.980
      3049.189        2375.994          45.900          42.950    90886056.376 8
  23160304.320        2277.033          50.500


 127985911.249 6  99729265.65246  24354923.600                    24354928.160
     -3192.237       -2487.463          40.300          39.650



 121906208.406 7  94991850.55947  23197981.680                    23197981.960
     -3124.708       -2434.842          43.550          42.750



 131453402.647 6 102431248.20545  25014749.780                    25014751.200
      3321.749        2588.376          39.050          35.500



 131961915.421 6 102827491.28246  25111516.960                    25111523.340
      1314.517        1024.301          38.850          38.400    98543024.931 7
  25111524.220         981.648          42.600


 128731169.785 6 100310066.63546  24496707.520                    24496708.040
     -2911.323       -2268.563          41.950          41.750



 23  8 31 12 49  0.0000000  0 11G03G04G06G07G09G11G17G19G20G26G31
 119486984.150 7  93106793.65247  22737610.520                    22737613.160
     -2859.475       -2228.164          44.600          44.700    89227342.926 8
  22737614.640       -2135.265          49.350


 108694190.147 8  84696782.69248  20683793.840                    20683793.900
     -1440.437       -1122.418          49.050          48.750    81167815.259 9
  20683798.500       -1075.657          54.800


 108086738.048 8  84223468.77548  20568211.180                    20568213.600
       673.149         524.533          51.150          51.300    80714170.573 9
  20568214.080         502.686          55.300


 126188897.633 7  98329030.99947  24012927.460                    24012930.400
      3285.519        2560.152          43.800          43.550



 106247821.500 8  82790567.57548  20218267.520                    20218268.260
       531.448         414.115          51.800          51.800    79340975.361 9
  20218269.260         396.970          56.550


 121616886.127 7  94766418.18947  23142916.400                    23142917.720
      3039.979        2368.818          45.900          42.700    90817848.831 8
  23142922.980        2270.101          50.200


 128081708.916 7  99803912.92346  24373153.280                    24373157.800
     -3193.961       -2488.808          42.250          38.300



 122000091.864 7  95065006.33047  23215847.300                    23215847.920
     -3134.111       -2442.172          43.500          42.750



 131353739.265 6 102353588.61546  24995784.180                    24995785.980
      3322.140        2588.687          38.500          38.850



 131922703.991 6 102796937.00346  25104055.080                    25104061.440
      1299.739        1012.787          38.100          38.200    98513743.799 7
  25104062.180         970.436          42.100


 128818699.500 6 100378271.58346  24513363.980                    24513364.660
     -2924.144       -2278.557          41.450          41.500



 23  8 31 12 49 30.0000000  0 11G03G04G06G07G09G11G17G19G20G26G31
 119572863.829 7  93173712.79247  22753952.700                    22753955.900
     -2865.689       -2233.007          43.800          43.500    89291473.782 8
  22753956.520       -2139.941          49.400


 108737616.486 8  84730621.37548  20692057.600                    20692057.760
     -1454.618       -1133.470          49.200          48.850    81200243.997 9
  20692062.280       -1086.097          54.800


 108066827.126 8  84207953.77348  20564422.280                    20564424.480
       654.343         509.877          51.000          51.100    80699302.030 9
  20564425.100         488.646          55.650


 126090385.028 7  98252268.09747  23994180.920                    23994183.780
      3282.146        2557.524          44.150          44.550



 106232121.950 8  82778334.17848  20215280.020                    20215280.600
       515.186         401.444          51.950          51.950    79329251.691 9
  20215281.900         384.789          56.950


 121525832.672 7  94695467.49247  23125589.480                    23125590.640
      3030.286        2361.264          45.450          42.400    90749854.430 8
  23125595.840        2262.953          50.100


 128177561.323 6  99878602.91346  24391393.660                    24391397.840
     -3195.881       -2490.307          41.900          37.700



 122094259.745 7  95138383.76746  23233767.080                    23233767.680
     -3143.582       -2449.549          44.100          40.800



 131254069.227 6 102275923.78046  24976817.560                    24976819.360
      3322.690        2589.108          38.900          37.500



 131883946.003 6 102766736.02746  25096679.740                    25096685.740
      1284.637        1001.019          38.100          37.900    98484801.203 7
  25096686.380         959.219          42.750


 128906612.999 7 100446775.59847  24530093.640                    24530094.140
     -2936.716       -2288.351          42.850          42.650



 23  8 31 12 50  0.0000000  0 11G03G04G06G07G09G11G17G19G20G26G31
 119658928.117 7  93240775.79447  22770330.060                    22770333.660
     -2871.598       -2237.611          43.550          43.500    89355742.470 8
  22770333.920       -2144.415          49.650


 108781464.502 8  84764788.64348  20700401.660                    20700401.820
     -1468.507       -1144.292          49.350          49.150    81232987.631 9
  20700406.060       -1096.554          54.450


 108047481.165 8  84192879.00248  20560740.920                    20560742.740
       635.654         495.314          50.750          50.700    80684855.382 9
  20560743.760         474.642          55.650


 125991975.660 7  98175585.61747  23975454.200                    23975456.920
      3278.725        2554.854          43.950          43.850



 106216912.640 8  82766482.78248  20212385.800                    20212386.260
       498.869         388.729          51.600          51.700    79317894.103 9
  20212387.840         372.576          57.000


 121435066.653 7  94624740.78647  23108317.280                    23108318.240
      3020.998        2354.027          45.600          42.700    90682074.688 8
  23108323.360        2255.885          49.700


 128273464.877 6  99953332.74846  24409643.720                    24409647.940
     -3197.393       -2491.482          41.850          41.150



 122188708.755 7  95211980.26746  23251740.160                    23251740.760
     -3152.880       -2456.795          43.350          41.950



 131154392.847 6 102198254.02545  24957849.760                    24957851.540
      3322.898        2589.277          39.500          35.650



 131845642.806 6 102736889.45146  25089390.800                    25089397.000
      1269.346         989.104          38.350          38.150    98456198.252 7
  25089397.440         947.895          42.700


 128994906.959 6 100515576.05346  24546895.740                    24546896.180
     -2949.358       -2298.202          41.450          40.700



 23  8 31 12 50 30.0000000  0 11G03G04G06G07G09G11G17G19G20G26G31
 119745177.135 7  93307982.72747  22786742.680                    22786746.540
     -2878.404       -2242.916          44.350          44.600    89420149.119 8
  22786746.700       -2149.517          49.850


 108825733.376 8  84799283.85748  20708825.840                    20708825.840
     -1482.979       -1155.569          49.150          48.900    81266045.556 9
  20708829.900       -1107.469          54.300


 108028702.272 8  84178246.10148  20557167.460                    20557169.000
       616.215         480.167          50.850          50.750    80670832.185 9
  20557170.420         460.089          55.750


 125893672.662 7  98098986.05047  23956747.680                    23956750.380
      3274.617        2551.655          44.000          44.200



 106202194.187 8  82755013.87348  20209585.020                    20209585.380
       482.040         375.616          51.550          51.700    79306903.070 9
  20209587.120         359.990          57.000


 121344591.509 7  94554240.71847  23091100.420                    23091101.180
      3010.646        2345.960          45.400          42.800    90614512.143 8
  23091106.220        2248.155          49.450


 128369417.452 6 100028100.72346  24427902.800                    24427906.960
     -3199.386       -2493.037          39.450          37.550



 122283435.948 7  95285793.54746  23269766.140                    23269766.840
     -3162.183       -2464.043          42.900          41.650



 131054712.050 6 102120580.83245  24938881.080                    24938882.980
      3322.488        2588.956          40.250          35.950



 131807797.317 6 102707399.54445  25082188.680                    25082195.240
      1253.429         976.704          36.400          35.950    98427937.082 7
  25082195.420         936.003          42.000


 129083579.258 7 100584671.34747  24563769.860                    24563770.040
     -2962.079       -2308.113          42.600          43.150



 23  8 31 12 51  0.0000000  0 11G03G04G06G07G09G11G17G19G20G26G31
 119831611.355 7  93375333.98347  22803190.680                    22803194.640
     -2884.015       -2247.287          44.800          45.000    89484694.060 8
  22803194.860       -2153.744          49.850


 108870422.717 8  84834106.71148  20717329.980                    20717329.740
     -1496.424       -1166.044          48.750          48.750    81299417.459 9
  20717333.880       -1117.537          54.300


 108010492.873 8  84164056.96048  20553702.280                    20553703.740
       597.683         465.728          50.800          50.800    80657234.263 9
  20553705.460         446.259          55.800


 125795479.597 7  98022472.10247  23938062.120                    23938064.720
      3271.381        2549.132          44.000          44.050



 106187967.623 8  82743928.25248  20206877.780                    20206878.200
       466.189         363.265          51.350          51.350    79296279.355 9
  20206879.940         348.077          56.950


 121254411.059 7  94483970.27947  23073939.700                    23073940.220
      3001.431        2338.778          45.500          42.400    90547169.662 8
  23073945.220        2241.138          49.400


 128465417.515 6 100102905.76846  24446171.160                    24446175.560
     -3200.763       -2494.105          40.350          40.000



 122378438.755 7  95359821.58346  23287844.560                    23287845.120
     -3171.313       -2471.157          43.350          41.200



 130955028.943 6 102042905.82146  24919911.800                    24919913.760
      3323.065        2589.407          40.500          37.100



 131770412.769 6 102678268.77946  25075074.540                    25075081.000
      1238.530         965.091          36.600          37.300    98400020.137 7
  25075081.240         924.930          42.300


 129172628.717 7 100654060.50347  24580715.600                    24580715.800
     -2974.518       -2317.808          42.200          42.200



 23  8 31 12 51 30.0000000  0 11G03G04G06G07G09G11G17G19G20G26G31
 119918226.547 7  93442826.27747  22819673.300                    22819676.960
     -2890.235       -2252.134          45.550          45.900    89549374.134 8
  22819677.540       -2158.273          49.950


 108915527.417 8  84869253.22648  20725913.080                    20725912.620
     -1510.444       -1176.970          49.000          48.400    81333099.521 9
  20725916.960       -1127.910          54.250


 107992850.641 8  84150309.77548  20550344.960                    20550346.500
       578.528         450.802          50.750          50.700    80644059.877 9
  20550348.400         432.061          55.950


 125697395.351 7  97946042.95947  23919397.200                    23919400.000
      3267.610        2546.194          44.400          44.650



 106174229.253 8  82733223.04248  20204263.440                    20204263.980
       449.765         350.467          51.800          51.800    79286020.188 9
  20204265.620         335.871          56.900


 121164524.466 7  94413928.83747  23056834.780                    23056835.260
      2991.182        2330.793          45.750          43.300    90480046.606 8
  23056840.300        2233.683          49.650


 128561458.746 6 100177742.79646  24464447.380                    24464452.160
     -3201.785       -2494.908          41.300          37.600



 122473710.307 7  95434059.04246  23305974.160                    23305974.260
     -3180.501       -2478.318          43.250          41.750



 130855341.075 6 101965227.06746  24900941.780                    24900944.000
      3322.693        2589.112          41.150          36.650



 131733487.679 6 102649496.04145  25068047.980                    25068054.100
      1223.332         953.246          36.000          35.300    98372446.287 6
  25068054.600         913.309          41.600


 129262048.821 6 100723738.48246  24597731.680                    24597732.160
     -2986.977       -2327.517          40.850          40.400



 23  8 31 12 52  0.0000000  0 11G03G04G06G07G09G11G17G19G20G26G31
 120005025.381 7  93510461.66047  22836190.880                    22836194.200
     -2896.418       -2256.951          45.600          45.200    89614191.361 8
  22836195.340       -2162.849          49.950


 108961049.285 8  84904724.80348  20734575.620                    20734574.940
     -1524.354       -1187.809          48.900          48.550    81367093.112 9
  20734579.440       -1138.320          54.050


 107975780.184 8  84137008.12948  20547096.460                    20547098.100
       559.383         435.884          50.700          50.700    80631312.467 9
  20547100.140         417.748          55.850


 125599426.463 7  97869703.67647  23900754.220                    23900757.180
      3263.563        2543.040          43.950          43.900



 106160982.199 8  82722900.67748  20201742.560                    20201743.280
       433.349         337.674          51.800          51.850    79276127.920 9
  20201744.840         323.613          56.700


 121074937.725 7  94344121.03447  23039786.940                    23039787.460
      2981.056        2322.902          45.750          43.800    90413147.477 8
  23039792.580        2226.183          49.700


 128657542.219 6 100252612.86946  24482731.780                    24482736.640
     -3203.408       -2496.170          41.350          40.300



 122569251.402 7  95508506.51546  23324155.260                    23324155.100
     -3189.258       -2485.143          43.900          40.250



 130755653.189 6 101887548.32246  24881971.940                    24881974.160
      3322.708        2589.128          41.850          36.100



 131697027.363 5 102621085.51745  25061109.560                    25061115.880
      1207.677         941.051          34.950          34.900    98345219.574 6
  25061116.560         901.620          41.900


 129351840.419 6 100793705.92447  24614818.320                    24614818.920
     -2999.369       -2337.173          41.700          42.000



 23  8 31 12 52 30.0000000  0 11G03G04G06G07G09G11G17G19G20G26G31
 120092005.745 7  93578238.48847  22852743.000                    22852746.000
     -2902.360       -2261.582          46.200          46.250    89679144.144 8
  22852747.680       -2167.367          50.250


 109006985.245 8  84940519.04348  20743317.020                    20743316.300
     -1538.101       -1198.520          49.450          48.250    81401395.916 9
  20743320.780       -1148.565          54.350


 107959281.349 8  84124151.90148  20543956.780                    20543958.460
       540.591         421.240          51.300          51.300    80618991.922 9
  20543960.600         403.542          56.200


 125501573.722 7  97793454.89147  23882133.320                    23882136.260
      3259.917        2540.198          44.400          44.550



 106148224.904 8  82712959.93848  20199314.840                    20199315.800
       417.083         325.000          51.800          51.800    79266601.384 9
  20199317.300         311.422          56.950


 120985652.110 7  94274547.88147  23022796.280                    23022797.040
      2971.470        2315.432          45.150          43.850    90346473.225 8
  23022802.180        2218.660          50.300


 128753663.722 6 100327512.45546  24501023.140                    24501028.560
     -3204.465       -2496.994          41.200          39.200



 122665057.010 7  95583160.11747  23342386.660                    23342386.480
     -3197.788       -2491.785          43.400          42.000



 130655964.651 6 101809869.03646  24863001.800                    24863003.860
      3322.946        2589.313          41.950          36.100



 131661032.475 5 102593037.70846  25054259.840                    25054266.180
      1191.950         928.796          35.650          36.400    98318340.406 6
  25054267.080         890.171          41.750


 129441999.454 6 100863959.70346  24631974.800                    24631975.560
     -3011.231       -2346.415          41.700          41.250



 23  8 31 12 53  0.0000000  0 11G03G04G06G07G09G11G17G19G20G26G31
 120179168.036 7  93646157.09147  22869329.760                    22869332.420
     -2908.701       -2266.522          47.050          47.250    89744232.778 8
  22869334.540       -2172.035          49.850


 109053334.863 8  84976635.61648  20752137.140                    20752136.620
     -1552.229       -1209.529          50.000          48.200    81436007.625 9
  20752140.920       -1159.056          54.350


 107943356.324 8  84111742.79748  20540926.380                    20540927.940
       521.023         405.992          51.650          51.550    80607099.858 9
  20540930.240         389.049          56.200


 125403841.045 7  97717299.65347  23863535.340                    23863538.240
      3255.341        2536.632          44.900          44.850



 106135958.400 8  82703401.63448  20196980.620                    20196981.700
       400.432         312.025          52.200          52.400    79257441.341 9
  20196983.020         299.082          56.750


 120896671.472 7  94205212.37847  23005863.700                    23005864.720
      2960.479        2306.870          44.950          43.850    90280026.695 8
  23005869.740        2210.858          50.650


 128849821.602 6 100402440.42546  24519321.520                    24519327.300
     -3206.201       -2498.349          40.050          39.950



 122761124.992 7  95658018.17046  23360667.820                    23360667.600
     -3206.707       -2498.737          43.500          41.300



 130556277.782 6 101732191.09146  24844031.940                    24844034.300
      3322.462        2588.935          41.700          37.200



 131625506.183 5 102565354.97346  25047499.240                    25047505.700
      1175.703         916.132          35.750          37.150    98291811.121 6
  25047506.620         878.165          41.500


 129532524.167 6 100934498.42046  24649201.040                    24649201.940
     -3023.916       -2356.298          41.150          41.250



 23  8 31 12 53 30.0000000  0 11G03G04G06G07G09G11G17G19G20G26G31
 120266506.376 7  93714212.86247  22885949.940                    22885952.500
     -2914.647       -2271.157          46.800          46.700    89809452.884 8
  22885954.700       -2176.501          49.750


 109100091.223 8  85013069.13248  20761034.680                    20761034.380
     -1565.660       -1219.995          49.600          48.850    81470923.089 9
  20761038.460       -1169.197          54.350


 107928001.063 8  84099777.66148  20538004.440                    20538005.820
       501.927         391.111          51.700          51.850    80595633.271 9
  20538008.280         374.790          56.200


 125306226.029 7  97641236.13147  23844959.660                    23844962.600
      3251.408        2533.568          44.650          44.600



 106124176.855 8  82694221.23248  20194738.720                    20194739.820
       384.248         299.414          52.300          52.350    79248643.465 9
  20194740.820         286.925          56.600


 120807993.143 7  94136112.45147  22988988.600                    22988989.820
      2950.435        2299.043          44.850          44.100    90213805.941 8
  22988994.840        2203.248          50.800


 128946007.900 6 100477390.54846  24537625.600                    24537631.100
     -3207.381       -2499.267          40.350          39.950



 122857446.943 7  95733074.08346  23378997.460                    23378997.520
     -3215.574       -2505.648          44.200          41.600



 130456588.401 7 101654511.18346  24825061.500                    24825063.800
      3322.348        2588.850          42.050          37.800



 131590445.135 5 102538034.76545  25040827.340                    25040833.720
      1160.541         904.322          35.800          35.050    98265629.307 6
  25040834.540         866.559          41.050


 129623406.805 7 101005316.01947  24666495.320                    24666496.500
     -3035.935       -2365.665          42.300          42.350



 23  8 31 12 54  0.0000000  0 11G03G04G06G07G09G11G17G19G20G26G31
 120354026.273 7  93782410.09447  22902604.540                    22902607.160
     -2920.139       -2275.437          47.350          47.300    89874808.555 8
  22902609.280       -2180.621          49.800


 109147258.990 8  85049823.21548  20770010.400                    20770010.260
     -1578.917       -1230.326          49.800          48.100    81506145.750 9
  20770014.160       -1179.047          54.450


 107913222.907 8  84088262.22348  20535192.260                    20535193.580
       483.249         376.559          51.700          51.750    80584597.645 9
  20535196.080         360.829          56.200


 125208736.813 7  97565270.61447  23826408.040                    23826410.520
      3247.749        2530.716          45.450          45.250



 106112886.441 8  82685423.52448  20192590.320                    20192591.280
       368.421         287.082          52.600          52.450    79240212.339 9
  20192591.980         275.077          56.700


 120719626.024 7  94067255.00747  22972172.760                    22972174.180
      2940.518        2291.313          45.000          43.850    90147817.575 8
  22972179.120        2195.835          51.100


 129042226.330 6 100552365.72546  24555935.620                    24555940.900
     -3207.277       -2499.185          39.950          38.900



 122954025.365 7  95808329.87446  23397375.940                    23397376.240
     -3223.162       -2511.557          43.500          41.700



 130356903.754 6 101576834.98245  24806092.020                    24806094.200
      3323.036        2589.384          41.050          34.950



 131555857.617 6 102511083.53546  25034245.480                    25034251.940
      1144.939         892.162          36.400          36.100    98239801.002 6
  25034252.400         855.318          41.100


 129714650.779 7 101076415.18346  24683858.520                    24683859.880
     -3047.302       -2374.524          42.000          41.900



 23  8 31 12 54 30.0000000  0 11G03G04G06G07G09G11G17G19G20G26G31
 120441724.005 7  93850745.91348  22919293.060                    22919295.800
     -2926.057       -2280.046          47.850          48.000    89940297.044 8
  22919297.500       -2184.935          49.700


 109194833.506 8  85086894.24248  20779063.500                    20779063.360
     -1592.235       -1240.703          49.300          48.350    81541672.157 9
  20779067.340       -1189.069          54.600


 107899020.049 8  84077195.05748  20532489.580                    20532490.840
       464.111         361.645          51.700          51.600    80573991.615 9
  20532493.240         346.570          56.100


 125111373.242 7  97489403.03247  23807880.400                    23807882.680
      3243.552        2527.448          44.800          45.050



 106102083.922 8  82677005.98748  20190534.720                    20190535.480
       352.206         274.446          52.100          52.100    79232145.534 9
  20190536.140         263.035          56.900


 120631569.841 7  93998639.88347  22955416.140                    22955417.640
      2930.247        2283.312          45.350          42.700    90082061.431 8
  22955422.560        2188.208          51.300


 129138470.660 6 100627361.05346  24574250.500                    24574255.640
     -3208.358       -2500.028          40.550          38.900



 123050854.183 7  95883780.78147  23415801.960                    23415802.680
     -3231.413       -2517.987          43.650          42.350



 130257222.163 6 101499161.15146  24787123.120                    24787125.340
      3322.686        2589.111          41.350          37.700



 131521742.468 6 102484500.38246  25027753.400                    25027760.000
      1129.892         880.438          36.800          36.950    98214325.526 6
  25027760.160         843.381          41.200


 129806250.506 7 101147791.55746  24701289.380                    24701290.900
     -3059.021       -2383.653          42.050          41.850



 23  8 31 12 55  0.0000000  0 11G03G04G06G07G09G11G17G19G20G26G31
 120529599.711 7  93919220.42447  22936015.540                    22936018.220
     -2932.355       -2284.954          47.600          47.700    90005918.441 8
  22936019.620       -2189.729          49.750


 109242814.035 8  85124281.66548  20788193.900                    20788193.620
     -1606.200       -1251.585          49.600          48.800    81577501.767 9
  20788197.920       -1199.467          54.800


 107885394.368 8  84066577.64348  20529896.840                    20529898.000
       444.354         346.250          52.000          51.750    80563816.593 9
  20529900.220         331.820          56.000


 125014138.753 7  97413636.04947  23789377.200                    23789379.260
      3238.885        2523.812          45.300          45.200



 106091769.824 8  82668969.03948  20188572.020                    20188572.580
       335.572         261.485          52.300          52.150    79224443.466 9
  20188573.520         250.565          57.150


 120543828.048 7  93930269.72747  22938719.460                    22938720.880
      2919.146        2274.662          45.350          43.550    90016540.045 8
  22938725.840        2179.979          51.100


 129234739.568 6 100702375.55446  24592570.200                    24592575.060
     -3209.923       -2501.246          40.850          39.600



 123147931.084 7  95959424.97847  23434275.300                    23434276.240
     -3240.125       -2524.778          44.350          42.300



 130157545.423 6 101421491.10146  24768155.140                    24768157.280
      3322.210        2588.735          40.500          37.150



 131488102.495 6 102458287.49045  25021352.060                    25021358.340
      1113.182         867.418          36.200          35.600    98189204.827 6
  25021358.740         831.229          41.350


 129898204.147 6 101219443.70146  24718787.560                    24718789.060
     -3071.077       -2393.051          40.900          41.350



 23  8 31 12 55 30.0000000  0 11G03G04G06G07G09G11G17G19G20G26G31
 120617650.301 7  93987831.20847  22952771.140                    22952773.780
     -2938.127       -2289.452          46.400          46.750    90071670.418 8
  22952775.000       -2193.978          49.550


 109291196.463 8  85161982.25448  20797400.780                    20797400.440
     -1619.635       -1262.053          49.900          48.250    81613631.483 9
  20797404.940       -1209.360          54.650


 107872344.535 8  84056408.93448  20527413.720                    20527414.780
       425.234         331.352          52.650          52.750    80554071.578 9
  20527416.880         317.617          56.100


 124917033.677 7  97337969.86947  23770898.820                    23770900.040
      3234.573        2520.452          46.400          45.950



 106081941.434 8  82661310.57348  20186701.760                    20186702.160
       319.321         248.822          52.450          52.350    79217104.095 9
  20186703.540         238.500          57.400


 120456400.906 7  93862144.73647  22922082.740                    22922083.860
      2908.731        2266.546          46.650          42.450    89951253.609 8
  22922089.020        2172.187          50.900


 129331027.612 6 100777404.95546  24610893.360                    24610897.620
     -3210.008       -2501.313          39.600          38.350



 123245249.822 7  96035257.58747  23452794.540                    23452795.680
     -3248.115       -2531.002          44.700          42.450



 130057872.049 6 101343823.70446  24749187.740                    24749190.120
      3322.980        2589.341          40.550          36.600



 131454937.130 6 102432444.39845  25015040.960                    25015047.060
      1097.402         855.123          36.800          35.900    98164438.551 6
  25015047.780         819.515          41.700


 129990506.488 6 101291367.56746  24736352.220                    24736353.540
     -3082.647       -2402.063          40.800          40.800



 23  8 31 12 56  0.0000000  0 11G03G04G06G07G09G11G17G19G20G26G31
 120705877.267 7  94056579.41747  22969559.960                    22969562.700
     -2943.914       -2293.961          44.850          44.550    90137554.100 8
  22969563.800       -2198.314          49.400


 109339981.383 8  85199996.47347  20806684.280                    20806683.960
     -1632.803       -1272.314          49.650          47.950    81650061.782 9
  20806688.380       -1219.332          54.500


 107859873.792 8  84046691.47248  20525040.720                    20525041.820
       405.975         316.344          52.300          52.250    80544759.016 9
  20525043.920         303.203          56.500


 124820062.447 7  97262408.01147  23752445.720                    23752446.860
      3230.157        2517.010          45.650          45.550



 106072600.629 8  82654032.04548  20184924.200                    20184924.560
       303.321         236.354          51.850          51.750    79210128.841 9
  20184926.380         226.507          57.700


 120369293.291 7  93794268.72847  22905506.860                    22905507.620
      2898.104        2258.266          46.350          43.100    89886205.795 8
  22905512.980        2164.271          50.750


 129427334.256 6 100852448.85846  24629219.920                    24629223.840
     -3210.348       -2501.578          40.400          38.200



 123342809.813 7  96111278.24246  23471359.780                    23471360.380
     -3255.892       -2537.061          44.600          40.300



 129958205.590 6 101266161.68046  24730221.800                    24730223.940
      3322.288        2588.802          40.150          38.200



 131422250.510 5 102406974.36846  25008820.860                    25008827.040
      1081.738         842.919          35.650          36.450    98140029.811 7
  25008828.100         807.688          42.850


 130083157.030 6 101363562.73346  24753983.000                    24753984.400
     -3094.178       -2411.049          41.300          40.850



 23  8 31 12 56 30.0000000  0 11G03G04G06G07G09G11G17G19G20G26G31
 120794281.814 7  94125466.00247  22986382.560                    22986385.380
     -2950.062       -2298.752          44.900          45.050    90203570.400 8
  22986386.460       -2202.772          49.400


 109389169.045 8  85238324.51848  20816044.440                    20816044.200
     -1646.359       -1282.877          49.850          48.450    81686792.823 8
  20816048.200       -1229.396          53.850


 107847985.131 8  84037427.57648  20522778.420                    20522779.660
       386.413         301.102          51.850          51.850    80535881.116 9
  20522781.820         288.524          56.350


 124723229.758 7  97186954.16447  23734019.000                    23734020.060
      3225.482        2513.367          46.300          46.500



 106063749.095 8  82647134.74948  20183239.800                    20183240.060
       286.795         223.477          51.650          51.650    79203518.933 9
  20183242.160         214.189          57.300


 120282509.801 7  93726645.27647  22888992.660                    22888993.100
      2887.253        2249.809          46.650          42.350    89821400.007 8
  22888998.620        2156.077          50.150


 129523658.835 6 100927506.75746  24647550.040                    24647554.100
     -3211.066       -2502.141          38.900          38.650



 123440609.457 7  96187485.59346  23489970.560                    23489970.980
     -3264.143       -2543.494          44.050          41.500



 129858548.961 6 101188507.30346  24711257.620                    24711259.720
      3321.465        2588.157          38.950          38.200



 131390046.397 5 102381880.33745  25002692.520                    25002698.820
      1065.512         830.272          35.050          35.600    98115981.393 7
  25002700.140         795.594          42.050


 130176155.004 6 101436028.62346  24771679.940                    24771681.400
     -3105.763       -2420.077          41.250          41.200



 23  8 31 12 57  0.0000000  0 11G03G04G06G07G09G11G17G19G20G26G31
 120882856.078 7  94194484.83147  23003237.440                    23003240.380
     -2955.764       -2303.195          44.700          44.950    90269713.421 8
  23003241.540       -2207.084          49.700


 109438750.623 8  85276959.51648  20825479.520                    20825479.360
     -1659.623       -1293.213          49.950          48.650    81723818.031 8
  20825482.940       -1239.304          53.900


 107836672.311 8  84028612.38648  20520625.580                    20520627.000
       367.222         286.146          51.750          51.800    80527433.235 9
  20520629.300         274.167          56.450


 124626530.881 7  97111604.52747  23715617.740                    23715618.480
      3220.713        2509.652          45.450          45.300



 106055379.221 8  82640612.78048  20181647.020                    20181647.220
       270.772         210.991          52.000          52.000    79197268.720 9
  20181649.380         202.135          57.250


 120196045.870 7  93659270.83647  22872539.100                    22872539.340
      2876.465        2241.403          46.900          42.550    89756832.851 8
  22872545.020        2148.045          50.000


 129619991.875 6 101002571.20346  24665881.640                    24665885.720
     -3211.489       -2502.470          39.700          37.700



 123538638.323 7  96263871.54546  23508624.940                    23508625.080
     -3271.689       -2549.376          44.400          41.200



 129758896.210 6 101110855.98046  24692294.280                    24692296.300
      3321.268        2588.009          38.650          37.350



 131358319.459 6 102357158.16946  24996655.100                    24996661.380
      1049.356         817.683          36.350          36.450    98092289.334 7
  24996662.920         783.550          42.050


 130269490.404 6 101508757.45746  24789440.940                    24789442.360
     -3117.071       -2428.889          41.200          40.500



 23  8 31 12 57 30.0000000  0 11G03G04G06G07G09G11G17G19G20G26G31
 120971607.038 7  94263641.33747  23020126.100                    23020129.100
     -2961.997       -2308.053          44.800          44.550    90335988.392 8
  23020130.280       -2211.861          49.550


 109488732.201 8  85315906.19747  20834990.640                    20834990.620
     -1673.542       -1304.059          49.850          47.850    81761141.926 9
  20834994.000       -1249.559          54.000


 107825944.125 8  84020252.76248  20518583.980                    20518585.540
       347.151         270.507          51.700          51.550    80519421.921 9
  20518587.880         259.211          56.250


 124529976.226 7  97036367.32847  23697243.820                    23697244.860
      3215.236        2505.384          45.300          45.300



 106047498.428 8  82634471.91148  20180147.340                    20180147.500
       253.799         197.766          52.100          52.200    79191383.718 9
  20180149.500         189.580          56.900


 120109911.906 7  93592153.50047  22856148.200                    22856148.460
      2864.934        2232.418          46.850          42.950    89692512.094 8
  22856154.140        2139.312          49.800


 129716337.856 6 101077645.77246  24684215.780                    24684219.860
     -3212.623       -2503.350          40.200          37.350



 123636900.747 7  96340439.51146  23527323.940                    23527323.660
     -3280.134       -2555.954          44.650          39.850



 129659256.134 6 101033214.49646  24673333.340                    24673335.020
      3320.489        2587.398          39.650          38.450



 131327079.345 6 102332815.36246  24990710.440                    24990716.300
      1032.221         804.332          37.500          37.350    98068960.796 7
  24990718.240         771.035          42.350


 130363168.245 6 101581753.10646  24807267.080                    24807268.500
     -3129.068       -2438.238          41.250          41.000



 23  8 31 12 58  0.0000000  0 12G03G04G06G07G09G11G17G19G20G26G30G31
 121060531.174 7  94332932.80047  23037047.880                    23037050.800
     -2967.225       -2312.126          45.100          45.000    90402392.677 8
  23037052.120       -2215.761          49.550


 109539109.207 8  85355160.99748  20844577.020                    20844577.000
     -1685.812       -1313.620          49.800          48.300    81798761.115 9
  20844580.560       -1258.962          54.100


 107815798.646 8  84012347.18848  20516653.300                    20516654.920
       328.191         255.733          51.600          51.800    80511845.744 9
  20516657.200         245.181          56.150


 124433565.503 7  96961242.26547  23678897.380                    23678898.540
      3211.202        2502.241          45.600          45.250



 106040103.477 8  82628709.62748  20178740.100                    20178740.300
       238.267         185.662          52.000          52.100    79185861.536 9
  20178742.000         177.955          56.750


 120024107.676 7  93525293.12647  22839820.040                    22839820.460
      2854.582        2224.353          46.950          43.100    89628437.569 8
  22839825.880        2131.586          49.750


 129812691.532 6 101152726.31646  24702551.300                    24702555.980
     -3211.997       -2502.860          39.000          38.550



 123735390.742 7  96417184.81146  23546066.000                    23546064.980
     -3287.047       -2561.341          43.500          39.500



 129559627.104 6 100955581.63746  24654374.360                    24654376.040
      3320.372        2587.308          38.750          37.200



 131296324.836 6 102308850.94946  24984858.100                    24984863.560
      1017.090         792.543          37.100          37.000    98045994.945 6
  24984865.680         759.402          41.750


 136423002.411 5                  25960434.560
      3583.797                          34.150                   101874381.308 6
  25960451.300        2676.261          36.150


 130457182.808 6 101655011.16246  24825157.320                    24825158.820
     -3139.344       -2446.245          41.400          41.250



 23  8 31 12 58 30.0000000  0 12G03G04G06G07G09G11G17G19G20G26G30G31
 121149624.391 7  94402356.02247  23054001.860                    23054004.800
     -2972.103       -2315.926          45.650          45.900    90468923.244 8
  23054006.100       -2219.595          49.800


 109589876.759 8  85394720.13348  20854237.800                    20854237.740
     -1698.441       -1323.462          49.750          48.400    81836671.938 9
  20854241.460       -1268.303          54.500


 107806233.470 8  84004893.80248  20514833.160                    20514834.700
       309.554         241.211          51.650          51.650    80504702.926 9
  20514836.860         231.079          56.200


 124337298.259 7  96886229.02347  23660578.040                    23660579.500
      3206.911        2498.897          44.500          44.200



 106033190.706 8  82623323.05948  20177424.640                    20177424.840
       222.857         173.655          52.050          52.050    79180699.422 9
  20177426.240         166.308          56.850


 119938632.609 7  93458689.22547  22823554.520                    22823555.280
      2844.078        2216.167          46.750          44.500    89564608.836 8
  22823560.140        2123.730          50.000


 129909046.793 6 101227808.09846  24720887.260                    24720892.200
     -3211.367       -2502.368          39.650          39.300



 123834101.365 7  96494101.99746  23564850.200                    23564849.080
     -3293.581       -2566.436          44.000          41.900



 129460006.858 6 100877955.63146  24635416.980                    24635418.660
      3320.872        2587.693          39.850          36.950



 131266054.600 5 102285263.80545  24979097.800                    24979102.860
      1001.023         780.021          34.750          35.350    98023390.677 7
  24979105.100         747.711          42.100



                                                                 101794064.194 6
  25939982.220        2679.023          38.550


 130551528.475 6 101728527.23746  24843110.600                    24843112.040
     -3150.144       -2454.656          39.900          40.400



 23  8 31 12 59  0.0000000  0 12G03G04G06G07G09G11G17G19G20G26G30G31
 121238891.560 7  94471914.78047  23070989.000                    23070992.040
     -2978.329       -2320.778          45.500          45.600    90535583.698 8
  23070993.340       -2224.075          49.850


 109641038.568 8  85434586.46547  20863973.600                    20863973.340
     -1711.733       -1333.819          50.150          47.600    81874877.175 9
  20863977.340       -1278.326          54.100


 107797255.076 8  83997897.63848  20513124.680                    20513126.100
       289.657         225.707          52.150          52.000    80497998.263 9
  20513128.080         216.268          55.900


 124241181.952 7  96811333.39647  23642287.640                    23642289.380
      3201.294        2494.521          45.350          45.250



 106026765.196 8  82618316.18648  20176201.940                    20176202.060
       206.291         160.747          52.300          52.350    79175901.172 9
  20176203.220         153.989          56.600


 119853494.778 7  93392348.10947  22807353.200                    22807354.280
      2832.431        2207.089          46.250          43.650    89501031.936 8
  22807358.580        2115.130          49.900


 130005406.479 6 101302893.29546  24739224.040                    24739229.340
     -3212.056       -2502.911          39.350          38.700



 123933034.910 7  96571192.91546  23583676.740                    23583675.420
     -3301.252       -2572.407          43.900          41.250



 129360402.067 6 100800341.67046  24616462.620                    24616464.300
      3319.723        2586.804          39.950          36.800



 131236275.753 5 102262059.64645  24973430.760                    24973436.040
       984.199         766.912          34.900          34.750    98001153.348 6
  24973438.000         735.221          40.850


 136207762.759 5 106135968.59945  25919476.500                    25919487.520
      3590.617        2797.884          35.050          35.650   101713668.540 6
  25919494.240        2681.095          39.600


 130646207.858 6 101802303.30446  24861127.560                    24861128.980
     -3161.617       -2463.598          40.100          40.650



 23  8 31 12 59 30.0000000  0 12G03G04G06G07G09G11G17G19G20G26G30G31
 121328324.726 7  94541602.87547  23088007.640                    23088010.880
     -2984.095       -2325.271          45.400          45.650    90602368.093 8
  23088012.320       -2228.353          49.900


 109692585.823 8  85474753.15347  20873782.760                    20873782.300
     -1724.874       -1344.058          49.850          47.700    81913370.228 8
  20873786.540       -1288.003          53.850


 107788857.119 8  83991353.76848  20511526.680                    20511527.980
       270.101         210.468          52.050          51.900    80491727.056 9
  20511529.760         201.692          55.750


 124145212.151 7  96736551.92747  23624024.900                    23624026.980
      3196.146        2490.510          44.150          43.850



 106020819.357 8  82613683.08148  20175070.460                    20175070.560
       189.926         147.995          51.850          51.800    79171461.108 9
  20175071.620         141.917          56.500


 119768689.654 7  93326266.24847  22791215.200                    22791216.600
      2821.142        2198.295          46.050          44.900    89437703.493 8
  22791220.480        2106.617          50.250


 130101760.807 6 101377974.35846  24757559.960                    24757565.240
     -3211.835       -2502.739          39.300          39.200



 124032180.778 7  96648449.27946  23602543.460                    23602542.080
     -3308.622       -2578.150          43.350          41.300



 129260806.564 6 100722734.90646  24597509.960                    24597511.720
      3319.920        2586.955          41.000          36.850



 131206982.875 6 102239234.11945  24967856.460                    24967862.060
       968.220         754.461          36.350          35.650    97979278.927 6
  24967863.900         722.931          41.000


 136100002.142 6 106051999.90946  25898970.100                    25898982.060
      3593.331        2800.017          37.600          38.050   101633198.639 6
  25898987.180        2683.441          40.350


 130741210.883 6 101876331.54346  24879206.240                    24879207.700
     -3172.420       -2472.019          40.600          40.650



                            4  1
RINEX FILE SPLICE; other post-header comments skipped       COMMENT
 23  8 31 13  0  0.0000000  0 12G03G04G06G07G09G11G17G19G20G26G30G31
 121417929.670 7  94611424.81547  23105058.900                    23105062.400
     -2989.701       -2329.640          45.700          45.250    90669280.763 8
  23105063.980       -2232.521          50.150


 109744523.312 8  85515223.91648  20883666.160                    20883665.600
     -1737.708       -1354.059          49.700          48.050    81952154.712 8
  20883669.860       -1297.612          53.900


 107781046.999 8  83985267.94348  20510040.520                    20510041.820
       250.703         195.353          52.300          52.350    80485894.808 9
  20510043.420         187.129          55.850


 124049397.848 7  96661891.63247  23605791.860                    23605794.120
      3191.386        2486.800          45.650          46.050



 106015359.249 8  82609428.46648  20174031.340                    20174031.500
       173.912         135.517          52.100          52.150    79167383.774 9
  20174032.560         129.883          56.800


 119684226.375 7  93260450.76347  22775142.420                    22775143.860
      2809.893        2189.528          46.500          44.600    89374630.330 8
  22775147.580        2098.185          50.750


 130198113.638 6 101453054.26446  24775895.620                    24775900.700
     -3211.381       -2502.383          39.000          39.050



 124131542.624 7  96725873.93446  23621451.500                    23621450.620
     -3315.536       -2583.539          42.900          39.550



 129161227.878 6 100645141.24345  24578560.580                    24578562.020
      3319.031        2586.262          41.750          35.650



 131178184.095 6 102216793.62646  24962376.100                    24962381.900
       952.010         741.828          36.750          36.700    97957773.500 6
  24962383.900         710.800          41.050


 135992150.606 6 105967960.31446  25878446.100                    25878457.680
      3596.738        2802.676          36.700          36.500   101552660.856 6
  25878462.940        2685.818          39.900


 130836541.428 6 101950615.04146  24897347.180                    24897348.760
     -3183.039       -2480.291          39.850          39.650



 23  8 31 13  0 30.0000000  0 12G03G04G06G07G09G11G17G19G20G26G30G31
 121507700.845 7  94681376.29047  23122141.840                    23122145.560
     -2995.655       -2334.280          45.500          45.550    90736317.571 8
  23122147.000       -2237.018          49.600


 109796844.521 8  85555993.68748  20893622.560                    20893621.960
     -1751.008       -1364.422          49.550          48.550    81991225.753 8
  20893626.200       -1307.543          53.800


 107773820.739 8  83979637.08848  20508665.460                    20508666.800
       230.690         179.758          51.900          51.900    80480498.565 9
  20508668.240         172.191          55.650


 123953736.788 7  96587350.74947  23587587.960                    23587590.500
      3185.558        2482.260          44.700          45.000



 106010379.651 8  82605548.27648  20173083.660                    20173083.900
       157.443         122.684          51.850          51.700    79163665.259 9
  20173085.060         117.545          56.850


 119600102.837 7  93194899.99847  22759134.360                    22759135.640
      2797.875        2180.164          46.850          45.050    89311810.850 8
  22759139.460        2089.304          50.900


 130294457.485 6 101528127.14246  24794229.560                    24794235.060
     -3211.357       -2502.365          39.750          38.850



 124231111.673 6  96803460.04446  23640398.700                    23640398.600
     -3322.894       -2589.275          40.900          40.550



 129061662.597 6 100567558.02845  24559613.880                    24559614.900
      3318.309        2585.700          41.850          35.600



 131149876.399 6 102194735.79846  24956989.320                    24956995.160
       934.971         728.553          37.750          37.550    97936634.768 6
  24956996.800         698.121          40.250


 135884205.493 5 105883847.90345  25857904.340                    25857915.640
      3599.521        2804.839          33.200          32.850   101472053.315 6
  25857920.780        2687.562          37.750


 130932191.741 6 102025147.67846  24915549.060                    24915550.740
     -3194.105       -2488.918          39.600          39.500



 23  8 31 13  1  0.0000000  0 12G03G04G06G07G09G11G17G19G20G26G30G31
 121597643.394 7  94751461.30547  23139257.400                    23139261.240
     -3000.501       -2338.055          45.400          45.700    90803482.371 8
  23139262.420       -2240.854          48.850


 109849553.612 8  85597065.70447  20903652.760                    20903652.100
     -1763.035       -1373.794          49.550          47.800    82030586.443 9
  20903656.560       -1316.611          54.150


 107767185.033 8  83974466.40148  20507402.720                    20507404.120
       211.670         164.938          51.700          51.750    80475543.316 9
  20507405.480         158.003          55.800


 123858237.318 7  96512935.76947  23569414.760                    23569417.480
      3180.814        2478.563          45.250          44.950



 106005885.928 8  82602046.68848  20172228.420                    20172228.780
       142.016         110.662          51.550          51.300    79160309.576 9
  20172230.160         106.004          57.150


 119516327.485 7  93129620.54347  22743192.560                    22743193.640
      2787.029        2171.712          47.150          44.050    89249251.393 8
  22743197.620        2081.187          51.300


 130390795.601 6 101603195.58346  24812562.400                    24812568.180
     -3210.928       -2502.029          39.800          38.350



 124330890.605 6  96881209.71046  23659385.740                    23659386.140
     -3329.049       -2594.068          41.150          40.600



 128962117.834 6 100489990.80545  24540671.220                    24540671.740
      3318.125        2585.560          41.650          35.650



 131122067.245 6 102173066.39946  24951697.340                    24951703.060
       919.331         716.364          37.000          37.750    97915868.308 6
  24951704.080         686.054          40.150


 135776174.142 5 105799668.31345  25837346.140                    25837357.600
      3602.696        2807.319          34.400          33.600   101391381.287 6
  25837362.100        2690.276          36.200


 131028164.901 6 102099931.92746  24933812.260                    24933813.760
     -3204.238       -2496.806          39.350          40.200



 23  8 31 13  1 30.0000000  0 12G03G04G06G07G09G11G17G19G20G26G30G31
 121687751.663 7  94821675.44647  23156404.400                    23156408.520
     -3006.024       -2342.359          44.650          44.750    90870770.896 8
  23156409.140       -2244.746          48.300


 109902643.929 8  85638434.76847  20913755.460                    20913754.700
     -1775.684       -1383.650          49.850          47.250    82070231.796 9
  20913759.560       -1326.031          54.000


 107761135.704 8  83969752.63048  20506251.600                    20506252.940
       192.203         149.769          52.100          52.250    80471025.948 9
  20506254.340         143.492          55.650


 123762897.077 7  96438644.87047  23551271.920                    23551274.700
      3175.583        2474.488          44.600          44.650



 106001872.697 8  82598919.50548  20171464.640                    20171465.120
       126.116          98.273          51.300          51.150    79157312.697 9
  20171466.740          94.156          57.250


 119432898.014 7  93064610.60947  22727316.500                    22727317.340
      2775.566        2162.781          47.050          44.150    89186950.215 8
  22727321.540        2072.610          50.950


 130487120.112 6 101678253.42946  24830892.680                    24830898.640
     -3209.709       -2501.082          41.950          37.500



 124430871.480 7  96959116.74846  23678411.600                    23678412.140
     -3335.690       -2599.242          42.100          41.550



 128862589.746 7 100412436.52845  24521731.700                    24521731.440
      3317.770        2585.281          42.750          34.750



 131094753.337 6 102151782.91346  24946499.440                    24946505.140
       902.810         703.491          36.900          36.400    97895471.640 6
  24946505.740         673.892          39.750


 135668054.822 6 105715420.09446  25816771.320                    25816782.440
      3605.556        2809.543          37.300          36.700   101310643.536 6
  25816786.620        2692.506          37.000


 131124453.370 6 102174961.80746  24952135.280                    24952136.600
     -3214.625       -2504.905          39.750          38.850



 23  8 31 13  2  0.0000000  0 12G03G04G06G07G09G11G17G19G20G26G30G31
 121778023.424 7  94892016.98447  23173582.580                    23173586.880
     -3011.789       -2346.851          44.250          44.250    90938181.538 8
  23173587.000       -2249.163          48.800


 109956112.302 8  85680098.42347  20923930.120                    20923929.320
     -1788.692       -1393.786          49.650          47.300    82110159.452 9
  20923934.440       -1335.670          54.400


 107755672.101 8  83965495.25948  20505211.960                    20505213.180
       172.243         134.214          52.200          52.250    80466945.963 9
  20505214.780         128.605          56.250


 123667717.221 7  96364478.94247  23533159.600                    23533162.460
      3169.975        2470.117          45.350          45.250



 105998338.000 8  82596165.20048  20170791.920                    20170792.540
       109.838          85.588          51.100          51.050    79154673.162 9
  20170794.420          81.984          57.800


 119349815.572 7  92999871.08447  22711506.320                    22711507.020
      2763.616        2153.469          46.650          44.200    89124908.197 8
  22711511.400        2063.652          51.100


 130583427.339 7 101753297.84346  24849219.740                    24849225.500
     -3209.822       -2501.163          42.250          36.900



 124531049.385 6  97037177.25546  23697474.780                    23697475.820
     -3342.653       -2604.672          41.900          41.300



 128763077.969 6 100334894.95145  24502795.300                    24502794.800
      3316.744        2584.480          41.250          34.250



 131067934.844 5 102130885.46245  24941395.640                    24941401.720
       885.709         690.166          35.950          35.900    97875444.908 6
  24941401.860         661.110          40.200


 135559847.622 6 105631103.39145  25796179.820                    25796191.320
      3608.519        2811.851          36.050          35.700   101229840.115 6
  25796194.420        2694.442          40.050


 131221053.022 6 102250234.23846  24970517.580                    24970518.580
     -3224.867       -2512.882          40.050          40.200



 23  8 31 13  2 30.0000000  0 12G03G04G06G07G09G11G17G19G20G26G30G31
 121868461.534 7  94962488.14247  23190792.460                    23190796.740
     -3017.603       -2351.382          44.100          44.100    91005716.392 8
  23190796.940       -2253.441          48.350


 110009960.600 8  85722058.12347  20934177.040                    20934176.340
     -1801.537       -1403.796          49.350          47.750    82150370.832 8
  20934181.440       -1345.272          53.950


 107750798.529 8  83961697.66248  20504284.520                    20504285.760
       152.358         118.721          51.750          51.800    80463306.607 9
  20504287.600         113.819          56.100


 123572703.925 7  96290442.78247  23515079.120                    23515081.860
      3164.118        2465.554          45.550          45.650



 105995284.940 8  82593786.19648  20170210.900                    20170211.620
        93.574          72.915          51.150          51.050    79152393.283 9
  20170213.680          69.789          57.600


 119267086.387 7  92935406.84047  22695763.260                    22695763.920
      2751.577        2144.088          46.050          45.200    89063129.978 8
  22695768.420        2054.621          50.400


 130679717.595 6 101828328.97446  24867543.400                    24867549.160
     -3209.367       -2500.810          40.850          39.550



 124631424.428 6  97115391.40446  23716575.660                    23716576.600
     -3349.402       -2609.932          41.950          41.150



 128663587.412 6 100257369.97145  24483862.880                    24483862.220
      3315.924        2583.841          40.850          35.800



 131041617.016 6 102110378.09546  24936387.420                    24936393.320
       868.674         676.889          36.400          36.050    97855792.019 6
  24936393.700         648.916          39.900


 135451558.312 6 105546722.59045  25775572.700                    25775584.240
      3610.646        2813.506          36.250          34.750   101148975.334 6
  25775587.160        2696.145          39.800


 131317964.489 6 102325749.56946  24988959.100                    24988960.340
     -3235.788       -2521.393          39.750          40.250



 23  8 31 13  3  0.0000000  0 12G03G04G06G07G09G11G17G19G20G26G30G31
 121959064.346 7  95033087.64847  23208033.720                    23208037.840
     -3022.874       -2355.489          43.750          44.100    91073374.229 8
  23208038.340       -2257.311          48.650


 110064186.152 8  85764311.79847  20944495.800                    20944495.100
     -1813.690       -1413.266          49.250          47.900    82190863.937 8
  20944500.020       -1354.470          53.800


 107746514.813 8  83958359.68548  20503469.280                    20503470.640
       132.968         103.610          51.450          51.400    80460107.715 9
  20503472.640          99.244          56.350


 123477858.499 7  96216537.42547  23497030.540                    23497033.180
      3158.529        2461.197          45.700          45.850



 105992712.043 8  82591781.34848  20169721.320                    20169722.000
        77.784          60.612          51.850          51.950    79150471.970 9
  20169724.120          58.108          57.600


 119184712.153 7  92871219.18047  22680087.800                    22680088.340
      2739.872        2134.968          45.450          44.900    89001616.800 8
  22680092.940        2045.985          50.300


 130775987.777 6 101903344.47746  24885862.980                    24885868.740
     -3208.610       -2500.222          40.750          37.200



 124731992.375 7  97193755.91546  23735713.520                    23735714.320
     -3355.437       -2614.634          42.600          40.950



 128564118.164 6 100179861.57746  24464934.300                    24464934.140
      3315.260        2583.326          40.700          36.900



 131015800.409 5 102090261.33845  24931474.580                    24931480.400
       852.126         663.997          35.900          35.750    97836513.495 6
  24931480.980         636.507          39.700


 135343188.183 6 105462278.73946  25754950.220                    25754961.480
      3613.781        2815.942          38.000          38.700   101068050.078 6
  25754964.380        2698.524          41.300


 131415183.990 6 102401504.99246  25007459.420                    25007460.720
     -3245.605       -2529.045          40.600          40.850



 23  8 31 13  3 30.0000000  0 12G03G04G06G07G09G11G17G19G20G26G30G31
 122049831.008 7  95103814.82747  23225306.160                    23225310.160
     -3027.855       -2359.371          44.050          43.750    91141154.440 8
  23225310.800       -2261.127          48.600


 110118787.161 8  85806858.03747  20954885.960                    20954885.400
     -1826.103       -1422.937          49.100          47.700    82231637.406 8
  20954890.100       -1363.567          53.600


 107742821.566 8  83955481.82848  20502766.440                    20502767.900
       113.465          88.414          51.550          51.600    80457349.765 9
  20502769.980          84.736          56.150


 123383183.635 7  96142764.97047  23479014.520                    23479016.980
      3153.312        2457.130          45.950          45.550



 105990618.726 8  82590150.20648  20169323.040                    20169323.560
        61.928          48.256          51.550          51.450    79148908.790 9
  20169325.600          46.314          57.300


 119102695.398 7  92807310.07447  22664480.480                    22664480.900
      2728.141        2125.825          46.300          45.300    88940370.585 8
  22664485.540        2037.276          49.950


 130872234.995 6 101978342.04746  24904178.460                    24904184.320
     -3207.500       -2499.359          40.300          39.100



 124832749.761 7  97272268.00446  23754887.200                    23754888.220
     -3361.392       -2619.268          43.500          40.550



 128464671.331 6 100102370.62945  24446010.060                    24446010.060
      3314.515        2582.741          40.900          35.050



 130990486.630 6 102070536.38346  24926657.500                    24926663.080
       835.511         651.047          36.950          37.300    97817610.392 6
  24926663.880         623.946          40.600


 135234738.497 6 105377772.86146  25734312.540                    25734323.560
      3616.863        2818.347          38.100          38.150   100987065.386 6
  25734326.660        2700.634          39.550


 131512708.844 6 102477498.35946  25026017.840                    25026019.120
     -3255.672       -2536.887          40.050          40.150



 23  8 31 13  4  0.0000000  0 12G03G04G06G07G09G11G17G19G20G26G30G31
 122140759.470 7  95174668.07447  23242609.360                    23242613.340
     -3034.022       -2364.177          43.900          43.600    91209055.447 8
  23242614.100       -2265.446          48.400


 110173760.515 8  85849694.41148  20965346.960                    20965346.660
     -1838.643       -1432.708          48.600          48.200    82272688.935 8
  20965351.220       -1372.987          53.700


 107739718.082 8  83953063.51248  20502175.900                    20502177.380
        93.540          72.889          52.300          52.400    80455032.216 9
  20502179.440          69.914          56.200


 123288680.162 7  96069126.05347  23461031.040                    23461033.360
      3147.279        2452.431          46.650          46.750



 105989003.062 8  82588891.25348  20169015.560                    20169016.040
        45.792          35.684          51.150          51.150    79147702.298 9
  20169017.920          34.239          57.300


 119021037.344 7  92743680.47747  22648941.580                    22648941.860
      2715.892        2116.281          46.850          45.450    88879392.229 8
  22648946.440        2028.066          50.000


 130968455.183 6 102053318.59246  24922488.720                    24922494.440
     -3206.790       -2498.807          37.900          38.350



 124933692.053 7  97350924.13146  23774096.060                    23774097.000
     -3367.963       -2624.391          43.300          40.050



 128365246.796 6 100024897.06946  24427089.900                    24427090.600
      3313.671        2582.082          40.650          38.500



 130965675.713 6 102051203.28346  24921936.140                    24921941.480
       818.627         637.894          37.050          36.800    97799082.861 6
  24921942.740         611.313          40.850


 135126210.947 6 105293206.19746  25713660.240                    25713671.220
      3618.912        2819.939          41.550          40.750   100906022.394 6
  25713673.920        2702.367          41.100


 131610534.850 6 102553726.34246  25044633.660                    25044634.840
     -3265.860       -2544.830          39.300          39.100



 23  8 31 13  4 30.0000000  0 12G03G04G06G07G09G11G17G19G20G26G30G31
 122231849.688 7  95245647.36047  23259943.180                    23259947.320
     -3039.145       -2368.168          43.700          43.300    91277077.238 8
  23259948.460       -2269.459          48.850


 110229105.267 8  85892820.17548  20975878.680                    20975878.580
     -1851.075       -1442.397          48.350          48.050    82314017.798 8
  20975882.920       -1382.271          53.300


 107737205.794 8  83951105.87548  20501697.940                    20501699.340
        73.902          57.586          52.250          52.200    80453156.151 9
  20501701.300          55.141          55.900


 123194351.692 7  95995623.50547  23443080.880                    23443083.160
      3141.396        2447.848          46.150          46.050



 105987865.274 8  82588004.67948  20168799.020                    20168799.500
        29.971          23.354          51.000          51.300    79146852.665 9
  20168801.240          22.357          57.050


 118939741.438 7  92680333.06547  22633471.620                    22633471.840
      2703.691        2106.773          46.900          45.450    88818684.303 8
  22633476.300        2019.008          49.800


 131064646.781 6 102128272.83246  24940793.440                    24940798.880
     -3206.030       -2498.213          40.050          38.450



 125034816.490 7  97429722.21946  23793339.640                    23793340.480
     -3373.716       -2628.874          42.900          41.200



 128265846.389 6  99947442.32946  24408174.480                    24408175.240
      3313.056        2581.603          41.300          36.250



 130941370.029 6 102032263.87946  24917311.180                    24917316.440
       801.805         624.785          37.900          37.750    97780932.612 6
  24917317.700         598.913          40.950


 135017607.833 6 105208580.61146  25692993.480                    25693004.920
      3621.622        2822.046          38.100          37.900   100824922.919 6
  25693006.540        2704.093          38.500


 131708659.623 6 102630187.21146  25063306.200                    25063307.260
     -3275.541       -2552.369          38.600          38.900



 23  8 31 13  5  0.0000000  0 12G03G04G06G07G09G11G17G19G20G26G30G31
 122323101.629 7  95316752.65247  23277307.780                    23277312.160
     -3044.662       -2372.469          43.300          43.200    91345219.796 8
  23277313.620       -2273.597          49.850


 110284820.343 8  85936234.50348  20986480.840                    20986480.980
     -1863.583       -1452.144          48.550          48.200    82355623.198 8
  20986484.940       -1391.617          53.350


 107735286.040 8  83949609.95348  20501332.740                    20501334.100
        53.885          41.988          52.750          53.150    80451722.549 9
  20501335.800          40.204          55.950


 123100201.163 7  95922259.59847  23425164.500                    23425166.720
      3135.121        2442.958          46.200          46.150



 105987205.480 8  82587490.56948  20168673.500                    20168673.980
        13.840          10.784          51.650          51.700    79146359.972 9
  20168675.540          10.344          57.100


 118858810.913 7  92617270.37147  22618071.120                    22618071.420
      2691.371        2097.174          47.200          45.350    88758249.221 8
  22618075.740        2009.735          50.000


 131160807.359 6 102203202.90046  24959092.200                    24959097.940
     -3204.672       -2497.156          40.250          37.900



 125136120.491 7  97508660.24046  23812617.520                    23812617.820
     -3379.859       -2633.663          43.550          39.400



 128166472.110 7  99870007.95946  24389264.120                    24389265.160
      3311.790        2580.618          42.650          38.300



 130917571.762 6 102013719.83946  24912782.660                    24912788.240
       784.439         611.254          37.900          37.900    97763161.254 6
  24912789.040         585.867          40.100


 134908932.596 6 105123898.85146  25672313.180                    25672324.560
      3623.502        2823.518          36.850          37.300   100743769.522 6
  25672325.820        2705.851          38.800


 131807081.681 6 102706879.68346  25082035.360                    25082036.320
     -3285.826       -2560.384          40.050          40.250



 23  8 31 13  5 30.0000000  0 12G03G04G06G07G09G11G17G19G20G26G30G31
 122414514.936 7  95387983.69447  23294703.100                    23294707.700
     -3050.415       -2376.951          43.300          42.950    91413482.837 8
  23294709.300       -2277.632          49.650


 110340904.375 8  85979936.32648  20997153.300                    20997153.500
     -1875.915       -1461.753          48.800          48.450    82397504.102 8
  20997157.200       -1400.770          53.200


 107733959.811 8  83948576.51348  20501080.380                    20501081.760
        34.115          26.583          52.250          52.250    80450732.167 9
  20501083.180          25.452          55.800


 123006231.467 7  95849036.59547  23407282.520                    23407284.620
      3129.219        2438.356          46.400          46.550



 105987023.527 8  82587348.79548  20168638.940                    20168639.360
        -2.083          -1.622          51.900          51.750    79146224.112 9
  20168640.800          -1.583          57.050


 118778248.794 7  92554494.74947  22602740.620                    22602741.120
      2679.025        2087.555          47.400          45.100    88698089.264 8
  22602745.340        2000.504          50.200


 131256934.953 6 102278107.31146  24977384.860                    24977390.880
     -3204.157       -2496.752          40.300          36.250



 125237601.261 7  97587735.98946  23831928.840                    23831929.280
     -3385.831       -2638.318          43.650          39.400



 128067125.515 7  99792595.14346  24370359.080                    24370360.320
      3310.909        2579.931          43.100          38.900



 130894282.741 6 101995572.64746  24908351.040                    24908356.620
       767.355         597.941          39.300          39.650    97745770.205 6
  24908356.740         573.250          39.600


 134800187.590 6 105039162.72146  25651619.820                    25651631.160
      3625.476        2825.058          39.000          39.400   100662564.138 6
  25651632.300        2707.336          40.550


 131905798.329 6 102783801.72246  25100820.300                    25100821.100
     -3295.552       -2567.959          39.500          39.550



 23  8 31 13  6  0.0000000  0 12G03G04G06G07G09G11G17G19G20G26G30G31
 122506087.182 7  95459338.60747  23312128.700                    23312133.320
     -3055.102       -2380.603          43.500          43.500    91481864.585 8
  23312135.100       -2281.386          48.850


 110397353.951 8  86023922.98647  21007895.420                    21007895.600
     -1887.733       -1470.962          49.350          47.900    82439657.998 8
  21007899.100       -1409.741          52.900


 107733226.021 8  83948004.72948  20500940.660                    20500942.080
        14.506          11.303          51.850          51.750    80450184.196 9
  20500943.360          10.868          55.600


 122912443.733 7  95775955.38347  23389435.080                    23389437.300
      3122.998        2433.509          46.100          46.000



 105987317.132 8  82587577.58848  20168694.980                    20168695.160
       -17.854         -13.911          51.850          51.800    79146443.369 9
  20168696.560         -13.256          56.850


 118698056.028 7  92492006.92647  22587480.300                    22587481.060
      2666.962        2078.152          46.900          46.100    88638205.108 8
  22587485.220        1991.468          50.250


 131353025.266 6 102352982.63945  24995670.360                    24995676.380
     -3202.550       -2495.500          41.250          35.700



 125339253.743 7  97666945.55546  23851272.680                    23851273.380
     -3391.253       -2642.537          42.300          39.100



 127967806.327 7  99715203.69145  24351459.380                    24351460.540
      3310.125        2579.324          43.250          34.750



 130871502.774 6 101977822.08346  24904016.120                    24904021.600
       750.711         584.971          38.900          39.100    97728759.264 6
  24904021.040         560.487          38.500


 134691373.455 6 104954372.71546  25630912.880                    25630924.280
      3628.057        2827.064          40.150          40.400   100581307.086 6
  25630925.780        2709.322          39.950


 132004805.181 6 102860949.89346  25119660.680                    25119661.340
     -3305.198       -2575.481          39.100          40.300



 23  8 31 13  6 30.0000000  0 12G03G04G06G07G09G11G17G19G20G26G30G31
 122597815.931 7  95530815.46447  23329584.340                    23329588.740
     -3060.371       -2384.708          44.100          43.800    91550363.199 8
  23329590.300       -2285.317          48.700


 110454165.656 8  86068191.82848  21018706.440                    21018706.580
     -1899.923       -1480.461          48.850          48.200    82482082.295 8
  21018710.040       -1418.729          53.150


 107733083.536 8  83947893.70048  20500913.360                    20500914.780
        -5.381          -4.193          51.250          51.150    80450077.787 9
  20500916.160          -3.925          55.850


 122818838.434 7  95703016.34147  23371622.320                    23371624.440
      3116.791        2428.674          45.350          45.000



 105988083.965 8  82588175.14148  20168841.040                    20168841.080
       -33.702         -26.261          51.850          51.800    79147016.016 9
  20168842.460         -25.046          57.150


 118618233.476 7  92429807.59547  22572290.400                    22572291.440
      2654.441        2068.397          46.600          46.100    88578597.417 8
  22572295.480        1982.209          50.650


 131449073.948 6 102427825.54346  25013948.060                    25013953.860
     -3201.082       -2494.358          41.100          37.900



 125441072.782 6  97746284.89446  23870648.140                    23870649.440
     -3396.996       -2647.016          41.750          40.300



 127868513.859 7  99637833.02645  24332564.680                    24332565.300
      3309.075        2578.504          43.850          35.950



 130849231.571 6 101960467.97946  24899778.240                    24899783.220
       733.690         571.710          39.000          39.000    97712128.238 6
  24899782.640         548.018          39.600


 134582490.817 6 104869529.24246  25610193.160                    25610204.400
      3630.288        2828.801          39.400          38.850   100499998.876 6
  25610206.300        2710.890          40.850


 132104097.624 6 102938320.54146  25138555.520                    25138555.960
     -3314.957       -2583.085          39.050          37.800



 23  8 31 13  7  0.0000000  0 12G03G04G06G07G09G11G17G19G20G26G30G31
 122689705.591 7  95602417.69647  23347070.640                    23347074.940
     -3065.459       -2388.672          44.850          44.850    91618981.995 7
  23347075.920       -2289.080          47.950


 110511342.890 8  86112745.49548  21029586.880                    21029587.000
     -1911.680       -1489.621          48.800          48.100    82524779.555 8
  21029590.640       -1427.597          52.900


 107733538.086 8  83948247.88748  20500999.780                    20501001.100
       -24.860         -19.372          52.100          51.950    80450417.220 9
  20501002.680         -18.530          55.750


 122725423.371 7  95630225.53847  23353845.760                    23353848.080
      3110.958        2424.129          46.000          46.050



 105989328.638 8  82589145.03348  20169077.940                    20169078.040
       -49.141         -38.291          52.050          52.300    79147945.502 9
  20169079.420         -36.767          57.100


 118538788.938 7  92367902.81347  22557172.540                    22557173.700
      2642.192        2058.853          46.900          46.100    88519272.011 8
  22557177.620        1973.003          50.500


 131545083.533 6 102502638.03346  25032218.380                    25032224.400
     -3199.319       -2492.977          40.350          38.350



 125543060.230 7  97825755.48546  23890055.640                    23890057.420
     -3401.933       -2650.861          42.600          41.800



 127769254.587 7  99560488.24146  24313676.220                    24313676.700
      3308.463        2578.025          43.250          36.500



 130827475.727 6 101943515.44746  24895638.280                    24895642.900
       716.995         558.702          37.300          37.400    97695882.090 6
  24895642.500         535.361          40.950


 134473546.938 6 104784638.23546  25589461.560                    25589473.080
      3632.796        2830.762          38.700          38.150   100418644.982 6
  25589475.400        2712.904          41.500


 132203678.283 6 103015915.89846  25157505.280                    25157505.580
     -3323.908       -2590.062          38.300          37.800



 23  8 31 13  7 30.0000000  0 12G03G04G06G07G09G11G17G19G20G26G30G31
 122781749.655 7  95674140.24947  23364586.320                    23364590.540
     -3071.132       -2393.093          44.900          44.850    91687716.106 7
  23364590.840       -2293.331          47.400


 110568878.127 8  86157578.13147  21040535.520                    21040535.540
     -1923.988       -1499.212          48.850          47.950    82567744.163 8
  21040539.260       -1436.845          52.650


 107734584.435 8  83949063.20748  20501199.000                    20501200.140
       -45.013         -35.075          52.150          52.000    80451198.572 9
  20501201.820         -33.643          55.750


 122632195.211 7  95557580.37047  23336104.880                    23336107.060
      3104.070        2418.760          45.950          45.700



 105991044.744 8  82590482.26048  20169404.460                    20169404.680
       -65.300         -50.883          51.700          51.950    79149227.007 9
  20169406.080         -48.787          57.100


 118459719.259 7  92306290.14047  22542126.100                    22542127.260
      2628.989        2048.565          47.200          45.650    88460226.525 8
  22542131.020        1963.235          50.500


 131641046.064 6 102577413.81446  25050479.780                    25050485.940
     -3198.589       -2492.413          40.150          37.900



 125645207.357 6  97905350.46546  23909493.440                    23909495.600
     -3407.709       -2655.360          41.750          41.200



 127670023.957 7  99483165.77545  24294793.120                    24294793.720
      3306.685        2576.639          43.100          35.400



 130806230.822 6 101926961.06946  24891595.160                    24891600.140
       699.661         545.195          38.250          38.350    97680017.502 6
  24891599.780         522.331          41.550


 134364538.605 6 104699697.02146  25568717.700                    25568729.260
      3634.396        2832.010          38.950          38.800   100337243.050 7
  25568731.880        2713.891          42.750


 132303538.280 6 103093728.81646  25176507.900                    25176508.600
     -3333.503       -2597.536          39.100          39.100



 23  8 31 13  8  0.0000000  0 12G03G04G06G07G09G11G17G19G20G26G30G31
 122873950.677 7  95745985.10547  23382131.660                    23382135.820
     -3075.988       -2396.877          44.350          44.500    91756567.405 7
  23382135.700       -2297.061          47.800


 110626772.900 8  86202690.92748  21051552.560                    21051552.500
     -1935.822       -1508.434          48.600          48.000    82610977.257 8
  21051556.120       -1445.631          52.350


 107736226.363 8  83950342.62348  20501511.600                    20501512.660
       -64.803         -50.496          52.050          52.200    80452424.675 9
  20501514.240         -48.388          55.750


 122539159.805 7  95485085.41147  23318400.700                    23318402.740
      3097.907        2413.959          45.700          45.450



 105993234.932 8  82592188.90048  20169821.160                    20169821.440
       -80.937         -63.067          51.700          51.650    79150862.547 9
  20169822.840         -60.484          56.950


 118381030.292 8  92244974.11147  22527152.280                    22527153.180
      2616.519        2038.847          48.000          45.450    88401465.329 8
  22527156.880        1953.882          50.600


 131736961.744 6 102652153.12246  25068732.120                    25068738.300
     -3196.807       -2491.024          39.750          37.750



 125747513.867 7  97985069.65846  23928961.900                    23928964.280
     -3413.001       -2659.489          42.900          41.050



 127570826.379 6  99405869.08145  24275916.200                    24275916.640
      3305.938        2576.059          41.650          35.900



 130785501.583 6 101910808.48746  24887650.320                    24887654.920
       682.753         532.018          37.950          38.700    97664537.998 6
  24887655.280         509.591          41.300


 134255471.208 6 104614709.69146  25547962.620                    25547973.660
      3636.847        2833.912          37.800          36.300   100255797.043 7
  25547976.840        2715.602          42.300


 132403678.288 6 103171759.97346  25195563.700                    25195564.840
     -3343.081       -2605.003          37.650          36.900



 23  8 31 13  8 30.0000000  0 12G03G04G06G07G09G11G17G19G20G26G30G31
 122966307.565 7  95817951.40947  23399706.640                    23399710.700
     -3081.098       -2400.858          44.900          44.500    91825535.109 8
  23399710.540       -2300.941          48.400


 110685025.179 8  86248082.29247  21062637.640                    21062637.460
     -1947.778       -1517.749          48.800          47.650    82654477.315 8
  21062641.020       -1454.542          52.250


 107738464.033 8  83952086.24848  20501937.440                    20501938.660
       -84.732         -66.025          52.000          51.950    80454095.645 9
  20501940.040         -63.190          55.700


 122446319.223 7  95412742.26547  23300733.660                    23300735.620
      3091.306        2408.814          45.750          45.900



 105995898.247 8  82594264.21748  20170327.920                    20170328.180
       -96.829         -75.451          51.550          51.350    79152851.386 9
  20170329.540         -72.249          56.850


 118302724.320 8  92183956.51447  22512251.300                    22512252.000
      2603.660        2028.827          48.300          45.450    88342990.137 8
  22512255.660        1944.299          50.850


 131832827.396 6 102726853.44046  25086974.760                    25086981.100
     -3194.698       -2489.386          39.650          37.650



 125849976.094 6  98064910.24346  23948460.040                    23948462.320
     -3418.014       -2663.390          41.500          40.850



 127471662.992 6  99328599.04345  24257045.640                    24257046.300
      3304.717        2575.109          41.500          32.300



 130765289.106 6 101895058.60046  24883803.860                    24883808.360
       664.599         517.872          36.850          36.650    97649444.322 7
  24883809.280         496.661          42.200


 134146346.902 6 104529678.15946  25527196.740                    25527208.080
      3638.356        2835.098          37.400          37.300   100174308.527 6
  25527210.580        2716.824          39.650


 132504095.085 6 103250006.83246  25214672.360                    25214673.820
     -3352.171       -2612.078          37.550          37.800



 23  8 31 13  9  0.0000000  0 12G03G04G06G07G09G11G17G19G20G26G30G31
 123058819.141 7  95890038.26947  23417311.300                    23417315.040
     -3086.834       -2405.328          45.750          45.550    91894618.289 8
  23417315.160       -2305.090          48.050


 110743632.682 8  86293750.46247  21073790.300                    21073790.020
     -1960.106       -1527.356          49.050          47.750    82698242.633 8
  21073793.580       -1463.585          52.100


 107741297.385 8  83954294.04948  20502476.540                    20502478.020
      -104.877         -81.723          51.750          51.850    80456211.452 9
  20502479.220         -78.321          55.550


 122353675.630 7  95340552.62147  23283104.060                    23283105.780
      3084.341        2403.389          46.150          46.150



 105999033.488 8  82596707.26248  20170924.440                    20170924.700
      -112.927         -87.995          51.300          51.250    79155192.636 9
  20170926.040         -84.279          56.700


 118224803.419 8  92123238.96347  22497423.600                    22497424.120
      2590.294        2018.412          48.550          45.300    88284802.482 8
  22497427.880        1934.410          51.250


 131928640.692 6 102801512.94645  25105207.520                    25105214.020
     -3193.106       -2488.141          38.350          35.450



 125952590.383 7  98144869.24846  23967987.320                    23967989.440
     -3423.293       -2667.505          42.700          39.900



 127372534.528 6  99251356.17045  24238181.840                    24238182.780
      3303.263        2573.977          40.200          33.650



 130745594.040 6 101879711.86846  24880055.940                    24880060.600
       647.426         504.494          37.550          38.000    97634737.093 7
  24880061.560         483.430          42.350


 134037167.334 6 104444603.59146  25506420.280                    25506431.800
      3639.680        2836.130          38.600          38.850   100092778.770 6
  25506433.640        2717.938          40.900


 132604785.598 6 103328466.90446  25233832.980                    25233835.060
     -3361.278       -2619.180          38.350          37.250



 23  8 31 13  9 30.0000000  0 12G03G04G06G07G09G11G17G19G20G26G30G31
 123151483.774 7  95962244.40647  23434945.000                    23434948.300
     -3091.518       -2408.979          45.450          45.750    91963815.801 7
  23434948.900       -2308.614          47.700


 110802592.868 8  86339693.44247  21085010.080                    21085009.820
     -1971.563       -1536.283          48.850          47.700    82742271.332 8
  21085013.400       -1472.107          52.600


 107744726.083 8  83956965.76148  20503128.840                    20503130.640
      -124.421         -96.951          51.650          51.800    80458771.842 9
  20503131.720         -92.876          55.750


 122261230.636 7  95268517.73247  23265512.220                    23265513.860
      3077.987        2398.438          45.300          45.350



 106002639.280 8  82599516.96048  20171610.540                    20171610.640
      -128.203         -99.898          51.650          51.950    79157885.273 9
  20171612.120         -95.756          56.900


 118147269.394 8  92062822.87047  22482669.340                    22482669.880
      2577.865        2008.727          48.450          45.100    88226903.748 8
  22482673.800        1924.964          51.950


 132024398.140 6 102876129.00546  25123429.460                    25123436.280
     -3191.319       -2486.749          37.550          36.550



 126055352.347 7  98224943.32346  23987542.600                    23987544.520
     -3428.017       -2671.187          43.800          40.600



 127273441.260 6  99174140.74545  24219324.880                    24219325.720
      3302.388        2573.292          41.200          35.700



 130726417.023 6 101864768.80446  24876406.500                    24876411.800
       630.470         491.277          38.700          38.800    97620416.718 7
  24876412.680         470.821          42.650


 133927934.070 6 104359487.19046  25485633.620                    25485645.280
      3641.805        2837.785          38.500          38.550   100011209.005 6
  25485647.180        2719.518          41.600


 132705746.335 6 103407137.65646  25253045.320                    25253047.580
     -3370.237       -2626.153          37.950          38.350



 23  8 31 13 10  0.0000000  0 13G03G04G06G07G09G11G16G17G19G20G26G30
                                G31
 123244299.349 7  96034568.14247  23452607.400                    23452610.380
     -3096.666       -2412.990          44.600          44.750    92033126.033 7
  23452610.960       -2312.440          46.750


 110861902.570 8  86385908.75948  21096296.240                    21096296.120
     -1983.170       -1545.328          48.250          48.050    82786561.015 8
  21096300.040       -1480.892          52.950


 107748749.115 8  83960100.59548  20503894.280                    20503896.260
      -144.382        -112.506          50.900          50.800    80461776.056 9
  20503897.280        -107.805          55.350


 122168985.438 7  95196638.52947  23247958.420                    23247959.820
      3071.175        2393.128          45.350          45.250



 106006713.481 8  82602691.66748  20172385.940                    20172385.720
      -143.932        -112.154          51.900          51.850    79160927.701 9
  20172387.320        -107.500          56.700


 118070123.400 7  92002709.15347  22467988.760                    22467989.540
      2564.629        1998.413          47.650          45.400    88169294.786 8
  22467993.620        1915.164          52.100


 134145256.548 6 104528770.95545  25526992.660                    25526995.720
      2450.796        1909.714          36.700          32.300



 132120095.189 6 102950697.99146  25141640.040                    25141646.480
     -3189.170       -2485.073          38.850          38.200



 126158257.484 7  98305128.99546  24007125.260                    24007126.780
     -3432.774       -2674.895          43.750          41.300



 127174383.155 6  99096952.69346  24200474.900                    24200475.800
      3300.979        2572.196          40.800          38.550



 130707757.858 6 101850229.27546  24872855.840                    24872861.180
       613.293         477.893          38.800          38.050    97606483.025 6
  24872862.120         457.771          41.500


 133818647.843 6 104274329.56846  25464836.740                    25464848.420
      3643.402        2839.034          38.250          38.050    99929599.702 7
  25464850.400        2720.743          42.650


 132806973.027 6 103486015.48746  25272308.060                    25272310.580
     -3378.860       -2632.876          38.150          39.050



 23  8 31 13 10 30.0000000  0 13G03G04G06G07G09G11G16G17G19G20G26G30
                                G31
 123337271.163 7  96107013.60547  23470299.320                    23470302.360
     -3101.478       -2416.740          44.500          44.500    92102552.927 7
  23470302.980       -2315.911          46.550


 110921565.996 8  86432399.71047  21107649.740                    21107649.660
     -1994.321       -1554.018          48.900          47.300    82831114.845 8
  21107654.260       -1489.276          53.550


 107753372.860 8  83963703.51648  20504774.220                    20504775.980
      -163.675        -127.538          52.100          51.950    80465228.858 9
  20504777.020        -122.335          55.150


 122076948.061 7  95124921.28347  23230444.020                    23230445.460
      3064.754        2388.126          45.000          44.650



 106011261.419 8  82606235.52048  20173251.500                    20173251.180
      -159.175        -124.032          52.400          52.550    79164323.885 9
  20173252.680        -118.869          56.650


 117993374.004 7  91942904.48447  22453383.600                    22453384.680
      2551.993        1988.568          47.400          45.550    88111981.988 8
  22453388.840        1905.662          52.350


 134071873.950 6 104471589.82345  25513028.920                    25513030.980
      2441.581        1902.526          36.100          30.900



 132215850.814 6 103025364.96046  25159839.920                    25159846.540
     -3186.414       -2482.928          39.850          37.000



 126261308.183 7  98385428.05046  24026735.440                    24026737.040
     -3437.075       -2678.246          43.100          39.800



 127075367.409 6  99019797.65546  24181632.920                    24181633.780
      3300.136        2571.536          41.900          39.650



 130689623.884 6 101836098.98146  24869405.380                    24869410.480
       595.959         464.387          39.400          40.100    97592941.517 6
  24869411.220         444.895          41.000


 133709316.991 6 104189137.13846  25444031.380                    25444042.940
      3645.745        2840.855          37.500          37.300    99847957.051 7
  25444044.920        2722.260          42.000


 132908468.382 6 103565102.81646  25291622.240                    25291624.380
     -3387.229       -2639.393          37.950          37.300



 23  8 31 13 11  0.0000000  0 13G03G04G06G07G09G11G16G17G19G20G26G30
                                G31
 123430391.779 7  96179575.01747  23488019.620                    23488022.760
     -3106.501       -2420.654          44.000          44.150    92172090.939 7
  23488023.660       -2319.866          47.350


 110981574.828 8  86479159.82447  21119069.100                    21119068.860
     -2006.151       -1563.235          49.050          47.100    82875926.611 9
  21119074.180       -1498.159          54.050


 107758591.155 8  83967769.70348  20505767.420                    20505768.820
      -183.898        -143.298          52.300          52.550    80469125.617 9
  20505769.860        -137.451          55.200


 121985114.634 7  95053362.93947  23212968.600                    23212969.760
      3057.372        2382.372          45.550          45.600



 106016275.782 8  82610142.81848  20174205.780                    20174205.500
      -175.118        -136.456          52.150          52.100    79168068.369 9
  20174206.900        -130.714          56.950


 117917017.211 7  91883405.73447  22438853.160                    22438854.480
      2538.498        1978.052          47.300          44.700    88054962.362 8
  22438858.680        1895.627          52.750


 133998795.583 6 104414645.59545  25499122.400                    25499124.820
      2430.909        1894.211          36.300          32.800



                                  25178027.300                    25178034.380
     -3184.567       -2481.480          36.950          35.450



 126364494.780 7  98465833.02346  24046371.420                    24046372.640
     -3441.882       -2681.991          42.950          41.000



 126976388.971 6  98942671.68546  24162798.180                    24162798.780
      3298.662        2570.392          41.500          38.650



 130672009.746 6 101822373.74846  24866053.720                    24866058.340
       578.226         450.569          38.650          39.450    97579788.161 6
  24866059.060         431.690          40.700


 133599937.329 6 104103906.69046  25423216.640                    25423228.040
      3646.589        2841.517          38.300          38.850    99766277.940 7
  25423230.120        2723.035          42.950


 133010223.678 6 103644392.57746  25310985.680                    25310987.880
     -3396.758       -2646.826          37.150          37.550



 23  8 31 13 11 30.0000000  0 13G03G04G06G07G09G11G16G17G19G20G26G30
                                G31
 123523662.878 7  96252253.68747  23505768.400                    23505771.760
     -3111.493       -2424.542          42.850          42.600    92241741.312 8
  23505773.220       -2323.510          48.150


 111041929.712 8  86526189.58347  21130554.340                    21130554.000
     -2017.502       -1572.080          49.000          47.050    82920996.789 9
  21130559.840       -1506.559          54.250


 107764406.643 8  83972301.23848  20506874.240                    20506875.380
      -203.604        -158.652          51.800          51.700    80473468.340 9
  20506876.320        -152.083          55.050


 121893490.322 7  94981967.53447  23195532.760                    23195534.040
      3050.845        2377.289          44.100          43.400



 106021758.261 8  82614414.87748  20175249.080                    20175248.920
      -190.443        -148.396          52.000          51.850    79172162.428 9
  20175250.440        -142.231          57.150


 117841057.957 7  91824216.75247  22424398.400                    22424399.840
      2525.407        1967.853          47.050          45.200    87998239.609 8
  22424404.100        1885.842          52.650


 133926026.792 5 104357942.70745  25485274.840                    25485278.160
      2420.755        1886.296          34.650          31.500



 132406935.349 6 103174264.72346  25196202.220                    25196209.360
     -3182.677       -2480.006          37.850          36.000



 126467816.907 7  98546343.59346  24066033.040                    24066033.920
     -3446.163       -2685.330          42.250          40.150



 126877451.599 6  98865577.73146  24143971.040                    24143971.480
      3297.323        2569.348          41.150          39.850



 130654918.957 6 101809056.30246  24862801.620                    24862805.680
       561.140         437.254          39.100          39.050    97567025.614 6
  24862806.800         419.034          40.900


 133490513.321 6 104018641.68946  25402393.660                    25402405.060
      3648.314        2842.859          37.000          37.150    99684565.793 7
  25402407.100        2724.316          44.400


 133112238.384 6 103723884.57446  25330398.540                    25330400.400
     -3404.784       -2653.079          36.650          36.500



 23  8 31 13 12  0.0000000  0 13G03G04G06G07G09G11G16G17G19G20G26G30
                                G31
 123617083.183 7  96325048.60547  23523545.520                    23523549.280
     -3116.636       -2428.551          42.750          42.900    92311503.089 8
  23523551.300       -2327.468          48.100


 111102628.330 8  86573487.19247  21142104.960                    21142104.520
     -2029.161       -1581.166          48.850          47.050    82966323.659 9
  21142110.680       -1515.397          54.100


 107770819.168 8  83977297.99848  20508094.520                    20508095.720
      -223.825        -174.410          51.650          51.750    80478256.902 9
  20508096.400        -167.244          55.050


 121802076.904 7  94910736.49447  23178137.340                    23178138.420
      3043.320        2371.427          45.700          45.050



 106027707.628 8  82619050.74848  20176381.240                    20176381.160
      -206.396        -160.829          51.950          51.700    79176605.133 9
  20176382.840        -154.076          57.400


 117765498.298 7  91765339.13247  22410019.740                    22410021.160
      2511.703        1957.173          47.250          44.850    87941815.239 8
  22410025.520        1875.617          52.600


 133853569.840 6 104301482.89645  25471486.600                    25471489.820
      2409.692        1877.680          36.950          35.650



 132502374.092 6 103248625.94046  25214364.320                    25214371.860
     -3180.241       -2478.119          37.600          37.550



 126571270.615 6  98626956.69346  24085719.420                    24085720.540
     -3450.914       -2689.031          40.350          40.250



 126778555.355 6  98788515.82146  24125151.720                    24125151.860
      3295.937        2568.266          40.550          39.050



 130638352.266 6 101796147.26146  24859649.100                    24859653.040
       543.240         423.304          38.950          38.900    97554654.478 6
  24859654.580         405.457          41.000


 133381046.909 6 103933343.61646  25381562.660                    25381573.660
      3649.487        2843.774          39.700          39.850    99602821.899 7
  25381575.740        2725.116          42.900


 133214509.320 6 103803576.10846  25349860.220                    25349861.820
     -3413.535       -2659.904          37.300          38.000



 23  8 31 13 12 30.0000000  0 13G03G04G06G07G09G11G16G17G19G20G26G30
                                G31
 123710654.029 7  96397960.83247  23541351.200                    23541355.300
     -3121.471       -2432.319          43.700          43.900    92381377.279 7
  23541357.860       -2330.966          47.700


 111163670.988 8  86621052.87247  21153720.980                    21153720.580
     -2040.377       -1589.905          49.300          46.700    83011907.419 8
  21153726.640       -1523.667          53.700


 107777831.051 8  83982761.79748  20509428.720                    20509430.180
      -243.491        -189.733          51.550          51.600    80483493.041 9
  20509430.640        -181.955          55.150


 121710878.569 7  94839673.01547  23160782.680                    23160783.720
      3036.569        2366.163          45.550          45.850



 106034125.206 8  82624051.46048  20177602.460                    20177602.460
      -221.534        -172.624          51.950          52.000    79181397.483 9
  20177604.280        -165.493          57.450


 117690342.833 7  91706776.46747  22395718.040                    22395719.320
      2498.615        1946.974          47.400          45.000    87885692.704 8
  22395723.860        1865.743          52.350


 133781430.000 6 104245270.08945  25457758.780                    25457761.620
      2399.798        1869.970          37.650          34.950



 132597745.027 5 103322940.83945  25232513.080                    25232519.880
     -3177.149       -2475.699          34.850          34.250



 126674853.964 7  98707670.77946  24105430.440                    24105431.580
     -3454.761       -2692.030          43.150          40.050



 126679704.096 6  98711488.98746  24106340.520                    24106341.020
      3294.447        2567.106          40.900          39.100



 130622312.883 6 101783649.12546  24856596.800                    24856600.920
       525.922         409.813          37.600          38.100    97542677.064 6
  24856602.720         392.649          41.300


 133271542.480 6 103848015.88346  25360724.260                    25360734.920
      3650.850        2844.827          39.350          39.050    99521049.560 6
  25360737.020        2726.259          41.550


 133317035.443 6 103883466.57946  25369370.520                    25369372.040
     -3421.710       -2666.269          38.000          38.450



 23  8 31 13 13  0.0000000  0 13G03G04G06G07G09G11G16G17G19G20G26G30
                                G31
 123804371.698 7  96470987.48147  23559185.120                    23559189.100
     -3126.659       -2436.360          43.550          43.400    92451361.127 7
  23559191.920       -2334.785          47.050


 111225053.002 8  86668882.98747  21165401.600                    21165401.280
     -2052.062       -1599.011          48.750          46.650    83057744.604 8
  21165406.880       -1532.330          53.300


 107785439.694 8  83988690.60348  20510876.420                    20510878.220
      -263.993        -205.710          51.300          51.250    80489174.806 9
  20510878.560        -197.062          55.200


 121619895.006 7  94768776.88547  23143469.100                    23143470.100
      3028.813        2360.119          45.700          45.750



 106041007.345 8  82629414.16548  20178912.060                    20178912.140
      -237.544        -185.100          51.900          52.000    79186536.736 9
  20178914.100        -177.329          57.550


 117615591.214 7  91648528.50047  22381493.280                    22381494.320
      2484.672        1936.109          47.200          45.450    87829871.736 8
  22381499.120        1855.429          52.200


 133709607.549 6 104189304.60045  25444091.580                    25444094.040
      2388.376        1861.078          38.050          31.700



 132693041.178 6 103397197.42046  25250647.360                    25250654.460
     -3175.732       -2474.599          38.850          37.800



 126778561.148 7  98788481.37146  24125165.520                    24125166.740
     -3459.156       -2695.453          42.600          40.100



 126580896.465 6  98634496.12846  24087537.900                    24087538.280
      3292.887        2565.888          41.350          37.800



 130606799.057 6 101771560.44646  24853644.260                    24853648.640
       508.001         395.843          38.150          38.350    97531092.097 6
  24853650.740         379.462          41.050


 133161999.434 6 103762658.00946  25339878.660                    25339889.060
      3651.562        2845.386          38.500          38.050    99439248.369 6
  25339891.320        2726.896          41.750


 133419811.088 6 103963551.48346  25388928.180                    25388929.620
     -3430.142       -2672.839          38.550          38.450



