     2.11           OBSERVATION DATA    G (GPS)             RINEX VERSION / TYPE
teqc  2019Feb25                         20230831 20:07:56UTCPGM / RUN BY / DATE
Linux 2.6.32-573.12.1.x86_64|x86_64|gcc|Linux 64|=+         COMMENT
teqc  2019Feb25                         20230831 20:07:55UTCCOMMENT
     2.11           OBSERVATION DATA    M (MIXED)           COMMENT
teqc  2019Feb25     IGN-RGP             20230831 13:04:20UTCCOMMENT
teqc  2019Feb25     Administrateur RGP  20230831 13:04:20UTCCOMMENT
teqc  2019Feb25     IGN-RGP             20230831 13:04:20UTCCOMMENT
teqc  2019Feb25     IGN-RGP             20230831 13:04:19UTCCOMMENT
BIT 2 OF LLI FLAGS DATA COLLECTED UNDER A/S CONDITION       COMMENT
PANA                                                        MARKER NAME
10001M008                                                   MARKER NUMBER
Automatic           Lycee Dorian - Paris 11                 OBSERVER / AGENCY
1700671             LEICA GR10          2.00/4.007          REC # / TYPE / VERS
11311010            LEIAS10         NONE                    ANT # / TYPE
  4201030.6890   175603.7900  4780030.2470                  APPROX POSITION XYZ
        0.0000        0.0000        0.0000                  ANTENNA: DELTA H/E/N
     1     1                                                WAVELENGTH FACT L1/2
    21    L1    L2    C1    P1    P2    D1    D2    S1    S2# / TYPES OF OBSERV
          L5    C5    D5    S5    L7    C7    D7    S7    L8# / TYPES OF OBSERV
          C8    D8    S8                                    # / TYPES OF OBSERV
    30.0000                                                 INTERVAL
DefaultJobName                                              COMMENT
DefaultUserDiscription                                      COMMENT
Project creator:                                            COMMENT
 SNR is mapped to RINEX snr flag value [0-9]                COMMENT
  L1 & L2: min(max(int(snr_dBHz/6), 0), 9)                  COMMENT
    18                                                      LEAP SECONDS
Forced Modulo Decimation to 30 seconds                      COMMENT
teqc_2019 edited: all GLONASS satellites excluded           COMMENT
teqc_2019 edited: all SBAS satellites excluded              COMMENT
teqc_2019 edited: all Galileo satellites excluded           COMMENT
  2023     8    31    12     0    0.0000000     GPS         TIME OF FIRST OBS
                                                            END OF HEADER
 23  8 31 12  0  0.0000000  0  7G03G04G06G09G17G19G31
 112109998.185 8  87358453.000 7  21333811.440                    21333810.300
                                        48.300          46.350



 106729426.824 8  83165825.867 8  20309916.960                    20309914.400
                                        49.400          50.150



 112522045.800 8  87679539.227 7  21412225.400                    21412224.940
                                        49.000          47.950



 110154038.614 8  85834356.013 8  20961600.260                    20961599.180
                                        49.750          48.600



 119401086.575 7  93039806.077 7  22721271.960                    22721270.100
                                        47.150          43.250



 114657211.757 7  89343280.37347  21818538.920                    21818534.180
                                        47.000          43.550



 122468587.877 7  95430093.571 7  23304985.020                    23304982.120
                                        45.200          42.350



 23  8 31 12  0 30.0000000  0  7G03G04G06G09G17G19G31
 112173747.934 8  87408128.103 7  21345942.620                    21345941.500
                                        48.300          46.600



 106724735.961 8  83162170.665 8  20309024.300                    20309021.740
                                        49.600          50.100



 112454784.717 8  87627128.016 7  21399426.020                    21399425.560
                                        48.800          47.750



 110091209.003 8  85785397.903 8  20949644.160                    20949643.080
                                        49.850          48.600



 119477934.556 7  93099687.510 7  22735895.760                    22735893.900
                                        46.650          42.650



 114708359.582 7  89383135.76247  21828272.080                    21828267.360
                                        46.850          43.350



 122507297.706 7  95460257.063 7  23312351.240                    23312348.360
                                        45.400          42.600



 23  8 31 12  1  0.0000000  0  7G03G04G06G09G17G19G31
 112237767.396 8  87458013.377 7  21358125.140                    21358124.020
                                        48.650          46.550



 106720586.196 8  83158937.090 8  20308234.600                    20308232.060
                                        49.700          50.200



 112387911.429 8  87575018.981 7  21386700.440                    21386699.980
                                        48.650          47.550



 110028830.035 8  85736790.955 8  20937773.800                    20937772.720
                                        49.650          48.700



 119555115.695 7  93159828.559 7  22750582.960                    22750581.080
                                        46.650          42.200



 114760085.119 7  89423441.31047  21838115.160                    21838110.480
                                        47.650          43.550



 122546606.340 7  95490887.177 7  23319831.400                    23319828.520
                                        45.300          42.550



 23  8 31 12  1 30.0000000  0  7G03G04G06G09G17G19G31
 112302048.220 8  87508102.316 7  21370357.380                    21370356.260
                                        48.950          46.000



 106716969.555 8  83156118.942 8  20307546.360                    20307543.820
                                        49.800          50.100



 112321420.716 8  87523208.068 7  21374047.660                    21374047.180
                                        49.050          47.600



 109966895.337 8  85688530.195 8  20925987.980                    20925986.900
                                        49.850          48.900



 119632619.581 7  93220221.109 7  22765331.560                    22765329.640
                                        46.800          42.150



 114812378.637 8  89464189.45847  21848066.340                    21848061.640
                                        48.300          42.400



 122586504.940 7  95521976.994 7  23327423.820                    23327420.980
                                        45.350          42.700



 23  8 31 12  2  0.0000000  0  7G03G04G06G09G17G19G31
 112366595.284 8  87558398.720 7  21382640.280                    21382639.180
                                        49.000          46.000



 106713891.315 8  83153720.325 8  20306960.580                    20306958.040
                                        49.750          50.200



 112255320.599 8  87471701.515 7  21361469.200                    21361468.720
                                        49.050          47.600



 109905411.843 8  85640621.009 8  20914288.040                    20914286.960
                                        49.850          49.350



 119710449.375 7  93280867.588 7  22780142.180                    22780140.240
                                        46.200          43.300



 114865243.597 8  89505382.87947  21858126.260                    21858121.520
                                        48.300          43.050



 122626998.104 7  95553530.101 7  23335129.400                    23335126.580
                                        44.750          42.900



 23  8 31 12  2 30.0000000  0  7G03G04G06G09G17G19G31
 112431406.396 8  87608900.860 7  21394973.460                    21394972.340
                                        48.650          46.000



 106711349.591 8  83151739.764 8  20306476.920                    20306474.360
                                        49.600          50.150



 112189611.962 8  87420500.016 8  21348965.220                    21348964.720
                                        48.800          48.450



 109844379.262 8  85593063.201 8  20902673.900                    20902672.800
                                        49.550          49.200



 119788601.522 7  93341765.264 7  22795014.160                    22795012.180
                                        45.900          43.650



 114918676.362 7  89547018.75047  21868294.240                    21868289.480
                                        47.950          42.900



 122668083.044 7  95585544.344 7  23342947.580                    23342944.780
                                        45.050          43.000



 23  8 31 12  3  0.0000000  0  7G03G04G06G09G17G19G31
 112496482.567 8  87659609.567 7  21407357.080                    21407355.900
                                        48.200          46.550



 106709345.804 8  83150178.386 8  20306095.620                    20306093.040
                                        49.200          50.150



 112124298.983 8  87369606.821 8  21336536.560                    21336536.040
                                        48.550          48.600



 109783800.648 8  85545859.139 8  20891146.140                    20891145.040
                                        49.600          49.000



 119867074.851 7  93402913.179 7  22809947.260                    22809945.300
                                        45.550          44.050



 114972676.318 7  89589096.59747  21878570.160                    21878565.340
                                        47.600          43.850



 122709760.131 7  95618020.008 7  23350878.440                    23350875.660
                                        44.950          43.150



 23  8 31 12  3 30.0000000  0  7G03G04G06G09G17G19G31
 112561820.075 8  87710521.911 7  21419790.400                    21419789.220
                                        48.350          46.700



 106707876.428 8  83149033.428 8  20305815.980                    20305813.400
                                        49.300          50.300



 112059381.008 8  87319021.416 8  21324183.040                    21324182.560
                                        48.850          48.450



 109723674.150 8  85499007.376 8  20879704.400                    20879703.300
                                        49.950          48.800



 119945863.671 7  93464306.942 7  22824940.380                    22824938.460
                                        45.550          43.500



 115027238.734 7  89631612.71647  21888953.100                    21888948.280
                                        47.800          42.650



 122752024.931 7  95650953.627 7  23358921.140                    23358918.400
                                        45.450          43.100



 23  8 31 12  4  0.0000000  0  7G03G04G06G09G17G19G31
 112627419.823 8  87761638.584 7  21432273.640                    21432272.480
                                        48.300          47.100



 106706942.726 8  83148305.883 8  20305638.280                    20305635.700
                                        49.350          50.300



 111994862.068 8  87268746.962 8  21311905.440                    21311904.980
                                        48.750          48.250



 109664002.645 8  85452510.136 8  20868349.280                    20868348.160
                                        49.900          48.750



 120024967.649 7  93525946.291 7  22839993.460                    22839991.600
                                        45.100          43.650



 115082362.571 7  89674566.33747  21899442.840                    21899438.000
                                        47.350          43.400



 122794878.013 7  95684345.648 7  23367075.800                    23367073.080
                                        45.400          43.050



 23  8 31 12  4 30.0000000  0  7G03G04G06G09G17G19G31
 112693279.927 8  87812958.118 7  21444806.400                    21444805.320
                                        48.000          47.050



 106706543.070 8  83147994.462 8  20305562.220                    20305559.640
                                        49.600          50.050



 111930743.373 8  87218784.369 7  21299704.020                    21299703.580
                                        48.550          47.850



 109604786.183 8  85406367.475 8  20857080.740                    20857079.580
                                        50.050          48.600



 120104382.733 7  93587828.066 7  22855105.720                    22855103.920
                                        46.350          42.650



 115138044.593 7  89717954.87947  21910038.820                    21910033.980
                                        47.950          42.700



 122838317.004 7  95718194.209 7  23375341.980                    23375339.260
                                        45.300          42.050



 23  8 31 12  5  0.0000000  0  7G03G04G06G09G17G19G31
 112759400.898 7  87864480.912 7  21457388.840                    21457387.800
                                        47.850          47.050



 106706678.219 8  83148099.771 8  20305587.920                    20305585.360
                                        49.450          50.100



 111867028.488 8  87169136.438 7  21287579.440                    21287579.020
                                        48.700          47.850



 109546027.101 8  85360581.194 8  20845899.260                    20845898.080
                                        50.050          48.650



 120184107.181 7  93649950.908 7  22870276.860                    22870275.080
                                        46.050          42.950



 115194283.697 7  89761777.52047  21920740.820                    21920735.960
                                        47.150          42.900



 122882341.686 7  95752499.163 7  23383719.600                    23383716.880
                                        44.800          42.700



 23  8 31 12  5 30.0000000  0  8G03G04G06G09G11G17G19G31
 112825783.040 8  87916207.240 7  21470020.940                    21470019.960
                                        48.350          46.950



 106707348.702 8  83148622.241 8  20305715.500                    20305712.940
                                        49.500          50.100



 111803720.860 8  87119805.860 7  21275532.340                    21275531.940
                                        48.900          47.750



 109487727.680 8  85315153.109 8  20834805.260                    20834804.020
                                        50.000          48.750



 130350317.376 6 101571671.406 7  24804839.860                    24804839.160
                                        39.550          44.400



 120264139.690 7  93712313.787 7  22885506.620                    22885504.900
                                        46.300          43.600



 115251078.680 7  89806033.32047  21931548.560                    21931543.720
                                        47.000          43.100



 122926951.548 7  95787260.096 7  23392208.600                    23392205.860
                                        44.850          43.050



 23  8 31 12  6  0.0000000  0  8G03G04G06G09G11G17G19G31
 112892421.188 8  87968133.070 7  21482701.740                    21482700.800
                                        48.200          47.150



 106708549.622 8  83149558.029 8  20305944.020                    20305941.460
                                        49.550          50.300



 111740818.404 8  87070790.995 7  21263562.340                    21263561.960
                                        48.700          47.800



 109429884.592 8  85270080.616 8  20823798.080                    20823796.800
                                        49.650          48.800



 130243481.864 6 101488423.078 7  24784509.740                    24784509.260
                                        40.000          44.750



 120344473.170 7  93774911.184 7  22900793.680                    22900792.000
                                        46.150          44.100



 115308422.896 7  89850717.08047  21942460.820                    21942456.020
                                        47.000          43.150



 122972140.967 7  95822472.645 7  23400807.860                    23400805.140
                                        44.400          43.200



 23  8 31 12  6 30.0000000  0  8G03G04G06G09G11G17G19G31
 112959317.724 7  88020260.226 7  21495431.740                    21495430.860
                                        47.900          47.100



 106710283.521 8  83150909.126 8  20306273.960                    20306271.400
                                        49.650          50.150



 111678326.536 8  87022096.060 7  21251670.500                    21251670.120
                                        48.700          47.700



 109372502.093 8  85225367.001 8  20812878.520                    20812877.240
                                        49.550          48.550



 130136731.428 6 101405241.025 7  24764195.820                    24764195.260
                                        41.050          44.800



 120425108.428 7  93837743.707 7  22916138.160                    22916136.580
                                        46.400          44.200



 115366316.873 7  89895829.22747  21953477.680                    21953472.940
                                        46.950          42.650



 123017911.483 7  95858137.976 7  23409517.700                    23409515.000
                                        44.500          43.100



 23  8 31 12  7  0.0000000  0  8G03G04G06G09G11G17G19G31
 113026473.005 7  88072588.979 7  21508210.980                    21508210.160
                                        47.550          46.650



 106712550.940 8  83152675.952 8  20306705.440                    20306702.880
                                        49.600          50.000



 111616248.694 8  86973723.759 8  21239857.420                    21239857.060
                                        48.450          48.000



 109315582.311 8  85181013.948 8  20802047.020                    20802045.740
                                        49.350          49.150



 130030069.293 6 101322127.769 7  24743898.680                    24743898.120
                                        40.700          44.500



 120506043.920 7  93900810.199 7  22931539.780                    22931538.260
                                        45.600          44.350



 115424759.153 7  89941368.61647  21964598.900                    21964594.180
                                        47.550          42.250



 123064262.745 7  95894255.824 7  23418338.060                    23418335.400
                                        44.350          42.900



 23  8 31 12  7 30.0000000  0  8G03G04G06G09G11G17G19G31
 113093886.258 7  88125118.750 7  21521039.280                    21521038.540
                                        47.550          46.000



 106715351.280 8  83154858.047 8  20307238.320                    20307235.740
                                        49.900          49.800



 111554587.188 8  86925675.871 7  21228123.560                    21228123.260
                                        48.900          47.900



 109259126.385 8  85137022.352 8  20791303.760                    20791302.520
                                        49.950          48.950



 129923497.634 6 101239085.036 7  24723618.660                    24723618.180
                                        40.900          43.500



 120587276.763 7  93964108.400 7  22946997.940                    22946996.500
                                        45.600          43.400



 115483747.848 7  89987333.80146  21975824.080                    21975819.360
                                        47.000          41.600



 123111193.478 7  95930825.194 7  23427268.680                    23427266.080
                                        44.100          42.400



 23  8 31 12  8  0.0000000  0  8G03G04G06G09G11G17G19G31
 113161552.488 7  88177845.644 7  21533915.720                    21533915.040
                                        47.750          45.950



 106718679.706 8  83157451.620 8  20307871.720                    20307869.100
                                        49.900          49.750



 111493340.099 8  86877950.889 8  21216468.600                    21216468.320
                                        49.000          48.050



 109203131.126 8  85093389.699 8  20780648.180                    20780646.960
                                        49.950          48.800



 129817014.429 6 101156111.194 7  24703355.480                    24703355.060
                                        40.900          42.800



 120668800.188 7  94027633.032 7  22962511.380                    22962510.060
                                        44.800          43.400



 115543275.965 7  90033719.29746  21987151.960                    21987147.180
                                        47.550          41.350



 123158697.693 7  95967841.418 7  23436308.440                    23436305.880
                                        43.850          42.650



 23  8 31 12  8 30.0000000  0  8G03G04G06G09G11G17G19G31
 113229473.375 7  88230771.002 7  21546840.600                    21546839.960
                                        47.900          46.200



 106722538.016 8  83160458.102 8  20308605.940                    20308603.280
                                        49.750          49.750



 111432512.104 8  86830552.499 7  21204893.360                    21204893.120
                                        49.200          47.800



 109147599.986 8  85050118.727 8  20770080.920                    20770079.720
                                        50.100          48.900



 129710624.253 6 101073209.852 7  24683110.000                    24683109.600
                                        41.150          42.850



 120750613.973 7  94091383.908 7  22978080.060                    22978078.860
                                        45.050          43.350



 115603343.692 7  90080525.27047  21998582.500                    21998577.700
                                        47.700          42.950



 123206776.275 7  96005305.238 7  23445457.460                    23445454.940
                                        43.350          42.950



 23  8 31 12  9  0.0000000  0  8G03G04G06G09G11G17G19G31
 113297645.168 8  88283891.862 7  21559813.260                    21559812.620
                                        48.550          46.650



 106726922.589 8  83163874.644 8  20309440.320                    20309437.620
                                        49.500          50.350



 111372102.574 8  86783480.178 7  21193397.780                    21193397.520
                                        49.350          47.700



 109092531.043 8  85007207.890 8  20759601.640                    20759600.420
                                        49.900          49.000



 129604326.320 7 100990380.391 7  24662882.060                    24662881.720
                                        42.200          42.950



 120832712.522 7  94155356.705 7  22993702.900                    22993701.860
                                        43.950          43.600



 115663945.353 7  90127747.28747  22010114.680                    22010109.840
                                        47.950          42.350



 123255424.937 7  96043213.259 7  23454714.960                    23454712.500
                                        43.650          42.250



 23  8 31 12  9 30.0000000  0  8G03G04G06G09G11G17G19G31
 113366069.088 8  88337209.177 7  21572833.920                    21572833.280
                                        48.100          46.550



 106731834.734 8  83167702.285 8  20310375.060                    20310372.360
                                        49.300          50.250



 111312115.708 8  86736737.184 7  21181982.640                    21181982.380
                                        49.300          47.150



 109037927.230 8  84964659.490 8  20749210.860                    20749209.620
                                        49.950          48.900



 129498124.852 7 100907626.077 6  24642672.500                    24642672.220
                                        42.000          41.950



 120915095.114 7  94219550.795 7  23009379.820                    23009378.920
                                        44.100          43.350



 115725080.557 7  90175385.04947  22021748.400                    22021743.540
                                        47.550          42.950



 123304643.780 7  96081565.582 6  23464080.960                    23464078.540
                                        44.000          41.750



 23  8 31 12 10  0.0000000  0  8G03G04G06G09G11G17G19G31
 113434744.073 8  88390722.130 7  21585902.360                    21585901.720
                                        48.100          46.700



 106737273.454 8  83171940.265 8  20311410.000                    20311407.300
                                        49.400          50.150



 111252553.491 8  86690325.102 7  21170648.320                    21170648.020
                                        49.250          47.550



 108983789.287 8  84922474.116 8  20738908.720                    20738907.480
                                        49.800          49.100



 129392021.728 6 100824948.399 7  24622481.660                    24622481.420
                                        41.900          42.600



 120997758.593 7  94283963.791 7  23025110.180                    23025109.420
                                        43.450          43.700



 115786746.432 7  90223436.34647  22033483.080                    22033478.220
                                        47.150          43.150



 123354430.793 7  96120360.635 6  23473555.080                    23473552.700
                                        44.300          41.700



 23  8 31 12 10 30.0000000  0  8G03G04G06G09G11G17G19G31
 113503672.670 8  88444432.680 7  21599019.080                    21599018.460
                                        48.050          46.850



 106743241.348 8  83176590.578 8  20312545.640                    20312542.940
                                        49.300          50.050



 111193421.486 8  86644248.245 7  21159395.860                    21159395.520
                                        49.400          47.350



 108930121.452 8  84880655.057 8  20728696.060                    20728694.800
                                        50.050          49.050



 129286022.466 6 100742351.655 7  24602310.580                    24602310.360
                                        41.900          42.000



 121080703.939 7  94348596.375 7  23040894.220                    23040893.580
                                        44.600          43.400



 115848943.466 7  90271901.52047  22045318.820                    22045313.960
                                        47.100          42.700



 123404788.027 7  96159599.986 6  23483137.760                    23483135.400
                                        44.550          40.900



 23  8 31 12 11  0.0000000  0  8G03G04G06G09G11G17G19G31
 113572848.228 7  88498335.682 7  21612182.780                    21612182.180
                                        47.800          46.950



 106749731.858 8  83181648.141 8  20313780.700                    20313778.020
                                        49.600          50.100



 111134716.121 8  86598503.842 7  21148224.580                    21148224.180
                                        49.400          46.950



 108876918.853 8  84839198.517 8  20718571.940                    20718570.660
                                        49.950          49.100



 129180123.435 6 100659833.007 6  24582158.560                    24582158.380
                                        41.400          41.550



 121163922.360 7  94413441.783 7  23056730.200                    23056729.640
                                        45.200          43.650



 115911663.699 7  90320774.37447  22057254.140                    22057249.280
                                        46.700          42.600



 123455707.760 7  96199277.674 6  23492827.460                    23492825.100
                                        44.900          41.800



 23  8 31 12 11 30.0000000  0  8G03G04G06G09G11G17G19G31
 113642272.686 7  88552432.639 7  21625393.840                    21625393.260
                                        47.850          46.950



 106756746.897 8  83187114.413 8  20315115.600                    20315112.940
                                        49.600          50.350



 111076442.262 8  86553095.676 7  21137135.400                    21137134.960
                                        49.550          47.500



 108824185.092 8  84798107.315 8  20708537.000                    20708535.740
                                        49.350          49.100



 129074329.471 6 100577396.222 7  24562026.540                    24562026.380
                                        41.200          42.200



 121247413.475 7  94478499.676 7  23072618.120                    23072617.600
                                        45.450          43.350



 115974907.470 7  90370055.16947  22069289.060                    22069284.240
                                        46.800          43.350



 123507191.135 7  96239394.514 6  23502624.480                    23502622.120
                                        44.950          41.650



 23  8 31 12 12  0.0000000  0  8G03G04G06G09G11G17G19G31
 113711945.281 7  88606722.942 7  21638652.120                    21638651.580
                                        47.650          47.000



 106764285.763 8  83192988.858 8  20316550.200                    20316547.540
                                        49.650          50.350



 111018602.226 8  86508025.546 7  21126128.800                    21126128.300
                                        49.600          47.650



 108771921.155 8  84757382.196 8  20698591.480                    20698590.220
                                        49.800          48.900



 128968642.933 6 100495043.155 7  24541914.940                    24541914.820
                                        38.950          43.000



 121331174.952 7  94543768.247 7  23088557.480                    23088556.960
                                        45.750          43.500



 116038671.595 7  90419741.42447  22081423.000                    22081418.220
                                        46.550          43.300



 123559236.465 7  96279949.251 6  23512528.420                    23512526.080
                                        44.650          41.400



 23  8 31 12 12 30.0000000  0  8G03G04G06G09G11G17G19G31
 113781865.658 7  88661206.343 7  21651957.540                    21651957.040
                                        47.650          46.850



 106772348.107 8  83199271.214 8  20318084.400                    20318081.740
                                        49.400          50.200



 110961198.641 8  86463295.510 7  21115205.260                    21115204.700
                                        49.650          47.700



 108720128.364 8  84717024.200 8  20688735.580                    20688734.360
                                        50.050          49.150



 128863066.343 6 100412775.826 7  24521824.220                    24521824.120
                                        37.800          43.700



 121415204.498 7  94609245.701 7  23104547.900                    23104547.360
                                        45.300          43.000



 116102954.037 7  90469831.57947  22093655.560                    22093650.840
                                        46.900          43.200



 123611842.302 7  96320940.767 6  23522539.020                    23522536.680
                                        45.250          41.550



 23  8 31 12 13  0.0000000  0  8G03G04G06G09G11G17G19G31
 113852032.784 7  88715881.988 7  21665309.920                    21665309.480
                                        47.650          46.750



 106780932.851 8  83205960.621 8  20319718.020                    20319715.360
                                        49.200          49.800



 110904233.444 8  86418907.070 7  21104365.120                    21104364.520
                                        49.400          47.700



 108668807.343 8  84677033.817 8  20678969.500                    20678968.280
                                        50.250          49.550



 128757601.773 6 100330595.750 7  24501754.820                    24501754.760
                                        39.250          44.050



 121499499.392 7  94674929.925 7  23120588.800                    23120588.220
                                        45.300          42.050



 116167752.156 7  90520323.54047  22105986.260                    22105981.600
                                        47.150          42.800



 123665006.526 7  96362367.366 6  23532655.920                    23532653.560
                                        45.400          41.000



 23  8 31 12 13 30.0000000  0  8G03G04G06G09G11G17G19G31
 113922445.199 8  88770748.776 7  21678708.980                    21678708.580
                                        48.300          46.900



 106790038.435 8  83213055.892 8  20321450.740                    20321448.080
                                        49.250          49.700



 110847708.139 8  86374861.425 8  21093608.700                    21093608.040
                                        49.650          48.000



 108617958.241 8  84637411.182 8  20669293.200                    20669292.020
                                        50.350          49.650



 128652250.750 6 100248504.154 7  24481707.040                    24481707.020
                                        40.150          45.050



 121584055.745 7  94740817.907 7  23136679.420                    23136678.820
                                        45.350          42.550



 116233062.205 7  90571214.43846  22118414.360                    22118409.740
                                        47.400          41.950



 123718726.807 7  96404227.271 6  23542878.620                    23542876.240
                                        45.450          40.350



 23  8 31 12 14  0.0000000  0  8G03G04G06G09G11G17G19G31
 113993100.338 8  88825804.684 7  21692154.260                    21692153.860
                                        48.300          47.000



 106799662.386 8  83220555.080 8  20323282.080                    20323279.420
                                        49.400          49.750



 110791623.181 8  86331158.893 8  21082936.060                    21082935.380
                                        49.550          48.500



 108567580.171 8  84598155.584 8  20659706.560                    20659705.380
                                        49.950          49.200



 128547013.775 6 100166501.409 7  24461680.980                    24461681.000
                                        40.650          45.250



 121668869.280 7  94806906.269 7  23152819.020                    23152818.400
                                        45.850          42.850



 116298880.037 7  90622501.00347  22130939.120                    22130934.500
                                        47.250          42.950



 123772999.683 7  96446517.751 6  23553206.500                    23553204.080
                                        45.350          40.500



 23  8 31 12 14 30.0000000  0  8G03G04G06G09G11G17G19G31
 114063999.595 8  88881050.823 7  21705646.000                    21705645.600
                                        48.400          47.150



 106809805.915 8  83228459.146 8  20325212.300                    20325209.620
                                        49.450          49.650



 110735982.937 8  86287802.901 8  21072348.040                    21072347.360
                                        49.450          48.350



 108517676.160 8  84559269.385 8  20650210.100                    20650208.920
                                        50.100          49.050



 128441895.251 6 100084590.973 7  24441677.500                    24441677.520
                                        39.450          45.250



 121753939.347 7  94873194.526 7  23169007.440                    23169006.800
                                        45.200          42.350



 116365204.966 7  90674182.69747  22143560.380                    22143555.780
                                        47.250          42.350



 123827825.613 7  96489239.193 6  23563639.600                    23563637.140
                                        45.050          40.700



 23  8 31 12 15  0.0000000  0  8G03G04G06G09G11G17G19G31
 114135144.128 8  88936488.079 7  21719184.420                    21719184.040
                                        48.450          47.900



 106820470.132 8  83236768.927 8  20327241.640                    20327238.940
                                        49.250          50.000



 110680791.493 8  86244796.617 8  21061845.440                    21061844.740
                                        49.850          48.650



 108468248.936 8  84520754.700 8  20640804.380                    20640803.200
                                        50.300          49.350



 128336899.282 6 100002776.051 7  24421697.320                    24421697.340
                                        38.800          44.950



 121839265.127 7  94939682.044 7  23185244.520                    23185243.860
                                        46.050          43.050



 116432036.321 7  90726259.00647  22156278.020                    22156273.400
                                        47.200          42.550



 123883204.517 7  96532391.541 6  23574177.920                    23574175.420
                                        45.650          40.750



 23  8 31 12 15 30.0000000  0  8G03G04G06G09G11G17G19G31
 114206532.758 7  88992115.546 7  21732769.280                    21732768.920
                                        47.850          47.700



 106831653.773 8  83245483.450 8  20329369.800                    20329367.100
                                        49.200          50.150



 110626050.609 8  86202141.415 8  21051428.560                    21051427.900
                                        49.750          48.650



 108419298.943 8  84482611.878 8  20631489.480                    20631488.280
                                        50.050          49.200



 128232027.795 6  99921058.134 7  24401740.780                    24401740.840
                                        39.750          44.150



 121924843.382 7  95006366.291 7  23201529.660                    23201528.980
                                        46.050          43.500



 116499370.941 7  90778727.49147  22169091.400                    22169086.780
                                        47.350          43.250



 123939133.990 7  96575972.893 6  23584821.000                    23584818.500
                                        45.550          41.150



 23  8 31 12 16  0.0000000  0  8G03G04G06G09G11G17G19G31
 114278160.110 7  89047929.032 7  21746399.580                    21746399.240
                                        47.750          47.100



 106843351.342 8  83254598.448 8  20331595.760                    20331593.060
                                        49.100          50.100



 110571757.897 8  86159835.442 8  21041096.980                    21041096.340
                                        49.400          48.850



 108370822.347 8  84444837.948 8  20622264.660                    20622263.440
                                        50.100          49.200



 128127278.503 6  99839435.393 7  24381807.540                    24381807.640
                                        41.900          44.400



 122010666.932 7  95073241.679 7  23217861.480                    23217860.780
                                        45.600          44.000



 116567201.583 7  90831582.46147  22181999.220                    22181994.580
                                        47.750          42.850



 123995607.684 7  96619978.313 6  23595567.640                    23595565.120
                                        45.850          41.600



 23  8 31 12 16 30.0000000  0  8G03G04G06G09G11G17G19G31
 114350028.472 7  89103930.312 7  21760075.720                    21760075.400
                                        47.350          46.750



 106855564.922 8  83264115.542 8  20333919.900                    20333917.220
                                        49.350          50.300



 110517918.472 8  86117882.672 8  21030851.660                    21030851.040
                                        49.700          48.750



 108322822.942 8  84407435.866 8  20613130.640                    20613129.380
                                        50.200          49.400



 128022656.711 7  99757911.997 7  24361898.580                    24361898.720
                                        42.750          44.350



 122096736.020 7  95140308.401 7  23234240.020                    23234239.320
                                        44.600          44.550



 116635528.276 7  90884823.97546  22195001.420                    22194996.780
                                        47.200          41.900



 124052626.965 7  96664408.867 6  23606418.100                    23606415.600
                                        45.950          41.550



 23  8 31 12 17  0.0000000  0  8G03G04G06G09G11G17G19G31
 114422137.638 7  89160119.234 7  21773797.660                    21773797.360
                                        47.600          46.600



 106868294.224 8  83274034.504 8  20336342.180                    20336339.500
                                        49.350          50.050



 110464535.152 8  86076285.311 8  21020693.120                    21020692.540
                                        49.900          48.550



 108275302.179 8  84370406.737 8  20604087.700                    20604086.440
                                        50.500          49.150



 127918165.292 7  99676490.212 7  24342014.440                    24342014.560
                                        42.700          44.500



 122183048.572 7  95207564.806 7  23250664.880                    23250664.240
                                        44.650          44.650



 116704348.972 7  90938450.43447  22208097.620                    22208092.980
                                        47.350          42.250



 124110190.272 7  96709263.369 6  23617372.060                    23617369.580
                                        45.800          41.750



 23  8 31 12 17 30.0000000  0  8G03G04G06G09G11G17G19G31
 114494486.338 7  89216494.785 7  21787565.200                    21787564.920
                                        47.650          46.750



 106881537.814 8  83284354.185 8  20338862.360                    20338859.700
                                        49.550          49.950



 110411609.569 8  86035044.615 8  21010621.700                    21010621.140
                                        49.950          48.400



 108228260.266 8  84333750.715 8  20595135.900                    20595134.640
                                        50.350          49.400



 127813806.023 6  99595171.391 7  24322155.460                    24322155.580
                                        41.400          44.400



 122269600.980 7  95275008.106 7  23267135.400                    23267134.800
                                        45.200          44.950



 116773660.363 7  90992459.24246  22221287.220                    22221282.560
                                        47.550          41.150



 124168295.320 7  96754539.966 6  23628429.160                    23628426.680
                                        45.700          41.550



 23  8 31 12 18  0.0000000  0  8G03G04G06G09G11G17G19G31
 114567070.412 7  89273053.749 7  21801377.520                    21801377.240
                                        47.900          46.800



 106895291.330 8  83295071.212 8  20341479.580                    20341476.900
                                        49.650          50.000



 110359140.442 8  85994159.595 8  21000637.160                    21000636.620
                                        50.250          48.200



 108181694.527 8  84297465.758 8  20586274.720                    20586273.420
                                        50.100          49.400



 127709577.784 7  99513954.686 7  24302321.400                    24302321.520
                                        42.400          44.150



 122356387.304 7  95342633.682 7  23283650.400                    23283649.900
                                        45.400          45.000



 116843456.241 7  91046845.56946  22234569.020                    22234564.340
                                        47.250          41.550



 124226936.628 7  96800234.458 6  23639588.260                    23639585.820
                                        45.450          41.150



 23  8 31 12 18 30.0000000  0  8G03G04G06G09G11G17G19G31
 114639892.308 7  89329798.044 7  21815235.100                    21815234.820
                                        47.700          47.250



 106909557.048 8  83306187.369 8  20344194.240                    20344191.560
                                        49.250          49.950



 110307133.150 8  85953634.466 8  20990740.480                    20990739.920
                                        50.100          48.050



 108135608.930 8  84261554.967 8  20577504.860                    20577503.560
                                        49.950          49.200



 127605486.186 6  99432844.460 7  24282513.340                    24282513.460
                                        41.500          43.850



 122443407.820 7  95410441.745 7  23300209.940                    23300209.560
                                        45.300          45.100



 116913737.077 7  91101609.80446  22247943.100                    22247938.400
                                        47.350          41.200



 124286115.816 7  96846348.088 6  23650849.720                    23650847.260
                                        45.000          41.750



 23  8 31 12 19  0.0000000  0  8G03G04G06G09G11G17G19G31
 114712950.678 7  89386726.568 7  21829137.700                    21829137.460
                                        47.600          47.500



 106924333.430 8  83317701.431 8  20347006.100                    20347003.420
                                        49.100          49.750



 110255589.190 8  85913470.357 8  20980932.000                    20980931.420
                                        49.950          48.250



 108090003.667 8  84226018.429 8  20568826.440                    20568825.140
                                        50.150          49.150



 127501532.900 6  99351841.982 7  24262731.620                    24262731.720
                                        41.300          43.950



 122530659.328 7  95478429.792 7  23316813.460                    23316813.180
                                        44.600          45.300



 116984499.819 7  91156749.51246  22261408.920                    22261404.220
                                        46.200          41.650



 124345829.804 7  96892878.429 6  23662212.960                    23662210.500
                                        44.750          41.850



 23  8 31 12 19 30.0000000  0  8G03G04G06G09G11G17G19G31
 114786246.223 8  89443839.923 7  21843085.440                    21843085.200
                                        48.000          47.400



 106939620.928 8  83329613.777 8  20349915.200                    20349912.500
                                        49.500          49.650



 110204512.155 8  85873670.101 8  20971212.360                    20971211.740
                                        50.200          48.600



 108044880.837 8  84190857.811 8  20560239.820                    20560238.500
                                        50.600          49.200



 127397721.795 7  99270950.314 7  24242976.920                    24242977.020
                                        42.250          43.750



 122618140.395 7  95546596.718 7  23333460.660                    23333460.460
                                        43.800          44.600



 117055742.427 7  91212263.13946  22274966.020                    22274961.360
                                        45.450          40.550



 124406078.402 7  96939825.385 6  23673677.900                    23673675.440
                                        45.300          41.850



 23  8 31 12 20  0.0000000  0  8G03G04G06G09G11G17G19G31
 114859774.779 7  89501134.836 7  21857077.520                    21857077.320
                                        47.850          47.700



 106955415.113 8  83341920.946 8  20352920.740                    20352918.020
                                        49.600          49.900



 110153900.733 8  85834232.654 8  20961581.320                    20961580.700
                                        50.100          48.900



 108000237.742 8  84156071.013 8  20551744.500                    20551743.160
                                        50.550          49.250



 127294051.735 7  99190168.543 7  24223249.080                    24223249.180
                                        42.450          44.250



 122705845.114 7  95614937.908 7  23350150.400                    23350150.320
                                        43.900          44.600



 117127458.805 7  91268145.95346  22288613.240                    22288608.640
                                        45.850          41.400



 124466855.851 7  96987184.426 7  23685243.480                    23685241.000
                                        45.450          42.400



 23  8 31 12 20 30.0000000  0  8G03G04G06G09G11G17G19G31
 114933536.459 7  89558611.404 7  21871113.960                    21871113.780
                                        47.700          47.650



 106971715.870 8  83354622.843 8  20356022.660                    20356019.920
                                        49.100          49.900



 110103757.888 8  85795160.330 8  20952039.440                    20952038.840
                                        49.900          48.800



 107956075.911 8  84121659.242 8  20543340.760                    20543339.400
                                        50.200          49.050



 127190525.936 7  99109499.190 7  24203548.680                    24203548.760
                                        43.000          44.200



 122793771.332 7  95683451.696 7  23366882.320                    23366882.300
                                        43.750          44.200



 117199647.408 7  91324396.73947  22302350.320                    22302345.800
                                        45.000          42.000



 124528161.357 7  97034954.962 7  23696909.540                    23696907.040
                                        44.800          42.250



 23  8 31 12 21  0.0000000  0  8G03G04G06G09G11G17G19G31
 115007533.801 7  89616271.605 7  21885195.220                    21885195.100
                                        47.550          47.650



 106988525.473 8  83367721.231 8  20359221.420                    20359218.680
                                        49.050          50.050



 110054089.041 8  85756457.342 8  20942587.780                    20942587.200
                                        49.950          48.550



 107912399.362 8  84087625.599 8  20535029.380                    20535027.960
                                        50.200          49.100



 127087150.105 7  99028946.682 7  24183876.800                    24183876.900
                                        43.750          44.100



 122881919.620 7  95752138.510 7  23383656.500                    23383656.540
                                        44.800          43.400



 117272308.187 7  91381015.45447  22316177.200                    22316172.800
                                        44.500          43.400



 124589996.240 7  97083137.978 7  23708676.380                    23708673.840
                                        44.950          42.000



 23  8 31 12 21 30.0000000  0  8G03G04G06G09G11G17G19G31
 115081761.705 7  89674111.471 7  21899320.360                    21899320.300
                                        47.350          47.600



 107005838.534 8  83381211.950 8  20362515.960                    20362513.240
                                        49.400          50.150



 110004891.911 8  85718121.943 8  20933225.860                    20933225.280
                                        50.050          48.550



 107869204.344 8  84053967.193 8  20526809.620                    20526808.160
                                        50.250          48.900



 126983922.254 7  98948509.481 7  24164233.120                    24164233.180
                                        43.500          44.800



 122970282.574 7  95820992.625 7  23400471.540                    23400471.580
                                        44.900          42.650



 117345433.853 7  91437996.42547  22330092.520                    22330088.280
                                        44.850          44.000



 124652353.892 7  97131728.378 6  23720542.640                    23720540.080
                                        43.850          41.650



 23  8 31 12 22  0.0000000  0  8G03G04G06G09G11G17G19G31
 115156220.277 7  89732131.073 7  21913489.400                    21913489.400
                                        47.550          47.600



 107023654.870 8  83395094.807 8  20365906.300                    20365903.580
                                        49.200          49.950



 109956169.416 8  85680156.379 8  20923954.260                    20923953.700
                                        49.900          48.450



 107826492.396 8  84020685.187 8  20518681.800                    20518680.300
                                        50.300          48.850



 126880845.540 7  98868190.064 7  24144618.180                    24144618.220
                                        43.550          45.200



 123058858.535 7  95890012.713 7  23417327.120                    23417327.160
                                        45.750          43.200



 117419022.403 7  91495338.06247  22344095.920                    22344091.880
                                        45.700          42.650



 124715233.189 7  97180725.242 6  23732508.160                    23732505.580
                                        43.500          41.650



 23  8 31 12 22 30.0000000  0  8G03G04G06G09G11G17G19G31
 115230909.581 7  89790330.482 7  21927702.320                    21927702.400
                                        47.850          47.750



 107041974.249 8  83409369.653 8  20369392.360                    20369389.660
                                        49.250          50.000



 109907924.475 8  85642562.937 8  20914773.520                    20914772.980
                                        50.100          48.300



 107784264.923 8  83987780.703 8  20510646.160                    20510644.620
                                        50.150          49.000



 126777923.211 7  98787990.945 7  24125032.620                    24125032.640
                                        43.450          46.000



 123147645.628 7  95959197.330 7  23434222.880                    23434222.920
                                        46.200          43.150



 117493071.857 7  91553038.87647  22358187.040                    22358183.140
                                        46.400          43.250



 124778632.841 7  97230127.586 6  23744572.680                    23744570.120
                                        43.550          41.950



 23  8 31 12 23  0.0000000  0  8G03G04G06G09G11G17G19G31
 115305826.268 7  89848707.064 7  21941958.540                    21941958.680
                                        47.550          47.900



 107060792.947 8  83424033.579 8  20372973.420                    20372970.760
                                        49.100          50.000



 109860156.500 8  85605341.144 8  20905683.580                    20905683.000
                                        50.250          48.050



 107742519.938 8  83955252.178 8  20502702.340                    20502700.760
                                        50.350          48.900



 126675155.028 7  98707911.950 7  24105476.400                    24105476.400
                                        42.900          46.350



 123236638.371 7  96028542.190 7  23451157.780                    23451157.820
                                        45.750          43.350



 117567576.943 7  91611094.71347  22372364.900                    22372361.100
                                        47.100          42.350



 124842548.295 7  97279931.870 6  23756735.340                    23756732.800
                                        43.900          41.700



 23  8 31 12 23 30.0000000  0  8G03G04G06G09G11G17G19G31
 115380973.758 7  89907263.489 7  21956258.680                    21956258.860
                                        47.050          47.950



 107080114.049 8  83439089.010 8  20376650.080                    20376647.420
                                        48.900          50.050



 109812871.698 8  85568495.881 8  20896685.560                    20896684.940
                                        49.800          48.100



 107701262.202 8  83923103.318 8  20494851.240                    20494849.640
                                        50.500          48.850



 126572547.541 7  98627958.177 7  24085950.740                    24085950.740
                                        42.850          45.800



 123325837.969 7  96098048.230 7  23468132.040                    23468132.100
                                        45.650          43.250



 117642538.608 7  91669506.32447  22386629.660                    22386625.920
                                        46.600          42.800



 124906981.191 7  97330139.361 6  23768996.460                    23768993.920
                                        43.900          41.650



 23  8 31 12 24  0.0000000  0  8G03G04G06G09G11G17G19G31
 115456348.006 7  89965996.604 7  21970601.960                    21970602.220
                                        46.900          47.850



 107099933.226 8  83454532.535 8  20380421.540                    20380418.900
                                        49.150          50.000



 109766068.828 8  85532026.116 8  20887779.280                    20887778.640
                                        49.800          48.100



 107660489.021 8  83891332.032 8  20487092.360                    20487090.720
                                        50.500          49.250



 126470099.907 7  98548128.930 7  24066455.540                    24066455.520
                                        42.550          45.000



 123415238.466 7  96167710.808 7  23485144.540                    23485144.600
                                        45.350          42.950



 117717950.640 7  91728268.86547  22400980.160                    22400976.400
                                        46.950          43.250



 124971926.482 7  97380746.120 6  23781355.120                    23781352.560
                                        43.650          41.800



 23  8 31 12 24 30.0000000  0  8G03G04G06G09G11G17G19G31
 115531950.562 7  90024907.624 7  21984988.700                    21984989.020
                                        46.900          47.750



 107120251.602 8  83470365.052 8  20384288.000                    20384285.360
                                        49.200          49.800



 109719752.246 8  85495935.292 7  20878965.500                    20878964.860
                                        50.200          47.950



 107620203.285 8  83859940.575 8  20479426.240                    20479424.560
                                        50.700          49.100



 126367816.777 7  98468427.875 7  24046991.660                    24046991.600
                                        43.050          44.900



 123504839.383 7  96237529.553 7  23502195.140                    23502195.260
                                        45.150          42.200



 117793812.342 7  91787381.79246  22415416.240                    22415412.460
                                        47.600          41.700



 125037384.090 7  97431752.064 6  23793811.300                    23793808.700
                                        43.350          41.000



 23  8 31 12 25  0.0000000  0  8G03G04G06G09G11G17G19G31
 115607779.055 7  90083994.693 7  21999418.420                    21999418.800
                                        46.800          47.700



 107141066.425 8  83486584.411 8  20388248.920                    20388246.300
                                        48.950          49.800



 109673922.268 8  85460223.634 8  20870244.340                    20870243.680
                                        50.100          48.150



 107580403.841 8  83828928.049 8  20471852.660                    20471850.960
                                        50.400          49.250



 126265698.986 7  98388855.677 7  24027559.220                    24027559.100
                                        43.950          45.700



 123594635.992 7  96307500.811 7  23519282.980                    23519283.100
                                        45.450          42.450



 117870118.928 7  91846841.37546  22429936.980                    22429933.160
                                        47.950          41.250



 125103350.158 7  97483154.223 6  23806364.240                    23806361.600
                                        43.700          41.550



 23  8 31 12 25 30.0000000  0  8G03G04G06G09G11G17G19G31
 115683833.337 7  90143257.683 7  22013891.100                    22013891.560
                                        46.750          47.150



 107162377.165 8  83503190.196 8  20392304.200                    20392301.600
                                        49.050          49.250



 109628581.509 8  85424893.173 7  20861616.300                    20861615.600
                                        50.050          47.800



 107541091.861 8  83798295.370 8  20464371.820                    20464370.120
                                        50.250          49.250



 126163749.553 7  98309414.618 7  24008158.880                    24008158.720
                                        44.300          45.250



 123684626.587 7  96377623.212 6  23536407.720                    23536407.880
                                        44.850          41.750



 117946868.471 7  91906646.12246  22444542.040                    22444538.140
                                        47.500          39.900



 125169823.475 7  97534951.614 6  23819013.740                    23819011.060
                                        42.900          41.150



 23  8 31 12 26  0.0000000  0  8G03G04G06G09G11G17G19G31
 115760111.955 7  90202695.496 7  22028406.480                    22028406.960
                                        46.950          46.900



 107184181.994 8  83520180.985 8  20396453.500                    20396450.900
                                        48.900          49.300



 109583731.297 8  85389944.966 7  20853081.580                    20853080.860
                                        49.950          47.700



 107502267.189 8  83768042.408 8  20456983.700                    20456982.020
                                        50.150          49.400



 126061970.184 7  98230106.123 7  23988790.860                    23988790.620
                                        43.950          44.650



 123774807.531 7  96447893.920 6  23553568.700                    23553568.900
                                        44.950          41.700



 118024056.981 7  91966792.93246  22459230.600                    22459226.660
                                        47.000          41.050



 125236800.899 7  97587141.796 6  23831759.140                    23831756.460
                                        42.350          41.200



 23  8 31 12 26 30.0000000  0  8G03G04G06G09G11G17G19G31
 115836616.257 7  90262309.172 7  22042964.800                    22042965.300
                                        46.750          46.000



 107206481.782 8  83537557.469 8  20400696.980                    20400694.380
                                        48.850          49.250



 109539375.642 8  85355382.143 7  20844640.960                    20844640.220
                                        49.700          47.600



 107463932.367 8  83738171.147 8  20449688.800                    20449687.120
                                        49.900          49.350



 125960365.329 7  98150933.585 7  23969456.080                    23969455.780
                                        44.650          44.000



 123865178.076 7  96518312.396 7  23570765.740                    23570765.980
                                        44.350          42.650



 118101683.572 7  92027281.10146  22474002.540                    22473998.540
                                        46.850          40.200



 125304282.535 7  97639724.902 6  23844600.440                    23844597.780
                                        42.200          41.700



 23  8 31 12 27  0.0000000  0  8G03G04G06G09G11G17G19G31
 115913341.516 7  90322095.029 7  22057565.180                    22057565.640
                                        46.900          45.300



 107229271.441 8  83555315.664 8  20405033.680                    20405031.080
                                        48.850          49.250



 109495512.597 8  85321203.154 7  20836294.100                    20836293.320
                                        49.800          47.700



 107426083.960 8  83708678.903 8  20442486.440                    20442484.800
                                        50.100          49.350



 125858933.549 7  98071895.918 7  23950154.220                    23950153.840
                                        44.800          43.250



 123955731.350 7  96588873.212 7  23587997.580                    23587997.900
                                        44.400          43.750



 118179741.201 7  92088105.16046  22488856.500                    22488852.440
                                        47.000          41.000



 125372261.960 7  97692695.868 6  23857536.480                    23857533.860
                                        42.050          41.900



 23  8 31 12 27 30.0000000  0  8G03G04G06G09G11G17G19G31
 115990289.248 7  90382054.235 7  22072207.920                    22072208.300
                                        46.850          45.250



 107252552.005 8  83573456.371 8  20409463.800                    20409461.200
                                        49.100          49.550



 109452146.334 8  85287411.257 7  20828041.760                    20828040.960
                                        49.850          47.850



 107388724.688 8  83679567.813 8  20435377.160                    20435375.560
                                        50.000          49.300



 125757679.518 7  97992996.732 7  23930886.200                    23930885.740
                                        45.550          43.600



 124046466.837 7  96659576.033 7  23605264.060                    23605264.480
                                        44.900          43.700



 118258229.242 7  92149264.61346  22503792.340                    22503788.260
                                        47.250          39.950



 125440739.074 6  97746054.625 6  23870567.220                    23870564.660
                                        41.900          41.750



 23  8 31 12 28  0.0000000  0  8G03G04G06G09G11G17G19G31
 116067455.852 7  90442183.985 7  22086892.320                    22086892.620
                                        46.950          45.050



 107276319.408 8  83591976.438 8  20413986.580                    20413983.960
                                        49.150          49.400



 109409275.933 8  85254005.742 7  20819883.800                    20819882.980
                                        49.650          47.750



 107351852.109 8  83650835.968 8  20428360.480                    20428358.900
                                        50.050          49.050



 125656602.781 7  97914235.741 7  23911651.900                    23911651.320
                                        44.700          44.050



 124137379.034 7  96730416.547 7  23622564.200                    23622564.700
                                        44.350          43.650



 118337142.128 7  92210755.09046  22518809.060                    22518804.920
                                        46.150          40.800



 125509709.111 7  97799797.490 6  23883691.740                    23883689.280
                                        42.100          41.650



 23  8 31 12 28 30.0000000  0  8G03G04G06G09G11G17G19G31
 116144844.208 7  90502486.540 7  22101618.920                    22101619.100
                                        47.100          45.050



 107300576.037 8  83610877.720 8  20418602.460                    20418599.800
                                        49.100          49.300



 109366906.976 8  85220990.982 7  20811821.220                    20811820.400
                                        49.800          47.700



 107315470.350 8  83622486.560 8  20421437.220                    20421435.660
                                        50.000          48.900



 125555709.468 7  97835617.657 7  23892452.500                    23892451.840
                                        44.250          44.850



 124228468.508 7  96801395.208 7  23639898.080                    23639898.620
                                        44.900          43.600



 118416480.128 7  92272576.83346  22533906.660                    22533902.480
                                        45.600          40.650



 125579173.138 7  97853925.282 6  23896910.300                    23896907.880
                                        42.050          41.650



 23  8 31 12 29  0.0000000  0  9G03G04G06G07G09G11G17G19G31
 116222454.424 7  90562961.980 7  22116387.740                    22116387.780
                                        47.200          45.400



 107325321.508 8  83630159.917 8  20423311.360                    20423308.700
                                        49.250          49.700



 109325042.176 8  85188369.075 8  20803854.600                    20803853.740
                                        49.850          48.050



 130193357.954 6 101449384.83616  24774971.960
                                        41.850          40.650



 107279580.644 8  83594520.588 8  20414607.600                    20414606.020
                                        50.100          49.150



 125455002.812 7  97757145.032 7  23873288.600                    23873287.900
                                        45.250          44.600



 124319733.174 7  96872510.352 7  23657265.340                    23657265.900
                                        45.550          44.350



 118496240.476 7  92334727.67746  22549084.620                    22549080.440
                                        45.350          41.550



 125649130.115 7  97908437.183 6  23910222.680                    23910220.280
                                        42.300          41.300



 23  8 31 12 29 30.0000000  0  9G03G04G06G07G09G11G17G19G31
 116300277.837 7  90623603.541 7  22131197.140                    22131197.060
                                        47.500          45.850



 107350546.766 8  83649815.978 8  20428111.580                    20428108.900
                                        49.100          49.900



 109283675.632 8  85156135.423 8  20795982.780                    20795981.920
                                        50.100          48.100



 130092702.773 6 101370952.639 6  24755817.840                    24755821.500
                                        41.050          39.550



 107244175.599 8  83566932.272 8  20407870.180                    20407868.620
                                        49.950          49.450



 125354477.446 7  97678813.664 7  23854159.220                    23854158.420
                                        44.750          44.350



 124411162.698 7  96943753.975 7  23674663.960                    23674664.540
                                        45.400          43.900



 118576412.558 7  92397199.35246  22564340.900                    22564336.760
                                        46.200          41.950



 125719569.533 7  97963324.994 7  23923626.900                    23923624.500
                                        42.400          42.100



 23  8 31 12 30  0.0000000  0  9G03G04G06G07G09G11G17G19G31
 116378323.705 7  90684418.436 7  22146048.860                    22146048.680
                                        47.600          46.150



 107376260.445 8  83669852.626 8  20433004.740                    20433002.040
                                        48.900          49.850



 109242819.116 8  85124299.191 7  20788208.020                    20788207.140
                                        50.250          47.950



 129992057.982 6 101292528.554 6  24736665.520                    24736668.960
                                        41.300          39.550



 107209265.487 8  83539729.614 8  20401226.960                    20401225.420
                                        50.200          49.450



 125254145.761 7  97600633.212 7  23835066.700                    23835065.820
                                        44.650          44.600



 124502764.062 7  97015131.477 7  23692095.320                    23692095.880
                                        44.950          43.900



 118657003.296 7  92459997.23547  22579676.880                    22579672.760
                                        46.050          43.200



 125790498.822 6  98018594.535 6  23937124.340                    23937121.940
                                        41.650          41.750



 23  8 31 12 30 30.0000000  0  9G03G04G06G07G09G11G17G19G31
 116456587.892 7  90745403.438 7  22160942.140                    22160941.880
                                        47.400          46.500



 107402457.943 8  83690266.273 8  20437989.960                    20437987.260
                                        48.850          49.600



 109202471.154 8  85092859.244 8  20780530.040                    20780529.140
                                        50.200          48.000



 129891422.818 6 101214111.944 6  24717515.000                    24717518.340
                                        41.600          38.550



 107174847.309 8  83512910.294 8  20394677.360                    20394675.820
                                        50.500          49.350



 125154006.845 7  97522602.962 7  23816010.840                    23816009.900
                                        44.700          44.650



 124594530.577 7  97086637.705 7  23709558.080                    23709558.600
                                        45.250          43.100



 118738006.076 7  92523116.20247  22595091.240                    22595087.180
                                        45.950          42.300



 125861912.389 6  98074241.417 6  23950713.920                    23950711.540
                                        40.850          41.700



 23  8 31 12 31  0.0000000  0  9G03G04G06G07G09G11G17G19G31
 116535068.302 7  90806556.935 7  22175876.560                    22175876.240
                                        47.650          46.450



 107429136.591 8  83711054.846 8  20443066.720                    20443064.040
                                        49.100          49.550



 109162632.252 8  85061815.956 8  20772948.960                    20772948.020
                                        50.350          48.350



 129790798.221 6 101135703.618 6  24698366.420                    24698369.640
                                        40.550          39.050



 107140920.132 8  83486473.566 8  20388221.200                    20388219.680
                                        50.500          49.250



 125054061.888 7  97444723.854 7  23796991.920                    23796990.900
                                        44.900          45.550



 124686458.820 7  97158269.950 7  23727051.620                    23727052.080
                                        44.350          43.250



 118819416.631 7  92586552.90047  22610583.220                    22610579.240
                                        46.000          43.300



 125933806.803 6  98130262.971 6  23964395.020                    23964392.640
                                        41.550          41.950



 23  8 31 12 31 30.0000000  0  9G03G04G06G07G09G11G17G19G31
 116613766.967 7  90867880.503 7  22190852.480                    22190852.140
                                        47.000          46.550



 107456297.925 8  83732219.530 8  20448235.360                    20448232.680
                                        49.200          49.550



 109123307.056 8  85031172.959 8  20765465.620                    20765464.660
                                        50.250          48.650



 129690189.595 6 101057307.731 6  24679220.840                    24679224.000
                                        40.550          40.200



 107107487.069 8  83460421.860 8  20381859.080                    20381857.540
                                        50.250          49.150



 124954316.096 7  97366999.947 7  23778010.880                    23778009.780
                                        44.350          45.100



 124778548.555 7  97230028.008 6  23744575.920                    23744576.340
                                        43.300          41.600



 118901234.622 7  92650307.08546  22626152.720                    22626148.800
                                        45.600          41.300



 126006182.465 6  98186659.523 6  23978167.660                    23978165.360
                                        41.200          41.850



 23  8 31 12 32  0.0000000  0  9G03G04G06G07G09G11G17G19G31
 116692678.201 7  90929369.690 7  22205868.860                    22205868.520
                                        46.500          46.800



 107483935.649 8  83753755.437 8  20453494.620                    20453491.960
                                        49.200          49.550



 109084492.454 8  85000927.819 8  20758079.460                    20758078.500
                                        50.350          48.400



 129589594.561 6 100978922.452 6  24660077.760                    24660080.980
                                        40.150          39.500



 107074543.490 8  83434751.568 8  20375590.100                    20375588.560
                                        50.500          49.250



 124854767.035 7  97289429.344 7  23759067.260                    23759066.120
                                        45.350          45.350



 124870791.869 7  97301905.765 6  23762129.400                    23762129.760
                                        42.950          41.500



 118983451.612 7  92714372.19047  22641798.120                    22641794.280
                                        45.850          42.550



 126079032.170 7  98243425.472 6  23992030.480                    23992028.240
                                        42.050          41.750



 23  8 31 12 32 30.0000000  0  9G03G04G06G07G09G11G17G19G31
 116771803.133 7  90991025.401 7  22220925.880                    22220925.560
                                        46.050          46.900



 107512050.383 8  83775663.039 8  20458844.660                    20458842.000
                                        48.850          49.400



 109046192.127 8  84971083.420 8  20750791.160                    20750790.200
                                        50.300          48.400



 129489017.434 6 100900551.095 6  24640938.100                    24640941.400
                                        40.100          39.050



 107042091.647 8  83409464.442 8  20369414.700                    20369413.160
                                        50.300          49.150



 124755419.031 7  97212015.403 7  23740161.920                    23740160.720
                                        44.600          45.050



 124963187.910 7  97373902.514 6  23779711.920                    23779712.260
                                        42.850          41.350



 119066066.918 7  92778747.64446  22657519.320                    22657515.580
                                        46.350          40.850



 126152355.404 7  98300560.392 6  24005983.440                    24005981.260
                                        42.900          41.050



 23  8 31 12 33  0.0000000  0  9G03G04G06G07G09G11G17G19G31
 116851140.340 7  91052846.526 7  22236023.280                    22236023.000
                                        45.800          46.500



 107540640.065 8  83797940.729 8  20464285.060                    20464282.420
                                        48.600          49.050



 109008407.192 8  84941640.635 8  20743600.920                    20743599.940
                                        50.100          48.200



 129388459.852 6 100822194.972 6  24621802.160                    24621805.500
                                        41.150          39.750



 107010131.110 8  83384560.152 8  20363332.780                    20363331.240
                                        50.100          49.100



 124656273.904 7  97134759.537 7  23721295.200                    23721293.940
                                        44.800          44.050



 125055733.105 7  97446015.495 6  23797322.760                    23797323.100
                                        42.950          40.750



 119149076.383 7  92843430.28146  22673315.520                    22673311.820
                                        46.450          41.750



 126226148.659 7  98358061.572 6  24020025.840                    24020023.720
                                        43.500          41.050



 23  8 31 12 33 30.0000000  0  9G03G04G06G07G09G11G17G19G31
 116930688.116 7  91114831.730 7  22251160.740                    22251160.520
                                        46.100          45.900



 107569702.471 8  83820586.764 8  20469815.440                    20469812.780
                                        48.800          49.100



 108971138.533 8  84912600.133 8  20736508.920                    20736507.920
                                        49.900          48.200



 129287923.701 6 100743855.552 6  24602670.320                    24602673.680
                                        41.150          39.100



 106978661.238 8  83360038.211 8  20357344.240                    20357342.680
                                        50.400          49.050



 124557333.260 7  97057662.991 7  23702467.400                    23702466.060
                                        44.650          44.650



 125148423.738 7  97518241.826 6  23814961.260                    23814961.600
                                        43.900          39.700



 119232475.838 7  92908416.78146  22689185.940                    22689182.300
                                        46.350          40.900



 126300408.858 7  98415926.590 6  24034157.120                    24034155.020
                                        44.100          40.650



 23  8 31 12 34  0.0000000  0  9G03G04G06G07G09G11G17G19G31
 117010449.494 7  91176983.390 7  22266338.840                    22266338.660
                                        46.650          45.250



 107599240.014 8  83843603.035 8  20475436.220                    20475433.560
                                        49.100          49.000



 108934391.670 8  84883966.224 8  20729516.220                    20729515.200
                                        50.200          48.600



 129187415.041 6 100665537.517 6  24583543.780                    24583547.100
                                        41.250          39.300



 106947686.091 8  83335901.751 8  20351449.840                    20351448.280
                                        50.700          49.000



 124458603.356 7  96980730.699 7  23683679.660                    23683678.280
                                        44.700          45.300



 125241260.845 7  97590582.289 6  23832627.640                    23832627.940
                                        45.300          41.250



 119316265.978 7  92973707.70346  22705130.740                    22705127.120
                                        46.000          40.800



 126375137.296 7  98474156.477 6  24048377.540                    24048375.420
                                        44.200          40.650



 23  8 31 12 34 30.0000000  0  9G03G04G06G07G09G11G17G19G31
 117090419.875 7  91239297.917 7  22281556.700                    22281556.540
                                        47.550          44.300



 107629247.454 8  83866985.462 8  20481146.440                    20481143.740
                                        49.250          48.850



 108898164.533 8  84855737.288 8  20722622.440                    20722621.400
                                        50.150          48.450



 129086932.349 6 100587239.696 6  24564422.260                    24564425.500
                                        41.200          39.250



 106917202.098 8  83312148.015 8  20345648.920                    20345647.320
                                        50.800          49.050



 124360082.850 7  96903961.551 7  23664931.800                    23664930.360
                                        44.250          44.800



 125334237.911 7  97663031.792 6  23850320.680                    23850320.940
                                        45.350          40.400



 119400439.898 7  93039297.70146  22721148.540                    22721144.960
                                        45.600          40.400



 126450327.881 7  98532746.465 6  24062685.920                    24062683.780
                                        43.650          40.950



 23  8 31 12 35  0.0000000  0  9G03G04G06G07G09G11G17G19G31
 117170599.086 8  91301775.187 7  22296814.300                    22296814.140
                                        48.050          44.850



 107659724.042 8  83890733.470 8  20486945.940                    20486943.200
                                        49.350          49.150



 108862459.442 8  84827915.143 8  20715827.980                    20715826.940
                                        50.150          48.600



 128986478.959 7 100508964.741 6  24545306.340                    24545309.460
                                        42.100          39.550



 106887210.050 8  83288777.620 8  20339941.620                    20339939.980
                                        50.650          49.200



 124261774.826 7  96827357.971 7  23646224.360                    23646222.880
                                        44.300          45.400



 125427352.276 7  97735588.296 6  23868039.840                    23868040.060
                                        45.750          41.800



 119484995.024 7  93105184.73746  22737238.900                    22737235.340
                                        46.100          40.750



 126525978.809 7  98591695.173 6  24077081.900                    24077079.740
                                        44.050          41.300



 23  8 31 12 35 30.0000000  0  9G03G04G06G07G09G11G17G19G31
 117250988.401 8  91364416.157 7  22312111.920                    22312111.740
                                        48.000          45.250



 107690670.371 8  83914847.494 8  20492834.860                    20492832.080
                                        49.400          49.200



 108827280.140 8  84800502.711 7  20709133.580                    20709132.520
                                        50.150          47.900



 128886059.249 6 100430715.976 6  24526196.880                    24526199.880
                                        41.150          38.850



 106857712.209 8  83265792.314 8  20334328.360                    20334326.680
                                        50.650          49.250



 124163683.819 7  96750923.498 7  23627558.220                    23627556.700
                                        43.700          45.100



 125520603.206 7  97808251.199 6  23885785.020                    23885785.200
                                        46.650          41.550



 119569929.882 7  93171367.64646  22753401.540                    22753398.000
                                        46.100          39.850



 126602089.621 7  98651002.240 6  24091565.380                    24091563.220
                                        44.300          41.050



 23  8 31 12 36  0.0000000  0  9G03G04G06G07G09G11G17G19G31
 117331585.494 7  91427219.029 7  22327449.100                    22327448.900
                                        47.700          45.900



 107722083.436 8  83939325.213 8  20498812.580                    20498809.760
                                        49.250          49.550



 108792626.734 8  84773500.060 8  20702539.260                    20702538.180
                                        50.100          48.650



 128785674.196 6 100352494.191 6  24507094.060                    24507096.920
                                        41.650          39.000



 106828707.169 8  83243191.013 8  20328808.880                    20328807.180
                                        50.750          49.400



 124065810.685 7  96674658.809 7  23608933.520                    23608931.960
                                        44.800          45.100



 125613986.246 7  97881017.040 7  23903555.340                    23903555.520
                                        46.600          42.200



 119655239.792 7  93237842.79646  22769635.580                    22769632.040
                                        45.000          40.950



 126678655.785 7  98710664.126 6  24106135.500                    24106133.340
                                        44.250          40.650



 23  8 31 12 36 30.0000000  0  9G03G04G06G07G09G11G17G19G31
 117412390.262 7  91490183.714 7  22342825.800                    22342825.600
                                        46.750          45.400



 107753962.538 8  83964166.072 8  20504878.980                    20504876.160
                                        48.750          49.350



 108758501.584 8  84746909.055 8  20696045.440                    20696044.340
                                        49.950          48.750



 128685327.107 7 100274301.953 6  24487998.480                    24488001.180
                                        42.800          37.700



 106800195.759 8  83220974.354 8  20323383.320                    20323381.620
                                        50.600          49.200



 123968158.700 7  96598566.428 7  23590350.920                    23590349.320
                                        45.300          45.650



 125707499.410 7  97953884.265 7  23921350.460                    23921350.620
                                        45.900          43.050



 119740922.107 7  93304608.13247  22785940.460                    22785936.960
                                        43.600          42.450



 126755675.818 7  98770679.669 6  24120792.000                    24120789.840
                                        44.550          41.050



 23  8 31 12 37  0.0000000  0  9G03G04G06G07G09G11G17G19G31
 117493400.733 7  91553308.688 7  22358241.640                    22358241.440
                                        45.800          45.400



 107786305.043 8  83989368.028 8  20511033.540                    20511030.740
                                        48.900          49.450



 108724905.191 8  84720730.054 8  20689652.240                    20689651.160
                                        49.950          48.550



 128585019.145 7 100196140.235 6  24468910.340                    24468912.840
                                        43.100          39.600



 106772176.987 8  83199141.570 8  20318051.520                    20318049.800
                                        50.600          49.000



 123870729.162 7  96522647.356 7  23571810.680                    23571809.060
                                        44.500          45.750



 125801138.866 7  98026849.896 7  23939169.600                    23939169.800
                                        45.550          42.950



 119826972.616 7  93371660.37346  22802315.400                    22802311.940
                                        45.050          41.200



 126833145.995 7  98831045.987 6  24135534.140                    24135532.000
                                        44.550          41.000



 23  8 31 12 37 30.0000000  0  9G03G04G06G07G09G11G17G19G31
 117574619.500 7  91616595.982 7  22373697.080                    22373696.900
                                        45.600          45.750



 107819112.834 8  84014932.553 8  20517276.640                    20517273.860
                                        49.050          49.500



 108691842.550 8  84694966.967 8  20683360.600                    20683359.520
                                        50.100          48.450



 128484756.090 7 100118013.488 6  24449830.740                    24449833.100
                                        42.650          40.600



 106744654.335 8  83177695.360 8  20312814.120                    20312812.420
                                        50.600          49.050



 123773527.875 7  96446906.179 7  23553313.840                    23553312.200
                                        44.700          45.900



 125894904.897 7  98099914.134 7  23957012.820                    23957013.100
                                        43.900          42.800



 119913391.352 7  93438999.53546  22818760.400                    22818756.980
                                        45.800          41.350



 126911067.199 7  98891763.738 6  24150362.120                    24150360.000
                                        44.550          40.600



 23  8 31 12 38  0.0000000  0  9G03G04G06G07G09G11G17G19G31
 117656043.261 7  91680043.001 7  22389191.540                    22389191.380
                                        44.450          45.800



 107852381.985 8  84040856.571 8  20523607.540                    20523604.780
                                        49.050          49.350



 108659312.756 8  84669619.092 8  20677170.360                    20677169.280
                                        50.000          48.750



 128384538.044 7 100039921.828 6  24430759.680                    24430761.900
                                        43.200          41.400



 106717625.467 8  83156633.911 8  20307670.700                    20307669.000
                                        50.500          49.250



 123676554.882 7  96371342.875 7  23534860.460                    23534858.800
                                        44.350          45.900



 125988791.886 7  98173072.632 7  23974879.060                    23974879.420
                                        43.800          42.900



 120000172.571 7  93506621.13347  22835274.420                    22835271.020
                                        45.050          42.550



 126989434.224 7  98952828.895 6  24165274.940                    24165272.820
                                        43.950          40.400



 23  8 31 12 38 30.0000000  0  9G03G04G06G07G09G11G17G19G31
 117737670.147 7  91743648.258 7  22404724.660                    22404724.540
                                        45.550          45.550



 107886109.883 8  84067138.039 8  20530025.760                    20530023.020
                                        48.950          48.950



 108627316.311 8  84644686.795 8  20671081.640                    20671080.580
                                        49.950          48.750



 128284366.351 7  99961866.267 6  24411697.440                    24411699.580
                                        42.050          40.900



 106691089.325 8  83135956.414 8  20302621.020                    20302619.340
                                        50.400          49.400



 123579811.563 7  96295958.526 7  23516450.800                    23516449.120
                                        44.700          45.050



 126082795.879 7  98246322.300 7  23992767.560                    23992768.020
                                        43.700          42.400



 120087311.948 7  93574521.83946  22851856.580                    22851853.180
                                        45.850          41.500



 127068243.799 7  99014238.882 6  24180271.980                    24180269.840
                                        44.150          39.850



 23  8 31 12 39  0.0000000  0  9G03G04G06G07G09G11G17G19G31
 117819499.901 7  91807411.630 7  22420296.380                    22420296.280
                                        46.950          45.600



 107920295.612 8  84093776.259 8  20536531.100                    20536528.360
                                        49.050          49.200



 108595855.401 8  84620171.813 8  20665094.800                    20665093.760
                                        50.050          48.450



 128184244.007 7  99883849.217 7  24392644.520                    24392646.580
                                        42.250          42.600



 106665046.554 8  83115663.362 8  20297665.240                    20297663.600
                                        50.550          49.450



 123483301.010 7  96220755.555 7  23498085.420                    23498083.740
                                        44.500          45.050



 126176914.731 7  98319661.454 6  24010677.920                    24010678.480
                                        42.550          41.400



 120174806.599 7  93642699.36346  22868506.360                    22868502.980
                                        46.150          41.650



 127147493.412 7  99075991.758 6  24195352.720                    24195350.580
                                        44.200          39.850



 23  8 31 12 39 30.0000000  0  9G03G04G06G07G09G11G17G19G31
 117901532.474 7  91871333.057 7  22435906.700                    22435906.600
                                        47.200          45.300



 107954938.390 8  84120770.618 8  20543123.420                    20543120.680
                                        48.900          49.400



 108564932.290 8  84596075.884 8  20659210.320                    20659209.280
                                        49.750          48.550



 128084174.282 6  99805873.148 7  24373601.620                    24373603.640
                                        40.650          42.600



 106639497.977 8  83095755.386 8  20292803.480                    20292801.900
                                        50.550          49.550



 123387026.443 7  96145736.484 7  23479764.920                    23479763.220
                                        44.150          45.650



 126271146.513 6  98393088.604 6  24028609.740                    24028610.420
                                        40.650          41.300



 120262653.818 7  93711151.61646  22885223.240                    22885219.880
                                        44.850          41.150



 127227181.579 7  99138086.356 6  24210516.940                    24210514.800
                                        43.550          40.350



 23  8 31 12 40  0.0000000  0  9G03G04G06G07G09G11G17G19G31
 117983766.808 7  91935411.681 7  22451555.440                    22451555.320
                                        47.750          45.250



 107990036.452 8  84148119.750 8  20549802.360                    20549799.640
                                        48.950          49.800



 108534548.282 8  84572400.031 8  20653428.420                    20653427.380
                                        49.650          48.550



 127984159.341 6  99727939.786 7  24354569.120                    24354571.120
                                        40.850          42.050



 106614443.371 8  83076232.321 8  20288035.740                    20288034.200
                                        50.850          49.700



 123290990.084 7  96070903.039 7  23461489.760                    23461488.040
                                        44.150          46.200



 126365488.158 7  98466601.375 6  24046562.460                    24046563.260
                                        42.550          41.350



 120350850.140 7  93779875.90846  22902006.500                    22902003.180
                                        45.200          40.950



 127307305.334 7  99200520.389 6  24225764.040                    24225761.860
                                        43.900          40.750



 23  8 31 12 40 30.0000000  0  9G03G04G06G07G09G11G17G19G31
 118066200.038 7  91999645.303 7  22467242.040                    22467241.880
                                        47.900          45.550



 108025586.212 8  84175820.860 8  20556567.260                    20556564.560
                                        48.750          49.800



 108504702.796 8  84549143.813 8  20647749.000                    20647747.940
                                        49.600          48.650



 127884199.688 6  99650049.495 6  24335547.160                    24335549.120
                                        40.750          41.750



 106589880.674 8  83057092.583 8  20283361.600                    20283360.060
                                        50.800          49.400



 123195192.390 7  95996255.571 7  23443260.000                    23443258.280
                                        43.750          45.950



 126459934.141 6  98540195.445 6  24064535.040                    24064535.960
                                        41.350          40.600



 120439390.301 7  93848868.14446  22918855.200                    22918851.900
                                        44.250          40.600



 127387859.875 7  99263290.092 6  24241093.120                    24241090.940
                                        44.100          41.150



 23  8 31 12 41  0.0000000  0  9G03G04G06G07G09G11G17G19G31
 118148834.834 7  92064035.987 7  22482967.020                    22482966.800
                                        47.900          45.600



 108061589.514 8  84203875.383 8  20563418.440                    20563415.780
                                        49.000          49.750



 108475400.821 8  84526311.118 8  20642172.980                    20642171.920
                                        49.700          48.550



 127784300.736 7  99572206.563 6  24316536.720                    24316538.620
                                        43.050          41.100



 106565813.394 8  83038338.893 8  20278781.740                    20278780.180
                                        50.950          48.800



 123099639.297 7  95921798.689 7  23425076.780                    23425075.080
                                        44.600          46.100



 126554485.532 7  98613871.682 6  24082527.680                    24082528.680
                                        42.600          39.950



 120528274.533 7  93918128.46346  22935769.360                    22935766.100
                                        42.250          40.400



 127468846.220 7  99326396.265 6  24256504.360                    24256502.200
                                        44.100          40.850



 23  8 31 12 41 30.0000000  0  9G03G04G06G07G09G11G17G19G31
 118231668.776 7  92128581.860 7  22498729.880                    22498729.640
                                        47.150          45.450



 108098043.306 8  84232280.931 8  20570355.380                    20570352.760
                                        48.650          49.450



 108446642.206 8  84503901.815 8  20636700.380                    20636699.300
                                        49.650          48.850



 127684463.893 7  99494411.971 6  24297538.160                    24297540.000
                                        42.800          40.850



 106542239.857 8  83019969.948 8  20274295.820                    20274294.220
                                        50.650          48.600



 123004331.751 7  95847533.141 7  23406940.300                    23406938.600
                                        44.250          46.050



 126649137.744 7  98687626.445 6  24100539.520                    24100540.580
                                        42.500          39.950



 120617497.747 7  93987652.97046  22952747.980                    22952744.740
                                        42.100          38.850



 127550260.188 7  99389835.636 6  24271997.020                    24271994.880
                                        44.150          41.100



 23  8 31 12 42  0.0000000  0  9G03G04G06G07G09G11G17G19G31
 118314699.461 7  92193281.029 7  22514530.180                    22514529.900
                                        46.400          45.350



 108134944.346 8  84261034.970 8  20577377.420                    20577374.840
                                        48.650          49.350



 108418426.872 8  84481915.837 8  20631331.160                    20631330.080
                                        49.750          48.850



 127584689.827 7  99416666.304 6  24278551.540                    24278553.280
                                        43.150          40.250



 106519158.474 8  83001984.486 8  20269903.560                    20269901.880
                                        50.700          48.900



 122909270.621 7  95773459.613 7  23388850.700                    23388849.020
                                        44.800          46.750



 126743886.183 7  98761456.187 6  24118569.680                    24118570.780
                                        42.650          40.350



 120707054.947 7  94057437.65346  22969790.180                    22969787.040
                                        43.250          41.500



 127632097.354 7  99453604.773 6  24287570.200                    24287568.080
                                        43.800          40.900



 23  8 31 12 42 30.0000000  0  9G03G04G06G07G09G11G17G19G31
 118397930.295 7  92258136.163 7  22530368.540                    22530368.240
                                        45.550          45.350



 108172295.236 8  84290139.552 8  20584485.060                    20584482.500
                                        48.800          49.200



 108390760.403 8  84460357.553 8  20626066.380                    20626065.320
                                        49.900          48.950



 127484985.280 7  99338974.815 6  24259578.160                    24259579.800
                                        42.950          41.100



 106496573.386 8  82984385.734 8  20265605.760                    20265604.020
                                        50.550          49.300



 122814462.629 7  95699583.344 7  23370809.260                    23370807.580
                                        45.000          45.900



 126838732.171 7  98835361.974 6  24136618.400                    24136619.500
                                        42.700          40.750



 120796947.121 7  94127483.38346  22986896.120                    22986893.080
                                        43.150          41.350



 127714359.385 7  99517704.973 6  24303224.240                    24303222.140
                                        43.650          41.150



 23  8 31 12 43  0.0000000  0  9G03G04G06G07G09G11G17G19G31
 118481357.848 7  92323144.576 7  22546244.300                    22546244.040
                                        45.050          45.100



 108210091.889 8  84319591.479 8  20591677.520                    20591675.000
                                        48.750          49.150



 108363641.703 8  84439226.115 8  20620905.860                    20620904.780
                                        49.750          48.950



 127385350.091 6  99261337.370 6  24240617.980                    24240619.520
                                        41.750          40.500



 106474482.007 8  82967171.685 8  20261401.880                    20261400.140
                                        50.800          49.950



 122719907.712 7  95625904.238 7  23352816.000                    23352814.340
                                        45.000          45.950



 126933670.184 7  98909339.449 6  24154684.640                    24154685.760
                                        42.750          39.850



 120887168.253 7  94197785.44047  23004064.660                    23004061.740
                                        44.350          42.950



 127797040.647 7  99582131.842 6  24318958.040                    24318955.980
                                        44.250          40.750



 23  8 31 12 43 30.0000000  0  9G03G04G06G07G09G11G17G19G31
 118564981.351 7  92388305.668 7  22562157.340                    22562157.140
                                        44.450          45.300



 108248332.748 8  84349389.529 8  20598954.540                    20598952.020
                                        48.750          49.200



 108337072.231 8  84418522.647 8  20615849.820                    20615848.740
                                        49.800          48.850



 127285786.844 7  99183756.006 6  24221671.460                    24221672.900
                                        42.250          39.950



 106452884.245 8  82950342.275 8  20257291.960                    20257290.220
                                        50.850          50.150



 122625608.355 7  95552424.314 7  23334871.360                    23334869.680
                                        44.850          45.750



 127028697.571 7  98983386.587 6  24172767.880                    24172769.000
                                        43.600          39.050



 120977714.955 7  94268341.19546  23021295.160                    23021292.360
                                        44.650          41.850



 127880139.085 7  99646883.827 6  24334771.180                    24334769.160
                                        43.600          40.000



 23  8 31 12 44  0.0000000  0  9G03G04G06G07G09G11G17G19G31
 118648798.738 7  92453617.825 7  22578107.260                    22578107.140
                                        43.800          44.700



 108287014.831 8  84379531.396 8  20606315.480                    20606312.980
                                        48.800          48.950



 108311051.999 8  84398247.155 8  20610898.320                    20610897.260
                                        49.750          48.850



 127186296.951 6  99106231.763 6  24202738.900                    24202740.240
                                        41.150          39.700



 106431778.717 8  82933896.421 8  20253275.700                    20253274.000
                                        50.750          50.000



 122531565.832 7  95479144.492 7  23316975.600                    23316973.920
                                        44.900          45.950



 127123810.137 7  99057500.101 6  24190867.300                    24190868.460
                                        44.050          39.350



 121068582.634 7  94339147.07146  23038586.740                    23038584.060
                                        44.550          41.750



 127963650.296 7  99711957.418 6  24350662.900                    24350660.900
                                        43.600          40.200



 23  8 31 12 44 30.0000000  0  9G03G04G06G07G09G11G17G19G31
 118732810.567 7  92519081.482 7  22594094.160                    22594094.140
                                        44.200          45.000



 108326137.986 8  84410016.964 8  20613760.380                    20613757.860
                                        48.750          48.750



 108285583.877 8  84378401.870 8  20606051.880                    20606050.840
                                        49.600          49.150



 127086883.478 7  99028767.093 6  24183820.840                    24183822.100
                                        42.000          40.200



 106411166.739 8  82917835.162 8  20249353.360                    20249351.680
                                        50.550          49.550



 122437784.025 7  95406067.837 7  23299129.460                    23299127.760
                                        44.850          45.800



 127219006.557 7  99131678.952 6  24208982.700                    24208983.880
                                        43.400          39.950



 121159769.447 7  94410201.61847  23055939.080                    23055936.480
                                        44.750          42.350



 128047573.512 7  99777352.080 6  24366632.980                    24366631.000
                                        43.200          39.450



 23  8 31 12 45  0.0000000  0  9G03G04G06G07G09G11G17G19G31
 118817014.899 7  92584695.169 7  22610117.700                    22610117.740
                                        45.400          45.200



 108365699.470 8  84440844.082 8  20621288.660                    20621286.160
                                        48.750          48.700



 108260668.048 8  84358986.947 8  20601310.520                    20601309.520
                                        49.800          49.100



 126987548.068 7  98951363.220 6  24164917.660                    24164918.840
                                        42.650          39.850



 106391047.110 8  82902157.545 8  20245524.700                    20245523.060
                                        50.700          49.000



 122344264.332 7  95333195.428 7  23281333.180                    23281331.480
                                        44.000          45.350



 127314282.770 7  99205919.981 6  24227113.280                    24227114.460
                                        43.700          39.850



 121251270.742 7  94481501.20746  23073351.300                    23073348.760
                                        44.550          40.800



 128131904.303 7  99843064.357 6  24382680.600                    24382678.600
                                        43.200          39.000



 23  8 31 12 45 30.0000000  0  9G03G04G06G07G09G11G17G19G31
 118901413.067 7  92650459.896 7  22626178.160                    22626178.240
                                        46.300          45.700



 108405699.825 8  84472013.184 8  20628900.460                    20628897.960
                                        48.950          48.750



 108236308.034 8  84340005.130 8  20596674.960                    20596673.980
                                        49.900          48.950



 126888295.540 7  98874023.897 6  24146030.300                    24146031.380
                                        44.000          40.050



 106371421.776 8  82886865.103 8  20241790.100                    20241788.460
                                        50.800          48.850



 122251011.462 7  95260530.933 7  23263587.680                    23263585.960
                                        44.750          46.050



 127409637.848 7  99280222.416 6  24245258.880                    24245260.120
                                        42.900          40.900



 121343085.235 7  94553044.86947  23090823.100                    23090820.600
                                        43.400          42.500



 128216642.236 7  99909093.874 6  24398805.680                    24398803.700
                                        42.750          38.900



 23  8 31 12 46  0.0000000  0  9G03G04G06G07G09G11G17G19G31
 118986003.368 7  92716374.348 7  22642275.200                    22642275.320
                                        46.400          46.050



 108446136.516 8  84503522.290 8  20636595.320                    20636592.820
                                        49.100          48.550



 108212504.250 8  84321456.743 8  20592145.220                    20592144.280
                                        49.700          48.700



 126789127.138 7  98796750.106 6  24127158.960                    24127159.940
                                        43.500          40.200



 106352289.739 8  82871957.050 8  20238149.360                    20238147.720
                                        50.800          48.450



 122158027.049 7  95188075.587 7  23245893.300                    23245891.560
                                        44.850          45.900



 127505067.957 7  99354583.343 6  24263418.700                    24263420.020
                                        42.400          40.150



 121435208.826 7  94624829.33646  23108353.780                    23108351.320
                                        44.500          41.700



 128301783.950 7  99975438.028 6  24415007.600                    24415005.600
                                        43.100          38.650



 23  8 31 12 46 30.0000000  0  9G03G04G06G07G09G11G17G19G31
 119070784.826 7  92782437.762 7  22658408.620                    22658408.780
                                        46.700          46.200



 108487007.673 8  84535369.936 8  20644372.840                    20644370.340
                                        49.700          48.750



 108189257.855 8  84303342.675 8  20587721.560                    20587720.640
                                        49.850          48.750



 126690045.418 7  98719543.855 6  24108304.120                    24108305.000
                                        43.900          40.200



 106333650.670 8  82857433.116 8  20234602.460                    20234600.780
                                        50.800          48.950



 122065313.370 7  95115831.235 7  23228250.420                    23228248.660
                                        44.200          46.400



 127600570.113 7  99429000.409 6  24281592.240                    24281593.660
                                        42.700          40.200



 121527637.808 7  94696851.80746  23125942.540                    23125940.140
                                        44.700          40.150



 128387326.266 7 100042094.319 6  24431285.780                    24431283.780
                                        43.850          39.200



 23  8 31 12 47  0.0000000  0  9G03G04G06G07G09G11G17G19G31
 119155755.457 7  92848648.578 7  22674578.040                    22674578.260
                                        46.050          46.300



 108528310.504 8  84567553.946 8  20652232.540                    20652230.020
                                        49.650          48.950



 108166568.861 8  84285662.941 8  20583403.980                    20583403.080
                                        49.850          49.100



 126591051.553 7  98642406.043 6  24089466.000                    24089466.780
                                        42.500          40.800



 106315503.211 8  82843292.249 8  20231149.120                    20231147.400
                                        50.550          49.600



 121972871.855 7  95043798.953 7  23210659.300                    23210657.580
                                        44.800          46.900



 127696140.569 7  99503470.654 6  24299778.800                    24299780.340
                                        43.200          41.800



 121620367.447 7  94769108.55247  23143588.520                    23143586.180
                                        45.300          42.050



 128473265.256 7 100109059.751 6  24447639.400                    24447637.420
                                        43.900          39.550



 23  8 31 12 47 30.0000000  0  9G03G04G06G07G09G11G17G19G31
 119240915.574 7  92915007.050 7  22690783.520                    22690783.800
                                        45.200          45.950



 108570044.543 8  84600073.956 8  20660174.320                    20660171.760
                                        49.550          48.900



 108144439.799 8  84268419.526 8  20579192.940                    20579192.060
                                        50.000          48.950



 126492149.337 7  98565339.606 6  24070645.340                    24070646.080
                                        42.600          40.550



 106297848.294 8  82829535.173 8  20227789.500                    20227787.780
                                        50.650          49.800



 121880706.131 7  94971981.576 7  23193120.660                    23193119.000
                                        44.900          46.300



 127791777.364 7  99577992.636 6  24317977.980                    24317979.600
                                        42.600          40.750



 121713395.978 7  94841598.19046  23161291.400                    23161289.120
                                        45.050          41.350



 128559599.666 7 100176333.293 6  24464068.320                    24464066.320
                                        44.100          39.200



 23  8 31 12 48  0.0000000  0  9G03G04G06G07G09G11G17G19G31
 119326262.965 7  92981511.426 7  22707024.640                    22707025.000
                                        45.000          45.700



 108612206.649 8  84632927.518 8  20668197.560                    20668194.960
                                        49.350          48.900



 108122870.419 8  84251612.222 8  20575088.420                    20575087.540
                                        50.200          49.100



 126393339.869 7  98488345.462 6  24051842.300                    24051843.000
                                        43.200          41.950



 106280684.311 8  82816160.647 8  20224523.300                    20224521.580
                                        50.900          49.600



 121788817.317 7  94900379.937 7  23175634.760                    23175633.120
                                        45.400          45.950



 127887476.308 7  99652563.002 6  24336189.020                    24336190.740
                                        42.950          41.150



 121806718.582 7  94914316.98947  23179050.240                    23179048.000
                                        46.450          42.300



 128646325.511 7 100243911.859 6  24480571.740                    24480569.700
                                        43.200          39.650



 23  8 31 12 48 30.0000000  0  9G03G04G06G07G09G11G17G19G31
 119411799.243 7  93048163.002 7  22723301.680                    22723302.100
                                        44.350          44.850



 108654797.632 8  84666115.291 8  20676302.400                    20676299.740
                                        49.150          48.550



 108101864.466 8  84235243.973 8  20571091.120                    20571090.220
                                        49.950          49.150



 126294627.754 7  98411427.149 6  24033057.820                    24033058.480
                                        42.850          41.300



 106264013.515 8  82803170.449 8  20221350.920                    20221349.220
                                        50.750          49.350



 121697210.456 7  94828998.031 7  23158202.480                    23158200.860
                                        45.650          45.850



 127983237.135 7  99727181.630 6  24354411.800                    24354413.600
                                        42.050          39.300



 121900334.256 7  94987264.12146  23196864.880                    23196862.680
                                        45.250          41.800



 128733442.033 7 100311794.838 6  24497149.520                    24497147.440
                                        43.050          38.800



 23  8 31 12 49  0.0000000  0  9G03G04G06G07G09G11G17G19G31
 119497522.112 7  93114959.969 7  22739614.200                    22739614.700
                                        43.650          44.550



 108697814.259 8  84699634.728 8  20684488.220                    20684485.540
                                        49.100          48.700



 108081421.589 8  84219314.453 8  20567200.980                    20567200.120
                                        49.650          49.200



 126196013.968 7  98334585.426 7  24014292.080                    24014292.720
                                        43.150          42.550



 106247834.133 8  82790563.159 8  20218272.080                    20218270.360
                                        50.700          49.450



 121605886.487 7  94757836.556 7  23140824.040                    23140822.440
                                        45.100          46.000



 128079055.279 6  99801844.914 6  24372645.500                    24372647.360
                                        40.700          40.150



 121994237.171 7  95060435.10246  23214734.180                    23214731.980
                                        46.100          41.700



 128820944.743 7 100379978.739 6  24513800.780                    24513798.680
                                        43.300          38.800



 23  8 31 12 49 30.0000000  0  9G03G04G06G07G09G11G17G19G31
 119583432.265 7  93181902.861 7  22755962.380                    22755962.940
                                        43.000          45.300



 108741256.439 8  84733485.763 8  20692755.000                    20692752.320
                                        49.200          48.600



 108061544.518 8  84203825.825 8  20563418.500                    20563417.640
                                        49.750          49.150



 126097502.508 7  98257823.434 7  23995545.840                    23995546.420
                                        43.150          43.650



 106232147.468 8  82778339.800 8  20215287.000                    20215285.280
                                        50.550          49.650



 121514849.495 7  94686898.722 7  23123500.200                    23123498.580
                                        44.750          46.050



 128174929.798 6  99876552.127 6  24390889.900                    24390891.840
                                        40.150          39.650



 122088426.046 7  95133828.90246  23232657.900                    23232655.700
                                        44.500          41.650



 128908832.844 7 100448462.921 6  24530525.380                    24530523.300
                                        42.400          40.050



 23  8 31 12 50  0.0000000  0  9G03G04G06G07G09G11G17G19G31
 119669527.760 7  93248990.145 7  22772345.820                    22772346.460
                                        43.550          45.750



 108785121.305 8  84767666.166 8  20701102.220                    20701099.540
                                        49.550          48.700



 108042233.284 8  84188778.117 8  20559743.680                    20559742.840
                                        50.250          49.250



 125999095.061 7  98181142.466 7  23976819.420                    23976819.960
                                        42.850          42.800



 106216952.134 8  82766499.280 8  20212395.420                    20212393.700
                                        50.750          49.750



 121424100.918 7  94616185.599 7  23106231.280                    23106229.640
                                        46.200          46.000



 128270856.393 6  99951299.885 6  24409144.220                    24409146.300
                                        40.000          40.900



 122182897.006 7  95207442.48646  23250635.340                    23250633.140
                                        45.750          40.550



 128997102.463 6 100517244.383 6  24547322.580                    24547320.540
                                        41.700          38.300



 23  8 31 12 50 30.0000000  0  9G03G04G06G07G09G11G17G19G31
 119755808.592 7  93316221.885 7  22788764.500                    22788765.240
                                        43.550          45.950



 108829407.970 8  84802175.249 8  20709529.700                    20709527.000
                                        49.100          48.800



 108023489.881 8  84174172.885 8  20556176.920                    20556176.100
                                        49.850          49.350



 125900794.649 7  98104544.906 7  23958113.340                    23958113.880
                                        42.600          42.950



 106202248.621 8  82755042.023 8  20209597.400                    20209595.700
                                        50.850          49.800



 121333644.096 7  94545699.824 7  23089017.880                    23089016.220
                                        45.750          46.200



 128366832.750 6 100026086.432 6  24427408.000                    24427410.200
                                        40.100          41.500



 122277647.033 7  95281273.54446  23268665.860                    23268663.640
                                        44.300          41.800



 129085751.406 6 100586321.483 6  24564191.880                    24564189.860
                                        41.600          38.400



 23  8 31 12 51  0.0000000  0  9G03G04G06G07G09G11G17G19G31
 119842269.796 7  93383594.182 7  22805217.520                    22805218.340
                                        44.600          45.700



 108874110.622 8  84837008.467 8  20718036.360                    20718033.660
                                        49.150          48.800



 108005311.318 8  84160007.769 8  20552717.640                    20552716.860
                                        50.150          49.000



 125802599.372 7  98028029.272 6  23939427.280                    23939427.780
                                        43.050          41.850



 106188032.560 8  82743964.583 8  20206892.180                    20206890.460
                                        50.850          49.600



 121243477.393 7  94475440.109 7  23071859.700                    23071858.000
                                        45.550          46.000



 128462852.083 6 100100906.421 6  24445680.000                    24445682.380
                                        40.150          40.850



 122372668.011 7  95355315.72346  23286747.920                    23286745.720
                                        45.750          40.800



 129174772.979 7 100655688.914 6  24581132.120                    24581130.100
                                        42.350          38.500



 23  8 31 12 51 30.0000000  0  8G03G04G06G07G09G11G19G31
 119928915.399 7  93451110.158 7  22821705.660                    22821706.540
                                        45.050          45.400



 108919232.364 8  84872168.254 8  20726622.760                    20726620.040
                                        49.350          48.450



 107987703.497 8  84146287.409 8  20549367.000                    20549366.180
                                        50.300          49.000



 125704516.426 7  97951601.139 6  23920762.620                    23920763.100
                                        43.350          40.700



 106174308.485 8  82733270.514 8  20204280.560                    20204278.860
                                        50.950          49.250



 121153608.204 7  94405412.229 7  23054758.120                    23054756.380
                                        46.000          46.650



 122467961.379 7  95429570.18746  23304881.800                    23304879.620
                                        45.050          40.650



 129264168.962 7 100725348.093 6  24598143.600                    24598141.580
                                        42.400          38.500



 23  8 31 12 52  0.0000000  0  8G03G04G06G07G09G11G19G31
 120015742.406 7  93518767.517 7  22838228.340                    22838229.240
                                        46.200          45.400



 108964769.367 8  84907651.626 8  20735288.180                    20735285.440
                                        49.550          48.000



 107970665.398 8  84133010.972 8  20546124.760                    20546123.940
                                        50.200          49.200



 125606546.655 7  97875261.136 6  23902119.560                    23902119.980
                                        44.650          40.600



 106161073.868 8  82722957.837 8  20201762.120                    20201760.380
                                        50.950          49.100



 121064036.924 7  94335616.482 7  23037713.240                    23037711.480
                                        46.700          46.300



 122563522.294 7  95504033.12646  23323066.560                    23323064.420
                                        45.950          41.950



 129353934.542 7 100795295.313 6  24615225.380                    24615223.340
                                        42.000          39.200



 23  8 31 12 52 30.0000000  0  8G03G04G06G07G09G11G19G31
 120102750.761 7  93586566.176 7  22854785.560                    22854786.440
                                        46.250          45.200



 109010720.569 8  84943457.745 7  20744032.420                    20744029.660
                                        49.450          47.500



 107954198.881 8  84120179.922 8  20542991.320                    20542990.460
                                        50.100          49.000



 125508692.921 7  97799011.571 6  23883498.580                    23883498.920
                                        44.950          40.300



 106148329.188 8  82713026.913 8  20199336.900                    20199335.140
                                        50.800          49.000



 120974766.840 7  94266055.419 7  23020725.700                    23020723.880
                                        47.350          46.150



 122659347.772 7  95578702.19347  23341301.640                    23341299.600
                                        45.350          42.150



 129444067.731 7 100865528.931 6  24632377.160                    24632375.140
                                        42.650          38.850



 23  8 31 12 53  0.0000000  0  8G03G04G06G07G09G11G19G31
 120189939.716 7  93654505.556 7  22871377.160                    22871378.020
                                        46.000          45.050



 109057084.418 8  84979585.417 7  20752855.200                    20752852.380
                                        49.150          47.750



 107938304.992 8  84107795.073 8  20539966.820                    20539965.980
                                        49.950          49.150



 125410957.987 7  97722854.562 6  23864900.220                    23864900.480
                                        44.700          41.900



 106136074.319 8  82703477.679 8  20197004.860                    20197003.080
                                        50.700          49.300



 120885800.627 7  94196731.136 7  23003795.980                    23003794.120
                                        47.350          46.200



 122755434.505 7  95653574.85046  23359586.420                    23359584.480
                                        45.200          41.700



 129534565.609 6 100936046.727 6  24649598.340                    24649596.340
                                        41.950          39.400



 23  8 31 12 53 30.0000000  0  7G03G04G06G07G09G11G19
 120277311.954 7  93722587.754 7  22888003.660                    22888004.480
                                        45.950          45.100



 109103862.573 8  85016035.926 8  20761756.800                    20761753.940
                                        49.100          48.050



 107922988.245 8  84095859.956 8  20537052.160                    20537051.280
                                        50.000          49.500



 125313348.028 7  97646794.962 7  23846325.620                    23846325.840
                                        45.150          42.100



 106124312.017 8  82694312.276 8  20194766.560                    20194764.760
                                        50.750          49.400



 120797144.203 7  94127648.267 7  22986925.220                    22986923.280
                                        47.250          46.400



 122851782.614 7  95728651.19647  23377920.900                    23377919.080
                                        43.850          43.250



 23  8 31 12 54  0.0000000  0  7G03G04G06G07G09G11G19
 120364861.620 7  93790808.199 7  22904663.940                    22904664.720
                                        45.400          45.200



 109151048.314 8  85052804.028 8  20770735.980                    20770733.080
                                        48.950          48.350



 107908244.644 8  84084371.436 8  20534246.560                    20534245.680
                                        50.050          49.400



 125215859.769 7  97570830.216 7  23827774.160                    23827774.320
                                        44.300          43.050



 106113037.089 8  82685526.630 8  20192621.000                    20192619.200
                                        50.550          49.650



 120708795.120 7  94058804.887 7  22970112.940                    22970110.920
                                        47.050          46.600



 122948383.372 7  95803924.33646  23396303.500                    23396301.780
                                        42.050          41.950



 23  8 31 12 54 30.0000000  0  7G03G04G06G07G09G11G19
 120452591.384 7  93859168.970 7  22921358.480                    22921359.240
                                        44.500          45.050



 109198643.378 8  85089891.076 7  20779793.020                    20779790.120
                                        48.900          47.950



 107894078.716 8  84073333.054 8  20531550.880                    20531550.000
                                        50.050          49.200



 125118499.461 7  97494965.152 7  23809247.040                    23809247.180
                                        44.600          42.500



 106102252.635 8  82677123.177 8  20190568.780                    20190566.960
                                        50.600          49.800



 120620759.448 7  93990205.734 7  22953360.280                    22953358.220
                                        46.800          46.700



 123045236.973 6  95879394.55446  23414734.140                    23414732.540
                                        39.000          38.950



 23  8 31 12 55  0.0000000  0  7G03G04G06G07G09G11G19
 120540496.958 7  93927666.740 7  22938086.440                    22938087.200
                                        43.700          44.900



 109246642.549 8  85127293.017 7  20788926.980                    20788924.060
                                        48.950          47.950



 107880487.951 8  84062742.848 8  20528964.660                    20528963.760
                                        50.100          49.250



 125021266.118 7  97419199.076 6  23790744.020                    23790744.160
                                        44.400          41.800



 106091954.812 8  82669098.910 8  20188609.160                    20188607.360
                                        50.550          49.850



 120533036.265 7  93921850.073 7  22936667.100                    22936664.980
                                        46.450          46.500



 123142336.747 6  95955056.54746  23433211.620                    23433210.160
                                        37.700          37.100



 23  8 31 12 55 30.0000000  0  7G03G04G06G07G09G11G19
 120628580.530 7  93996303.218 7  22954848.220                    22954849.020
                                        43.900          44.400



 109295047.083 8  85165010.828 7  20798138.060                    20798135.140
                                        49.100          47.750



 107867476.294 8  84052603.901 8  20526488.620                    20526487.720
                                        50.050          49.050



 124924165.357 7  97343536.301 7  23772266.220                    23772266.340
                                        44.200          42.200



 106082146.207 8  82661455.852 8  20186742.620                    20186740.840
                                        50.550          49.600



 120445631.079 7  93853742.199 7  22920034.420                    22920032.260
                                        46.900          46.350



 123239681.675 6  96030909.53546  23451735.720                    23451734.480
                                        40.500          40.500



 23  8 31 12 56  0.0000000  0  7G03G04G06G07G09G11G19
 120716836.115 7  94065073.745 7  22971642.720                    22971643.560
                                        44.050          44.500



 109343850.100 8  85203039.151 7  20807424.960                    20807422.020
                                        49.050          47.650



 107855039.564 8  84042912.934 8  20524122.000                    20524121.080
                                        49.950          49.400



 124827194.158 7  97267974.457 6  23753813.100                    23753813.220
                                        44.850          41.550



 106072821.204 8  82654189.638 8  20184968.100                    20184966.340
                                        50.600          49.300



 120358541.354 7  93785880.123 7  22903461.780                    22903459.580
                                        47.100          46.050



 123337263.722 6  96106947.32446  23470304.940                    23470303.860
                                        41.050          41.450



 23  8 31 12 56 30.0000000  0  7G03G04G06G07G09G11G19
 120805266.557 7  94133980.519 7  22988470.480                    22988471.380
                                        43.350          44.700



 109393053.423 8  85241379.398 7  20816788.060                    20816785.100
                                        48.800          47.600



 107843182.299 8  84033673.493 8  20521865.660                    20521864.720
                                        49.750          49.150



 124730358.871 7  97192518.546 7  23735385.860                    23735385.900
                                        44.500          42.050



 106063983.078 8  82647302.807 8  20183286.240                    20183284.480
                                        50.650          49.450



 120271773.244 7  93718268.645 7  22886950.360                    22886948.100
                                        47.100          46.250



 123435082.909 7  96183169.89747  23488919.320                    23488918.380
                                        42.750          42.350



 23  8 31 12 57  0.0000000  0  7G03G04G06G07G09G11G19
 120893870.709 7  94203022.611 7  23005331.320                    23005332.300
                                        43.150          45.200



 109442654.972 8  85280029.956 7  20826226.920                    20826223.940
                                        48.850          47.650



 107831905.035 8  84024886.016 8  20519719.660                    20519718.720
                                        50.050          49.050



 124633661.373 7  97117170.005 7  23716984.840                    23716984.820
                                        44.650          42.600



 106055631.008 8  82640794.723 8  20181696.880                    20181695.120
                                        50.600          49.550



 120185328.959 7  93650909.517 7  22870500.540                    22870498.240
                                        47.300          46.150



 123533135.484 7  96259574.35546  23507578.120                    23507577.280
                                        42.100          41.650



 23  8 31 12 57 30.0000000  0  8G03G04G06G07G09G11G19G20
 120982650.074 7  94272201.249 7  23022225.480                    23022226.560
                                        44.100          45.050



 109492655.324 8  85318991.273 7  20835741.660                    20835738.700
                                        48.800          47.900



 107821211.035 8  84016553.031 8  20517684.640                    20517683.700
                                        50.200          49.050



 124537106.744 7  97041932.838 7  23698610.980                    23698610.880
                                        44.650          43.100



 106047766.848 8  82634666.814 8  20180200.360                    20180198.620
                                        50.700          49.200



 120099213.350 7  93583806.504 7  22854113.260                    22854110.940
                                        47.700          46.350



 123631420.441 7  96336159.88746  23526281.140                    23526280.420
                                        43.000          39.550



 129646496.858 6                  24670909.100
                                        41.250



 23  8 31 12 58  0.0000000  0  8G03G04G06G07G09G11G19G20
 121071591.253 7  94341505.975 7  23039150.460                    23039151.620
                                        45.450          44.850



 109543040.131 8  85358252.152 8  20845329.580                    20845326.620
                                        49.000          48.050



 107811088.576 8  84008665.386 8  20515758.420                    20515757.440
                                        50.250          49.300



 124440684.726 7  96966798.998 7  23680262.360                    23680262.200
                                        44.650          42.900



 106040377.624 8  82628908.982 8  20178794.240                    20178792.480
                                        51.050          49.050



 120013416.451 8  93516951.827 7  22837786.620                    22837784.280
                                        48.100          46.500



 123729921.769 7  96412914.04446  23545025.360                    23545024.700
                                        42.350          40.000



 129546863.937 6 100945597.98045  24651949.200                    24651948.380
                                        41.100          34.800



 23  8 31 12 58 30.0000000  0  8G03G04G06G07G09G11G19G20
 121160712.750 7  94410951.214 7  23056109.780                    23056110.980
                                        46.100          45.000



 109593826.953 8  85397826.287 8  20854994.000                    20854991.060
                                        48.850          48.300



 107801557.807 8  84001238.801 8  20513944.800                    20513943.800
                                        50.050          49.250



 124344417.484 7  96891785.760 7  23661943.180                    23661942.980
                                        43.800          43.650



 106033482.111 8  82623535.863 8  20177482.080                    20177480.300
                                        50.850          48.950



 119927960.131 7  93450362.526 7  22821524.840                    22821522.440
                                        47.550          46.700



 123828655.273 6  96489849.02846  23563813.840                    23563813.260
                                        41.350          38.200



 129447251.392 6 100867977.95546  24632993.440                    24632992.600
                                        40.950          36.250



 23  8 31 12 59  0.0000000  0  8G03G04G06G07G09G11G19G20
 121250003.385 7  94480528.257 7  23073101.320                    23073102.500
                                        45.800          44.750



 109645003.576 8  85437704.183 8  20864732.580                    20864729.660
                                        48.700          48.400



 107792609.123 8  83994265.798 8  20512241.940                    20512240.920
                                        50.200          49.250



 124248296.427 7  96816886.440 7  23643651.800                    23643651.580
                                        43.100          42.600



 106027069.462 8  82618539.012 8  20176261.800                    20176259.960
                                        50.600          48.850



 119842836.518 7  93384032.501 7  22805326.320                    22805323.920
                                        46.950          46.750



 123927607.060 6  96566954.23546  23582643.760                    23582643.220
                                        41.250          36.150



 129347649.877 6 100790366.52045  24614039.760                    24614038.940
                                        41.100          34.750



 23  8 31 12 59 30.0000000  0  8G03G04G06G07G09G11G19G20
 121339463.853 7  94550237.626 7  23090125.200                    23090126.380
                                        46.250          44.800



 109696569.773 8  85477885.641 8  20874545.300                    20874542.420
                                        48.400          48.350



 107784244.888 8  83987748.208 8  20510650.280                    20510649.260
                                        50.150          49.300



 124152325.790 7  96742104.313 7  23625389.040                    23625388.820
                                        43.900          42.650



 106021140.676 8  82613919.183 8  20175133.580                    20175131.700
                                        50.450          49.200



 119758049.692 7  93317964.906 7  22789191.900                    22789189.460
                                        46.700          46.950



 124026775.296 6  96644228.01246  23601514.960                    23601514.460
                                        38.500          36.550



 129248061.860 6 100712765.60946  24595088.660                    24595087.880
                                        41.800          36.350



                            4  1
RINEX FILE SPLICE; other post-header comments skipped       COMMENT
 23  8 31 13  0  0.0000000  0  8G03G04G06G07G09G11G19G20
 121429093.365 7  94620078.718 7  23107181.280                    23107182.400
                                        45.900          44.700



 109748523.805 8  85518369.294 8  20884431.820                    20884428.980
                                        48.300          48.250



 107776465.909 8  83981686.648 8  20509170.020                    20509168.980
                                        50.050          49.250



 124056508.022 7  96667441.304 6  23607155.360                    23607155.140
                                        43.500          41.950



 106015695.282 8  82609676.039 8  20174097.340                    20174095.440
                                        50.600          49.200



 119673602.262 7  93252161.753 7  22773122.080                    22773119.640
                                        46.850          46.400



 124126156.988 6  96721668.09846  23620426.800                    23620426.360
                                        40.700          37.150



 129148488.219 7 100635175.89445  24576140.420                    24576139.660
                                        42.250          35.750



 23  8 31 13  0 30.0000000  0  8G03G04G06G07G09G11G19G20
 121518894.596 7  94690053.625 7  23124270.020                    23124271.080
                                        45.650          45.050



 109800867.350 8  85559156.454 8  20894392.480                    20894389.660
                                        48.350          48.000



 107769276.419 8  83976084.452 8  20507801.920                    20507800.840
                                        50.200          49.350



 123960849.021 7  96592901.993 7  23588951.860                    23588951.680
                                        43.500          42.750



 106010736.236 8  82605811.864 8  20173153.660                    20173151.720
                                        50.800          49.600



 119589500.241 7  93186627.760 7  22757117.960                    22757115.520
                                        47.200          47.000



 124225751.636 6  96799274.18146  23639379.120                    23639378.700
                                        39.600          36.150



 129048933.913 7 100557601.22045  24557195.920                    24557195.100
                                        42.950          35.800



 23  8 31 13  1  0.0000000  0  8G03G04G06G07G09G11G19G20
 121608864.749 7  94760160.153 7  23141390.920                    23141391.940
                                        44.700          44.800



 109853596.652 8  85600244.213 7  20904426.520                    20904423.740
                                        48.050          47.650



 107762675.193 8  83970940.633 8  20506545.780                    20506544.680
                                        50.300          49.400



 123865349.204 7  96518486.764 7  23570778.620                    23570778.460
                                        43.750          42.950



 106006260.993 8  82602324.676 8  20172302.020                    20172300.100
                                        50.550          49.350



 119505744.243 7  93121363.403 7  22741179.680                    22741177.260
                                        46.700          46.550



 124325553.922 6  96877042.03046  23658370.980                    23658370.560
                                        40.650          39.850



 128949398.002 7 100480040.87745  24538254.920                    24538254.020
                                        43.000          35.450



 23  8 31 13  1 30.0000000  0  8G03G04G06G07G09G11G19G20
 121698996.254 7  94830392.387 7  23158542.500                    23158543.500
                                        43.850          44.850



 109906703.118 8  85641625.863 8  20914532.320                    20914529.580
                                        48.100          48.000



 107756656.112 8  83966250.422 8  20505400.400                    20505399.300
                                        50.200          49.550



 123770004.331 7  96444192.240 7  23552634.880                    23552634.760
                                        44.750          43.700



 106002262.255 8  82599208.781 8  20171541.080                    20171539.180
                                        50.500          49.050



 119422329.961 7  93056365.302 7  22725306.420                    22725304.020
                                        47.200          46.200



 124425554.028 6  96954964.01446  23677400.480                    23677400.060
                                        40.700          39.600



 128849874.738 7 100402490.38845  24519316.300                    24519315.340
                                        42.200          34.500



 23  8 31 13  2  0.0000000  0  8G03G04G06G07G09G11G19G20
 121789297.354 7  94900756.768 7  23175726.300                    23175727.340
                                        43.650          44.350



 109960194.014 8  85683307.084 8  20924711.260                    20924708.540
                                        48.300          48.050



 107751228.940 8  83962021.446 8  20504367.660                    20504366.560
                                        50.250          49.550



 123674825.993 7  96370027.496 7  23534522.840                    23534522.740
                                        45.250          43.700



 105998748.450 8  82596470.756 8  20170872.400                    20170870.500
                                        50.500          48.850



 119339269.063 7  92991642.569 7  22709500.420                    22709498.040
                                        47.150          46.150



 124525757.428 7  97033044.40546  23696468.660                    23696468.260
                                        42.400          40.950



 128750374.196 7 100324957.61545  24500381.900                    24500380.900
                                        42.100          34.150



 23  8 31 13  2 30.0000000  0  8G03G04G06G07G09G11G19G20
 121879762.075 7  94971248.666 7  23192941.200                    23192942.300
                                        44.100          44.200



 110014062.421 8  85725282.456 8  20934962.060                    20934959.380
                                        48.550          48.250



 107746389.254 8  83958250.247 8  20503446.720                    20503445.620
                                        50.400          49.600



 123579811.565 7  96295990.449 7  23516442.020                    23516441.940
                                        44.500          43.350



 105995713.945 8  82594106.213 8  20170294.940                    20170293.040
                                        50.750          48.900



 119256558.972 7  92927193.195 7  22693761.180                    22693758.780
                                        46.800          46.550



 124626155.448 7  97111276.45547  23715573.860                    23715573.520
                                        44.750          42.300



 128650892.586 6 100247439.58845  24481451.060                    24481450.000
                                        41.900          34.200



 23  8 31 13  3  0.0000000  0  8G03G04G06G07G09G11G19G20
 121970388.661 7  95041866.706 7  23210186.920                    23210188.040
                                        44.500          44.000



 110068305.619 8  85767549.869 8  20945284.200                    20945281.540
                                        48.250          48.050



 107742136.772 8  83954936.608 8  20502637.520                    20502636.440
                                        50.300          49.400



 123484962.279 7  96222082.093 7  23498392.620                    23498392.560
                                        44.200          42.850



 105993157.189 8  82592113.946 8  20169808.400                    20169806.480
                                        50.800          48.750



 119174201.281 7  92863018.430 7  22678088.980                    22678086.600
                                        46.900          46.550



 124726743.893 7  97189656.90547  23734715.320                    23734715.000
                                        45.750          42.800



 128551429.852 7 100169936.25345  24462523.820                    24462522.660
                                        43.000          34.050



 23  8 31 13  3 30.0000000  0  8G03G04G06G07G09G11G19G20
 122061177.379 7  95112611.079 7  23227463.480                    23227464.640
                                        45.200          43.550



 110122922.774 8  85810108.681 7  20955677.500                    20955674.860
                                        48.100          47.600



 107738473.143 8  83952081.834 8  20501940.360                    20501939.260
                                        50.300          49.550



 123390281.906 7  96148305.334 6  23480375.400                    23480375.320
                                        44.550          41.950



 105991078.628 8  82590494.303 8  20169412.840                    20169410.880
                                        50.750          48.750



 119092199.571 7  92799121.045 7  22662484.520                    22662482.140
                                        47.100          46.700



 124827520.152 7  97268183.69146  23753892.540                    23753892.240
                                        46.550          40.900



 128451988.059 7 100092449.28145  24443600.580                    24443599.280
                                        43.150          35.700



 23  8 31 13  4  0.0000000  0  8G03G04G06G07G09G11G19G20
 122152129.985 7  95183483.150 7  23244771.280                    23244772.420
                                        45.400          43.700



 110177914.752 8  85852959.536 7  20966142.140                    20966139.520
                                        48.100          47.650



 107735401.567 8  83949688.379 8  20501355.860                    20501354.800
                                        50.200          49.600



 123295775.070 7  96074663.791 7  23462391.220                    23462391.120
                                        44.500          42.000



 105989480.243 8  82589248.804 8  20169108.680                    20169106.700
                                        50.800          49.150



 119010558.948 7  92735505.018 7  22646948.780                    22646946.420
                                        46.950          46.850



 124928483.722 7  97346856.44646  23773105.440                    23773105.120
                                        47.100          41.100



 128352571.157 7 100014981.68745  24424682.140                    24424680.680
                                        43.000          34.300



 23  8 31 13  4 30.0000000  0  8G03G04G06G07G09G11G19G20
 122243243.230 7  95254480.402 7  23262109.640                    23262110.780
                                        45.250          44.250



 110233277.276 8  85896099.157 7  20976677.280                    20976674.660
                                        48.250          47.600



 107732920.183 8  83947754.832 8  20500883.680                    20500882.620
                                        50.250          49.600



 123201442.156 7  96001157.797 7  23444440.120                    23444439.980
                                        44.950          42.350



 105988358.945 8  82588375.073 8  20168895.300                    20168893.300
                                        50.650          49.250



 118929279.572 7  92672170.484 7  22631481.780                    22631479.440
                                        46.700          47.000



 125029628.477 7  97425670.38846  23792352.840                    23792352.440
                                        46.700          40.700



 128253177.597 7  99937532.24845  24405768.180                    24405766.600
                                        42.650          35.750



 23  8 31 13  5  0.0000000  0  8G03G04G06G07G09G11G19G20
 122334520.755 7  95325605.645 7  23279479.300                    23279480.420
                                        45.250          44.600



 110289013.010 8  85939529.587 7  20987283.440                    20987280.820
                                        48.450          47.650



 107731034.015 8  83946285.092 8  20500524.740                    20500523.700
                                        50.350          49.450



 123107289.869 7  95927792.497 7  23426523.460                    23426523.260
                                        44.850          42.550



 105987718.572 8  82587876.093 8  20168773.440                    20168771.420
                                        50.650          49.050



 118848368.353 7  92609122.833 7  22616084.840                    22616082.540
                                        46.850          46.650



 125130955.666 7  97504626.46146  23811635.000                    23811634.520
                                        46.050          40.650



 128153813.043 6  99860105.49946  24386859.640                    24386858.020
                                        41.800          39.050



 23  8 31 13  5 30.0000000  0  8G03G04G06G07G09G11G19G20
 122425959.016 7  95396856.148 7  23296879.520                    23296880.660
                                        45.800          44.450



 110345117.427 8  85983247.298 7  20997959.780                    20997957.140
                                        48.350          47.650



 107729740.932 8  83945277.483 8  20500278.700                    20500277.660
                                        50.050          49.550



 123013317.856 7  95854567.709 7  23408641.080                    23408640.800
                                        45.750          43.250



 105987555.810 8  82587749.280 8  20168742.440                    20168740.420
                                        50.900          49.050



 118767825.202 7  92546361.985 7  22600757.940                    22600755.660
                                        47.050          46.650



 125232459.233 7  97583719.99846  23830950.720                    23830950.100
                                        45.250          36.900



 128054475.948 7  99782700.09046  24367956.340                    24367954.720
                                        43.050          36.750



 23  8 31 13  6  0.0000000  0  8G03G04G06G07G09G11G19G20
 122517554.132 7  95468228.886 7  23314309.600                    23314310.740
                                        45.600          44.750



 110401585.597 8  86027248.465 7  21008705.320                    21008702.680
                                        48.200          47.650



 107729038.328 8  83944729.983 8  20500145.020                    20500143.980
                                        50.050          49.350



 122919525.784 7  95781483.137 7  23390792.980                    23390792.580
                                        46.350          42.400



 105987866.856 8  82587991.674 8  20168801.640                    20168799.600
                                        50.850          49.400



 118687649.549 7  92483887.511 7  22585500.960                    22585498.700
                                        46.850          47.150



 125334132.669 7  97662945.92346  23850298.720                    23850297.960
                                        43.650          36.350



 127955164.546 7  99705314.68045  24349057.900                    24349056.300
                                        44.150          34.550



 23  8 31 13  6 30.0000000  0  8G03G04G06G07G09G11G19G20
 122609308.189 7  95539725.462 7  23331769.920                    23331771.080
                                        45.300          45.050



 110458418.624 8  86071533.927 7  21019520.320                    21019517.660
                                        48.550          47.300



 107728929.607 8  83944645.257 8  20500124.340                    20500123.300
                                        50.300          49.250



 122825918.709 7  95708542.680 7  23372980.100                    23372979.600
                                        46.650          42.350



 105988653.973 8  82588605.023 8  20168951.420                    20168949.380
                                        50.800          49.350



 118607846.814 7  92421703.609 7  22570314.960                    22570312.700
                                        47.100          47.200



 125435975.343 7  97742303.64645  23869678.980                    23869678.060
                                        42.600          35.550



 127855882.643 7  99627952.24445  24330165.120                    24330163.480
                                        44.950          33.650



 23  8 31 13  7  0.0000000  0  8G03G04G06G07G09G11G19G20
 122701218.712 7  95611343.957 7  23349260.000                    23349261.180
                                        44.300          44.650



 110515613.027 8  86116100.980 7  21030404.060                    21030401.400
                                        48.400          47.200



 107729413.622 8  83945022.413 8  20500216.440                    20500215.400
                                        50.000          49.400



 122732497.511 7  95635747.082 7  23355202.580                    23355201.980
                                        45.850          42.100



 105989914.851 8  82589587.545 8  20169191.360                    20169189.300
                                        50.750          49.300



 118528417.904 7  92359810.997 7  22555200.100                    22555197.860
                                        46.750          47.150



 125537982.210 7  97821789.40445  23889090.400                    23889089.280
                                        42.300          35.800



 127756629.897 7  99550612.53645  24311277.900                    24311276.160
                                        44.400          33.800



 23  8 31 13  7 30.0000000  0  8G03G04G06G07G09G11G19G20
 122793289.713 7  95683087.480 7  23366780.620                    23366781.840
                                        43.350          44.400



 110573171.772 8  86160951.927 7  21041357.140                    21041354.480
                                        48.550          47.300



 107730495.599 8  83945865.494 8  20500422.340                    20500421.320
                                        50.400          49.550



 122639269.287 7  95563101.851 7  23337461.780                    23337461.060
                                        44.500          42.100



 105991653.550 8  82590942.367 8  20169522.240                    20169520.180
                                        50.950          49.300



 118449370.097 7  92298215.365 7  22540157.740                    22540155.520
                                        46.500          47.350



 125640155.024 6  97901404.37545  23908533.440                    23908532.200
                                        39.850          34.500



 127657412.155 7  99473300.11045  24292397.360                    24292395.480
                                        43.750          35.750



 23  8 31 13  8  0.0000000  0  8G03G04G06G07G09G11G19G20
 122885517.840 7  95754953.448 7  23384331.120                    23384332.380
                                        42.700          44.500



 110631090.529 8  86206083.406 7  21052378.740                    21052376.060
                                        48.700          47.200



 107732173.461 8  83947172.917 8  20500741.640                    20500740.600
                                        50.500          49.200



 122546234.058 7  95490607.014 7  23319757.660                    23319756.860
                                        44.200          42.800



 105993866.871 8  82592667.031 8  20169943.420                    20169941.360
                                        51.000          49.200



 118370703.423 7  92236916.702 7  22525187.920                    22525185.740
                                        46.800          47.050



 125742487.583 7  97981143.88046  23928006.800                    23928005.460
                                        42.050          37.000



 127558228.006 6  99396013.84946  24273523.220                    24273521.220
                                        41.950          37.000



 23  8 31 13  8 30.0000000  0  8G03G04G06G07G09G11G19G20
 122977902.112 7  95826941.064 7  23401911.300                    23401912.640
                                        43.100          43.800



 110689367.343 8  86251493.894 7  21063468.480                    21063465.760
                                        48.750          47.100



 107734447.441 8  83948944.835 8  20501174.400                    20501173.340
                                        50.000          49.350



 122453393.948 7  95418264.246 7  23302090.620                    23302089.760
                                        43.800          43.150



 105996553.931 8  82594760.848 8  20170454.760                    20170452.680
                                        50.900          49.050



 118292420.250 7  92175916.872 7  22510291.100                    22510288.920
                                        47.150          46.850



 125844976.419 7  98061005.14145  23947509.900                    23947508.500
                                        43.000          34.750



 127459078.706 6  99318754.78346  24254655.620                    24254653.580
                                        41.750          36.650



 23  8 31 13  9  0.0000000  0  8G03G04G06G07G09G11G19G20
 123070436.145 7  95899045.394 7  23419519.960                    23419521.380
                                        43.200          43.600



 110747994.829 8  86297177.632 7  21074624.960                    21074622.200
                                        48.700          47.100



 107737312.400 8  83951177.256 8  20501719.600                    20501718.540
                                        50.300          49.400



 122360746.104 7  95346071.305 7  23284460.140                    23284459.240
                                        44.350          43.350



 105999708.424 8  82597218.903 8  20171055.020                    20171052.940
                                        50.700          48.900



 118214517.520 7  92115213.496 7  22495466.660                    22495464.500
                                        47.200          46.950



 125947612.693 7  98140981.28445  23967041.060                    23967039.620
                                        43.700          35.600



 127359959.772 7  99241519.38746  24235793.760                    24235791.760
                                        42.550          37.900



 23  8 31 13  9 30.0000000  0  8G03G04G06G07G09G11G19G20
 123163123.139 7  95971268.930 7  23437157.740                    23437159.180
                                        43.150          43.600



 110806975.174 8  86343136.332 7  21085848.560                    21085845.800
                                        48.450          47.200



 107740772.712 8  83953873.603 8  20502378.080                    20502377.020
                                        50.050          49.550



 122268296.753 7  95274033.044 7  23266867.420                    23266866.500
                                        44.550          43.050



 106003333.697 8  82600043.799 8  20171744.880                    20171742.800
                                        50.650          49.150



 118137001.795 7  92054811.690 7  22480715.880                    22480713.700
                                        47.500          46.950



 126050396.686 7  98221072.55346  23986600.320                    23986598.840
                                        43.500          36.900



 127260876.318 7  99164311.59646  24216938.660                    24216936.760
                                        43.550          38.250



 23  8 31 13 10  0.0000000  0  8G03G04G06G07G09G11G19G20
 123255959.615 7  96043608.931 7  23454824.020                    23454825.460
                                        43.550          43.150



 110866303.899 8  86389366.475 7  21097138.480                    21097135.700
                                        48.200          46.750



 107744826.079 8  83957032.044 8  20503149.440                    20503148.380
                                        50.100          49.100



 122176045.875 7  95202149.443 7  23249312.480                    23249311.520
                                        45.450          43.150



 106007426.347 8  82603232.867 8  20172523.680                    20172521.600
                                        50.800          49.250



 118059872.928 7  91994711.316 7  22466038.740                    22466036.540
                                        47.350          46.600



 126153322.630 7  98301274.42446  24006186.620                    24006185.100
                                        44.350          37.350



 127161826.929 7  99087130.34846  24198090.080                    24198088.220
                                        44.350          36.950



 23  8 31 13 10 30.0000000  0  8G03G04G06G07G09G11G19G20
 123348950.818 7  96116069.516 7  23472519.720                    23472521.160
                                        43.650          43.000



 110925985.158 8  86435871.336 7  21108495.480                    21108492.660
                                        48.650          46.900



 107749478.790 8  83960657.548 8  20504034.800                    20504033.760
                                        50.150          49.350



 122084001.427 7  95130426.657 7  23231796.860                    23231795.880
                                        46.300          42.700



 106011991.594 8  82606790.208 8  20173392.420                    20173390.320
                                        51.050          49.500



 117983139.428 8  91934919.012 7  22451436.840                    22451434.620
                                        48.050          46.200



 126256392.904 7  98381588.75746  24025800.400                    24025798.860
                                        44.000          37.350



 127062818.792 7  99009981.25745  24179249.380                    24179247.500
                                        44.850          34.550



 23  8 31 13 11  0.0000000  0  8G03G04G06G07G09G11G19G20
 123442091.684 7  96188646.732 7  23490243.900                    23490245.340
                                        43.950          42.100



 110986012.979 8  86482646.237 7  21119918.420                    21119915.560
                                        48.750          47.100



 107754727.023 8  83964747.068 8  20505033.520                    20505032.480
                                        50.100          49.550



 121992161.879 7  95058863.540 7  23214320.240                    23214319.180
                                        46.200          42.650



 106017024.488 8  82610711.944 8  20174350.140                    20174348.060
                                        50.900          49.650



 117906799.612 8  91875433.482 7  22436909.860                    22436907.600
                                        48.350          46.250



 126359600.203 7  98462009.82346  24045440.300                    24045438.740
                                        43.050          36.200



 126963849.130 7  98932862.09945  24160416.060                    24160414.100
                                        44.700          31.200



 23  8 31 13 11 30.0000000  0  8G03G04G06G07G09G11G19G20
 123535384.098 7  96261342.039 6  23507996.940                    23507998.320
                                        44.050          41.900



 111046388.210 8  86529691.845 7  21131407.480                    21131404.600
                                        48.650          47.150



 107760573.662 8  83969302.878 8  20506146.100                    20506145.100
                                        50.100          49.600



 121900532.581 7  94987464.243 7  23196883.660                    23196882.520
                                        46.000          42.900



 106022526.946 8  82614999.566 8  20175397.220                    20175395.180
                                        50.950          49.600



 117830858.624 8  91816258.714 7  22422458.760                    22422456.460
                                        48.300          46.250



 126462944.296 7  98542537.54445  24065106.140                    24065104.600
                                        43.250          35.750



 126864922.004 7  98855776.10845  24141590.820                    24141588.740
                                        44.200          34.350



 23  8 31 13 12  0.0000000  0  8G03G04G06G07G09G11G19G20
 123628827.835 7  96334155.249 7  23525778.780                    23525780.120
                                        44.250          42.600



 111107109.640 8  86577007.229 7  21142962.400                    21142959.520
                                        48.250          47.150



 107767019.612 8  83974325.680 8  20507372.740                    20507371.760
                                        49.900          49.250



 121809116.355 7  94916231.008 7  23179487.600                    23179486.400
                                        45.050          43.350



 106028498.785 8  82619652.948 8  20176533.620                    20176531.600
                                        50.900          49.400



 117755319.643 7  91757397.202 7  22408084.160                    22408081.840
                                        47.600          45.750



 126566422.316 6  98623169.56946  24084797.520                    24084796.000
                                        41.500          38.550



 126766038.493 7  98778724.11146  24122773.880                    24122771.660
                                        43.850          36.950



 23  8 31 13 12 30.0000000  0  8G03G04G06G07G09G11G19G20
 123722420.327 7  96407084.361 7  23543588.940                    23543590.260
                                        44.000          43.350



 111168173.594 8  86624589.510 7  21154582.500                    21154579.620
                                        48.300          47.250



 107774063.267 8  83979814.240 8  20508713.080                    20508712.140
                                        50.050          49.500



 121717913.559 7  94845164.054 7  23162132.160                    23162130.900
                                        45.900          43.650



 106034937.430 8  82624670.085 8  20177758.840                    20177756.840
                                        51.050          49.350



 117680183.320 7  91698849.469 7  22393786.180                    22393783.800
                                        47.200          45.350



 126670028.499 6  98703901.42045  24104513.280                    24104511.800
                                        41.750          35.600



 126667198.541 7  98701706.09246  24103965.180                    24103962.880
                                        43.850          36.950



 23  8 31 13 13  0.0000000  0  8G03G04G06G07G09G11G19G20
 123816159.925 7  96480128.100 7  23561427.080                    23561428.420
                                        43.850          43.750



 111229577.491 8  86672436.675 7  21166267.260                    21166264.400
                                        48.300          47.200



 107781704.089 8  83985768.119 8  20510167.080                    20510166.160
                                        50.150          49.600



 121626925.849 7  94774264.712 7  23144817.640                    23144816.360
                                        46.900          44.350



 106041841.259 8  82630049.698 8  20179072.600                    20179070.620
                                        51.050          49.250



 117605451.321 7  91640616.794 7  22379565.100                    22379562.700
                                        47.300          45.750



 126773758.987 7  98784730.22445  24124252.620                    24124251.180
                                        43.100          35.750



 126568402.910 7  98624722.60246  24085164.900                    24085162.560
                                        43.850          37.700



 23  8 31 13 13 30.0000000  0  8G03G04G06G07G09G11G19G20
 123910045.990 7  96553285.972 7  23579293.100                    23579294.460
                                        43.250          43.650



 111291319.641 8  86720547.417 7  21178016.420                    21178013.580
                                        48.050          47.500



 107789942.429 8  83992187.576 8  20511734.800                    20511733.900
                                        50.000          49.250



 121536156.034 7  94703535.144 7  23127544.620                    23127543.300
                                        46.500          43.700



 106049209.647 8  82635791.298 8  20180474.760                    20180472.780
                                        51.000          49.200



 117531126.341 7  91582701.288 7  22365421.480                    22365419.020
                                        47.500          46.600



 126877610.703 7  98865653.43045  24144015.080                    24144013.680
                                        42.050          35.700



 126469652.486 7  98547774.33146  24066373.240                    24066370.900
                                        43.750          37.000



 23  8 31 13 14  0.0000000  0  8G03G04G06G07G09G11G19G20
 124004079.505 7  96626558.728 7  23597187.160                    23597188.580
                                        42.200          43.100



 111353400.044 8  86768921.733 7  21189829.920                    21189827.120
                                        48.200          47.550



 107798780.242 8  83999074.178 8  20513416.600                    20513415.700
                                        50.200          49.200



 121445608.076 7  94632978.455 7  23110313.800                    23110312.440
                                        46.450          43.350



 106057043.580 8  82641895.660 8  20181965.520                    20181963.540
                                        51.100          49.000



 117457212.648 8  91525106.250 7  22351356.120                    22351353.660
                                        48.050          46.850



 126981582.179 7  98946669.94345  24163800.340                    24163798.980
                                        43.150          35.700



 126370950.652 7  98470863.91446  24047590.840                    24047588.520
                                        43.600          37.100



 23  8 31 13 14 30.0000000  0  8G03G04G06G07G09G11G19G20
 124098258.882 6  96699945.147 7  23615108.940                    23615110.460
                                        41.550          43.350



 111415816.092 8  86817557.604 7  21201707.300                    21201704.540
                                        48.450          47.800



 107808216.875 8  84006427.396 8  20515212.320                    20515211.440
                                        49.950          49.100



 121355283.428 7  94562595.766 7  23093125.480                    23093124.100
                                        45.550          42.700



 106065341.423 8  82648361.518 8  20183544.540                    20183542.560
                                        51.250          48.850



 117383711.981 7  91467833.031 7  22337369.380                    22337366.940
                                        47.750          47.150



 127085669.058 6  99027776.46145  24183607.520                    24183606.180
                                        41.900          35.050



 126272297.637 7  98393991.54145  24028817.700                    24028815.440
                                        43.000          35.700



 23  8 31 13 15  0.0000000  0  8G03G04G06G07G09G11G19G20
 124192582.551 6  96773443.965 7  23633058.180                    23633059.840
                                        41.650          43.850



 111478565.267 8  86866453.045 7  21213648.080                    21213645.360
                                        48.550          47.900



 107818251.746 8  84014246.770 8  20517121.900                    20517121.000
                                        49.600          49.100



 121265184.166 7  94492388.674 7  23075980.080                    23075978.660
                                        45.850          42.700



 106074101.628 8  82655187.639 8  20185211.580                    20185209.560
                                        51.100          49.200



 117310626.027 7  91410882.970 7  22323461.560                    22323459.140
                                        47.650          47.550



 127189867.304 7  99108969.65846  24203435.980                    24203434.680
                                        42.950          37.150



 126173694.437 7  98317157.98846  24010054.040                    24010051.820
                                        43.100          37.100



 23  8 31 13 15 30.0000000  0  8G03G04G06G07G09G11G19G20
 124287045.356 6  96847051.216 7  23651033.880                    23651035.660
                                        41.950          43.950



 111541641.287 8  86915603.162 8  21225651.080                    21225648.380
                                        48.600          48.200



 107828880.557 8  84022528.951 8  20519144.480                    20519143.580
                                        49.400          49.400



 121175308.059 7  94422355.454 7  23058877.160                    23058875.680
                                        45.600          43.150



 106083318.947 8  82662369.966 8  20186965.600                    20186963.540
                                        51.000          49.600



 117237952.875 7  91354254.583 7  22309632.280                    22309629.900
                                        47.900          46.800



 127294169.350 7  99190243.78345  24223284.140                    24223282.900
                                        43.400          35.850



 126075137.705 7  98240360.63346  23991299.200                    23991297.020
                                        43.750          37.300



 23  8 31 13 16  0.0000000  0  8G03G04G06G07G09G11G19G20
 124381651.391 7  96920770.086 7  23669036.840                    23669038.740
                                        42.900          43.900



 111605047.389 8  86965010.501 8  21237716.900                    21237714.200
                                        48.400          48.000



 107840108.369 8  84031277.886 8  20521281.040                    20521280.160
                                        49.800          49.450



 121085662.498 7  94352501.897 7  23041818.100                    23041816.580
                                        46.150          43.650



 106092997.511 8  82669911.724 8  20188807.360                    20188805.280
                                        50.800          49.650



 117165699.982 8  91297953.672 7  22295882.960                    22295880.600
                                        48.200          46.550



 127398576.952 7  99271600.18845  24243152.380                    24243151.160
                                        42.950          34.450



 125976633.836 7  98163604.47646  23972554.440                    23972552.220
                                        44.500          36.500



 23  8 31 13 16 30.0000000  0  8G03G04G06G07G09G11G19G20
 124476396.360 7  96994597.244 7  23687066.240                    23687068.200
                                        42.900          43.600



 111668778.150 7  87014670.812 8  21249844.500                    21249841.800
                                        47.950          48.200



 107851931.718 8  84040490.875 8  20523530.920                    20523530.100
                                        49.900          49.400



 120996246.304 7  94282827.062 7  23024802.680                    23024801.120
                                        46.200          43.600



 106103132.887 8  82677809.426 8  20190736.060                    20190733.980
                                        50.550          49.500



 117093866.248 7  91241979.387 7  22282213.420                    22282211.020
                                        47.750          46.500



 127503083.199 7  99353033.43145  24263039.420                    24263038.220
                                        42.800          35.800



 125878180.295 7  98086887.53745  23953819.280                    23953816.980
                                        45.100          35.600



 23  8 31 13 17  0.0000000  0  8G03G04G06G07G09G11G19G20
 124571284.777 7  97068536.148 7  23705123.000                    23705125.020
                                        43.600          43.900



 111732837.140 8  87064586.883 8  21262034.560                    21262031.880
                                        48.100          48.300



 107864355.943 8  84050172.072 8  20525895.160                    20525894.360
                                        50.200          49.350



 120907067.149 7  94213336.942 7  23007832.360                    23007830.760
                                        45.300          43.800



 106113729.558 8  82686066.585 8  20192752.520                    20192750.460
                                        50.800          49.550



 117022459.478 7  91186337.804 7  22268625.120                    22268622.700
                                        47.550          46.600



 127607690.300 7  99434545.25346  24282945.640                    24282944.500
                                        43.350          37.000



 125779783.828 7  98010215.06845  23935095.000                    23935092.560
                                        46.150          34.350



 23  8 31 13 17 30.0000000  0  8G03G04G06G07G09G11G19G20
 124666313.147 7  97142584.124 7  23723206.400                    23723208.420
                                        43.600          43.750



 111797219.840 7  87114755.203 8  21274286.200                    21274283.520
                                        47.850          48.300



 107877378.413 8  84060319.444 8  20528373.260                    20528372.460
                                        50.000          49.350



 120818124.664 7  94144031.225 7  22990907.080                    22990905.460
                                        45.400          42.650



 106124783.983 8  82694680.433 8  20194856.080                    20194854.040
                                        50.850          49.400



 116951479.486 7  91131028.754 7  22255118.040                    22255115.620
                                        47.300          46.400



 127712392.239 7  99516130.95246  24302869.940                    24302868.860
                                        42.750          36.050



 125681443.378 7  97933586.22146  23916381.440                    23916378.860
                                        45.650          36.400



 23  8 31 13 18  0.0000000  0  8G03G04G06G07G09G11G19G20
 124761483.124 7  97216742.441 7  23741316.780                    23741318.800
                                        43.100          43.250



 111861926.899 7  87165176.268 8  21286599.560                    21286596.920
                                        47.650          48.050



 107891001.577 8  84070934.881 8  20530965.680                    20530964.880
                                        49.850          49.200



 120729423.956 7  94074913.859 7  22974027.840                    22974026.180
                                        45.350          42.600



 106136297.750 8  82703652.203 8  20197047.060                    20197045.040
                                        50.800          49.450



 116880931.170 8  91076056.073 7  22241693.100                    22241690.680
                                        48.100          46.700



 127817187.838 7  99597789.65445  24322812.020                    24322811.000
                                        43.100          35.300



 125583162.543 7  97857003.82646  23897679.220                    23897676.520
                                        45.000          36.650



 23  8 31 13 18 30.0000000  0  8G03G04G06G07G09G11G19G20
 124856791.543 7  97291008.637 7  23759453.500                    23759455.500
                                        43.400          43.050



 111926954.146 7  87215846.835 7  21298973.840                    21298971.220
                                        47.800          47.900



 107905223.027 8  84082016.534 8  20533671.920                    20533671.120
                                        49.850          49.200



 120640964.715 7  94005984.676 6  22957194.520                    22957192.820
                                        47.000          41.400



 106148267.556 8  82712979.344 8  20199324.820                    20199322.800
                                        50.800          49.050



 116810814.583 8  91021419.789 7  22228350.320                    22228347.920
                                        48.700          46.500



 127922071.709 7  99679517.18046  24342770.860                    24342769.900
                                        43.500          38.100



 125484940.402 7  97780467.18746  23878988.160                    23878985.360
                                        44.850          37.650



 23  8 31 13 19  0.0000000  0  8G03G04G06G07G09G11G19G20
 124952239.425 7  97365383.505 7  23777616.760                    23777618.720
                                        42.300          43.700



 111992301.644 7  87266766.937 8  21311409.080                    21311406.480
                                        47.550          48.050



 107920044.592 8  84093565.785 8  20536492.400                    20536491.580
                                        49.900          49.100



 120552751.340 7  93937247.068 7  22940408.040                    22940406.240
                                        47.400          42.700



 106160694.386 8  82722662.591 8  20201689.560                    20201687.540
                                        50.700          49.150



 116741134.016 8  90967123.287 7  22215090.520                    22215088.080
                                        48.550          47.100



 128027042.417 7  99761312.33846  24362746.260                    24362745.360
                                        42.750          36.550



 125386779.955 7  97703978.63546  23860308.780                    23860305.960
                                        44.800          37.700



 23  8 31 13 19 30.0000000  0  8G03G04G06G07G09G11G19G20
 125047824.410 6  97439865.198 7  23795806.080                    23795808.060
                                        40.950          43.750



 112057965.990 7  87317933.918 8  21323904.600                    21323902.040
                                        47.100          48.000



 107935464.600 8  84105581.357 8  20539426.740                    20539425.900
                                        49.950          49.100



 120464784.711 7  93868701.696 7  22923668.520                    22923666.660
                                        47.250          43.600



 106173575.718 8  82732700.007 8  20204140.800                    20204138.760
                                        50.850          49.150



 116671890.324 8  90913167.194 7  22201913.860                    22201911.420
                                        48.400          47.300



 128132095.248 6  99843171.46346  24382737.320                    24382736.480
                                        41.600          36.350



 125288680.934 7  97627537.95046  23841641.080                    23841638.280
                                        44.400          38.250



 23  8 31 13 20  0.0000000  0  8G03G04G06G07G09G11G19G20
 125143546.130 6  97514453.395 7  23814021.440                    23814023.460
                                        40.600          43.750



 112123945.787 7  87369346.713 8  21336460.160                    21336457.620
                                        47.350          48.050



 107951483.375 8  84118063.522 8  20542475.000                    20542474.160
                                        49.850          49.150



 120377067.401 7  93800350.660 7  22906976.440                    22906974.480
                                        46.250          43.900



 106186911.061 8  82743091.203 8  20206678.420                    20206676.360
                                        51.250          49.050



 116603086.352 8  90859553.752 8  22188820.860                    22188818.420
                                        48.400          48.050



 128237227.353 6  99925092.40045  24402743.440                    24402742.660
                                        41.650          35.200



 125190645.509 7  97551146.79746  23822985.460                    23822982.720
                                        45.000          36.750



 23  8 31 13 20 30.0000000  0  8G03G04G06G07G09G11G19G20
 125239400.885 6  97589145.261 7  23832262.040                    23832264.160
                                        41.000          43.550



 112190236.441 7  87421001.737 8  21349074.860                    21349072.340
                                        47.650          48.100



 107968097.984 8  84131009.956 8  20545636.680                    20545635.800
                                        49.800          49.400



 120289599.123 7  93732193.677 7  22890331.700                    22890329.700
                                        46.050          44.750



 106200696.691 8  82753833.264 8  20209301.740                    20209299.660
                                        51.200          49.100



 116534721.672 8  90806282.624 8  22175811.460                    22175809.020
                                        48.700          48.300



 128342432.656 7 100007070.34546  24422763.500                    24422762.800
                                        42.300          36.550



 125092671.889 7  97474803.80046  23804341.620                    23804338.940
                                        45.550          36.550



 23  8 31 13 21  0.0000000  0  7G03G04G06G07G09G11G20
 125335389.282 6  97663941.266 7  23850528.060                    23850530.280
                                        41.300          43.400



 112256837.471 7  87472898.590 8  21361748.660                    21361746.160
                                        47.850          48.250



 107985309.644 8  84144421.615 8  20548911.980                    20548911.100
                                        50.100          49.700



 120202383.595 7  93664233.634 7  22873735.080                    22873733.060
                                        45.800          44.500



 106214932.999 8  82764926.489 8  20212010.860                    20212008.740
                                        51.000          49.150



 116466800.092 8  90753356.748 8  22162886.420                    22162883.980
                                        48.600          48.300



 124994763.166 7  97398511.34846  23785710.180                    23785707.480
                                        45.750          36.650



 23  8 31 13 21 30.0000000  0  7G03G04G06G07G09G11G20
 125431508.841 6  97738839.510 7  23868819.020                    23868821.340
                                        41.300          43.850



 112323745.465 8  87525034.675 7  21374480.840                    21374478.340
                                        48.250          47.750



 108003116.542 8  84158297.109 8  20552300.540                    20552299.660
                                        49.650          49.750



 120115421.054 7  93596470.735 7  22857186.560                    22857184.540
                                        46.400          44.500



 106229617.387 8  82776368.881 8  20214805.220                    20214803.080
                                        51.100          49.100



 116399322.330 8  90700776.738 7  22150045.800                    22150043.360
                                        48.600          47.950



 124896918.849 7  97322269.10546  23767090.980                    23767088.260
                                        45.600          36.700



 23  8 31 13 22  0.0000000  0  7G03G04G06G07G09G11G20
 125527761.492 6  97813841.410 7  23887135.360                    23887137.780
                                        41.550          43.850



 112390961.331 8  87577410.644 7  21387271.620                    21387269.120
                                        48.350          47.400



 108021521.229 8  84172638.395 8  20555802.840                    20555802.000
                                        49.650          50.050



 120028716.894 7  93528909.128 7  22840687.240                    22840685.240
                                        46.600          43.650



 106244751.676 8  82788161.828 8  20217685.200                    20217683.040
                                        50.950          49.300



 116332293.525 8  90648546.537 7  22137290.620                    22137288.180
                                        48.350          47.350



 124799143.029 7  97246080.23746  23748484.820                    23748482.040
                                        45.250          38.950



 23  8 31 13 22 30.0000000  0  8G03G04G06G07G09G11G20G30
 125624147.203 7  97888947.028 7  23905477.000                    23905479.500
                                        42.600          42.950



 112458484.044 8  87630025.730 7  21400120.800                    21400118.280
                                        48.100          47.200



 108040524.234 8  84187445.927 8  20559419.000                    20559418.180
                                        50.050          49.900



 119942274.498 7  93461551.497 7  22824237.740                    22824235.760
                                        45.950          43.250



 106260335.639 8  82800305.194 8  20220650.740                    20220648.540
                                        50.800          49.200



 116265716.856 8  90596668.652 7  22124621.460                    22124619.020
                                        48.400          46.850



 124701437.983 7  97169946.54446  23729892.100                    23729889.260
                                        45.350          38.550



 131080635.029 6 102140784.201 6  24943816.060
                                        40.700          40.200



 23  8 31 13 23  0.0000000  0  8G03G04G06G07G09G11G20G30
 125720661.721 6  97964153.012 7  23923843.180                    23923845.720
                                        41.950          42.350



 112526308.393 7  87682875.844 7  21413027.380                    21413024.820
                                        47.750          46.900



 108060121.922 8  84202716.832 8  20563148.320                    20563147.560
                                        50.150          49.700



 119856092.155 7  93394396.525 7  22807837.680                    22807835.720
                                        45.550          43.700



 106276364.879 8  82812795.513 8  20223701.000                    20223698.800
                                        50.700          49.050



 116199591.257 8  90545142.224 7  22112038.160                    22112035.680
                                        48.850          46.600



 124603801.726 7  97093866.43646  23711312.500                    23711309.600
                                        45.200          36.000



 130970821.200 6 102055215.507 6  24922918.760                    24922923.720
                                        41.150          38.950



 23  8 31 13 23 30.0000000  0  8G03G04G06G07G09G11G20G30
 125817308.778 7  98039462.266 7  23942234.620                    23942237.180
                                        43.150          42.550



 112594437.148 8  87735963.155 7  21425991.880                    21425989.300
                                        48.100          47.050



 108080318.768 8  84218454.616 8  20566991.680                    20566990.940
                                        49.800          49.600



 119770177.150 7  93327449.888 7  22791488.480                    22791486.540
                                        45.700          44.100



 106292842.994 8  82825635.604 8  20226836.680                    20226834.480
                                        50.700          49.050



 116133923.664 8  90493972.691 7  22099542.000                    22099539.500
                                        49.150          46.900



 124506240.163 7  97017844.52346  23692747.100                    23692744.140
                                        43.850          37.800



 130861020.400 6 101969656.911 6  24902023.900                    24902028.500
                                        41.250          39.600



 23  8 31 13 24  0.0000000  0  8G03G04G06G07G09G11G20G30
 125914084.741 7  98114871.976 7  23960650.580                    23960653.160
                                        42.300          43.100



 112662865.668 8  87789284.049 7  21439013.420                    21439010.820
                                        48.450          47.300



 108101111.338 8  84234656.604 8  20570948.380                    20570947.660
                                        49.900          49.650



 119684528.968 7  93260711.168 7  22775190.040                    22775188.140
                                        45.700          44.900



 106309766.145 8  82838822.481 8  20230057.040                    20230054.820
                                        50.750          49.100



 116068713.616 8  90443159.689 7  22087132.920                    22087130.380
                                        49.000          47.250



 124408751.754 7  96941879.61946  23674195.580                    23674192.620
                                        43.050          39.450



 130751232.235 6 101884108.181 6  24881131.560                    24881136.000
                                        41.500          40.500



 23  8 31 13 24 30.0000000  0  8G03G04G06G07G09G11G20G30
 126010991.419 7  98190383.528 7  23979091.420                    23979094.060
                                        42.050          43.200



 112731594.764 8  87842839.154 7  21452092.160                    21452089.540
                                        48.800          46.950



 108122502.070 8  84251324.699 8  20575018.920                    20575018.200
                                        49.700          49.750



 119599152.659 7  93194184.270 7  22758943.360                    22758941.520
                                        46.350          45.100



 106327135.939 8  82852357.386 8  20233362.400                    20233360.160
                                        50.700          49.000



 116003966.046 8  90392707.053 7  22074811.860                    22074809.300
                                        49.250          47.650



 124311340.638 7  96865974.96646  23655658.720                    23655655.820
                                        43.300          37.950



 130641461.676 6 101798573.112 6  24860242.580                    24860247.000
                                        40.300          40.550



 23  8 31 13 25  0.0000000  0  8G03G04G06G07G09G11G20G30
 126108024.088 7  98265993.275 6  23997556.220                    23997558.900
                                        42.450          41.550



 112800618.782 8  87896624.072 7  21465227.020                    21465224.360
                                        48.800          46.700



 108144486.744 8  84268455.586 8  20579202.480                    20579201.800
                                        49.950          49.600



 119514046.022 7  93127867.519 7  22742748.020                    22742746.200
                                        46.100          45.100



 106344947.519 8  82866236.550 8  20236751.800                    20236749.580
                                        50.800          49.000



 115939679.434 8  90342613.628 7  22062578.520                    22062575.920
                                        49.200          47.300



 124214004.672 7  96790128.87946  23637136.160                    23637133.300
                                        44.250          38.300



 130531707.207 6 101713050.618 6  24839356.600                    24839361.040
                                        39.950          41.600



 23  8 31 13 25 30.0000000  0  8G03G04G06G07G09G11G20G30
 126205180.263 7  98341699.259 6  24016044.500                    24016047.240
                                        42.650          41.600



 112869934.263 8  87950636.111 7  21478417.340                    21478414.660
                                        48.650          46.700



 108167063.383 8  84286047.757 8  20583498.660                    20583498.020
                                        50.000          49.600



 119429210.064 7  93061761.680 7  22726604.180                    22726602.420
                                        46.400          44.750



 106363198.215 8  82880457.878 8  20240224.780                    20240222.540
                                        50.750          49.250



 115875854.469 8  90292879.924 7  22050433.020                    22050430.380
                                        48.950          47.350



 124116743.614 7  96714341.13846  23618627.900                    23618625.080
                                        45.200          38.100



 130421969.541 6 101627541.133 7  24818473.840                    24818478.400
                                        40.000          42.200



 23  8 31 13 26  0.0000000  0  8G03G04G06G07G09G11G20G30
 126302463.737 7  98417504.430 6  24034557.040                    24034559.800
                                        42.750          41.150



 112939543.995 8  88004877.434 7  21491663.640                    21491660.960
                                        48.300          46.600



 108190236.161 8  84304104.447 8  20587908.300                    20587907.700
                                        49.450          49.600



 119344651.661 7  92995872.122 7  22710513.160                    22710511.440
                                        45.550          44.200



 106381891.559 8  82895024.125 8  20243782.000                    20243779.760
                                        50.800          49.150



 115812498.043 8  90243511.330 7  22038376.660                    22038374.000
                                        48.700          47.300



 124019563.365 7  96638616.36146  23600135.040                    23600132.240
                                        45.200          37.900



 130312255.543 6 101542050.084 7  24797595.560                    24797600.280
                                        39.050          42.550



 23  8 31 13 26 30.0000000  0  8G03G04G06G07G09G11G20G30
 126399873.069 7  98493407.650 6  24053093.520                    24053096.320
                                        42.400          40.350



 113009445.628 8  88059346.212 7  21504965.500                    21504962.780
                                        48.250          46.350



 108214004.100 8  84322624.911 8  20592431.200                    20592430.600
                                        50.000          49.650



 119260372.661 7  92930200.258 7  22694475.300                    22694473.620
                                        45.550          43.600



 106401025.937 8  82909934.030 8  20247423.140                    20247420.920
                                        50.850          49.300



 115749611.858 8  90194509.131 7  22026409.800                    22026407.120
                                        48.950          47.300



 123922464.745 7  96562955.17446  23581657.760                    23581654.920
                                        44.650          36.650



 130202567.130 6 101456578.947 7  24776722.160                    24776727.040
                                        39.500          43.400



 23  8 31 13 27  0.0000000  0  8G03G04G06G07G09G11G20G30
 126497405.902 7  98569407.137 6  24071653.500                    24071656.260
                                        43.100          40.200



 113079635.823 8  88114039.848 7  21518322.280                    21518319.540
                                        48.250          46.050



 108238365.265 8  84341607.624 8  20597066.980                    20597066.380
                                        49.800          49.250



 119176373.697 7  92864746.611 7  22678490.740                    22678489.060
                                        46.400          43.700



 106420598.802 8  82925185.618 8  20251147.740                    20251145.520
                                        50.900          49.300



 115687196.701 8  90145873.980 7  22014532.560                    22014529.880
                                        48.700          47.150



 123825447.560 7  96487357.43546  23563195.980                    23563193.080
                                        44.700          37.550



 130092905.084 6 101371128.315 7  24755853.820                    24755858.840
                                        39.550          42.600



 23  8 31 13 27 30.0000000  0  8G03G04G06G07G09G11G20G30
 126595061.230 6  98645502.066 6  24090236.800                    24090239.520
                                        41.500          40.550



 113150112.578 8  88168956.771 7  21531733.600                    21531730.820
                                        48.050          46.200



 108263318.980 8  84361052.061 8  20601815.540                    20601814.940
                                        49.800          49.600



 119092656.709 7  92799512.691 7  22662559.840                    22662558.160
                                        46.900          44.150



 106440608.850 8  82940777.855 8  20254955.540                    20254953.320
                                        50.950          49.300



 115625254.647 8  90097607.469 7  22002745.340                    22002742.660
                                        48.850          46.900



 123728513.291 7  96411824.30646  23544749.980                    23544747.020
                                        45.000          36.850



 129983271.568 6 101285699.886 7  24734991.000                    24734996.080
                                        40.850          43.200



 23  8 31 13 28  0.0000000  0  8G03G04G06G07G09G11G20G30
 126692840.011 6  98721693.175 6  24108843.640                    24108846.300
                                        40.800          41.550



 113220875.934 7  88224097.035 7  21545199.420                    21545196.620
                                        47.850          46.600



 108288866.513 8  84380959.216 8  20606677.100                    20606676.500
                                        49.800          49.650



 119009225.751 7  92734501.620 7  22646683.420                    22646681.720
                                        47.000          43.950



 106461056.868 8  82956711.388 8  20258846.680                    20258844.440
                                        50.850          49.150



 115563789.771 8  90049712.801 7  21991048.940                    21991046.200
                                        49.100          47.150



 123631665.242 7  96336358.40246  23526320.340                    23526317.340
                                        44.950          39.150



 129873670.898 6 101200297.008 7  24714134.520                    24714139.580
                                        40.700          43.850



 23  8 31 13 28 30.0000000  0  8G03G04G06G07G09G11G20G30
 126790741.093 6  98797979.579 7  24127473.700                    24127476.360
                                        40.750          42.000



 113291923.754 7  88279458.949 7  21558719.380                    21558716.580
                                        47.700          46.950



 108315007.115 8  84401328.505 8  20611651.520                    20611650.900
                                        49.900          49.150



 118926083.000 7  92669715.132 7  22630861.840                    22630860.120
                                        46.850          43.300



 106481941.467 8  82972985.109 8  20262820.900                    20262818.640
                                        50.600          48.800



 115502804.039 8  90002191.484 7  21979443.720                    21979440.960
                                        49.150          47.550



 123534904.476 7  96260960.49946  23507907.300                    23507904.280
                                        44.450          38.350



 129764105.088 6 101114921.306 7  24693284.700                    24693289.700
                                        41.800          43.400



 23  8 31 13 29  0.0000000  0  8G03G04G06G07G09G11G20G30
 126888761.160 6  98874358.694 7  24146126.420                    24146129.120
                                        39.850          42.350



 113363251.848 7  88335039.241 7  21572292.680                    21572289.880
                                        47.300          47.250



 108341737.798 8  84422157.593 8  20616738.220                    20616737.580
                                        49.650          48.950



 118843228.072 7  92605152.917 7  22615095.060                    22615093.260
                                        45.900          43.500



 106503259.112 8  82989596.257 8  20266877.500                    20266875.260
                                        50.200          48.750



 115442297.216 8  89955043.337 7  21967929.660                    21967926.860
                                        48.750          47.300



 123438230.155 7  96185629.96946  23489510.680                    23489507.640
                                        43.850          38.500



 129654574.055 7 101029572.640 7  24672441.580                    24672446.500
                                        42.050          43.100



 23  8 31 13 29 30.0000000  0  8G03G04G06G07G09G11G20G30
 126986901.160 6  98950831.272 7  24164801.940                    24164804.680
                                        39.650          42.050



 113434860.161 7  88390837.886 7  21585919.300                    21585916.520
                                        47.250          47.250



 108369059.768 8  84443447.433 8  20621937.420                    20621936.760
                                        49.450          48.900



 118760664.954 7  92540818.075 7  22599383.780                    22599381.960
                                        46.250          43.550



 106525010.516 8  83006545.403 8  20271016.640                    20271014.380
                                        50.400          49.100



 115382273.378 8  89908271.540 7  21956507.500                    21956504.660
                                        48.700          47.150



 123341645.428 7  96110369.21846  23471131.120                    23471128.100
                                        44.000          39.400



 129545081.967 6 100944254.300 7  24651605.880                    24651610.720
                                        41.800          43.850



 23  8 31 13 30  0.0000000  0  8G03G04G06G07G09G11G20G30
 127085160.882 6  99027397.087 6  24183500.280                    24183503.060
                                        39.650          41.350



 113506747.468 7  88446853.932 7  21599599.020                    21599596.260
                                        47.850          47.250



 108396973.014 8  84465198.004 8  20627249.140                    20627248.460
                                        49.750          48.700



 118678396.309 7  92476712.693 7  22583728.540                    22583726.660
                                        46.950          43.050



 106547195.064 8  83023832.071 8  20275238.180                    20275235.940
                                        50.500          48.900



 115322735.235 8  89861878.215 7  21945177.740                    21945174.860
                                        48.750          46.300



 123245152.351 7  96035179.89946  23452768.980                    23452765.980
                                        43.800          38.500



 129435631.791 7 100858968.645 7  24630778.120                    24630782.880
                                        42.450          42.600



 23  8 31 13 30 30.0000000  0  8G03G04G06G07G09G11G20G30
 127183539.272 6  99104055.435 7  24202221.140                    24202223.940
                                        40.500          42.150



 113578911.940 7  88503085.960 7  21613331.480                    21613328.720
                                        47.550          46.950



 108425476.867 8  84487408.787 8  20632673.240                    20632672.540
                                        49.950          49.200



 118596424.493 7  92412838.575 7  22568129.800                    22568127.900
                                        47.400          43.300



 106569811.648 8  83041455.395 8  20279541.940                    20279539.720
                                        50.650          48.900



 115263684.977 8  89815865.049 7  21933940.840                    21933937.900
                                        48.650          46.500



 123148752.467 7  95960063.20146  23434424.580                    23434421.620
                                        44.050          39.050



 129326225.852 6 100773717.476 7  24609958.760                    24609963.420
                                        41.250          42.100



 23  8 31 13 31  0.0000000  0  8G03G04G06G07G09G11G20G30
 127282034.294 6  99180804.649 7  24220964.220                    24220967.040
                                        41.050          42.900



 113651350.499 7  88559531.568 7  21627116.100                    21627113.320
                                        47.250          47.050



 108454569.382 8  84510078.271 8  20638209.360                    20638208.640
                                        49.950          49.400



 118514750.301 7  92349196.388 7  22552587.700                    22552585.720
                                        47.200          44.100



 106592857.832 8  83059413.454 8  20283927.460                    20283925.240
                                        50.750          49.000



 115205123.487 8  89770232.748 7  21922796.940                    21922793.920
                                        48.750          46.750



 123052446.188 7  95885019.44846  23416098.000                    23416095.060
                                        44.600          38.700



 129216865.295 6 100688501.649 7  24589148.020                    24589152.620
                                        41.550          42.000



 23  8 31 13 31 30.0000000  0  8G03G04G06G07G09G11G20G30
 127380645.694 7  99257644.533 7  24239729.500                    24239732.320
                                        42.050          42.750



 113724062.013 7  88616189.862 7  21640952.660                    21640949.880
                                        47.250          46.900



 108484250.606 8  84533206.478 8  20643857.540                    20643856.800
                                        49.900          49.150



 118433376.636 7  92285788.383 7  22537102.780                    22537100.760
                                        47.250          44.400



 106616333.203 8  83077705.946 8  20288394.660                    20288392.460
                                        51.000          49.250



 115147053.640 8  89724983.541 7  21911746.580                    21911743.500
                                        48.450          47.250



 122956235.362 7  95810050.06346  23397789.580                    23397786.700
                                        45.250          38.700



 129107553.072 6 100603323.540 7  24568346.420                    24568350.960
                                        40.700          42.400



 23  8 31 13 32  0.0000000  0  8G03G04G06G07G09G11G20G30
 127479371.173 6  99334573.300 7  24258516.500                    24258519.360
                                        41.650          42.400



 113797043.212 7  88673058.310 7  21654840.520                    21654837.760
                                        47.100          47.250



 108514518.367 8  84556791.712 8  20649617.360                    20649616.600
                                        49.650          49.300



 118352304.138 7  92222615.058 7  22521675.160                    22521673.120
                                        46.300          44.750



 106640235.054 8  83096330.776 8  20292943.040                    20292940.820
                                        50.850          49.550



 115089476.113 8  89680117.970 7  21900789.920                    21900786.800
                                        48.250          47.800



 122860120.148 7  95735155.17946  23379499.380                    23379496.520
                                        44.400          39.050



 128998290.164 6 100518183.833 7  24547554.200                    24547558.700
                                        40.650          42.950



 23  8 31 13 32 30.0000000  0  8G03G04G06G07G09G11G20G30
 127578211.669 7  99411591.690 6  24277325.400                    24277328.280
                                        42.800          41.550



 113870294.161 7  88730136.941 7  21668779.740                    21668776.980
                                        47.550          47.250



 108545373.741 8  84580834.857 8  20655488.960                    20655488.180
                                        50.100          49.050



 118271536.610 7  92159679.402 7  22506305.560                    22506303.480
                                        46.000          44.300



 106664564.155 8  83115288.508 8  20297572.720                    20297570.520
                                        50.850          49.300



 115032394.893 8  89635639.124 7  21889927.700                    21889924.560
                                        48.550          47.900



 122764103.669 7  95660337.23946  23361227.960                    23361225.140
                                        44.500          38.000



 128889080.776 6 100433085.875 7  24526772.140                    24526776.600
                                        40.900          43.550



 23  8 31 13 33  0.0000000  0  8G03G04G06G07G09G11G20G30
 127677165.243 7  99488698.230 6  24296155.800                    24296158.640
                                        43.200          40.000



 113943812.028 7  88787423.560 7  21682769.740                    21682767.000
                                        47.600          47.050



 108576814.986 8  84605334.514 8  20661472.060                    20661471.260
                                        49.500          49.150



 118191075.432 7  92096982.428 7  22490994.260                    22490992.180
                                        46.650          43.150



 106689318.281 8  83134577.436 8  20302283.300                    20302281.080
                                        50.850          49.300



 114975811.091 8  89591547.889 8  21879160.120                    21879157.000
                                        48.150          48.050



 122668186.563 7  95585596.72146  23342975.460                    23342972.640
                                        44.350          37.850



 128779926.277 6 100348030.688 7  24506000.540                    24506004.960
                                        41.850          43.550



 23  8 31 13 33 30.0000000  0  8G03G04G06G07G09G11G20G30
 127776232.128 7  99565893.072 6  24315007.760                    24315010.520
                                        42.900          41.300



 114017596.029 7  88844917.564 7  21696810.380                    21696807.640
                                        47.750          47.250



 108608842.391 8  84630290.915 8  20667566.680                    20667565.880
                                        50.050          49.550



 118110924.039 7  92034526.809 7  22475741.960                    22475739.840
                                        47.300          43.500



 106714497.305 8  83154197.465 8  20307074.700                    20307072.500
                                        50.950          49.550



 114919727.860 8  89547846.699 8  21868487.820                    21868484.700
                                        48.600          48.200



 122572371.511 7  95510935.71646  23324742.380                    23324739.580
                                        43.850          39.900



 128670829.999 7 100263020.916 7  24485239.980                    24485244.360
                                        42.200          44.600



 23  8 31 13 34  0.0000000  0  8G03G04G06G07G09G11G20G30
 127875411.556 7  99643175.583 6  24333881.180                    24333883.840
                                        42.950          41.300



 114091644.550 7  88902617.708 7  21710901.340                    21710898.620
                                        47.850          47.300



 108641455.296 8  84655703.554 8  20673772.760                    20673771.920
                                        50.200          49.600



 118031084.448 7  91972314.184 7  22460548.960                    22460546.780
                                        46.800          44.050



 106740100.200 8  83174147.777 8  20311946.780                    20311944.600
                                        51.000          49.400



 114864147.442 8  89504537.320 8  21857911.180                    21857908.080
                                        48.450          48.550



 122476660.297 7  95436355.63946  23306529.020                    23306526.240
                                        44.000          37.450



 128561794.558 6 100178058.519 7  24464491.020                    24464495.380
                                        41.850          44.850



 23  8 31 13 34 30.0000000  0  8G03G04G06G07G09G11G20G30
 127974703.714 7  99720545.902 6  24352776.060                    24352778.680
                                        43.250          40.700



 114165956.850 7  88960523.376 7  21725042.500                    21725039.800
                                        47.950          47.300



 108674653.907 8  84681572.585 8  20680090.280                    20680089.440
                                        50.100          49.850



 117951559.786 7  91910346.984 7  22445415.880                    22445413.640
                                        46.600          44.750



 106766126.801 8  83194428.253 8  20316899.500                    20316897.300
                                        50.900          49.350



 114809072.988 8  89461622.189 8  21847430.820                    21847427.760
                                        48.300          48.000



 122381055.305 7  95361858.29846  23288335.920                    23288333.140
                                        43.850          37.550



 128452823.247 7 100093146.137 7  24443754.240                    24443758.560
                                        42.050          45.300



 23  8 31 13 35  0.0000000  0  8G03G04G06G07G09G11G20G30
 128074104.410 7  99798000.818 6  24371691.560                    24371694.160
                                        43.350          41.050



 114240527.871 8  89018630.653 7  21739232.920                    21739230.200
                                        48.100          47.200



 108708434.218 8  84707894.885 8  20686518.520                    20686517.660
                                        50.050          50.050



 117872348.889 7  91848624.273 7  22430342.500                    22430340.240
                                        46.400          45.050



 106792572.694 8  83215035.446 8  20321932.000                    20321929.800
                                        50.600          49.250



 114754503.305 8  89419100.390 7  21837046.520                    21837043.480
                                        48.800          47.750



 122285554.905 7  95287442.50446  23270162.680                    23270159.920
                                        43.350          38.500



 128343915.262 6 100008283.083 7  24423029.500                    24423033.780
                                        40.750          45.350



 23  8 31 13 35 30.0000000  0  8G03G04G06G07G09G11G20G30
 128173614.579 7  99875541.043 6  24390627.900                    24390630.460
                                        43.300          40.350



 114315357.611 7  89076939.531 7  21753472.560                    21753469.840
                                        47.800          47.450



 108742797.060 8  84734671.109 8  20693057.600                    20693056.760
                                        49.850          50.050



 117793456.164 7  91787149.463 7  22415329.660                    22415327.420
                                        46.500          44.800



 106819438.435 8  83235969.790 8  20327044.400                    20327042.200
                                        50.400          49.000



 114700442.222 8  89376974.894 7  21826759.020                    21826755.980
                                        48.750          47.850



 122190162.406 7  95213110.79546  23252009.960                    23252007.220
                                        42.950          39.800



 128235074.738 6  99923472.578 7  24402317.580                    24402321.840
                                        40.750          44.100



 23  8 31 13 36  0.0000000  0  8G03G04G06G07G09G11G20G30
 128273234.798 7  99953167.018 6  24409585.180                    24409587.680
                                        43.150          40.650



 114390445.861 8  89135449.840 7  21767761.380                    21767758.660
                                        48.050          47.050



 108777743.104 8  84761901.762 8  20699707.660                    20699706.840
                                        50.000          49.750



 117714884.468 7  91725924.833 7  22400377.900                    22400375.680
                                        47.600          44.800



 106846724.389 8  83257231.571 8  20332236.740                    20332234.560
                                        50.850          48.350



 114646893.366 8  89335248.555 8  21816569.000                    21816565.940
                                        48.800          48.000



 122094880.917 7  95138865.57346  23233878.360                    23233875.700
                                        43.750          38.000



 128126305.536 6  99838717.685 7  24381619.200                    24381623.420
                                        41.050          43.500



 23  8 31 13 36 30.0000000  0  8G03G04G06G07G09G11G20G30
 128372959.454 7 100030874.364 6  24428562.320                    24428564.820
                                        43.400          41.500



 114465785.967 8  89194156.387 7  21782098.160                    21782095.440
                                        48.200          47.200



 108813266.632 8  84789582.408 8  20706467.600                    20706466.800
                                        49.850          49.900



 117636631.039 7  91664948.210 7  22385486.720                    22385484.500
                                        47.400          44.650



 106874424.462 8  83278816.049 8  20337507.860                    20337505.680
                                        50.900          48.450



 114593853.920 8  89293919.135 8  21806475.920                    21806472.860
                                        49.000          48.150



 121999706.980 7  95064704.14746  23215767.240                    23215764.640
                                        43.400          39.550



 128017605.190 6  99754016.412 7  24360933.920                    24360938.120
                                        40.550          42.250



 23  8 31 13 37  0.0000000  0  8G03G04G06G07G09G11G20G30
 128472791.996 7 100108665.775 6  24447560.000                    24447562.500
                                        43.050          41.700



 114541380.688 7  89253061.341 7  21796483.360                    21796480.660
                                        47.600          47.150



 108849371.164 8  84817715.799 8  20713338.080                    20713337.300
                                        49.600          49.850



 117558703.311 7  91604225.388 7  22370657.520                    22370655.300
                                        46.750          43.700



 106902541.931 8  83300725.777 8  20342858.440                    20342856.220
                                        50.750          48.250



 114541330.366 8  89252991.738 7  21796481.000                    21796477.940
                                        48.050          47.950



 121904646.830 7  94990631.42046  23197677.760                    23197675.180
                                        44.100          38.900



 127908980.635 6  99669374.158 6  24340263.100                    24340267.260
                                        41.400          41.000



 23  8 31 13 37 30.0000000  0  8G03G04G06G07G09G11G20G30
 128572728.256 7 100186538.001 6  24466577.420                    24466579.940
                                        42.950          40.700



 114617224.768 7  89312160.604 7  21810916.000                    21810913.340
                                        47.650          47.500



 108886052.386 8  84846298.533 8  20720318.300                    20720317.580
                                        49.800          49.850



 117481099.157 7  91543754.714 7  22355889.860                    22355887.640
                                        47.100          44.000



 106931072.186 8  83322957.149 8  20348287.560                    20348285.320
                                        50.700          48.600



 114489321.364 8  89212465.265 7  21786584.000                    21786580.960
                                        48.350          47.600



 121809698.655 7  94916645.92146  23179609.600                    23179607.060
                                        45.050          38.200



 127800430.799 7  99584790.114 6  24319606.500                    24319610.600
                                        42.000          40.100



 23  8 31 13 38  0.0000000  0  8G03G04G06G07G09G11G20G30
 128672771.485 7 100264493.592 6  24485615.180                    24485617.720
                                        42.200          39.000



 114693320.740 7  89371456.142 7  21825396.580                    21825393.960
                                        47.500          47.750



 108923313.525 8  84875333.162 8  20727408.880                    20727408.200
                                        49.850          49.600



 117403825.321 7  91483541.442 7  22341185.040                    22341182.820
                                        47.600          44.800



 106960018.274 8  83345512.541 8  20353795.800                    20353793.540
                                        50.650          48.700



 114437833.112 7  89172344.582 7  21776786.080                    21776783.060
                                        47.700          47.650



 121714868.303 7  94842752.22246  23161563.900                    23161561.360
                                        45.600          37.700



 127691962.264 7  99500269.416 6  24298965.400                    24298969.400
                                        42.100          41.400



 23  8 31 13 38 30.0000000  0  8G03G04G06G07G09G11G20G30
 128772918.861 6 100342530.394 6  24504672.680                    24504675.180
                                        41.700          39.350



 114769664.833 7  89430945.034 7  21839924.380                    21839921.760
                                        47.400          47.400



 108961151.622 8  84904817.377 8  20734609.240                    20734608.580
                                        49.750          49.600



 117326881.765 7  91423585.539 7  22326543.100                    22326540.840
                                        47.700          44.100



 106989376.951 8  83368389.434 8  20359382.560                    20359380.280
                                        50.700          48.250



 114386865.616 8  89132629.683 7  21767087.240                    21767084.220
                                        48.150          46.850



 121620155.411 7  94768950.03546  23143540.560                    23143538.000
                                        45.450          37.850



 127583575.489 6  99415812.396 7  24278339.880                    24278343.820
                                        41.550          42.450



 23  8 31 13 39  0.0000000  0  8G03G04G06G07G09G11G20G30
 128873167.599 6 100420646.136 6  24523749.500                    24523751.980
                                        41.200          39.950



 114846253.410 7  89490624.415 7  21854498.700                    21854496.120
                                        47.250          47.550



 108999563.753 8  84934748.879 8  20741918.840                    20741918.200
                                        49.650          49.600



 117250268.548 8  91363887.043 7  22311964.000                    22311961.700
                                        48.050          44.500



 107019145.035 8  83391585.347 8  20365047.240                    20365044.940
                                        50.650          48.300



 114336419.026 8  89093320.654 7  21757487.560                    21757484.520
                                        48.400          47.200



 121525559.636 7  94695239.12946  23125539.520                    23125536.920
                                        45.250          38.300



 127475270.960 6  99331419.464 7  24257730.020                    24257733.920
                                        41.200          44.100



 23  8 31 13 39 30.0000000  0  8G03G04G06G07G09G11G20G30
 128973519.900 6 100498842.546 6  24542846.060                    24542848.540
                                        41.150          39.800



 114923087.859 7  89550495.382 7  21869119.820                    21869117.260
                                        47.600          47.550



 109038552.007 8  84965129.323 8  20749338.080                    20749337.440
                                        49.700          49.550



 117173990.822 7  91304449.963 7  22297448.780                    22297446.440
                                        47.300          44.400



 107049324.467 8  83415101.790 8  20370790.180                    20370787.860
                                        50.600          48.700



 114286498.283 8  89054421.392 7  21747987.940                    21747984.880
                                        48.800          47.650



 121431085.714 7  94621623.15846  23107561.660                    23107559.020
                                        45.600          37.700



 127367054.094 6  99247094.874 7  24237136.800                    24237140.700
                                        40.000          44.550



 23  8 31 13 40  0.0000000  0  8G03G04G06G07G09G11G20G30
 129073974.299 6 100577118.527 6  24561962.000                    24561964.520
                                        40.600          39.350



 115000165.884 7  89610556.146 7  21883787.300                    21883784.740
                                        47.100          47.550



 109078114.788 8  84995957.470 8  20756866.640                    20756866.000
                                        49.300          49.400



 117098050.108 7  91245275.531 7  22282997.640                    22282995.240
                                        46.700          43.900



 107079913.438 8  83438937.351 8  20376611.060                    20376608.740
                                        50.650          48.950



 114237104.817 8  89015933.012 7  21738588.660                    21738585.560
                                        48.800          47.750



 121336734.700 7  94548102.96146  23089607.220                    23089604.520
                                        45.950          37.750



 127258926.794 6  99162840.081 7  24216560.620                    24216564.520
                                        41.100          44.550



 23  8 31 13 40 30.0000000  0  8G03G04G06G07G09G11G20G30
 129174526.538 6 100655470.741 6  24581096.560                    24581099.080
                                        39.950          38.900



 115077482.296 7  89670802.672 7  21898500.140                    21898497.600
                                        47.100          47.550



 109118247.591 8  85027229.760 8  20764503.660                    20764503.060
                                        49.200          49.450



 117022445.066 7  91186362.627 7  22268610.380                    22268607.960
                                        46.700          44.050



 107110907.282 8  83463088.393 8  20382509.000                    20382506.680
                                        50.750          49.300



 114188237.170 8  88977854.348 7  21729289.440                    21729286.320
                                        48.850          47.650



 121242504.844 7  94474677.16646  23071675.840                    23071673.100
                                        45.150          38.800



 127150888.097 6  99078654.253 7  24196001.360                    24196005.300
                                        41.700          45.350



 23  8 31 13 41  0.0000000  0  8G03G04G06G07G09G11G20G30
 129275177.297 6 100733899.770 6  24600249.820                    24600252.320
                                        40.500          40.050



 115155037.029 7  89731234.899 7  21913258.340                    21913255.820
                                        47.300          47.250



 109158950.955 8  85058946.637 8  20772249.280                    20772248.700
                                        48.950          49.150



 116947179.269 7  91127714.054 7  22254287.660                    22254285.240
                                        47.000          44.000



 107142306.406 8  83487555.236 8  20388484.060                    20388481.760
                                        50.750          49.300



 114139898.947 8  88940188.240 7  21720090.980                    21720087.820
                                        48.400          47.350



 121148399.442 7  94401348.35446  23053768.140                    23053765.380
                                        45.350          36.400



 127042941.988 7  98994540.572 7  24175459.740                    24175463.700
                                        42.850          44.850



 23  8 31 13 41 30.0000000  0  8G03G04G06G07G09G11G20G30
 129375927.825 6 100812406.518 6  24619422.100                    24619424.600
                                        39.700          41.400



 115232830.417 7  89791853.103 7  21928061.940                    21928059.420
                                        47.400          46.950



 109200225.856 8  85091108.869 8  20780103.600                    20780103.080
                                        48.700          48.950



 116872257.025 7  91069333.209 7  22240030.320                    22240027.880
                                        47.350          44.050



 107174111.614 8  83512338.526 8  20394536.400                    20394534.120
                                        50.750          49.250



 114092094.076 8  88902937.723 7  21710994.000                    21710990.800
                                        48.800          47.150



 121054422.156 7  94328119.36546  23035884.840                    23035882.040
                                        44.700          37.350



 126935092.937 7  98910502.521 7  24154936.620                    24154940.560
                                        43.950          44.350



 23  8 31 13 42  0.0000000  0  8G03G04G06G07G09G11G20G30
 129476778.735 6 100890991.468 7  24638613.500                    24638616.020
                                        39.550          42.300



 115310862.260 7  89852657.101 7  21942910.920                    21942908.440
                                        47.600          46.900



 109242072.649 8  85123716.732 8  20788066.760                    20788066.280
                                        48.950          48.500



 116797681.700 8  91011222.673 7  22225839.000                    22225836.560
                                        48.050          44.250



 107206323.179 8  83537438.432 8  20400666.080                    20400663.840
                                        50.600          49.200



 114044825.983 8  88866105.484 7  21701999.160                    21701995.920
                                        49.000          47.500



 120960576.203 7  94254992.72046  23018026.480                    23018023.700
                                        44.600          38.300



 126827344.954 7  98826543.184 7  24134432.760                    24134436.700
                                        44.050          43.750



 23  8 31 13 42 30.0000000  0  8G03G04G06G07G09G11G20G30
 129577725.564 6 100969651.161 7  24657823.140                    24657825.760
                                        40.500          43.350



 115389127.395 7  89913642.888 7  21957804.300                    21957801.840
                                        47.250          46.850



 109284486.729 8  85156766.647 8  20796137.840                    20796137.400
                                        48.750          48.700



 116723451.862 7  90953381.343 7  22211713.440                    22211711.000
                                        47.300          44.650



 107238936.366 8  83562851.317 8  20406872.160                    20406869.940
                                        50.200          49.150



 113998093.087 8  88829690.250 7  21693106.200                    21693102.920
                                        48.250          47.800



 120866859.771 7  94181966.98446  23000192.760                    23000190.000
                                        43.850          37.250



 126719696.903 7  98742661.727 7  24113947.940                    24113951.800
                                        43.050          43.700



 23  8 31 13 43  0.0000000  0  8G03G04G06G07G09G11G20G30
 129678769.045 6 101048386.191 7  24677051.180                    24677053.880
                                        39.800          43.150



 115467625.567 7  89974810.262 7  21972742.020                    21972739.580
                                        47.150          46.900



 109327468.400 8  85190258.838 8  20804316.960                    20804316.520
                                        49.000          49.250



 116649570.900 7  90895811.865 7  22197654.280                    22197651.820
                                        47.900          44.950



 107271951.391 8  83588577.315 8  20413154.680                    20413152.520
                                        50.250          49.150



 113951898.705 8  88793694.643 8  21684315.700                    21684312.400
                                        48.550          48.250



 120773276.103 7  94109044.74146  22982384.260                    22982381.540
                                        43.300          38.650



 126612152.620 7  98658861.145 7  24093482.820                    24093486.640
                                        43.050          44.500



 23  8 31 13 43 30.0000000  0  8G03G04G06G07G09G11G20G30
 129779906.953 6 101127194.777 7  24696297.200                    24696300.020
                                        40.050          42.850



 115546353.871 7  90036156.951 7  21987723.540                    21987721.120
                                        47.350          46.550



 109371015.226 8  85224191.417 8  20812603.600                    20812603.200
                                        49.100          48.950



 116576039.664 8  90838514.900 7  22183661.680                    22183659.200
                                        48.650          44.900



 107305365.792 8  83614614.521 8  20419513.200                    20419511.080
                                        50.500          48.750



 113906243.483 8  88758119.180 8  21675627.760                    21675624.480
                                        48.600          48.150



 120679825.555 7  94036226.21946  22964601.080                    22964598.440
                                        44.650          39.600



 126504713.415 7  98575142.437 7  24073037.700                    24073041.460
                                        42.850          44.700



 23  8 31 13 44  0.0000000  0  8G03G04G06G07G09G11G20G30
 129881136.969 6 101206075.090 7  24715560.800                    24715563.720
                                        40.200          42.650



 115625309.060 7  90097680.439 7  22002748.240                    22002745.820
                                        47.000          46.850



 109415124.504 8  85258562.257 8  20820997.300                    20820996.920
                                        48.350          49.000



 116502858.613 8  90781490.787 7  22169735.740                    22169733.220
                                        48.250          44.500



 107339176.777 8  83640960.741 8  20425947.180                    20425945.100
                                        50.400          48.750



 113861127.763 8  88722964.112 8  21667042.480                    21667039.220
                                        48.550          48.100



 120586508.346 7  93963511.60846  22946843.260                    22946840.700
                                        44.550          38.950



 126397380.161 7  98491506.306 7  24052612.740                    24052616.440
                                        43.000          44.800



 23  8 31 13 44 30.0000000  0  8G03G04G06G07G09G11G20G30
 129982460.724 6 101285028.499 7  24734842.200                    24734845.180
                                        40.150          42.550



 115704492.074 7  90159381.454 7  22017816.280                    22017813.880
                                        47.150          47.200



 109459797.550 8  85293372.408 8  20829498.280                    20829497.940
                                        48.550          49.050



 116430032.343 8  90724743.125 7  22155877.340                    22155874.740
                                        48.450          44.350



 107373385.636 8  83667617.007 8  20432456.860                    20432454.800
                                        50.700          48.550



 113816555.942 8  88688232.846 8  21658560.720                    21658557.480
                                        48.750          48.100



 120493328.555 7  93890904.08646  22929111.620                    22929109.120
                                        45.650          39.200



 126290157.823 7  98407956.606 7  24032208.860                    24032212.540
                                        43.400          45.450



 23  8 31 13 45  0.0000000  0  8G03G04G06G07G09G11G20G30
 130083877.598 6 101364054.447 6  24754141.320                    24754144.400
                                        38.050          41.750



 115783901.495 7  90221258.874 7  22032927.420                    22032925.040
                                        47.250          46.800



 109505033.413 8  85328621.116 8  20838106.340                    20838106.040
                                        48.450          48.700



 116357562.852 8  90668273.458 7  22142086.860                    22142084.180
                                        48.550          44.500



 107407991.406 8  83694582.532 8  20439042.100                    20439040.060
                                        50.650          48.550



 113772530.106 8  88653927.014 7  21650182.880                    21650179.660
                                        48.850          47.850



 120400288.491 7  93818405.40746  22911406.620                    22911404.160
                                        46.150          37.800



 126183049.123 7  98324495.447 7  24011826.620                    24011830.280
                                        42.850          44.950



 23  8 31 13 45 30.0000000  0  8G03G04G06G07G09G11G20G30
 130185389.678 6 101443154.560 6  24773458.540                    24773461.740
                                        36.800          41.100



 115863538.481 7  90283313.637 7  22048081.840                    22048079.500
                                        47.750          46.850



 109550833.619 8  85364309.568 8  20846821.820                    20846821.560
                                        48.750          49.050



 116285455.168 8  90612085.736 7  22128365.200                    22128362.460
                                        48.850          44.850



 107442995.646 8  83721858.567 8  20445703.180                    20445701.140
                                        50.800          48.400



 113729054.880 8  88620050.224 7  21641909.820                    21641906.600
                                        49.150          47.800



 120307392.620 7  93746019.09146  22893729.080                    22893726.600
                                        46.200          39.300



 126076059.268 7  98241126.917 7  23991466.980                    23991470.620
                                        42.600          45.050



 23  8 31 13 46  0.0000000  0  8G03G04G06G07G09G11G20G30
 130286992.919 6 101522325.737 6  24792792.980                    24792796.360
                                        37.550          40.750



 115943398.380 7  90345542.087 7  22063278.700                    22063276.400
                                        47.900          46.850



 109597193.936 8  85400434.472 8  20855643.880                    20855643.640
                                        49.050          48.950



 116213708.295 8  90556179.145 7  22114712.220                    22114709.440
                                        48.600          45.000



 107478394.109 8  83749441.783 8  20452439.280                    20452437.220
                                        50.700          48.650



 113686129.062 8  88586601.550 7  21633741.320                    21633738.100
                                        49.050          47.600



 120214639.844 7  93673744.27446  22876078.780                    22876076.260
                                        46.200          38.550



 125969187.740 6  98157850.588 7  23971129.820                    23971133.480
                                        40.900          44.700



 23  8 31 13 46 30.0000000  0  7G04G06G07G09G11G20G30
 116023464.245 7  90407931.028 7  22078514.760                    22078512.480
                                        47.750          47.050



 109644097.763 8  85436982.888 8  20864569.400                    20864569.180
                                        49.000          49.200



 116142308.696 8  90500543.157 7  22101125.320                    22101122.500
                                        48.400          45.300



 107514170.222 8  83777319.284 8  20459247.240                    20459245.180
                                        50.650          48.750



 113643739.098 8  88553570.431 7  21625674.760                    21625671.520
                                        48.800          47.300



 120122016.478 7  93601570.30546  22858453.120                    22858450.520
                                        45.900          37.350



 125862421.676 6  98074656.429 7  23950812.720                    23950816.420
                                        41.400          44.750



 23  8 31 13 47  0.0000000  0  7G04G06G07G09G11G20G30
 116103759.561 7  90470498.757 7  22093794.500                    22093792.240
                                        47.600          46.550



 109691568.913 8  85473973.360 8  20873602.880                    20873602.660
                                        49.000          48.750



 116071283.686 8  90445199.061 7  22087609.700                    22087606.820
                                        48.250          44.400



 107550347.857 8  83805509.653 8  20466131.620                    20466129.540
                                        50.350          48.600



 113601911.959 8  88520977.879 7  21617715.300                    21617712.040
                                        48.400          47.100



 120029549.449 7  93529518.13446  22840857.240                    22840854.560
                                        45.800          38.350



 125755788.672 7  97991565.967 7  23930520.920                    23930524.640
                                        42.550          44.600



 23  8 31 13 47 30.0000000  0  7G04G06G07G09G11G20G30
 116184267.923 7  90533232.507 7  22109114.780                    22109112.540
                                        47.500          46.300



 109739591.248 8  85511393.355 8  20882741.260                    20882741.000
                                        49.000          48.600



 116000620.188 8  90390136.655 7  22074162.840                    22074159.940
                                        48.900          44.850



 107586910.962 8  83834000.368 8  20473089.340                    20473087.300
                                        50.600          48.850



 113560634.556 8  88488813.678 7  21609860.460                    21609857.160
                                        48.600          47.650



 119937225.665 7  93457577.58046  22823288.600                    22823285.840
                                        46.050          37.850



 125649276.360 7  97908569.526 7  23910252.140                    23910255.860
                                        43.650          44.350



 23  8 31 13 48  0.0000000  0  7G04G06G07G09G11G20G30
 116264992.538 7  90596134.753 7  22124476.200                    22124473.980
                                        47.500          46.150



 109788168.268 8  85549245.560 8  20891985.200                    20891984.900
                                        48.900          48.550



 115930325.129 8  90335361.339 7  22060786.100                    22060783.160
                                        49.100          45.250



 107623863.147 8  83862794.268 8  20480121.120                    20480119.080
                                        50.550          48.850



 113519913.504 8  88457083.013 7  21602111.480                    21602108.160
                                        48.650          47.800



 119845051.938 7  93385753.96346  22805748.500                    22805745.680
                                        45.700          38.300



 125542892.035 7  97825672.815 7  23890007.760                    23890011.440
                                        43.000          44.800



 23  8 31 13 48 30.0000000  0  7G04G06G07G09G11G20G30
 116345931.743 7  90659204.224 7  22139878.460                    22139876.240
                                        47.150          45.900



 109837298.580 8  85587528.891 8  20901334.440                    20901334.100
                                        48.900          48.750



 115860400.416 8  90280874.613 7  22047479.840                    22047476.860
                                        48.800          45.800



 107661203.085 8  83891890.299 8  20487226.680                    20487224.660
                                        50.550          48.750



 113479750.456 8  88425787.131 8  21594468.700                    21594465.380
                                        48.450          48.450



 119753029.764 7  93314048.43846  22788237.240                    22788234.380
                                        45.900          39.350



 125436638.145 7  97742877.742 7  23869788.220                    23869791.820
                                        43.100          45.550



 23  8 31 13 49  0.0000000  0  7G04G06G07G09G11G20G30
 116427086.491 7  90722441.641 7  22155321.760                    22155319.520
                                        46.850          46.050



 109886983.285 8  85626244.244 8  20910789.140                    20910788.760
                                        49.150          48.700



 115790850.405 8  90226679.874 7  22034244.860                    22034241.860
                                        48.450          45.450



 107698931.988 8  83921289.454 8  20494406.240                    20494404.220
                                        50.700          48.300



 113440149.654 8  88394929.390 8  21586932.880                    21586929.600
                                        48.100          48.050



 119661163.712 7  93242464.56446  22770755.660                    22770752.820
                                        46.100          38.700



 125330519.579 7  97660188.135 7  23849594.420                    23849597.960
                                        43.200          44.650



 23  8 31 13 49 30.0000000  0  7G04G06G07G09G11G20G30
 116508453.321 7  90785844.308 7  22170805.420                    22170803.160
                                        47.300          46.250



 109937219.214 8  85665389.083 8  20920348.760                    20920348.360
                                        48.850          48.450



 115721675.254 8  90172777.228 7  22021081.200                    22021078.200
                                        48.550          45.600



 107737046.860 8  83950989.342 8  20501659.260                    20501657.240
                                        50.800          48.350



 113401110.999 7  88364509.682 7  21579504.020                    21579500.780
                                        47.850          47.400



 119569453.484 7  93171002.10346  22753303.740                    22753300.920
                                        45.550          40.650



 125224537.015 7  97577604.504 7  23829426.480                    23829429.960
                                        42.000          44.650



 23  8 31 13 50  0.0000000  0  7G04G06G07G09G11G20G30
 116590028.038 7  90849408.970 7  22186328.620                    22186326.380
                                        47.350          46.400



 109988002.350 8  85704960.329 8  20930012.500                    20930012.060
                                        49.200          48.850



 115652874.181 7  90119166.057 7  22007988.740                    22007985.740
                                        47.950          45.600



 107775543.789 8  83980986.937 8  20508985.000                    20508982.940
                                        50.750          48.250



 113362633.522 7  88334527.262 7  21572181.940                    21572178.720
                                        47.850          47.400



 119477898.380 7  93099660.51746  22735881.340                    22735878.540
                                        45.550          39.250



 125118690.361 7  97495126.783 7  23809284.340                    23809287.820
                                        43.250          44.250



 23  8 31 13 50 30.0000000  0  7G04G06G07G09G11G20G30
 116671806.934 7  90913132.742 7  22201890.680                    22201888.440
                                        47.650          46.550



 110039329.031 8  85744955.100 8  20939779.700                    20939779.220
                                        49.400          48.200



 115584446.806 7  90065846.090 7  21994967.380                    21994964.380
                                        47.850          45.350



 107814419.383 8  84011279.601 8  20516382.800                    20516380.700
                                        50.800          48.250



 113324716.741 8  88304981.721 7  21564966.560                    21564963.380
                                        48.200          47.700



 119386498.242 7  93028439.71446  22718488.400                    22718485.600
                                        45.250          39.950



 125012979.884 7  97412755.152 7  23789168.140                    23789171.600
                                        44.350          43.200



 23  8 31 13 51  0.0000000  0  7G04G06G07G09G11G20G30
 116753792.776 7  90977017.771 7  22217492.120                    22217489.900
                                        47.400          46.650



 110091202.195 8  85785375.719 8  20949650.880                    20949650.360
                                        49.350          48.800



 115516399.512 8  90012822.295 7  21982018.340                    21982015.340
                                        48.300          45.100



 107853676.710 8  84041869.714 8  20523853.240                    20523851.080
                                        51.000          48.750



 113287366.697 8  88275877.793 7  21557859.060                    21557855.880
                                        48.950          47.400



 119295259.310 7  92957344.50946  22701126.160                    22701123.360
                                        45.400          38.800



 124907412.440 7  97330494.948 7  23769079.180                    23769082.620
                                        44.400          43.600



 23  8 31 13 51 30.0000000  0  7G04G06G07G09G11G20G30
 116835981.641 7  91041060.985 7  22233132.200                    22233130.000
                                        47.150          46.900



 110143618.060 8  85826219.207 8  20959625.340                    20959624.780
                                        49.200          48.850



 115448731.936 7  89960094.375 7  21969141.560                    21969138.560
                                        47.750          45.350



 107893312.166 8  84072754.475 8  20531395.660                    20531393.460
                                        51.000          48.850



 113250582.647 8  88247214.913 7  21550859.280                    21550856.080
                                        48.750          47.250



 119204180.966 7  92886374.44546  22683794.440                    22683791.680
                                        45.050          39.850



 124801988.128 7  97248346.267 7  23749017.480                    23749020.860
                                        44.300          43.900



 23  8 31 13 52  0.0000000  0  7G04G06G07G09G11G20G30
 116918371.451 7  91105260.781 7  22248810.500                    22248808.360
                                        47.150          46.950



 110196574.585 8  85867483.998 8  20969702.680                    20969702.080
                                        48.850          48.800



 115381445.379 7  89907663.361 7  21956337.260                    21956334.300
                                        47.200          44.950



 107933323.956 8  84103932.483 8  20539009.680                    20539007.460
                                        50.900          48.800



 113214365.697 7  88218993.939 7  21543967.400                    21543964.140
                                        47.850          47.050



 119113264.638 7  92815530.63546  22666493.540                    22666490.820
                                        45.550          38.600



 124696708.892 7  97166310.652 7  23728983.380                    23728986.680
                                        42.400          43.900



 23  8 31 13 52 30.0000000  0  7G04G06G07G09G11G20G30
 117000962.928 7  91169617.733 7  22264527.180                    22264525.080
                                        47.200          47.150



 110250072.596 8  85909170.717 8  20979883.040                    20979882.440
                                        48.700          48.850



 115314543.893 7  89855532.395 7  21943606.260                    21943603.300
                                        47.050          44.850



 107973713.119 8  84135404.543 8  20546695.520                    20546693.280
                                        50.750          49.000



 113178719.738 7  88191217.881 7  21537184.200                    21537180.900
                                        47.900          47.800



 119022514.367 7  92744816.19346  22649224.280                    22649221.560
                                        45.800          40.050



 124591579.438 6  97084391.799 7  23708977.720                    23708980.960
                                        40.650          45.000



 23  8 31 13 53  0.0000000  0  7G04G06G07G09G11G20G30
 117083753.749 7  91234130.023 7  22280281.780                    22280279.720
                                        47.500          46.950



 110304109.744 8  85951277.558 8  20990166.000                    20990165.400
                                        48.450          48.600



 115248028.621 7  89803702.388 7  21930948.700                    21930945.780
                                        47.800          44.800



 108014477.608 8  84167169.072 8  20554452.780                    20554450.540
                                        50.750          48.850



 113143645.539 8  88163887.354 7  21530509.760                    21530506.480
                                        48.350          47.900



 118931931.607 7  92674232.29046  22631986.880                    22631984.140
                                        46.600          39.250



 124486601.494 6  97002591.017 7  23689000.860                    23689004.060
                                        41.600          45.650



 23  8 31 13 53 30.0000000  0  7G04G06G07G09G11G20G30
 117166738.014 7  91298793.037 7  22296073.200                    22296071.180
                                        47.400          46.650



 110358680.127 8  85993799.913 8  21000550.380                    21000549.800
                                        48.600          48.700



 115181897.010 8  89752171.331 7  21918364.180                    21918361.300
                                        48.250          44.950



 108055611.816 8  84199221.694 8  20562280.380                    20562278.140
                                        50.850          48.750



 113109140.296 8  88137000.174 7  21523943.600                    21523940.320
                                        48.850          47.650



 118841513.532 7  92603776.69746  22614780.860                    22614778.080
                                        47.150          38.800



 124381773.256 7  96920906.845 7  23669052.520                    23669055.720
                                        43.300          45.350



 23  8 31 13 54  0.0000000  0  7G04G06G07G09G11G20G30
 117249917.742 7  91363608.377 7  22311901.800                    22311899.820
                                        46.950          46.950



 110413785.724 8  86036739.305 8  21011036.640                    21011036.100
                                        48.450          48.350



 115116154.641 8  89700943.592 7  21905853.720                    21905850.860
                                        48.650          44.500



 108097117.957 8  84231564.145 8  20570178.740                    20570176.520
                                        50.750          48.950



 113075209.155 8  88110560.348 7  21517486.700                    21517483.400
                                        48.750          47.500



 118751265.595 7  92533453.69446  22597607.220                    22597604.360
                                        46.800          38.900



 124277100.682 7  96839343.983 7  23649133.820                    23649137.020
                                        44.750          45.850



 23  8 31 13 54 30.0000000  0  7G04G06G07G09G11G20G30
 117333292.136 7  91428575.388 7  22327767.440                    22327765.520
                                        46.700          46.950



 110469425.777 8  86080095.168 8  21021624.580                    21021624.060
                                        48.650          48.650



 115050803.613 8  89650020.767 7  21893417.780                    21893414.900
                                        48.600          44.600



 108138995.569 8  84264196.042 8  20578147.800                    20578145.600
                                        50.500          49.000



 113041854.415 8  88084569.658 8  21511139.500                    21511136.180
                                        49.150          48.250



 118661190.380 7  92463265.25846  22580466.460                    22580463.520
                                        45.900          39.900



 124172587.007 7  96757904.914 7  23629245.440                    23629248.560
                                        45.300          45.400



 23  8 31 13 55  0.0000000  0  7G04G06G07G09G11G20G30
 117416863.351 7  91493695.764 7  22343670.540                    22343668.680
                                        46.550          46.950



 110525602.227 8  86123869.000 8  21032314.600                    21032314.100
                                        48.900          48.450



 114985849.854 8  89599407.468 7  21881057.460                    21881054.580
                                        48.550          45.450



 108181246.997 8  84297119.223 8  20586187.980                    20586185.800
                                        50.650          48.750



 113009081.131 8  88059032.046 8  21504902.960                    21504899.620
                                        49.050          48.450



 118571293.642 7  92393215.92146  22563359.640                    22563356.620
                                        45.400          40.350



 124068238.307 7  96676594.404 7  23609388.460                    23609391.500
                                        43.600          44.200



 23  8 31 13 55 30.0000000  0  7G04G06G07G09G11G20G30
 117500628.643 7  91558967.387 7  22359610.540                    22359608.760
                                        46.300          46.550



 110582312.305 8  86168058.636 8  21043106.200                    21043105.700
                                        49.250          48.250



 114921293.829 8  89549104.144 7  21868772.780                    21868769.900
                                        48.650          46.000



 108223869.760 8  84330331.767 8  20594298.800                    20594296.620
                                        50.550          48.600



 112976889.632 8  88033947.772 7  21498777.120                    21498773.800
                                        48.800          47.700



 118481576.118 7  92323306.22446  22546286.900                    22546283.860
                                        46.150          39.050



 123964055.857 7  96595413.452 7  23589563.120                    23589566.020
                                        42.600          43.650



 23  8 31 13 56  0.0000000  0  7G04G06G07G09G11G20G30
 117584581.591 7  91624385.226 7  22375586.260                    22375584.540
                                        47.050          46.550



 110639549.494 8  86212659.007 8  21053998.140                    21053997.600
                                        49.300          48.300



 114857132.350 8  89499108.246 7  21856563.220                    21856560.320
                                        48.750          45.800



 108266857.705 8  84363828.869 8  20602479.120                    20602476.940
                                        50.600          48.600



 112945276.477 8  88009314.148 7  21492761.340                    21492758.000
                                        48.450          47.250



 118392034.815 7  92253533.85146  22529247.680                    22529244.640
                                        46.400          39.850



 123860037.270 7  96514360.130 7  23569768.940                    23569771.760
                                        42.300          42.300



 23  8 31 13 56 30.0000000  0  7G04G06G07G09G11G20G30
 117668720.529 7  91689947.994 7  22391597.380                    22391595.700
                                        47.250          46.400



 110697311.956 8  86257668.681 8  21064990.040                    21064989.460
                                        49.300          48.550



 114793367.295 8  89449421.262 7  21844429.080                    21844426.160
                                        48.800          45.550



 108310209.377 8  84397609.389 8  20610728.640                    20610726.500
                                        50.550          48.700



 112914242.970 8  87985132.215 7  21486855.860                    21486852.480
                                        48.700          47.400



 118302671.402 7  92183900.08346  22512242.340                    22512239.280
                                        46.750          40.150



 123756184.768 7  96433436.281 7  23550006.320                    23550009.020
                                        42.950          43.000



 23  8 31 13 57  0.0000000  0  7G04G06G07G09G11G20G30
 117753042.889 7  91755653.698 7  22407643.400                    22407641.740
                                        47.200          45.950



 110755596.942 8  86303085.528 8  21076081.340                    21076080.740
                                        49.150          48.350



 114729998.898 8  89400043.378 7  21832370.420                    21832367.460
                                        48.700          45.250



 108353922.373 8  84431671.472 8  20619046.920                    20619044.780
                                        50.800          48.700



 112883789.451 8  87961402.209 7  21481060.720                    21481057.340
                                        48.450          47.200



 118213486.590 7  92114405.52046  22495270.960                    22495267.900
                                        46.850          40.300



 123652499.815 7  96352642.983 7  23530275.560                    23530278.180
                                        44.350          44.400



 23  8 31 13 57 30.0000000  0  7G04G06G07G09G11G20G30
 117837549.088 7  91821502.631 7  22423724.440                    22423722.780
                                        47.250          45.800



 110814404.685 8  86348909.711 8  21087272.140                    21087271.520
                                        49.600          48.050



 114667030.901 8  89350977.488 7  21820387.960                    21820384.940
                                        48.450          45.300



 108397997.399 8  84466015.636 8  20627434.120                    20627432.000
                                        50.900          48.950



 112853919.243 8  87938126.730 7  21475376.580                    21475373.200
                                        48.650          46.800



 118124484.500 7  92045053.30246  22478334.380                    22478331.340
                                        47.150          40.350



 123548986.815 7  96271983.632 7  23510577.580                    23510580.140
                                        45.450          44.900



 23  8 31 13 58  0.0000000  0  7G04G06G07G09G11G20G30
 117922239.573 7  91887495.170 7  22439840.540                    22439838.840
                                        47.700          45.850



 110873735.423 8  86395141.432 8  21098562.460                    21098561.800
                                        49.550          48.000



 114604467.050 8  89302226.507 7  21808482.420                    21808479.360
                                        48.650          45.850



 108442435.061 8  84500642.375 8  20635890.320                    20635888.240
                                        50.950          49.000



 112824635.663 8  87915308.369 7  21469804.080                    21469800.680
                                        48.950          46.700



 118035669.028 7  91975846.50746  22461433.320                    22461430.260
                                        46.950          39.900



 123445650.121 7  96191461.692 7  23490913.180                    23490915.640
                                        45.800          45.900



 23  8 31 13 58 30.0000000  0  7G04G06G07G09G11G20G30
 118007110.204 7  91953628.084 7  22455990.920                    22455989.180
                                        47.550          45.900



 110933584.770 8  86441777.258 8  21109951.500                    21109950.760
                                        49.050          48.050



 114542306.376 8  89253789.693 7  21796653.580                    21796650.500
                                        48.450          45.600



 108487231.461 8  84535548.653 8  20644414.820                    20644412.720
                                        50.800          48.650



 112795937.436 8  87892946.132 7  21464342.980                    21464339.520
                                        49.000          47.150



 117947039.331 7  91906784.45746  22444567.600                    22444564.580
                                        46.850          40.300



 123342489.586 7  96111077.036 7  23471282.280                    23471284.660
                                        45.750          45.700



 23  8 31 13 59  0.0000000  0  7G04G06G07G09G11G20G30
 118092162.490 7  92019902.540 7  22472175.900                    22472174.100
                                        47.250          46.050



 110993953.984 8  86488818.147 8  21121439.460                    21121438.680
                                        48.850          48.650



 114480553.810 8  89205670.869 7  21784902.420                    21784899.320
                                        48.650          45.450



 108532388.260 8  84570735.754 8  20653007.880                    20653005.800
                                        50.550          48.650



 112767828.877 8  87871043.365 7  21458994.080                    21458990.580
                                        48.800          47.650



 117858600.258 7  91837870.95846  22427738.160                    22427735.160
                                        46.050          41.100



 123239510.587 7  96030833.816 7  23451685.980                    23451688.260
                                        46.100          45.400



 23  8 31 13 59 30.0000000  0  7G04G06G07G09G11G20G30
 118177391.654 7  92086314.823 7  22488394.520                    22488392.660
                                        46.600          46.300



 111054837.963 8  86536260.182 8  21133025.360                    21133024.540
                                        48.700          48.650



 114419207.598 8  89157868.689 7  21773228.600                    21773225.460
                                        49.000          44.850



 108577900.882 8  84606200.131 8  20661668.660                    20661666.560
                                        50.600          48.700



 112740308.022 8  87849598.523 7  21453757.060                    21453753.560
                                        48.800          47.600



 117770350.666 7  91769105.10546  22410944.760                    22410941.780
                                        45.800          41.400



 123136712.348 7  95950731.419 7  23432124.100                    23432126.260
                                        45.400          45.050



                            4  1
RINEX FILE SPLICE; other post-header comments skipped       COMMENT
 23  8 31 14  0  0.0000000  0  7G04G06G07G09G11G20G30
 118262799.467 7  92152866.309 7  22504647.140                    22504645.240
                                        46.850          46.300



 111116238.160 8  86584104.459 8  21144709.480                    21144708.640
                                        48.600          48.650



 114358272.716 8  89110387.002 7  21761633.060                    21761629.860
                                        49.400          44.800



 108623771.227 8  84641943.259 8  20670397.520                    20670395.380
                                        50.800          48.600



 112713379.363 8  87828615.154 7  21448632.720                    21448629.200
                                        48.950          47.450



 117682295.671 7  91700490.87846  22394188.380                    22394185.440
                                        46.200          41.250



 123034100.489 7  95870774.278 7  23412597.680                    23412599.700
                                        45.300          44.400



 23  8 31 14  0 30.0000000  0  7G04G06G07G09G11G20G30
 118348382.144 7  92219554.050 7  22520933.020                    22520931.120
                                        46.550          45.850



 111178150.489 8  86632347.783 8  21156491.040                    21156490.200
                                        48.400          48.400



 114297748.434 8  89063225.266 7  21750115.680                    21750112.400
                                        49.950          44.850



 108669995.728 8  84677962.344 8  20679193.760                    20679191.620
                                        50.750          48.900



 112687041.924 8  87808092.486 7  21443620.880                    21443617.320
                                        49.000          47.150



 117594435.080 7  91632028.12746  22377469.020                    22377466.080
                                        47.050          40.850



 122931675.218 7  95790962.493 7  23393106.800                    23393108.680
                                        45.850          43.950



 23  8 31 14  1  0.0000000  0  7G04G06G07G09G11G20G30
 118434141.677 7  92286379.621 7  22537252.520                    22537250.600
                                        46.200          45.950



 111240576.579 8  86680991.444 8  21168370.360                    21168369.540
                                        48.450          48.700



 114237639.840 8  89016387.440 7  21738677.400                    21738674.060
                                        49.650          44.700



 108716576.535 8  84714259.084 8  20688057.800                    20688055.660
                                        50.650          48.900



 112661300.374 8  87788034.146 7  21438722.440                    21438718.820
                                        48.550          46.900



 117506774.128 7  91563720.94946  22360787.640                    22360784.700
                                        47.150          41.250



 122829442.405 7  95711300.696 7  23373652.520                    23373654.240
                                        44.900          44.100



 23  8 31 14  1 30.0000000  0  7G04G06G07G09G11G20G30
 118520068.544 7  92353335.578 7  22553603.880                    22553601.960
                                        46.750          45.350



 111303506.496 8  86730027.713 8  21180345.540                    21180344.740
                                        48.700          48.400



 114177940.540 8  88969868.560 7  21727317.000                    21727313.580
                                        49.200          44.300



 108763504.278 8  84750826.148 8  20696987.860                    20696985.740
                                        50.400          48.850



 112636147.896 8  87768434.829 7  21433936.080                    21433932.420
                                        48.700          46.650



 117419306.961 7  91495564.76446  22344143.160                    22344140.200
                                        47.050          40.950



 122727396.450 7  95631784.504 7  23354233.800                    23354235.380
                                        45.550          45.300



 23  8 31 14  2  0.0000000  0  7G04G06G07G09G11G20G30
 118606167.318 7  92420425.501 7  22569987.920                    22569986.000
                                        46.700          45.050



 111366944.478 8  86779459.863 8  21192417.440                    21192416.640
                                        48.650          48.400



 114118658.359 8  88923674.700 7  21716035.980                    21716032.460
                                        49.000          44.900



 108810783.711 8  84787667.255 8  20705984.840                    20705982.760
                                        50.600          48.700



 112611591.733 8  87749300.160 7  21429263.180                    21429259.500
                                        48.800          47.300



 117332041.479 7  91427565.74546  22327537.040                    22327534.060
                                        47.400          41.600



 122625545.862 7  95552420.563 7  23334852.220                    23334853.700
                                        45.050          44.200



