     2.11           OBSERVATION DATA    G (GPS)             RINEX VERSION / TYPE
teqc  2019Feb25                         20230831 20:07:56UTCPGM / RUN BY / DATE
Linux 2.6.32-573.12.1.x86_64|x86_64|gcc|Linux 64|=+         COMMENT
teqc  2019Feb25                         20230831 20:07:55UTCCOMMENT
     2.11           OBSERVATION DATA    M (MIXED)           COMMENT
teqc  2019Feb25     IGN-RGP             20230831 13:04:34UTCCOMMENT
teqc  2019Feb25     Administrateur RGP  20230831 13:04:34UTCCOMMENT
teqc  2019Feb25     IGN-RGP             20230831 13:04:33UTCCOMMENT
ssrcrin-13.0.1x                         31-AUG-23 12:00     COMMENT
(000000000000583293750002) Septentrio proprietary           COMMENT
SBGS                                                        MARKER NAME
18310M001                                                   MARKER NUMBER
Automatic           SBGS                                    OBSERVER / AGENCY
3025670             SEPT ASTERX-U       4.4.2               REC # / TYPE / VERS
VP6050C1808200003   TWIVP6050_CONE  NONE                    ANT # / TYPE
  4197054.1780   158843.9130  4784067.3690                  APPROX POSITION XYZ
        0.0000        0.0000        0.0000                  ANTENNA: DELTA H/E/N
     1     1                                                WAVELENGTH FACT L1/2
    13    C1    L1    L2    P2    P1    C5    L5    C6    L6# / TYPES OF OBSERV
          C7    L7    C8    L8                              # / TYPES OF OBSERV
    30.0000                                                 INTERVAL
For GPS, L2 corresponds to the L2P carrier phase.           COMMENT
For GLONASS, L2 corresponds to the L2CA carrier phase.      COMMENT
    18                                                      LEAP SECONDS
Forced Modulo Decimation to 30 seconds                      COMMENT
teqc_2019 edited: all GLONASS satellites excluded           COMMENT
teqc_2019 edited: all SBAS satellites excluded              COMMENT
teqc_2019 edited: all Galileo satellites excluded           COMMENT
  2023     8    31    12     0    0.0000000     GPS         TIME OF FIRST OBS
                                                            END OF HEADER
 23  8 31 12  0  0.0000000  0  9G19G03G09G11G04G31G06G17G28
  21807453.064 7 114598959.595 7  89297892.251 6  21807452.381 6  21807451.795 6


  21343472.885 7 112160775.687 7  87398050.774 8  21343476.025 8  21343472.774 8
  21343475.249 8  83756474.104 8

  20960458.672 8 110148054.447 8  85829714.117 9  20960461.177 9  20960458.207 9
  20960460.704 8  82253485.325 8

  25013108.538 6 131444775.763 6 102424521.654 4  25013111.948 4  25013108.918 4
  25013115.940 7  98156842.247 7

  20313697.474 8 106749301.627 8  83181330.039 6  20313697.362 6  20313697.242 6
  20313700.953 8  79715463.478 8

  23313296.983 6 122512300.710 6  95464184.169 7  23313298.635 7  23313296.639 7


  21400663.458 8 112461294.463 8  87632215.467 6  21400666.974 6  21400663.400 6
  21400666.807 8  83980878.517 8

  22714040.224 7 119363085.105 7  93010204.149 5  22714043.227 5  22714039.862 5


  25012926.908 6 131443883.791 6 102423853.325 4  25012930.555 4  25012926.694 4
  25012934.433 7  98156218.438 7

 23  8 31 12  0 30.0000000  0  9G19G03G09G11G04G31G06G17G28
  21817205.606 7 114650211.079 7  89337828.430 6  21817205.057 6  21817204.328 6


  21355663.891 7 112224839.685 7  87447970.758 8  21355666.809 8  21355663.780 8
  21355666.158 8  83804314.080 8

  20948502.913 8 110085226.146 8  85780757.038 9  20948505.139 9  20948502.448 9
  20948504.894 8  82206568.137 8

  24992639.484 6 131337209.707 6 102340704.044 3  24992642.616 3  24992639.841 3
  24992646.974 7  98076517.066 7

  20312811.202 8 106744645.866 8  83177702.198 7  20312811.358 7  20312810.970 7
  20312815.109 9  79711986.792 9

  23320615.001 6 122550756.696 6  95494149.888 7  23320616.709 7  23320614.644 7


  21387905.891 8 112394252.069 8  87579974.673 6  21387909.408 6  21387905.838 6
  21387909.178 8  83930814.425 8

  22728687.457 7 119440056.241 7  93070181.541 5  22728689.911 5  22728687.104 5


  25027845.781 6 131522283.114 6 102484943.654 4  25027849.202 4  25027845.607 4
  25027853.337 7  98214763.322 7

 23  8 31 12  1  0.0000000  0  9G19G03G09G11G04G31G06G17G28
  21827067.971 7 114702037.981 7  89378212.984 6  21827067.170 6  21827066.702 6


  21367905.351 7 112289170.065 7  87498098.311 8  21367908.335 8  21367905.240 8
  21367907.872 8  83852352.981 8

  20936632.333 8 110022846.818 8  85732149.807 9  20936634.489 9  20936631.868 9
  20936634.302 8  82159986.218 8

  24972182.068 6 131229706.357 6 102256935.290 3  24972185.400 3  24972182.416 3
  24972189.439 7  97996238.700 7

  20312027.940 8 106740529.606 8  83174494.742 7  20312028.562 7  20312027.708 7
  20312031.708 9  79708912.971 9

  23328046.428 6 122589809.270 6  95524580.478 7  23328048.169 7  23328046.071 7


  21375221.460 8 112327595.213 8  87528034.297 6  21375225.005 6  21375221.407 6
  21375224.797 8  83881038.237 8

  22743397.653 7 119517358.155 7  93130416.700 5  22743399.741 5  22743397.318 5


  25042837.586 6 131601068.293 6 102546334.642 3  25042841.651 3  25042837.296 3
  25042845.683 7  98273596.338 7

 23  8 31 12  1 30.0000000  0  9G19G03G09G11G04G31G06G17G28
  21837039.363 7 114754437.247 7  89419043.529 6  21837039.046 6  21837038.107 6


  21380197.587 7 112353765.139 7  87548432.114 8  21380200.282 8  21380197.480 8
  21380199.977 8  83900589.546 8

  20924847.517 8 109960916.804 8  85683892.694 9  20924849.463 9  20924847.052 9
  20924849.460 8  82113739.834 8

  24951736.828 6 131122266.848 6 102173216.263 3  24951739.499 3  24951737.163 3
  24951744.186 7  97916008.011 7

  20311347.313 8 106736951.537 8  83171706.655 7  20311347.898 7  20311347.085 7
  20311350.908 9  79706241.044 9

  23335591.279 6 122629456.282 6  95555474.268 7  23335592.660 7  23335590.931 7


  21362610.491 8 112261325.343 8  87476395.464 6  21362614.107 6  21362610.433 6
  21362614.083 8  83831551.042 8

  22758170.119 7 119594987.097 7  93190906.671 5  22758172.568 5  22758169.793 5


  25057903.969 6 131680236.063 6 102608023.761 4  25057906.999 4  25057903.697 4
  25057910.977 7  98332715.050 7

 23  8 31 12  2  0.0000000  0  9G19G03G09G11G04G31G06G17G28
  21847118.956 7 114807407.856 7  89460319.277 6  21847118.475 6  21847117.704 6


  21392540.140 7 112418625.315 7  87598972.487 8  21392542.862 8  21392540.038 8
  21392542.472 8  83949024.065 8

  20913148.334 8 109899438.544 8  85635987.591 9  20913150.479 9  20913147.869 9
  20913150.322 8  82067830.782 8

  24931304.617 6 131014894.474 6 102089549.553 3  24931307.090 3  24931304.961 3
  24931311.473 7  97835827.440 7

  20310768.997 8 106733912.470 8  83169338.563 7  20310770.144 7  20310768.765 7
  20310772.603 9  79703971.621 9

  23343248.842 6 122669697.843 6  95586831.337 7  23343250.317 7  23343248.480 7


  21350074.051 8 112195446.002 8  87425060.935 6  21350077.339 6  21350073.993 6
  21350077.663 8  83782355.474 8

  22773004.417 7 119672941.773 7  93251650.467 5  22773006.919 5  22773004.104 5


  25073041.185 6 131759785.244 6 102670010.065 4  25073044.762 4  25073040.926 4
  25073048.664 7  98392118.587 7

 23  8 31 12  2 30.0000000  0  9G19G03G09G11G04G31G06G17G28
  21857306.841 7 114860945.366 7  89502036.776 6  21857306.539 6  21857305.598 6


  21404932.564 7 112483747.561 7  87649717.075 8  21404935.483 8  21404932.462 8
  21404934.829 8  83997654.294 8

  20901534.974 8 109838410.966 8  85588433.668 9  20901537.466 9  20901534.509 9
  20901537.259 8  82022258.285 8

  24910885.119 6 130907589.033 6 102005935.021 3  24910888.033 3  24910885.436 3
  24910891.794 7  97755696.845 7

  20310292.544 8 106731409.722 8  83167388.376 7  20310294.776 7  20310292.312 7
  20310296.260 9  79702102.698 9

  23351019.072 6 122710530.389 6  95618648.915 7  23351020.445 7  23351018.715 7


  21337612.255 8 112129957.281 8  87374030.786 6  21337614.782 6  21337612.193 6
  21337615.384 8  83733451.594 8

  22787900.272 7 119751217.810 7  93312644.670 5  22787902.267 5  22787899.964 5


  25088250.617 6 131839711.167 6 102732289.944 3  25088254.237 3  25088250.318 3
  25088258.073 7  98451803.445 7

 23  8 31 12  3  0.0000000  0  9G19G03G09G11G04G31G06G17G28
  21867602.946 7 114915051.158 7  89544197.088 6  21867602.826 6  21867601.708 6


  21417375.254 7 112549134.898 7  87700668.230 8  21417378.480 8  21417375.147 8
  21417377.684 8  84046482.474 8

  20890008.634 8 109777839.101 8  85541234.846 9  20890011.021 9  20890008.165 9
  20890010.683 8  81977026.097 8

  24890478.798 6 130800356.500 6 101922377.294 4  24890482.666 4  24890479.119 4
  24890486.466 7  97675620.675 7

  20309918.958 8 106729446.677 8  83165858.731 7  20309921.252 7  20309918.726 7
  20309922.649 9  79700636.799 9

  23358902.219 6 122751956.304 6  95650928.860 7  23358903.393 7  23358901.866 7


  21325225.573 8 112064865.327 8  87323309.809 6  21325228.504 6  21325225.520 6
  21325228.558 8  83684844.003 8

  22802856.883 7 119829816.010 7  93373889.909 5  22802859.124 5  22802856.575 5


  25103531.932 6 131920015.256 6 102794864.489 3  25103535.604 3  25103531.602 3
  25103539.628 7  98511770.701 7

 23  8 31 12  3 30.0000000  0  9G19G03G09G11G04G31G06G17G28
  21878006.405 7 114969720.809 7  89586796.778 6  21878005.760 6  21878005.162 6


  21429868.169 7 112614783.897 7  87751823.277 8  21429871.200 8  21429868.071 8
  21429870.264 8  84095506.054 8

  20878568.501 8 109717721.453 8  85494389.961 9  20878571.526 9  20878568.032 9
  20878570.791 8  81932133.091 8

  24870086.629 6 130693196.224 6 101838875.886 3  24870090.597 3  24870086.942 3
  24870094.495 7  97595598.522 7

  20309647.425 8 106728020.183 8  83164747.169 7  20309650.006 7  20309647.189 7
  20309651.330 9  79699571.564 9

  23366897.393 6 122793971.498 6  95683667.976 7  23366898.640 7  23366897.054 7


  21312914.204 8 112000169.816 8  87272897.756 6  21312917.733 6  21312914.151 6
  21312917.258 8  83636532.459 8

  22817874.156 7 119908731.037 7  93435382.028 5  22817876.321 5  22817873.835 5


  25118884.393 6 132000692.444 6 102857729.761 3  25118887.769 3  25118884.013 3
  25118891.957 7  98572016.585 7

 23  8 31 12  4  0.0000000  0  9G19G03G09G11G04G31G06G17G28
  21888516.824 7 115024952.747 7  89629834.613 6  21888515.925 6  21888515.577 6


  21442410.474 7 112680694.880 7  87803182.470 8  21442413.628 8  21442410.376 8
  21442412.715 8  84144725.270 8

  20867215.482 8 109658060.300 8  85447900.795 9  20867218.554 9  20867215.013 9
  20867217.551 8  81887580.976 8

  24849709.666 6 130586111.491 6 101755433.332 3  24849712.137 3  24849709.965 3
  24849716.726 7  97515632.774 7

  20309478.174 8 106727130.897 8  83164054.207 7  20309481.443 7  20309477.938 7
  20309482.098 9  79698907.493 9

  23375004.416 6 122836575.942 6  95716866.246 7  23375006.104 7  23375004.095 7


  21300679.020 8 111935874.171 8  87222797.287 6  21300682.806 6  21300678.962 6
  21300682.169 8  83588519.515 8

  22832951.201 7 119987961.982 7  93497120.309 5  22832954.046 5  22832950.884 5


  25134307.800 6 132081741.424 6 102920884.744 3  25134310.945 3  25134307.541 3
  25134315.221 7  98632540.088 7

 23  8 31 12  4 30.0000000  0  9G19G03G09G11G04G31G06G17G28
  21899133.338 7 115080743.054 7  89673307.542 6  21899132.137 6  21899132.073 6


  21455002.103 7 112746865.351 7  87854743.858 8  21455005.358 8  21455002.005 8
  21455004.575 8  84194138.266 8

  20855949.062 8 109598855.101 8  85401766.912 9  20855951.878 9  20855948.593 9
  20855951.078 8  81843369.346 8

  24829346.584 6 130479102.723 6 101672049.945 4  24829349.026 4  24829346.847 4
  24829353.299 7  97435723.736 7

  20309410.843 8 106726776.587 8  83163778.109 7  20309413.342 7  20309410.607 7
  20309414.767 9  79698642.913 9

  23383223.823 6 122879766.665 6  95750521.347 7  23383224.937 7  23383223.542 7


  21288520.492 7 111871979.000 7  87173008.872 6  21288523.779 6  21288520.439 6
  21288523.234 8  83540805.626 8

  22848087.663 7 120067504.209 7  93559101.153 5  22848090.326 5  22848087.342 5


  25149800.153 6 132163158.044 6 102984326.203 3  25149804.069 3  25149799.796 3
  25149808.479 7  98693338.134 7

 23  8 31 12  5  0.0000000  0  9G19G03G09G11G04G31G06G17G28
  21909855.345 7 115137087.545 7  89717212.294 6  21909855.130 6  21909854.076 6


  21467643.118 7 112813292.691 7  87906505.403 8  21467645.980 8  21467643.029 8
  21467645.194 8  84243743.078 8

  20844769.410 8 109540105.090 8  85355987.714 9  20844771.649 9  20844768.937 9
  20844771.132 8  81799497.620 8

  24808998.121 6 130372170.151 6 101588725.942 4  24809001.238 4  24808998.416 4
  24809004.607 7  97355871.595 7

  20309444.855 8 106726954.896 8  83163917.063 7  20309445.225 7  20309444.623 7
  20309448.655 9  79698776.068 9

  23391553.543 6 122923540.321 6  95784630.683 7  23391554.579 7  23391553.307 7


  21276437.879 7 111808484.746 7  87123532.863 6  21276440.817 6  21276437.821 6
  21276440.624 8  83493391.129 8

  22863282.588 7 120147352.822 7  93621320.743 5  22863284.798 5  22863282.253 5


  25165362.742 6 132244937.978 6 103048050.761 3  25165366.711 3  25165362.322 3
  25165370.628 7  98754407.487 7

 23  8 31 12  5 30.0000000  0  9G19G03G09G11G04G31G06G17G28
  21920683.407 7 115193988.689 7  89761550.796 6  21920683.436 6  21920682.138 6


  21480333.308 7 112879980.804 7  87958470.147 8  21480336.346 8  21480333.215 8
  21480335.464 8  84293542.617 8

  20833677.214 8 109481816.131 8  85310567.782 9  20833679.819 9  20833676.741 9
  20833679.111 8  81755970.197 8

  24788664.843 5 130265320.560 5 101505466.658 4  24788668.594 4  24788665.178 4
  24788671.595 7  97276081.458 7

  20309580.879 8 106727669.989 8  83164474.296 7  20309580.525 7  20309580.647 7
  20309584.685 9  79699310.069 9

  23399995.014 6 122967900.084 6  95819196.718 7  23399995.982 7  23399994.791 7


  21264432.717 8 111745398.457 8  87074374.744 6  21264435.288 6  21264432.655 6
  21264435.595 8  83446281.271 8

  22878536.077 7 120227510.128 7  93683780.886 5  22878538.460 5  22878535.733 5


  25180994.755 6 132327083.574 6 103112060.261 3  25180998.152 3  25180994.371 3
  25181002.384 7  98815749.928 7

 23  8 31 12  6  0.0000000  0  9G19G03G09G11G04G31G06G17G28
  21931616.193 7 115251441.425 7  89806319.120 6  21931616.091 6  21931614.928 6


  21493072.510 7 112946926.193 7  88010635.361 8  21493075.891 8  21493072.417 8
  21493074.675 8  84343534.284 8

  20822672.578 8 109423986.634 8  85265505.873 9  20822675.193 9  20822672.109 9
  20822674.527 8  81712785.871 8

  24768347.947 6 130158553.447 6 101422271.649 4  24768351.023 4  24768348.277 4
  24768354.336 7  97196352.890 7

  20309818.546 8 106728918.601 8  83165447.253 7  20309819.320 7  20309818.310 7
  20309822.199 9  79700242.481 9

  23408547.234 6 123012841.980 6  95854216.361 7  23408548.362 7  23408547.015 7


  21252505.333 8 111682719.710 8  87025534.202 6  21252508.553 6  21252505.266 6
  21252508.383 8  83399475.755 8

  22893847.399 7 120307970.753 7  93746477.358 5  22893849.800 5  22893847.037 5


  25196694.965 5 132409589.662 5 103176350.668 3  25196698.008 3  25196694.617 3
  25196702.849 7  98877361.559 7

 23  8 31 12  6 30.0000000  0  9G19G03G09G11G04G31G06G17G28
  21942653.382 7 115309443.306 7  89851515.354 6  21942652.991 6  21942652.122 6


  21505860.917 7 113014128.207 7  88063000.542 8  21505864.161 8  21505860.824 8
  21505862.901 8  84393717.578 8

  20811755.810 8 109366617.761 8  85220802.890 9  20811758.280 9  20811755.341 9
  20811757.636 8  81669945.519 8

  24748046.708 6 130051871.095 6 101339142.606 4  24748048.439 4  24748047.025 4
  24748053.323 7  97116687.580 7

  20310157.464 8 106730700.259 8  83166835.562 7  20310159.217 7  20310157.228 7
  20310161.218 8  79701572.947 8

  23417209.479 6 123058364.489 6  95889688.434 7  23417211.099 7  23417209.269 7


  21240656.132 8 111620450.880 8  86977013.068 6  21240659.402 6  21240656.070 6
  21240658.996 8  83352976.345 8

  22909215.878 7 120388732.382 7  93809408.379 5  22909218.405 5  22909215.507 5


  25212463.620 6 132492453.841 6 103240920.100 3  25212466.837 3  25212463.392 3
  25212471.397 7  98939240.596 7

 23  8 31 12  7  0.0000000  0  9G19G03G09G11G04G31G06G17G28
  21953795.008 7 115367992.205 7  89897137.836 6  21953794.627 6  21953793.743 6


  21518697.653 7 113081586.524 7  88115565.440 8  21518700.991 8  21518697.560 8
  21518699.941 8  84444092.260 8

  20800926.736 8 109309711.072 8  85176460.049 9  20800929.264 9  20800926.267 9
  20800928.530 8  81627450.304 8

  24727762.421 5 129945276.011 5 101256081.549 4  24727763.744 4  24727762.747 4
  24727768.835 7  97037087.450 7

  20310597.937 8 106733014.878 8  83168639.165 7  20310599.642 7  20310597.701 7
  20310601.602 8  79703301.406 8

  23425982.499 6 123104466.686 6  95925612.197 7  23425984.134 7  23425982.298 7


  21228885.302 8 111558594.800 8  86928813.557 7  21228888.856 7  21228885.244 7
  21228888.189 8  83306785.155 8

  22924641.039 7 120469792.948 7  93872572.335 5  22924643.874 5  22924640.659 5


  25228299.208 6 132575674.159 6 103305767.094 3  25228303.887 3  25228298.811 3
  25228307.619 7  99001385.616 7

 23  8 31 12  7 30.0000000  0  8G19G03G09G11G04G31G06G17
  21965039.970 7 115427084.876 7  89943184.023 6  21965040.078 6  21965038.723 6


  21531583.016 7 113149299.019 7  88168328.399 8  21531586.228 8  21531582.923 8
  21531585.211 8  84494656.756 8

  20790185.655 8 109253266.296 8  85132477.141 9  20790188.420 9  20790185.186 9
  20790187.303 8  81585300.020 8

  24707495.617 5 129838769.025 5 101173089.234 3  24707498.118 3  24707496.028 3
  24707501.621 7  96957553.178 7

  20311139.494 8 106735860.497 8  83170856.533 7  20311141.163 7  20311139.258 7
  20311143.192 9  79705426.387 9

  23434865.031 6 123151145.903 6  95961985.584 7  23434866.901 7  23434864.817 7


  21217193.010 8 111497152.374 8  86880936.376 7  21217196.418 7  21217192.957 7
  21217195.802 8  83260902.864 8

  22940122.654 7 120551148.112 7  93935965.857 5  22940125.312 5  22940122.270 5


 23  8 31 12  8  0.0000000  0  8G19G03G09G11G04G31G06G17
  21976388.381 7 115486720.627 7  89989653.388 6  21976387.673 6  21976387.134 6


  21544516.874 7 113217266.988 7  88221290.426 8  21544520.164 8  21544516.781 8
  21544519.133 8  84545412.024 8

  20779533.205 8 109197286.572 8  85088856.615 9  20779535.881 9  20779532.736 9
  20779534.734 8  81543497.023 8

  24687244.922 6 129732354.498 6 101090168.955 5  24687248.897 5  24687245.342 5
  24687251.541 7  96878087.907 7

  20311782.397 8 106739238.564 8  83173488.796 7  20311783.692 7  20311782.156 7
  20311786.021 9  79707948.975 9

  23443857.455 6 123198402.498 6  95998808.870 7  23443859.364 7  23443857.223 7


  21205580.255 8 111436127.963 8  86833384.922 7  21205583.703 7  21205580.193 7
  21205583.161 8  83215332.726 8

  22955659.943 7 120632797.472 7  93999588.619 5  22955662.613 5  22955659.563 5


 23  8 31 12  8 30.0000000  0  8G19G03G09G11G04G31G06G17
  21987839.609 7 115546896.178 7  90036543.385 6  21987838.118 6  21987838.357 6


  21557498.945 7 113285488.637 7  88274450.124 8  21557502.316 8  21557498.852 8
  21557501.422 8  84596356.725 8

  20768968.889 8 109141771.893 8  85045598.457 9  20768971.356 9  20768968.416 9
  20768970.597 8  81502041.292 8

  24667012.262 6 129626033.551 6 101007321.534 4  24667015.952 4  24667012.668 4
  24667019.167 7  96798692.470 7

  20312526.091 8 106743147.425 8  83176534.671 7  20312527.243 7  20312525.850 7
  20312529.864 9  79710867.934 9

  23452959.569 6 123246233.899 6  96036080.051 7  23452961.336 7  23452959.306 7


  21194047.850 8 111375522.801 8  86786160.160 7  21194051.221 7  21194047.788 7
  21194050.120 8  83170075.659 8

  22971253.102 7 120714737.287 7  94063437.712 5  22971255.200 5  22971252.727 5


 23  8 31 12  9  0.0000000  0  8G19G03G09G11G04G31G06G17
  21999392.418 7 115607605.900 7  90083849.616 6  21999390.957 6  21999391.153 6


  21570528.821 7 113353960.229 7  88327804.587 8  21570532.027 8  21570528.728 8
  21570531.273 8  84647488.072 8

  20758493.002 8 109086720.349 8  85002701.180 9  20758495.081 9  20758492.533 9
  20758494.718 8  81460931.407 8

  24646796.662 5 129519805.292 5 100924546.355 3  24646799.702 3  24646797.082 3
  24646803.675 7  96719366.287 7

  20313370.219 8 106747583.465 8  83179991.331 7  20313371.309 7  20313369.978 7
  20313373.965 8  79714180.573 8

  23462170.446 6 123294635.772 6  96073795.751 7  23462172.068 7  23462170.160 7


  21182594.740 8 111315336.249 8  86739261.585 7  21182598.497 7  21182594.682 7
  21182597.172 8  83125131.194 8

  22986899.605 7 120796962.056 7  94127508.844 5  22986902.454 5  22986899.225 5


 23  8 31 12  9 30.0000000  0  8G19G03G09G11G04G31G06G17
  22011046.968 7 115668851.247 7  90131573.213 6  22011046.732 6  22011045.708 6


  21583606.590 7 113422684.845 7  88381356.206 8  21583609.923 8  21583606.492 8
  21583609.205 8  84698808.370 8

  20748106.203 8 109032136.787 8  84960168.564 9  20748108.219 9  20748105.734 9
  20748107.881 8  81420170.992 8

  24626602.387 6 129413675.820 6 100841848.164 3  24626603.824 3  24626602.843 3
  24626608.185 7  96640113.894 7

  20314315.439 8 106752549.885 8  83183861.281 7  20314316.304 7  20314315.194 7
  20314319.042 8  79717889.276 8

  23471489.760 6 123343610.199 6  96111957.593 7  23471491.706 7  23471489.443 7


  21171222.184 8 111255574.393 8  86692693.939 7  21171225.542 7  21171222.122 7
  21171225.089 8  83080503.871 8

  23002601.185 7 120879472.842 7  94191802.845 5  23002603.904 5  23002600.805 5


 23  8 31 12 10  0.0000000  0  8G19G03G09G11G04G31G06G17
  22022802.389 7 115730626.546 7  90179709.747 6  22022803.313 6  22022801.115 6


  21596731.912 7 113491658.597 7  88435101.956 8  21596735.356 8  21596731.814 8
  21596734.481 8  84750314.714 8

  20737807.863 8 108978019.108 8  84917998.979 9  20737810.106 9  20737807.394 9
  20737809.740 8  81379758.473 8

  24606424.591 6 129307644.341 6 100759226.311 5  24606428.562 5  24606425.020 5
  24606431.324 7  96560934.645 7

  20315360.680 8 106758042.884 8  83188141.549 7  20315361.595 7  20315360.435 7
  20315364.292 8  79721991.194 8

  23480917.439 6 123393152.332 6  96150561.793 7  23480919.344 7  23480917.109 7


  21159930.309 8 111196236.392 8  86646456.570 7  21159933.239 7  21159930.242 7
  21159933.439 8  83036193.067 8

  23018355.856 7 120962263.742 7  94256315.126 5  23018358.729 5  23018355.472 5


 23  8 31 12 10 30.0000000  0  8G19G03G09G11G04G31G06G17
  22034658.325 7 115792931.692 7  90228259.161 6  22034659.222 6  22034657.051 6


  21609904.952 7 113560883.407 7  88489043.336 8  21609908.373 8  21609904.845 8
  21609907.561 8  84802008.527 8

  20727598.939 8 108924370.948 8  84876195.255 9  20727601.118 9  20727598.470 9
  20727600.679 8  81339696.579 8

  24586266.357 6 129201715.681 6 100676684.593 4  24586271.592 4  24586266.768 4
  24586273.821 7  96481832.180 7

  20316506.424 8 106764064.437 8  83192833.678 7  20316507.605 7  20316506.179 7
  20316510.211 8  79726487.826 8

  23490453.322 6 123443263.611 6  96189609.483 7  23490455.358 7  23490452.978 7


  21148720.706 8 111137327.195 8  86600553.332 7  21148722.664 7  21148720.644 7
  21148723.446 8  82992202.479 8

  23034163.778 7 121045335.098 7  94321045.942 5  23034167.177 5  23034163.407 5


 23  8 31 12 11  0.0000000  0  8G19G03G09G11G04G31G06G17
  22046614.806 7 115855761.868 7  90277217.683 6  22046615.663 6  22046613.528 6


  21623125.236 7 113630355.825 7  88543177.656 8  21623128.433 8  21623125.134 8
  21623127.691 8  84853887.242 8

  20717479.120 8 108871190.612 8  84834756.064 9  20717481.103 9  20717478.651 9
  20717480.709 8  81299984.030 8

  24566127.783 5 129095889.308 5 100594222.632 3  24566132.630 3  24566128.185 3
  24566134.631 7  96402806.128 7

  20317752.193 8 106770611.156 8  83197935.027 7  20317753.609 7  20317751.952 7
  20317755.994 9  79731376.618 9

  23500096.518 6 123493939.463 6  96229097.098 7  23500098.825 7  23500096.170 7


  21137591.880 8 111078846.394 8  86554983.906 7  21137594.018 7  21137591.813 7
  21137594.764 8  82948531.791 8

  23050024.369 7 121128681.312 7  94385990.918 5  23050027.693 5  23050024.007 5


 23  8 31 12 11 30.0000000  0  8G19G03G09G11G04G31G06G17
  22058671.668 7 115919120.656 7  90326588.107 6  22058671.874 6  22058670.394 6


  21636393.455 7 113700080.973 7  88597508.906 8  21636396.683 8  21636393.348 8
  21636395.987 8  84905954.680 8

  20707449.360 8 108818484.972 8  84793686.766 9  20707451.576 9  20707448.891 9
  20707451.125 8  81260625.964 8

  24546011.493 6 128990173.387 6 100511846.674 4  24546013.840 4  24546011.908 4
  24546017.814 7  96323862.510 7

  20319099.113 8 106777688.191 8  83203449.610 7  20319100.453 7  20319098.872 7
  20319102.717 9  79736661.429 9

  23509848.081 6 123545184.341 6  96269028.110 7  23509850.420 7  23509847.710 7


  21126546.375 8 111020802.068 8  86509754.596 7  21126549.242 7  21126546.313 7
  21126549.127 8  82905187.043 8

  23065937.290 7 121212305.254 7  94451152.320 5  23065940.407 5  23065936.942 5


 23  8 31 12 12  0.0000000  0  8G19G03G09G11G04G31G06G17
  22070826.622 7 115982995.389 7  90376360.562 6  22070826.970 6  22070825.348 6


  21649707.746 7 113770048.628 7  88652029.123 8  21649710.928 8  21649707.639 8
  21649710.458 8  84958203.212 8

  20697508.400 8 108766245.502 8  84752980.718 9  20697510.616 9  20697507.931 9
  20697510.327 8  81221616.009 8

  24525913.794 6 128884560.742 6 100429551.167 4  24525916.642 4  24525914.174 4
  24525920.584 7  96244996.027 7

  20320544.581 8 106785285.380 8  83209369.505 7  20320546.136 7  20320544.340 7
  20320548.321 8  79742334.665 8

  23519706.021 6 123596987.074 6  96309393.816 7  23519708.050 7  23519705.632 7


  21115582.629 8 110963187.055 8  86464859.821 7  21115585.906 7  21115582.562 7
  21115585.180 8  82862162.889 8

  23081901.084 7 121296195.079 7  94516520.908 5  23081903.761 5  23081900.740 5


 23  8 31 12 12 30.0000000  0  8G19G03G09G11G04G31G06G17
  22083080.829 7 116047390.115 7  90426538.205 6  22083080.607 6  22083079.555 6


  21663069.633 7 113840264.478 7  88706742.738 8  21663072.497 8  21663069.526 8
  21663072.103 8  85010637.081 8

  20687657.694 8 108714479.574 8  84712643.663 9  20687659.757 9  20687657.225 9
  20687659.493 8  81182959.676 8

  24505836.927 6 128779060.036 6 100347342.903 4  24505841.754 4  24505837.266 4
  24505844.486 7  96166213.142 7

  20322090.291 8 106793408.378 8  83215699.121 7  20322091.828 7  20322090.055 7
  20322094.022 8  79748400.550 8

  23529670.867 6 123649352.301 6  96350197.826 7  23529672.865 7  23529670.461 7


  21104702.316 8 110906010.051 8  86420306.350 7  21104705.507 7  21104702.249 7
  21104704.665 8  82819465.815 8

  23097915.934 7 121380354.563 7  94582099.636 5  23097918.723 5  23097915.595 5


 23  8 31 12 13  0.0000000  0  8G19G03G09G11G04G31G06G17
  22095432.483 7 116112299.420 7  90477116.819 6  22095432.945 6  22095431.209 6


  21676477.991 7 113910724.732 7  88761646.792 8  21676480.726 8  21676477.893 8
  21676480.295 8  85063253.452 8

  20677896.650 8 108663185.114 8  84672673.988 9  20677898.704 9  20677896.181 9
  20677898.522 8  81144655.414 8

  24485780.812 6 128673670.457 6 100265221.267 4  24485787.109 4  24485781.089 4
  24485789.016 7  96087513.265 7

  20323735.580 8 106802053.429 8  83222435.535 7  20323736.735 7  20323735.344 7
  20323739.076 8  79754856.280 8

  23539741.844 6 123702275.128 6  96391436.328 7  23539743.920 7  23539741.438 7


  21093904.943 8 110849270.243 8  86376093.555 7  21093908.703 7  21093904.876 7
  21093907.295 8  82777095.212 8

  23113981.499 7 121464778.232 7  94647884.211 5  23113984.333 5  23113981.169 5


 23  8 31 12 13 30.0000000  0  8G19G03G09G11G04G31G06G17
  22107882.121 7 116177722.496 7  90528095.773 6  22107881.788 6  22107880.847 6


  21689932.740 7 113981430.843 7  88816742.422 8  21689935.561 8  21689932.651 8
  21689935.372 8  85116053.423 8

  20668225.991 8 108612365.194 8  84633074.089 9  20668227.896 9  20668225.522 9
  20668227.602 8  81106705.516 8

  24465749.143 6 128568396.508 6 100183189.781 4  24465753.903 4  24465749.375 4
  24465755.798 7  96008899.727 7

  20325480.146 8 106811221.874 8  83229579.787 7  20325481.349 7  20325479.910 7
  20325483.780 8  79761702.859 8

  23549919.333 6 123755756.162 6  96433109.798 7  23549921.085 7  23549918.909 7


  21083191.688 8 110792972.027 8  86332224.856 7  21083195.454 7  21083191.617 7
  21083194.094 8  82735054.376 8

  23130097.168 7 121549465.113 7  94713873.872 5  23130100.347 5  23130096.829 5


 23  8 31 12 14  0.0000000  0  8G19G03G09G11G04G31G06G17
  22120428.855 7 116243654.814 7  90579471.549 6  22120427.831 6  22120427.577 6


  21703433.896 7 114052379.880 7  88872027.343 8  21703436.785 8  21703433.803 8
  21703436.632 8  85169034.791 8

  20658645.188 8 108562018.535 8  84593842.963 9  20658647.213 9  20658644.719 9
  20658646.962 8  81069109.035 8

  24445738.104 6 128463238.358 6 100101248.424 4  24445741.755 4  24445738.309 4
  24445744.882 7  95930372.611 7

  20327323.919 8 106820910.807 8  83237129.615 7  20327325.134 7  20327323.683 7
  20327327.553 8  79768938.112 8

  23560201.586 6 123809791.530 6  96475215.224 7  23560203.722 7  23560201.135 7


  21072562.688 8 110737115.490 8  86288700.321 7  21072566.607 7  21072562.621 7
  21072565.025 8  82693343.359 8

  23146261.645 7 121634410.567 7  94780065.019 5  23146265.150 5  23146261.315 5


 23  8 31 12 14 30.0000000  0  8G19G03G09G11G04G31G06G17
  22133071.814 7 116310093.186 7  90631241.638 6  22133070.511 6  22133070.536 6


  21716981.112 7 114123570.735 7  88927500.694 8  21716984.167 8  21716981.019 8
  21716983.787 8  85222196.740 8

  20649154.706 8 108512145.691 8  84554981.044 9  20649156.625 9  20649154.228 9
  20649156.398 8  81031866.371 8

  24425748.585 6 128358197.857 6 100019398.703 4  24425752.024 4  24425748.763 4
  24425756.389 7  95851933.378 7

  20329266.331 8 106831119.047 8  83245084.094 7  20329267.784 7  20329266.095 7
  20329270.188 9  79776561.159 9

  23570589.068 6 123864379.301 6  96517751.091 7  23570591.412 7  23570588.581 7


  21062017.804 8 110681702.492 8  86245521.396 7  21062021.439 7  21062017.742 7
  21062020.335 8  82651963.561 8

  23162475.062 7 121719611.473 7  94846455.225 5  23162477.967 5  23162474.709 5


 23  8 31 12 15  0.0000000  0  8G19G03G09G11G04G31G06G17
  22145810.805 7 116377038.905 7  90683407.074 6  22145809.464 6  22145809.527 6


  21730575.031 7 114195006.471 7  88983164.857 8  21730578.213 8  21730574.938 8
  21730577.547 8  85275541.551 8

  20639755.198 8 108462751.335 8  84516491.969 9  20639757.218 9  20639754.720 9
  20639756.917 8  80994981.021 8

  24405784.146 6 128253281.025 6  99937645.487 4  24405788.796 4  24405784.262 4
  24405790.958 7  95773586.578 7

  20331308.213 8 106841849.587 8  83253445.563 7  20331309.706 7  20331307.972 7
  20331312.104 9  79784574.233 9

  23581082.367 6 123919521.303 6  96560718.839 7  23581084.600 7  23581081.853 7


  21051558.426 8 110626739.056 8  86202692.775 7  21051561.383 7  21051558.364 7
  21051561.175 8  82610919.478 8

  23178737.147 7 121805068.952 7  94913045.362 5  23178739.917 5  23178736.790 5


 23  8 31 12 15 30.0000000  0  8G19G03G09G11G04G31G06G17
  22158645.768 7 116444486.528 7  90735963.586 6  22158645.219 6  22158644.490 6


  21744214.424 7 114266683.627 7  89039017.137 8  21744218.143 8  21744214.326 8
  21744217.213 8  85329066.646 8

  20630446.350 8 108413833.593 8  84478374.284 9  20630448.781 9  20630445.872 9
  20630448.060 8  80958451.584 8

  24385842.929 6 128148487.640 6  99855988.453 4  24385848.297 4  24385843.031 4
  24385848.850 7  95695331.876 7

  20333449.016 8 106853098.866 8  83262211.243 7  20333450.260 7  20333448.780 7
  20333452.791 9  79792974.682 9

  23591680.443 6 123975212.805 6  96604114.773 7  23591682.420 7  23591679.911 7


  21041184.714 8 110572224.639 8  86160214.038 7  21041187.566 7  21041184.656 7
  21041187.542 8  82570210.697 8

  23195046.805 7 121890777.426 7  94979831.080 5  23195049.682 5  23195046.448 5


 23  8 31 12 16  0.0000000  0  8G19G03G09G11G04G31G06G17
  22171574.667 7 116512429.743 7  90788906.287 6  22171574.106 6  22171573.402 6


  21757899.360 7 114338597.819 7  89095054.117 8  21757903.014 8  21757899.253 8
  21757901.993 8  85382768.744 8

  20621227.799 8 108365389.658 8  84440625.807 9  20621230.565 9  20621227.321 9
  20621229.581 8  80922275.966 8

  24365924.050 6 128043816.295 6  99774426.470 4  24365929.099 4  24365924.108 4
  24365931.450 7  95617168.289 7

  20335687.668 8 106864862.375 8  83271377.621 7  20335688.761 7  20335687.427 7
  20335691.305 9  79801759.129 9

  23602381.712 6 124031448.472 6  96647934.742 7  23602383.816 7  23602381.145 7


  21030896.397 8 110518157.831 8  86118084.079 7  21030898.743 7  21030896.339 7
  21030898.780 8  82529836.160 8

  23211403.543 7 121976730.760 7  95046807.579 5  23211406.204 5  23211403.190 5


 23  8 31 12 16 30.0000000  0  8G19G03G09G11G04G31G06G17
  22184598.700 7 116580870.227 7  90842236.464 6  22184598.850 6  22184597.440 6


  21771630.134 7 114410752.868 7  89151278.774 8  21771633.662 8  21771630.018 8
  21771632.868 8  85436650.702 8

  20612100.526 8 108317424.947 8  84403250.748 9  20612103.101 9  20612100.044 9
  20612102.147 8  80886458.214 8

  24346028.918 6 127939273.817 6  99692964.811 3  24346031.990 3  24346028.910 3
  24346037.546 7  95539100.986 7

  20338024.757 8 106877143.810 8  83280947.581 7  20338025.897 7  20338024.516 7
  20338028.382 9  79810930.342 9

  23613187.387 6 124088231.294 6  96692181.071 7  23613189.281 7  23613186.811 7


  21020694.146 8 110464545.348 8  86076308.136 7  21020696.660 7  21020694.093 7
  21020696.703 8  82489800.894 8

  23227807.295 7 122062930.802 7  95113976.315 5  23227810.183 5  23227806.960 5


 23  8 31 12 17  0.0000000  0  8G19G03G09G11G04G31G06G17
  22197716.827 7 116649804.264 7  90895951.229 6  22197716.635 6  22197715.567 6


  21785406.292 7 114483146.942 7  89207689.687 8  21785409.713 8  21785406.181 8
  21785409.116 8  85490711.149 8

  20603064.056 8 108269939.195 8  84366248.902 9  20603066.454 9  20603063.574 9
  20603065.819 8  80850998.119 8

  24326161.310 6 127834861.444 6  99611604.631 4  24326165.015 4  24326161.248 4
  24326167.823 7  95461130.861 7

  20340460.015 8 106889941.227 8  83290919.602 7  20340461.153 7  20340459.779 7
  20340463.691 9  79820486.864 9

  23624095.977 6 124145558.076 6  96736851.270 6  23624098.227 6  23624095.369 6


  21010578.553 8 110411388.327 8  86034887.108 7  21010581.657 7  21010578.491 7
  21010581.326 8  82450105.750 8

  23244256.470 7 122149373.722 7  95181334.292 5  23244260.179 5  23244256.140 5


 23  8 31 12 17 30.0000000  0  9G19G03G09G11G04G31G07G06G17
  22210927.793 7 116719228.293 7  90950047.818 6  22210927.765 6  22210926.528 6


  21799227.843 7 114555778.545 7  89264285.687 8  21799231.103 8  21799227.741 8
  21799230.510 8  85544948.976 8

  20594118.976 8 108222932.401 8  84329620.264 9  20594120.823 9  20594118.498 9
  20594120.535 8  80815895.687 8

  24306317.333 6 127730580.851 6  99530347.157 4  24306322.697 4  24306317.240 4
  24306323.143 7  95383259.096 7

  20342993.143 8 106903252.947 8  83301292.380 7  20342994.141 7  20342992.911 7
  20342996.761 9  79830427.442 9

  23635107.942 6 124203426.284 6  96781943.365 6  23635110.240 6  23635107.290 6


  25223132.127 6 132548450.463 6 103284548.392 5  25223141.660 5  25223132.029 5


  21000550.112 8 110358688.189 8  85993822.096 7  21000553.243 7  21000550.050 7
  21000552.772 8  82410751.780 8

  23260751.573 7 122236055.781 7  95248878.622 5  23260755.200 5  23260751.252 5


 23  8 31 12 18  0.0000000  0  9G19G03G09G11G04G31G07G06G17
  22224232.058 7 116789141.841 7  91004525.834 6  22224232.128 6  22224230.793 6


  21813094.628 7 114628649.207 7  89321067.963 8  21813098.072 8  21813094.530 8
  21813097.383 8  85599365.315 8

  20585265.609 8 108176407.635 8  84293367.237 9  20585267.531 9  20585265.131 9
  20585267.252 8  80781153.206 8

  24286498.980 6 127626436.555 6  99449195.873 4  24286504.150 4  24286498.855 4
  24286505.538 7  95305489.088 7

  20345624.417 8 106917080.320 8  83312066.962 7  20345625.388 7  20345624.181 7
  20345627.992 9  79840753.088 9

  23646223.403 6 124261836.138 6  96827457.529 6  23646225.301 6  23646222.733 6


  25204092.454 5 132448395.264 5 103206583.721 4  25204101.331 4  25204092.191 4


  20990609.574 8 110306449.334 8  85953116.525 7  20990612.990 7  20990609.521 7
  20990612.020 8  82371742.279 8

  23277292.266 7 122322976.699 7  95316609.087 5  23277295.300 5  23277291.967 5


 23  8 31 12 18 30.0000000  0  9G19G03G09G11G04G31G07G06G17
  22237627.789 7 116859536.563 7  91059378.796 6  22237628.115 6  22237626.511 6


  21827005.897 7 114701752.545 7  89378031.547 8  21827009.129 8  21827005.804 8
  21827008.555 8  85653955.410 8

  20576503.016 8 108130360.028 8  84257486.026 9  20576505.212 9  20576502.538 9
  20576504.669 8  80746767.054 8

  24266706.046 6 127522425.264 6  99368148.216 4  24266709.594 4  24266705.859 4
  24266712.954 7  95227818.447 7

  20348352.361 8 106931416.793 8  83323238.249 7  20348353.680 7  20348352.125 7
  20348356.150 9  79851458.903 9

  23657440.083 6 124320780.455 6  96873388.167 6  23657442.076 6  23657439.417 6


  25185041.775 6 132348287.123 6 103128577.758 5  25185051.167 5  25185041.284 5


  20980755.720 8 110254668.323 8  85912767.715 7  20980759.830 7  20980755.667 7
  20980758.230 8  82333074.669 8

  23293876.952 7 122410127.993 7  95384519.056 5  23293879.890 5  23293876.639 5


 23  8 31 12 19  0.0000000  0  9G19G03G09G11G04G31G07G06G17
  22251115.617 7 116930414.937 7  91114608.629 6  22251115.694 6  22251114.325 6


  21840961.994 7 114775092.773 7  89435179.723 8  21840965.266 8  21840961.901 8
  21840964.830 8  85708722.393 8

  20567832.212 8 108084795.344 8  84221981.115 9  20567834.492 9  20567831.739 9
  20567834.106 8  80712741.517 8

  24246940.157 7 127418554.332 7  99287209.873 4  24246942.143 4  24246939.938 4
  24246946.982 7  95150252.619 7

  20351178.309 8 106946266.396 8  83334809.379 7  20351179.443 7  20351178.077 7
  20351181.933 9  79862547.902 9

  23668758.998 6 124380261.751 6  96919737.240 6  23668760.955 6  23668758.368 6


  25165982.166 5 132248133.516 5 103050536.340 4  25165991.644 4  25165981.661 4


  20970990.698 8 110203352.206 8  85872781.158 7  20970994.410 7  20970990.649 7
  20970992.827 8  82294754.221 8

  23310505.354 7 122497511.974 7  95452610.343 5  23310508.813 5  23310505.028 5


 23  8 31 12 19 30.0000000  0  9G19G03G09G11G04G31G07G06G17
  22264694.162 7 117001772.129 7  91170211.563 6  22264694.534 6  22264692.861 6


  21854962.853 7 114848667.773 7  89492510.833 8  21854966.356 8  21854962.742 8
  21854965.648 8  85763664.688 8

  20559253.351 8 108039712.833 8  84186851.921 9  20559255.507 9  20559252.873 9
  20559255.081 8  80679076.050 8

  24227200.859 6 127314824.710 6  99206381.675 4  24227204.254 4  24227200.627 4
  24227207.647 7  95072792.286 7

  20354101.339 8 106961626.772 8  83346778.514 7  20354102.272 7  20354101.103 7
  20354104.885 8  79874018.326 8

  23680179.918 6 124440277.032 6  96966502.406 6  23680181.320 6  23680179.297 6


  25146915.778 5 132147935.399 5 102972460.197 5  25146924.228 5  25146915.305 5


  20961314.120 8 110152501.764 8  85833157.459 7  20961317.451 7  20961314.071 7
  20961316.363 8  82256781.514 8

  23327177.428 7 122585124.383 7  95520879.617 5  23327181.290 5  23327177.089 5


 23  8 31 12 20  0.0000000  0  9G19G03G09G11G04G31G07G06G17
  22278363.777 7 117073605.785 7  91226185.771 6  22278364.247 6  22278362.494 6


  21869008.407 7 114922477.081 7  89550024.519 8  21869011.978 8  21869008.305 8
  21869011.083 8  85818781.960 8

  20550766.345 8 107995113.590 8  84152099.298 9  20550768.405 9  20550765.867 9
  20550768.023 8  80645771.459 8

  24207489.125 6 127211239.003 6  99125665.680 4  24207493.991 4  24207488.875 4
  24207495.643 7  94995439.453 7

  20357121.181 8 106977497.213 8  83359145.104 7  20357122.210 7  20357120.949 7
  20357124.913 8  79885869.644 8

  23691701.282 6 124500824.214 6  97013682.048 6  23691702.883 6  23691700.656 6


  25127839.773 5 132047695.750 5 102894351.722 5  25127849.725 5  25127839.353 5


  20951726.424 8 110102119.400 8  85793898.499 7  20951729.871 7  20951726.375 7
  20951728.975 8  82219158.343 8

  23343892.855 7 122672963.081 7  95589325.241 5  23343896.332 5  23343892.489 5


 23  8 31 12 20 30.0000000  0  9G19G03G09G11G04G31G07G06G17
  22292122.518 7 117145908.698 7  91282525.628 6  22292122.728 6  22292121.262 6


  21883097.191 7 114996515.173 7  89607716.483 8  21883101.045 8  21883097.089 8
  21883100.083 8  85874070.079 8

  20542370.382 8 107950993.490 8  84117720.036 9  20542372.848 9  20542369.909 9
  20542371.982 8  80612824.674 8

  24187804.268 6 127107794.861 6  99045059.983 4  24187808.248 4  24187804.014 4
  24187810.993 7  94918192.303 7

  20360237.268 8 106993871.988 8  83371904.680 7  20360238.277 7  20360237.036 7
  20360240.966 8  79898097.568 8

  23703322.819 6 124561896.916 6  97061271.189 6  23703324.666 6  23703322.229 6


  25108757.188 6 131947411.630 6 102816208.498 5  25108765.248 5  25108756.822 5


  20942227.607 8 110052202.426 8  85755002.171 7  20942230.523 7  20942227.558 7
  20942230.245 8  82181882.699 8

  23360649.644 7 122761020.272 7  95657941.096 5  23360653.373 5  23360649.269 5


 23  8 31 12 21  0.0000000  0  9G19G03G09G11G04G31G07G06G17
  22305971.774 7 117218685.998 7  91339235.136 6  22305971.739 6  22305970.545 6


  21897231.177 7 115070789.778 7  89665592.737 8  21897235.018 8  21897231.070 8
  21897234.161 8  85929534.813 8

  20534067.530 8 107907361.693 8  84083721.270 9  20534070.123 9  20534067.057 9
  20534069.070 8  80580242.526 8

  24168149.057 6 127004503.091 6  98964572.960 4  24168150.682 4  24168148.821 4
  24168155.668 7  94841058.960 7

  20363450.675 8 107010758.494 8  83385063.008 7  20363451.859 7  20363450.443 7
  20363454.347 8  79910707.639 8

  23715045.837 6 124623501.568 6  97109274.842 6  23715047.523 6  23715045.247 6


  25089666.931 6 131847094.086 6 102738039.269 5  25089675.425 5  25089666.574 5


  20932819.503 8 110002761.437 8  85716476.734 7  20932821.991 7  20932819.454 7
  20932822.109 8  82144962.493 8

  23377449.123 7 122849301.665 7  95726731.634 5  23377452.759 5  23377448.739 5


 23  8 31 12 21 30.0000000  0  9G19G03G09G11G04G31G07G06G17
  22319909.225 7 117291928.444 7  91396307.102 6  22319909.257 6  22319908.009 6


  21911409.120 7 115145293.775 7  89723647.737 8  21911412.541 8  21911409.018 8
  21911411.823 8  85985170.847 8

  20525856.638 8 107864212.517 8  84050098.564 9  20525858.898 9  20525856.165 9
  20525858.079 8  80548020.779 8

  24148521.285 6 126901359.703 6  98884201.566 4  24148523.418 4  24148521.053 4
  24148527.787 7  94764036.430 7

  20366760.161 8 107028149.415 8  83398614.384 7  20366761.384 7  20366759.929 7
  20366763.699 8  79923694.372 8

  23726868.723 5 124685629.652 5  97157686.349 6  23726870.058 6  23726868.200 6


  25070569.606 6 131746739.710 6 102659841.237 4  25070577.752 4  25070569.253 4


  20923500.916 8 109953792.151 8  85678318.853 7  20923502.794 7  20923500.867 7
  20923503.664 8  82108394.536 8

  23394289.715 6 122937797.950 6  95795689.633 5  23394292.721 5  23394289.326 5


 23  8 31 12 22  0.0000000  0  9G19G03G09G11G04G31G07G06G17
  22333935.236 7 117365634.766 7  91453740.521 6  22333935.065 6  22333934.025 6


  21925630.469 7 115220028.060 7  89781882.185 8  21925633.937 8  21925630.367 8
  21925633.335 8  86040978.846 8

  20517738.066 8 107821548.267 8  84016853.726 9  20517740.116 9  20517737.593 9
  20517739.390 8  80516161.144 8

  24128922.940 6 126798368.713 6  98803948.958 4  24128925.940 4  24128922.744 4
  24128929.046 7  94687127.696 7

  20370165.458 8 107046045.303 8  83412559.244 7  20370166.939 7  20370165.226 7
  20370169.185 8  79937058.201 8

  23738790.533 5 124748280.823 5  97206505.465 6  23738792.177 6  23738790.100 6


  25051466.699 6 131646352.339 6 102581617.548 5  25051475.295 5  25051466.346 5


  20914272.623 8 109905298.281 8  85640531.431 7  20914274.788 7  20914272.570 7
  20914275.529 8  82072181.599 8

  23411170.881 7 123026508.190 7  95864814.330 5  23411174.410 5  23411170.515 5


 23  8 31 12 22 30.0000000  0  9G19G03G09G11G04G31G07G06G17
  22348049.321 7 117439802.887 7  91511533.785 6  22348049.236 6  22348048.101 6


  21939895.861 7 115294992.539 7  89840296.001 8  21939899.271 8  21939895.759 8
  21939898.699 8  86096958.750 8

  20509711.740 8 107779370.190 8  83983987.726 9  20509714.084 9  20509711.267 9
  20509713.185 8  80484664.569 8

  24109354.111 6 126695533.158 6  98723817.469 4  24109357.005 4  24109353.951 4
  24109359.827 7  94610335.024 7

  20373666.901 8 107064445.795 8  83426897.301 7  20373668.370 7  20373666.669 7
  20373670.618 8  79950798.838 8

  23750812.048 5 124811453.609 5  97255731.017 6  23750813.556 6  23750811.709 6


  25032357.528 6 131545935.202 6 102503370.618 5  25032365.635 5  25032357.162 5


  20905135.861 8 109857282.561 8  85603116.593 7  20905138.441 7  20905135.812 7
  20905138.539 8  82036325.721 8

  23428092.071 7 123115430.389 7  95934104.208 5  23428095.605 5  23428091.696 5


 23  8 31 12 23  0.0000000  0  9G19G03G09G11G04G31G07G06G17
  22362250.422 7 117514427.773 7  91569682.973 6  22362249.873 6  22362249.188 6


  21954204.203 7 115370184.153 7  89898886.801 8  21954207.942 8  21954204.101 8
  21954207.319 8  86153108.257 8

  20501777.803 8 107737676.635 8  83951499.274 9  20501780.211 9  20501777.330 9
  20501779.071 8  80453529.808 8

  24089814.578 6 126592853.150 6  98643807.169 4  24089817.126 4  24089814.418 4
  24089820.371 7  94533658.497 7

  20377263.798 8 107083347.485 8  83441625.902 7  20377265.125 7  20377263.570 7
  20377267.509 8  79964913.753 8

  23762931.495 5 124875143.849 5  97305359.784 6  23762933.252 6  23762931.178 6


  25013242.543 6 131445488.346 6 102425100.522 5  25013251.976 5  25013242.177 5


  20896089.742 8 109809744.724 8  85566074.134 7  20896092.893 7  20896089.689 7
  20896092.303 8  82000826.706 8

  23445052.601 7 123204559.342 7  96003555.193 4  23445055.711 4  23445052.226 4


 23  8 31 12 23 30.0000000  0  9G19G03G09G11G04G31G07G06G17
  22376538.203 7 117589509.154 7  91628187.877 6  22376537.704 6  22376536.943 6


  21968556.523 7 115445605.041 7  89957656.260 7  21968560.053 7  21968556.416 7
  21968559.574 8  86209428.978 8

  20493936.610 8 107696471.073 8  83919391.075 9  20493939.063 9  20493936.137 9
  20493937.857 8  80422759.458 8

  24070305.906 6 126490333.928 6  98563922.129 4  24070307.172 4  24070305.768 4
  24070311.773 7  94457102.021 7

  20380956.477 8 107102752.169 8  83456746.447 7  20380957.606 7  20380956.249 7
  20380960.096 8  79979404.275 8

  23775149.992 5 124939351.885 5  97355392.024 6  23775151.701 6  23775149.684 6


  24994124.063 6 131345016.993 6 102346811.369 5  24994132.917 5  24994123.706 5


  20887135.108 8 109762689.706 8  85529407.902 7  20887138.908 7  20887135.059 7
  20887137.697 8  81965688.235 8

  23462053.009 7 123293895.014 7  96073167.278 4  23462055.634 4  23462052.629 4


 23  8 31 12 24  0.0000000  0  9G19G03G09G11G04G31G07G06G17
  22390910.777 7 117665038.942 7  91687042.189 5  22390910.677 5  22390909.508 5


  21982951.253 7 115521249.306 7  90016599.785 7  21982954.557 7  21982951.146 7
  21982954.292 8  86265916.506 8

  20486187.332 8 107655748.982 8  83887659.606 9  20486189.849 9  20486186.859 9
  20486188.695 8  80392350.135 8

  24050826.909 6 126387972.783 6  98484160.254 4  24050828.450 4  24050826.793 4
  24050833.315 7  94380663.600 7

  20384743.643 8 107122653.649 8  83472254.109 7  20384744.664 7  20384743.415 7
  20384747.237 8  79994265.787 8

  23787465.177 5 125004070.840 5  97405822.365 6  23787467.472 6  23787464.909 6


  24974999.907 6 131244518.531 6 102268501.100 5  24975008.688 5  24974999.554 5


  20878272.043 8 109716114.402 8  85493115.478 7  20878276.070 7  20878271.994 7
  20878274.618 8  81930907.993 8

  23479090.754 6 123383429.617 6  96142934.348 4  23479093.707 4  23479090.374 4


 23  8 31 12 24 30.0000000  0  9G19G03G09G11G04G31G07G06G17
  22405369.238 7 117741021.243 7  91746249.101 6  22405369.738 6  22405367.964 6


  21997389.685 7 115597123.265 7  90075722.291 7  21997392.991 7  21997389.583 7
  21997392.678 8  86322575.556 8

  20478531.643 8 107615517.996 8  83856310.811 9  20478533.838 9  20478531.170 9
  20478532.942 8  80362307.548 8

  24031380.018 6 126285779.167 6  98404528.966 4  24031383.396 4  24031379.893 4
  24031386.400 7  94304350.308 7

  20388626.390 8 107143057.849 8  83488153.496 7  20388627.397 7  20388626.162 7
  20388629.970 8  80009502.708 8

  23799878.975 5 125069305.317 5  97456654.422 6  23799881.369 6  23799878.739 6


  24955872.029 6 131144003.067 6 102190177.593 6  24955880.577 6  24955871.672 6


  20869502.094 8 109670027.925 8  85457203.955 7  20869506.269 7  20869502.045 7
  20869504.665 8  81896492.776 8

  23496167.288 7 123473167.374 7  96212859.730 5  23496170.782 5  23496166.886 5


 23  8 31 12 25  0.0000000  0  9G19G03G09G11G04G31G07G06G17
  22419912.952 7 117817448.565 7  91805802.775 6  22419913.750 6  22419911.692 6


  22011870.821 7 115673221.888 7  90135019.859 7  22011874.445 7  22011870.719 7
  22011873.766 8  86379402.373 8

  20470968.704 8 107575774.351 8  83825341.765 9  20470970.951 9  20470968.231 9
  20470969.954 8  80332628.889 8

  24011964.211 6 126183751.229 6  98325026.787 4  24011968.556 4  24011964.055 4
  24011970.974 7  94228160.716 7

  20392603.870 8 107163959.356 8  83504440.396 7  20392604.825 7  20392603.642 7
  20392607.321 8  80025110.988 8

  23812388.724 6 125135048.922 6  97507883.188 6  23812391.830 6  23812388.470 6


  24936740.997 6 131043467.786 6 102111838.656 6  24936749.109 6  24936740.658 6


  20860824.782 8 109624427.935 8  85421671.511 7  20860828.820 7  20860824.733 7
  20860827.282 8  81862440.852 8

  23513281.524 6 123563100.988 6  96282937.722 5  23513285.292 5  23513281.144 5


 23  8 31 12 25 30.0000000  0  9G19G03G09G11G04G31G07G06G17
  22434540.475 7 117894318.261 7  91865701.153 6  22434541.708 6  22434539.223 6


  22026394.380 7 115749544.221 7  90194491.743 7  22026398.170 7  22026394.278 7
  22026397.452 8  86436396.249 8

  20463498.580 8 107536518.414 8  83794752.749 9  20463500.842 9  20463498.107 9
  20463499.718 8  80303314.420 8

  23992580.847 6 126081891.160 6  98245655.384 4  23992584.441 4  23992580.669 4
  23992587.602 7  94152096.461 7

  20396675.608 8 107185356.848 8  83521113.783 7  20396676.590 7  20396675.385 7
  20396679.069 8  80041089.656 8

  23824997.056 6 125201299.688 6  97559507.138 6  23824998.743 6  23824996.811 6


  24917605.773 6 130942915.634 6 102033486.624 6  24917614.514 6  24917605.452 6


  20852240.350 8 109579316.255 8  85386519.565 7  20852243.727 7  20852240.306 7
  20852242.847 8  81828753.567 8

  23530432.397 6 123653227.928 6  96353166.355 4  23530435.956 4  23530432.049 4


 23  8 31 12 26  0.0000000  0  9G19G03G09G11G04G31G07G06G17
  22449251.495 7 117971626.055 7  91925940.912 5  22449252.770 5  22449250.261 5


  22040960.342 7 115826088.606 7  90254136.659 7  22040963.837 7  22040960.244 7
  22040963.417 8  86493555.936 8

  20456120.905 8 107497749.800 8  83764543.469 9  20456123.553 9  20456120.436 9
  20456122.266 8  80274363.864 8

  23973229.528 6 125980200.497 6  98166415.991 4  23973232.095 4  23973229.323 4
  23973236.419 7  94076158.731 7

  20400841.521 8 107207248.246 8  83538172.030 7  20400842.321 7  20400841.293 7
  20400844.898 8  80057437.151 8

  23837699.670 5 125268054.121 5  97611523.554 6  23837701.737 6  23837699.434 6


  24898468.116 6 130842347.914 6 101955122.463 6  24898476.690 6  24898467.812 6


  20843749.078 8 109534693.977 8  85351748.970 7  20843751.347 7  20843749.034 7
  20843751.590 8  81795431.753 8

  23547618.614 6 123743544.307 6  96423542.610 4  23547622.571 4  23547618.279 4


 23  8 31 12 26 30.0000000  0  9G19G03G09G11G04G31G07G06G17
  22464046.543 7 118049373.434 7  91986523.213 5  22464047.173 5  22464045.323 5


  22055569.401 7 115902858.715 7  90313957.470 7  22055572.790 7  22055569.317 7
  22055572.409 8  86550884.191 8

  20448837.176 8 107459473.432 8  83734717.758 9  20448839.721 9  20448836.707 9
  20448838.489 8  80245780.902 8

  23953911.766 7 125878686.063 7  98087313.899 4  23953914.637 4  23953911.556 4
  23953918.629 7  94000352.588 7

  20405101.852 8 107229636.830 8  83555617.694 7  20405102.666 7  20405101.629 7
  20405105.291 8  80074155.919 8

  23850498.720 6 125335314.814 6  97663934.445 6  23850501.165 6  23850498.475 6


  24879329.190 6 130741771.824 6 101876751.852 6  24879337.556 6  24879328.886 6


  20835352.108 8 109490567.483 8  85317364.697 7  20835354.012 7  20835352.059 7
  20835354.782 8  81762480.163 8

  23564842.005 7 123834051.783 7  96494067.768 5  23564846.165 5  23564841.666 5


 23  8 31 12 27  0.0000000  0  9G19G03G09G11G04G31G07G06G17
  22478923.704 7 118127552.122 7  92047441.602 5  22478923.839 5  22478922.502 5


  22070219.983 7 115979848.565 7  90373949.505 7  22070223.735 7  22070219.899 7
  22070223.159 8  86608376.536 8

  20441646.265 8 107421684.586 8  83705271.935 9  20441648.672 9  20441645.792 9
  20441647.477 8  80217561.998 8

  23934627.321 7 125777345.071 7  98008346.985 4  23934630.863 4  23934627.085 4
  23934634.256 7  93924675.980 7

  20409455.613 8 107252516.180 8  83573445.778 7  20409456.474 7  20409455.390 7
  20409459.116 8  80091241.163 8

  23863392.628 6 125403074.046 6  97716733.812 6  23863395.459 6  23863392.342 6


  24860187.086 6 130641184.268 6 101798372.316 6  24860196.082 6  24860186.769 6


  20827048.836 8 109446933.511 8  85283364.202 7  20827050.701 7  20827048.778 7
  20827051.605 8  81729896.372 8

  23582099.471 7 123924742.117 7  96564735.394 5  23582104.224 5  23582099.141 5


 23  8 31 12 27 30.0000000  0  9G19G03G09G11G04G31G07G06G17
  22493883.112 7 118206160.749 7  92108694.998 5  22493882.737 5  22493881.910 5


  22084912.611 7 116057058.959 7  90434113.390 7  22084916.647 7  22084912.527 7
  22084915.856 8  86666033.573 8

  20434548.294 8 107384385.294 8  83676207.581 9  20434550.651 9  20434547.825 9
  20434549.683 8  80189708.666 8

  23915376.802 6 125676181.555 6  97929518.369 4  23915380.524 4  23915376.557 4
  23915382.960 7  93849131.913 7

  20413902.861 8 107275886.651 8  83591656.555 7  20413903.748 7  20413902.638 7
  20413906.345 8  80108693.162 8

  23876382.237 5 125471330.992 5  97769920.989 6  23876384.285 6  23876381.924 6


  24841044.839 6 130540589.389 6 101719987.091 5  24841052.842 5  24841044.535 5


  20818840.020 8 109403795.553 8  85249750.211 7  20818841.864 7  20818839.958 7
  20818842.663 8  81697682.976 8

  23599392.817 7 124015614.213 7  96635544.680 5  23599396.280 5  23599392.487 5


 23  8 31 12 28  0.0000000  0  9G19G03G09G11G04G31G07G06G17
  22508923.670 7 118285196.598 7  92170281.291 5  22508922.988 5  22508922.450 5


  22099647.129 7 116134489.115 7  90494448.512 7  22099651.241 7  22099647.053 7
  22099650.360 8  86723854.719 8

  20427543.820 8 107347575.964 8  83647525.013 9  20427545.927 9  20427543.351 9
  20427545.065 8  80162221.216 8

  23896160.190 6 125575197.879 6  97850829.891 4  23896163.567 4  23896159.927 4
  23896165.895 7  93773722.129 7

  20418443.184 8 107299747.009 8  83610249.059 7  20418444.208 7  20418442.965 7
  20418446.727 8  80126510.983 8

  23889465.161 6 125540083.758 6  97823494.521 6  23889467.552 6  23889464.826 6


  24821899.907 6 130439989.696 6 101641598.131 5  24821909.014 5  24821899.586 5


  20810725.941 8 109361155.493 8  85216524.195 7  20810728.068 7  20810725.883 7
  20810728.446 8  81665841.393 8

  23616719.228 7 124106665.353 7  96706493.477 5  23616722.759 5  23616718.893 5


 23  8 31 12 28 30.0000000  0  9G19G03G09G11G04G31G07G06G17
  22524044.729 7 118364659.165 7  92232200.088 5  22524044.353 5  22524043.482 5


  22114424.116 7 116212141.160 7  90554956.533 7  22114428.112 7  22114424.032 7
  22114427.175 8  86781841.555 8

  20420633.106 8 107311259.936 8  83619226.834 9  20420635.002 9  20420632.633 9
  20420634.324 8  80135102.139 8

  23876979.092 6 125474399.362 6  97772285.663 4  23876981.143 4  23876978.820 4
  23876984.894 7  93698450.595 7

  20423077.113 8 107324098.902 8  83629224.578 7  20423078.091 7  20423076.894 7
  20423080.683 8  80144695.858 8

  23902643.492 6 125609332.633 6  97877454.630 6  23902645.156 6  23902643.121 6


  24802757.316 6 130339390.397 6 101563209.487 5  24802765.134 5  24802756.986 5


  20802707.170 8 109319018.169 8  85183689.928 7  20802710.074 7  20802707.112 7
  20802709.857 8  81634375.224 8

  23634080.004 7 124197895.350 7  96777581.649 5  23634083.534 5  23634079.678 5


 23  8 31 12 29  0.0000000  0  9G19G03G09G11G04G31G07G06G17
  22539245.201 7 118444538.915 7  92294443.968 5  22539244.968 5  22539243.918 5


  22129241.636 7 116290008.381 7  90615632.220 7  22129246.028 7  22129241.547 7
  22129244.870 8  86839989.078 8

  20413815.155 8 107275431.698 8  83591308.757 9  20413817.203 9  20413814.686 9
  20413816.444 8  80108347.315 8

  23857832.387 6 125373782.514 6  97693883.004 4  23857834.818 4  23857832.137 4
  23857838.267 7  93623314.740 7

  20427803.388 8 107348935.148 8  83648577.515 7  20427804.085 7  20427803.165 7
  20427806.864 8  80163242.425 8

  23915914.024 6 125679069.838 6  97931795.248 6  23915915.514 6  23915913.640 6


  24783612.133 6 130238788.162 6 101484818.581 5  24783620.678 5  24783611.780 5


  20794783.426 8 109277379.519 8  85151244.240 7  20794787.331 7  20794783.382 7
  20794786.268 8  81603281.438 8

  23651473.096 7 124289295.330 7  96848802.276 5  23651476.375 5  23651472.783 5


 23  8 31 12 29 30.0000000  0  9G19G03G09G11G04G31G07G06G17
  22554525.769 7 118524839.192 7  92357015.532 5  22554525.813 5  22554524.473 5


  22144101.400 7 116368096.103 7  90676479.728 7  22144105.705 7  22144101.311 7
  22144104.383 8  86898301.257 8

  20407091.172 8 107240097.757 8  83563775.842 9  20407093.273 9  20407090.703 9
  20407092.563 8  80081961.615 8

  23838721.855 6 125273355.897 6  97615628.596 5  23838724.464 5  23838721.619 5
  23838727.636 7  93548320.952 7

  20432622.562 8 107374260.609 8  83668311.656 7  20432623.259 7  20432622.339 7
  20432626.213 8  80182154.318 8

  23929277.616 6 125749298.773 6  97986519.035 6  23929279.696 6  23929277.254 6


  24764469.599 6 130138191.432 6 101406431.963 5  24764477.122 5  24764469.246 5


  20786956.373 8 109236247.526 8  85119193.352 7  20786960.549 7  20786956.338 7
  20786959.095 8  81572566.004 8

  23668898.534 7 124380868.886 7  96920158.147 5  23668902.396 5  23668898.221 5


 23  8 31 12 30  0.0000000  0  9G19G03G09G11G04G31G07G06G17
  22569885.076 7 118605553.528 7  92419909.736 5  22569885.446 5  22569883.775 5


  22159002.095 7 116446400.153 7  90737495.800 7  22159006.215 7  22159002.011 7
  22159005.266 8  86956774.970 8

  20400460.886 8 107205255.028 8  83536625.688 9  20400462.770 9  20400460.417 9
  20400462.231 8  80055942.724 8

  23819646.867 6 125173118.485 6  97537521.602 5  23819649.902 5  23819646.644 5
  23819652.441 7  93473468.426 7

  20437533.951 8 107400070.532 8  83688423.301 7  20437534.971 7  20437533.732 7
  20437537.669 8  80201427.977 8

  23942734.736 6 125820013.532 6  98041621.384 6  23942736.438 6  23942734.428 6


  24745327.232 6 130037599.201 6 101328048.847 5  24745334.467 5  24745326.861 5


  20779225.271 8 109195620.593 8  85087536.020 7  20779229.358 7  20779225.236 7
  20779227.902 8  81542227.729 8

  23686356.105 6 124472609.658 6  96991644.298 5  23686360.486 5  23686355.792 5


 23  8 31 12 30 30.0000000  0  9G19G03G09G11G04G31G07G06G17
  22585322.888 7 118686679.220 7  92483124.483 5  22585323.749 5  22585321.596 5


  22173944.018 7 116524920.273 7  90798680.243 7  22173947.896 7  22173943.938 7
  22173947.251 8  87015410.063 8

  20393924.333 8 107170904.441 8  83509859.023 9  20393925.905 9  20393923.864 9
  20393925.491 8  80030291.347 8

  23800609.443 6 125073073.313 6  97459564.422 4  23800611.849 4  23800609.242 4
  23800614.345 7  93398759.445 7

  20442537.759 8 107426364.242 8  83708911.918 7  20442538.835 7  20442537.540 7
  20442541.240 8  80221062.901 8

  23956283.987 6 125891212.433 6  98097100.983 6  23956285.149 6  23956283.701 6


  24726186.458 6 129937014.574 6 101249671.650 5  24726193.785 5  24726186.074 5


  20771591.010 8 109155501.156 8  85056274.139 7  20771594.779 7  20771590.970 7
  20771593.199 8  81512268.424 8

  23703845.572 6 124564514.839 6  97063258.549 5  23703849.887 5  23703845.259 5


 23  8 31 12 31  0.0000000  0  9G19G03G09G11G04G31G07G06G17
  22600837.798 7 118768212.461 7  92546656.798 5  22600839.108 5  22600836.515 5


  22188926.913 7 116603654.897 7  90860031.832 7  22188930.703 7  22188926.829 7
  22188930.112 8  87074205.311 8

  20387481.077 8 107137045.513 8  83483475.473 9  20387482.979 9  20387480.608 9
  20387482.364 8  80005007.115 8

  23781608.066 6 124973221.955 6  97381758.236 4  23781609.967 4  23781607.865 4
  23781613.614 7  93324195.215 7

  20447632.766 8 107453139.529 8  83729775.791 7  20447634.216 7  20447632.547 7
  20447636.405 8  80241057.450 8

  23969924.134 6 125962892.476 6  98152955.487 6  23969925.381 6  23969923.884 6


  24707047.382 6 129836439.203 6 101171301.661 6  24707053.922 6  24707046.967 6


  20764053.619 8 109115890.170 8  85025408.454 7  20764057.095 7  20764053.575 7
  20764055.479 8  81482688.806 8

  23721365.059 6 124656581.507 6  97134998.658 5  23721369.744 5  23721364.751 5


 23  8 31 12 31 30.0000000  0  9G19G03G09G11G04G31G07G06G17
  22616429.956 7 118850150.575 7  92610504.591 5  22616431.748 5  22616428.696 5


  22203950.433 7 116682603.691 7  90921550.306 7  22203954.370 7  22203950.340 7
  22203953.581 8  87133160.509 8

  20381131.518 8 107103679.046 8  83457475.657 9  20381133.589 9  20381131.049 9
  20381132.859 8  79980090.630 8

  23762643.945 7 124873567.401 7  97304105.411 4  23762646.091 4  23762643.740 4
  23762649.970 7  93249777.946 7

  20452819.305 8 107480395.608 8  83751014.306 7  20452820.860 7  20452819.082 7
  20452823.026 8  80261411.029 8

  23983655.721 6 126035051.752 6  98209183.429 6  23983657.003 6  23983655.480 6


  24687910.368 6 129735875.920 6 101092941.104 6  24687916.942 6  24687909.944 6


  20756612.752 8 109076789.983 8  84994940.790 7  20756616.273 7  20756612.690 7
  20756614.995 8  81453490.628 8

  23738915.193 6 124748807.033 6  97206862.547 4  23738920.043 4  23738914.880 4


 23  8 31 12 32  0.0000000  0  9G19G03G09G11G04G31G07G06G17
  22632098.995 7 118932491.010 7  92674665.883 5  22632100.833 5  22632097.748 5


  22219014.631 7 116761766.798 7  90983235.776 7  22219018.607 7  22219014.538 7
  22219017.902 8  87192275.745 8

  20374876.095 8 107070806.265 8  83431860.531 9  20374878.164 9  20374875.626 9
  20374877.339 8  79955542.805 8

  23743718.187 6 124774112.985 6  97226608.537 5  23743721.042 5  23743717.982 5
  23743724.550 8  93175510.146 8

  20458097.494 8 107508132.033 8  83772627.113 7  20458098.635 7  20458097.271 7
  20458101.106 8  80282123.306 8

  23997477.802 6 126107688.927 6  98265783.760 6  23997479.562 6  23997477.574 6


  24668775.875 6 129635328.220 6 101014592.697 6  24668783.072 6  24668775.446 6


  20749269.996 8 109038203.289 8  84964873.247 7  20749272.967 7  20749269.934 7
  20749272.290 8  81424675.903 8

  23756494.971 6 124841189.409 6  97278848.655 4  23756499.769 4  23756494.658 4


 23  8 31 12 32 30.0000000  0  9G19G03G09G11G04G31G07G06G17
  22647843.977 7 119015230.546 7  92739138.161 5  22647845.294 5  22647842.730 5


  22234119.517 7 116841142.883 7  91045087.211 7  22234123.288 7  22234119.419 7
  22234122.788 8  87251550.019 8

  20368714.411 8 107038426.929 8  83406629.904 9  20368716.502 9  20368713.942 9
  20368715.649 8  79931363.461 8

  23724831.036 6 124674860.600 6  97149269.126 5  23724834.505 5  23724830.822 5
  23724837.337 8  93101393.222 8

  20463466.667 8 107536346.938 8  83794612.762 7  20463467.593 7  20463466.448 7
  20463470.230 8  80303192.894 8

  24011390.424 6 126180801.074 6  98322754.202 6  24011392.387 6  24011390.165 6


  24649646.050 6 129534798.029 6 100936257.910 6  24649652.488 6  24649645.621 6


  20742025.158 8 109000131.312 8  84935206.781 7  20742027.829 7  20742025.096 7
  20742027.474 8  81396245.541 8

  23774103.853 6 124933725.333 6  97350954.403 4  23774108.772 4  23774103.549 4


 23  8 31 12 33  0.0000000  0  9G19G03G09G11G04G31G07G06G17
  22663663.911 7 119098365.313 7  92803918.411 6  22663665.098 6  22663662.668 6


  22249264.720 7 116920730.738 7  91107103.659 7  22249268.344 7  22249264.627 7
  22249267.897 8  87310982.434 8

  20362646.681 8 107006540.846 8  83381783.634 9  20362648.638 9  20362646.212 9
  20362647.915 8  79907552.457 8

  23705982.563 7 124575812.275 7  97072088.699 4  23705985.620 4  23705982.335 4
  23705988.785 7  93027428.660 7

  20468926.439 8 107565038.498 8  83816969.830 7  20468927.594 7  20468926.216 7
  20468929.992 8  80324618.419 8

  24025393.090 6 126254384.837 6  98380092.136 6  24025394.861 6  24025392.782 6


  24630519.093 6 129434287.180 6 100857938.201 6  24630525.420 6  24630518.669 6


  20734878.197 8 108962575.378 8  84905942.426 7  20734880.692 7  20734878.139 7
  20734880.822 8  81368200.546 8

  23791741.620 6 125026411.383 6  97423177.142 4  23791746.127 4  23791741.312 4


 23  8 31 12 33 30.0000000  0  9G19G03G09G11G04G31G07G06G17
  22679558.492 7 119181890.355 7  92869002.765 5  22679559.190 5  22679557.258 5


  22264449.384 7 117000527.886 7  91169283.196 7  22264453.390 7  22264449.300 7
  22264452.840 8  87370571.141 8

  20356672.666 8 106975146.604 8  83357320.611 9  20356674.589 9  20356672.197 9
  20356673.901 8  79884108.736 8

  23687173.382 7 124476968.829 7  96995067.888 4  23687175.607 4  23687173.154 4
  23687179.510 7  92953617.069 7

  20474476.311 8 107594203.689 8  83839695.957 7  20474477.877 7  20474476.092 7
  20474479.953 8  80346397.625 8

  24039484.614 6 126328436.415 6  98437794.612 6  24039486.333 6  24039484.234 6


  24611396.179 6 129333796.718 6 100779634.350 6  24611402.363 6  24611395.777 6


  20727829.804 8 108925535.595 8  84877080.268 7  20727832.002 7  20727829.751 7
  20727832.541 8  81340540.985 8

  23809407.562 6 125119243.142 6  97495513.416 4  23809411.953 4  23809407.241 4


 23  8 31 12 34  0.0000000  0  9G19G03G09G11G04G31G07G06G17
  22695527.132 7 119265806.526 7  92934391.884 5  22695527.945 5  22695525.898 5


  22279674.950 7 117080537.512 7  91231628.301 7  22279678.851 7  22279674.861 7
  22279678.129 8  87430318.516 8

  20350792.725 8 106944248.432 8  83333244.137 9  20350794.990 9  20350792.256 9
  20350794.173 8  79861035.452 8

  23668404.087 6 124378336.649 6  96918211.717 4  23668407.149 4  23668403.855 4
  23668410.676 8  92879963.269 8

  20480116.952 8 107623845.068 8  83862793.144 7  20480118.577 7  20480116.729 7
  20480120.449 8  80368532.423 8

  24053665.339 6 126402957.256 6  98495862.746 6  24053667.417 6  24053664.933 6


  24592277.572 6 129233332.962 6 100701351.304 6  24592283.979 6  24592277.179 6


  20720880.896 8 108889017.644 8  84848624.730 7  20720882.698 7  20720880.847 7
  20720883.375 8  81313271.100 8

  23827100.943 6 125212221.792 6  97567964.137 4  23827105.164 4  23827100.581 4


 23  8 31 12 34 30.0000000  0  9G19G03G09G11G04G31G07G06G17
  22711569.615 7 119350108.161 7  93000081.364 5  22711570.348 5  22711568.359 5


  22294940.139 7 117160756.263 7  91294136.356 7  22294943.896 7  22294940.050 7
  22294943.304 8  87490222.066 8

  20345006.957 8 106913844.022 8  83309552.411 9  20345008.919 9  20345006.488 9
  20345008.298 8  79838330.890 8

  23649675.269 6 124279915.696 6  96841520.161 4  23649679.146 4  23649675.019 4
  23649681.964 8  92806467.200 8

  20485847.155 8 107653958.708 8  83886258.330 7  20485848.901 7  20485846.932 7
  20485850.799 8  80391019.891 8

  24067934.990 6 126477942.521 6  98554292.762 6  24067936.561 6  24067934.584 6


  24573164.526 6 129132895.540 6 100623088.778 5  24573170.958 5  24573164.129 5


  20714030.577 8 108853020.705 8  84820575.177 7  20714032.889 7  20714030.533 7
  20714033.326 8  81286390.285 8

  23844821.239 6 125305342.082 6  97640525.260 4  23844824.878 4  23844820.859 4


 23  8 31 12 35  0.0000000  0  9G19G03G09G11G04G31G07G06G17
  22727683.888 7 119434789.696 7  93066066.881 5  22727684.720 5  22727682.605 5


  22310244.366 7 117241180.996 7  91356804.917 7  22310248.088 7  22310244.286 7
  22310247.733 8  87550279.419 8

  20339314.825 8 106883931.139 8  83286243.695 9  20339316.375 9  20339314.356 9
  20339315.961 8  79815993.377 8

  23630986.946 7 124181706.000 7  96764993.214 5  23630989.778 5  23630986.701 5
  23630992.757 8  92733128.905 8

  20491666.940 8 107684540.816 8  83910088.545 7  20491668.205 7  20491666.721 7
  20491670.355 8  80413857.183 8

  24082291.885 6 126553387.378 6  98613080.913 6  24082292.945 6  24082291.492 6


  24554057.328 6 129032484.839 6 100544847.068 5  24554063.297 5  24554056.962 5


  20707279.627 8 108817544.061 8  84792931.048 7  20707282.585 7  20707279.583 7
  20707282.335 8  81259898.000 8

  23862567.662 6 125398598.336 6  97713192.324 4  23862571.359 4  23862567.265 4


 23  8 31 12 35 30.0000000  0  9G19G03G09G11G04G31G07G06G17
  22743871.379 7 119519853.848 7  93132350.530 5  22743871.935 5  22743870.074 5


  22325589.073 7 117321817.153 7  91419638.223 7  22325592.725 7  22325588.993 7
  22325592.319 8  87610494.654 8

  20333717.389 8 106854516.275 8  83263323.047 9  20333718.843 9  20333716.920 9
  20333718.416 8  79794027.758 8

  23612340.206 6 124083716.371 6  96688637.724 5  23612342.819 5  23612339.987 5
  23612345.219 7  92659954.904 7

  20497576.464 8 107715596.210 8  83934287.555 7  20497577.610 7  20497576.236 7
  20497579.967 8  80437047.904 8

  24096736.921 6 126629295.634 6  98672230.147 6  24096738.140 6  24096736.564 6


  24534956.119 6 128932109.516 6 100466632.902 5  24534962.396 5  24534955.753 5


  20700629.307 8 108782595.702 8  84765698.568 7  20700632.342 7  20700629.263 7
  20700631.813 8  81233800.210 8

  23880340.133 6 125491994.009 6  97785968.013 4  23880344.199 4  23880339.722 4


 23  8 31 12 36  0.0000000  0  9G19G03G09G11G04G31G07G06G17
  22760129.675 7 119605290.176 7  93198924.190 5  22760130.382 5  22760128.356 5


  22340972.228 7 117402656.607 7  91482629.941 7  22340976.251 7  22340972.148 7
  22340975.598 8  87670861.708 8

  20328213.306 8 106825592.235 8  83240784.859 9  20328214.908 9  20328212.837 9
  20328214.390 8  79772428.664 8

  23593734.627 6 123985941.850 6  96612449.860 5  23593737.064 5  23593734.444 5
  23593739.365 7  92586941.542 7

  20503574.688 8 107747116.079 8  83958848.489 7  20503575.578 7  20503574.469 7
  20503577.907 8  80460585.470 8

  24111267.720 6 126705656.955 6  98731732.415 6  24111269.400 6  24111267.394 6


  24515860.826 6 128831764.736 6 100388442.514 5  24515866.842 5  24515860.446 5


  20694078.042 8 108748169.899 8  84738873.280 7  20694081.316 7  20694077.998 7
  20694080.814 8  81208092.642 8

  23898137.643 6 125585518.869 6  97858844.375 4  23898141.770 4  23898137.241 4


 23  8 31 12 36 30.0000000  0  9G19G03G09G11G04G31G07G06G17
  22776459.290 7 119691100.577 7  93265789.335 5  22776459.947 5  22776457.971 5


  22356395.321 7 117483703.788 7  91545783.519 7  22356399.186 7  22356395.228 7
  22356398.323 8  87731383.876 8

  20322803.619 8 106797164.418 8  83218633.337 9  20322805.334 9  20322803.150 9
  20322804.839 8  79751200.126 8

  23575170.989 7 123888390.182 7  96536435.648 5  23575173.490 5  23575170.837 5
  23575176.708 8  92514094.591 8

  20509661.681 8 107779104.266 8  83983774.345 7  20509662.920 7  20509661.467 7
  20509665.104 8  80484472.748 8

  24125885.630 6 126782474.373 6  98791590.085 6  24125887.584 6  24125885.322 6


  24496773.001 6 128731458.344 6 100310281.991 5  24496778.550 5  24496772.617 5


  20687628.064 8 108714273.575 8  84712460.573 7  20687631.478 7  20687628.015 7
  20687630.492 8  81182780.464 8

  23915959.980 6 125679175.481 6  97931823.382 4  23915964.669 4  23915959.609 4


 23  8 31 12 37  0.0000000  0  9G19G03G09G11G04G31G07G06G17
  22792858.432 7 119777281.652 7  93332943.319 5  22792859.451 5  22792857.122 5


  22371857.361 7 117564957.530 7  91609098.056 7  22371861.158 7  22371857.272 7
  22371860.554 8  87792060.298 8

  20317488.323 8 106769232.603 8  83196868.309 9  20317490.225 9  20317487.854 9
  20317489.605 8  79730341.977 8

  23556650.130 7 123791063.513 7  96460596.756 5  23556652.521 5  23556649.983 5
  23556655.798 8  92441415.689 8

  20515837.593 8 107811558.932 8  84009063.692 7  20515839.023 7  20515837.374 7
  20515841.057 8  80508708.377 8

  24140589.581 6 126859745.032 6  98851800.935 5  24140591.940 5  24140589.260 5


  24477693.381 6 128631192.277 6 100232152.895 5  24477697.793 5  24477692.988 5


  20681278.821 8 108680908.006 8  84686461.437 7  20681282.359 7  20681278.772 7
  20681281.139 8  81157864.620 8

  23933806.445 6 125772960.828 6  98004902.679 4  23933811.737 4  23933806.056 4


 23  8 31 12 37 30.0000000  0  9G19G03G09G11G04G31G07G06G17
  22809327.151 7 119863826.446 7  93400380.719 5  22809327.997 5  22809325.841 5


  22387357.977 7 117646413.468 7  91672570.145 7  22387361.439 7  22387357.888 7
  22387361.193 8  87852887.702 8

  20312266.819 8 106741793.341 8  83175487.088 9  20312268.762 9  20312266.350 9
  20312267.996 8  79709851.644 8

  23538171.716 7 123693960.761 7  96384932.329 5  23538174.095 5  23538171.573 5
  23538177.100 8  92368903.974 8

  20522101.467 8 107844475.013 8  84034712.583 7  20522102.681 7  20522101.257 7
  20522104.788 8  80533288.564 8

  24155379.145 6 126937462.820 6  98912360.199 5  24155381.037 5  24155378.832 5


  24458620.317 6 128530965.354 6 100154054.300 6  24458625.259 6  24458619.911 6


  20675030.014 8 108648071.224 8  84660874.341 7  20675033.408 7  20675029.965 7
  20675032.665 8  81133343.657 8

  23951676.401 6 125866868.238 6  98078077.078 4  23951681.969 4  23951675.981 4


 23  8 31 12 38  0.0000000  0  9G19G03G09G11G04G31G07G06G17
  22825865.724 7 119950734.595 7  93468101.237 5  22825866.177 5  22825864.423 5


  22402897.444 7 117728073.634 7  91736201.378 7  22402900.686 7  22402897.351 7
  22402900.669 8  87913867.619 8

  20307139.504 8 106714849.603 8  83154491.987 9  20307141.463 9  20307139.035 9
  20307140.666 8  79689731.345 8

  23519736.442 7 123597087.199 7  96309446.497 4  23519739.188 4  23519736.268 4
  23519742.133 7  92296563.413 7

  20528453.206 8 107877853.923 8  84060722.118 7  20528454.274 7  20528453.001 7
  20528456.562 8  80558214.367 8

  24170253.497 6 127015627.887 6  98973267.987 5  24170255.629 5  24170253.207 5


  24439555.815 6 128430783.049 6 100075990.468 6  24439561.093 6  24439555.409 6


  20668883.171 8 108615767.709 8  84635702.784 7  20668886.009 7  20668883.118 7
  20668885.369 8  81109220.905 8

  23969570.297 6 125960897.415 6  98151346.371 4  23969574.810 4  23969569.850 4


 23  8 31 12 38 30.0000000  0  9G19G03G09G11G04G31G07G06G17
  22842472.573 7 120038003.336 7  93536102.732 5  22842473.518 5  22842471.268 5


  22418475.617 7 117809937.752 7  91799991.534 7  22418479.024 7  22418475.524 7
  22418478.973 8  87974999.822 8

  20302106.735 8 106688401.940 8  83133883.436 9  20302108.537 9  20302106.266 9
  20302107.857 8  79669981.489 8

  23501346.593 7 123500445.824 7  96234141.602 5  23501349.194 5  23501346.392 5
  23501352.042 7  92224396.226 7

  20534892.856 8 107911694.631 8  84087091.494 7  20534893.872 7  20534892.651 7
  20534896.263 8  80583485.022 8

  24185212.340 7 127094238.539 7  99034522.988 5  24185215.078 5  24185212.054 5


  24420500.282 6 128330648.251 6  99997963.678 6  24420506.161 6  24420499.871 6


  20662837.897 8 108583999.499 8  84610948.348 7  20662841.242 7  20662837.848 7
  20662839.877 8  81085497.904 8

  23987486.548 6 126055046.010 6  98224708.716 4  23987490.643 4  23987486.128 4


 23  8 31 12 39  0.0000000  0  9G19G03G09G11G04G31G07G06G17
  22859146.542 7 120125626.465 7  93604380.380 5  22859147.544 5  22859145.237 5


  22434092.105 7 117892002.246 7  91863937.826 7  22434095.647 7  22434092.012 7
  22434095.389 8  88036281.668 8

  20297167.802 8 106662447.683 8  83113659.357 9  20297169.532 9  20297167.333 9
  20297168.900 8  79650600.082 8

  23483000.555 7 123404036.443 7  96159017.479 5  23483003.132 5  23483000.350 5
  23483006.520 7  92152402.274 7

  20541419.812 8 107945992.861 8  84113817.381 7  20541420.724 7  20541419.607 7
  20541423.002 8  80609097.331 8

  24200255.148 7 127173288.998 7  99096120.697 5  24200258.092 5  24200254.804 5


  24401454.021 6 128230560.687 6  99919973.713 6  24401459.782 6  24401453.610 6


  20656893.936 8 108552765.443 8  84586610.132 7  20656897.711 7  20656893.887 7
  20656896.190 8  81062173.780 8

  24005424.210 6 126149308.559 6  98298159.873 4  24005428.530 4  24005423.830 4


 23  8 31 12 39 30.0000000  0  9G19G03G09G11G04G31G07G06G17
  22875887.706 7 120213603.141 7  93672933.524 5  22875889.173 5  22875886.423 5


  22449746.932 7 117974268.911 7  91928041.652 7  22449750.647 7  22449746.848 7
  22449750.395 8  88097714.480 8

  20292323.188 8 106636989.501 8  83093821.832 9  20292325.005 9  20292322.719 9
  20292324.359 8  79631589.127 8

  23464699.302 7 123307864.088 7  96084078.052 5  23464702.209 5  23464699.092 5
  23464705.411 8  92080585.346 8

  20548033.757 8 107980749.740 8  84140900.654 7  20548034.841 7  20548033.547 7
  20548037.049 8  80635052.135 8

  24215381.817 7 127252779.558 7  99158061.335 5  24215384.623 5  24215381.402 5


  24382417.432 6 128130525.453 6  99842024.533 6  24382423.461 6  24382417.008 6


  20651052.903 8 108522069.662 8  84562691.352 7  20651055.661 7  20651052.859 7
  20651054.987 8  81039251.616 8

  24023383.142 6 126243684.996 6  98371699.750 4  24023387.900 4  24023382.745 4


 23  8 31 12 40  0.0000000  0  9G19G03G09G11G04G31G07G06G17
  22892695.989 7 120301929.191 7  93741758.901 5  22892697.186 5  22892694.715 5


  22465439.960 7 118056735.984 7  91992301.642 7  22465443.704 7  22465439.871 7
  22465443.544 8  88159296.956 8

  20287572.874 8 106612026.479 8  83074370.148 9  20287574.889 9  20287572.405 9
  20287574.058 8  79612947.929 8

  23446444.475 7 123211930.277 7  96009324.528 5  23446446.514 5  23446444.261 5
  23446449.572 8  92008946.564 8

  20554734.477 8 108015962.758 8  84168339.361 7  20554735.634 7  20554734.272 7
  20554737.884 8  80661347.562 8

  24230591.895 7 127332706.641 7  99220342.130 5  24230593.869 5  24230591.462 5


  24363391.729 6 128030544.041 6  99764117.310 6  24363397.299 6  24363391.291 6


  20645314.078 8 108491912.770 8  84539192.485 7  20645316.317 7  20645314.034 7
  20645316.329 8  81016731.868 8

  24041363.493 6 126338171.434 6  98445325.367 4  24041368.053 4  24041363.096 4


 23  8 31 12 40 30.0000000  0  9G19G03G09G11G04G31G07G06G17
  22909569.600 7 120390600.791 7  93810853.537 5  22909570.890 5  22909568.335 5


  22481170.923 7 118139402.073 7  92056716.706 7  22481174.758 7  22481170.830 7
  22481174.467 8  88221028.036 8

  20282916.654 8 106587558.009 8  83055303.825 9  20282918.842 9  20282916.185 9
  20282917.909 8  79594676.037 8

  23428234.872 7 123116236.957 7  95934758.358 5  23428236.133 5  23428234.685 5
  23428239.349 7  91937487.333 7

  20561521.903 8 108051629.775 8  84196131.834 7  20561522.866 7  20561521.702 7
  20561525.107 8  80687982.010 8

  24245883.863 6 127413066.877 6  99282960.443 5  24245885.565 5  24245883.479 5


  24344375.782 6 127930618.407 6  99686253.548 6  24344381.737 6  24344375.317 6


  20639678.090 8 108462295.642 8  84516114.203 7  20639680.427 7  20639678.046 7
  20639680.429 8  80994615.189 8

  24059364.423 7 126432764.008 7  98519033.667 4  24059369.011 4  24059364.030 4


 23  8 31 12 41  0.0000000  0  9G19G03G09G11G04G31G07G06G17
  22926508.806 7 120479615.828 7  93880215.788 5  22926510.069 5  22926507.563 5


  22496939.965 7 118222267.451 7  92121287.046 7  22496943.779 7  22496939.885 7
  22496943.346 8  88282907.935 8

  20278354.790 8 106563585.247 8  83036623.770 9  20278357.080 9  20278354.321 9
  20278356.157 8  79576774.325 8

  23410071.331 7 123020787.707 7  95860382.373 5  23410072.952 5  23410071.175 5
  23410076.110 7  91866210.367 7

  20568395.190 8 108087750.385 8  84224277.755 7  20568396.483 7  20568394.985 7
  20568398.688 8  80714955.181 8

  24261258.673 6 127493858.943 6  99345915.244 5  24261259.621 5  24261258.374 5


  24325371.809 6 127830751.652 6  99608435.670 6  24325377.217 6  24325371.349 6


  20634145.424 8 108433220.915 8  84493458.574 7  20634147.551 7  20634145.380 7
  20634147.710 8  80972903.549 8

  24077384.587 7 126527461.361 7  98592823.620 4  24077389.569 4  24077384.203 4


 23  8 31 12 41 30.0000000  0  9G19G03G09G11G04G31G07G06G17
  22943512.069 7 120568969.846 7  93949842.176 5  22943513.644 5  22943510.831 5


  22512746.449 7 118305330.314 7  92186011.278 7  22512750.285 7  22512746.369 7
  22512749.770 8  88344935.318 8

  20273887.087 8 106540107.127 8  83018329.146 9  20273889.316 9  20273886.618 9
  20273888.306 8  79559241.977 8

  23391954.446 7 122925583.977 7  95786197.730 5  23391957.148 5  23391954.312 5
  23391959.747 8  91795116.751 8

  20575354.765 8 108124321.973 8  84252775.086 6  20575355.629 6  20575354.569 6
  20575358.087 8  80742265.118 8

  24276714.242 6 127575079.184 6  99409203.697 5  24276715.794 5  24276714.001 5


  24306378.990 6 127730945.692 6  99530665.175 6  24306384.476 6  24306378.543 6


  20628715.897 8 108404689.002 8  84471225.921 7  20628717.733 7  20628715.857 7
  20628718.293 8  80951597.256 8

  24095423.814 6 126622259.445 6  98666692.052 4  24095429.213 4  24095423.443 4


 23  8 31 12 42  0.0000000  0  9G19G03G09G11G04G31G07G06G17
  22960579.800 7 120658660.551 7  94019730.928 5  22960581.102 5  22960578.580 5


  22528590.170 7 118388590.967 7  92250889.636 7  22528594.162 7  22528590.086 7
  22528593.871 8  88407110.398 8

  20269513.515 8 106517124.784 8  83000420.846 9  20269515.748 9  20269513.046 9
  20269514.841 8  79542079.860 8

  23373885.205 7 122830629.455 7  95712207.273 5  23373887.524 5  23373885.085 5
  23373890.442 8  91724209.252 8

  20582399.564 8 108161344.107 8  84281623.498 6  20582400.581 6  20582399.368 6
  20582403.200 8  80769911.513 8

  24292250.822 6 127656726.027 6  99472824.564 5  24292252.954 5  24292250.594 5


  24287397.894 6 127631203.926 6  99452944.708 6  24287403.837 6  24287397.465 6


  20623390.001 8 108376702.540 8  84449418.297 7  20623392.324 7  20623389.966 7
  20623392.773 8  80930698.289 8

  24113482.633 6 126717156.466 6  98740637.585 4  24113487.858 4  24113482.298 4


 23  8 31 12 42 30.0000000  0  9G19G03G09G11G04G31G07G06G17
  22977710.831 7 120748683.081 7  94089878.236 5  22977712.151 5  22977709.602 5


  22544471.420 7 118472046.924 7  92315920.173 7  22544475.337 7  22544471.322 7
  22544475.200 8  88469431.313 8

  20265234.110 8 106494636.534 8  82982897.550 9  20265235.932 9  20265233.641 9
  20265235.358 8  79525286.713 8

  23355863.284 7 122735925.017 7  95638411.676 5  23355865.334 5  23355863.159 5
  23355868.194 8  91653488.498 8

  20589529.832 8 108198813.558 8  84310820.461 6  20589530.852 6  20589529.636 6
  20589533.440 8  80797891.934 8

  24307867.764 6 127738795.238 6  99536774.554 5  24307870.155 5  24307867.501 5


  24268430.191 6 127531527.317 6  99375275.013 6  24268435.678 6  24268429.767 6


  20618168.371 8 108349261.292 8  84428035.511 7  20618170.826 7  20618168.336 7
  20618170.939 8  80910206.459 8

  24131559.224 7 126812147.884 7  98814656.679 4  24131564.211 4  24131558.907 4


 23  8 31 12 43  0.0000000  0 10G19G03G20G09G11G04G31G07G06G17
  22994904.173 7 120839035.013 7  94160282.220 5  22994905.770 5  22994902.939 5


  22560389.796 7 118555698.409 7  92381103.076 7  22560393.845 7  22560389.707 7
  22560393.577 8  88531898.236 8

  25203180.503 5 132443620.810 5 103202829.121 2  25203184.725 2  25203179.819 2


  20261049.093 8 106472643.316 8  82965759.997 9  20261050.578 9  20261048.624 9
  20261050.130 8  79508863.224 8

  23337889.416 7 122641474.114 7  95564813.635 5  23337892.104 5  23337889.273 5
  23337894.483 7  91582957.058 7

  20596745.097 8 108236729.746 8  84340365.533 6  20596746.132 6  20596744.905 6
  20596748.625 8  80826205.962 8

  24323565.101 6 127821284.762 6  99601052.060 5  24323567.358 5  24323564.775 5


  24249475.158 6 127431919.209 6  99297658.699 6  24249480.330 6  24249474.734 6


  20613050.817 8 108322367.718 8  84407079.482 7  20613053.037 7  20613050.782 7
  20613053.360 8  80890123.603 8

  24149652.870 7 126907231.694 7  98888747.787 4  24149658.061 4  24149652.544 4


 23  8 31 12 43 30.0000000  0 10G19G03G20G09G11G04G31G07G06G17
  23012159.423 7 120929711.853 7  94230939.365 5  23012161.375 5  23012158.194 5


  22576344.942 7 118639543.520 7  92446436.855 7  22576349.118 7  22576344.844 7
  22576348.804 8  88594509.760 8

  25184246.315 5 132344106.420 5 103125285.566 3  25184246.954 3  25184245.600 3


  20256957.790 8 106451143.953 8  82949007.266 9  20256959.574 9  20256957.321 9
  20256958.987 8  79492808.528 8

  23319964.280 7 122547278.147 7  95491414.258 5  23319967.113 5  23319964.097 5
  23319969.643 7  91512616.006 7

  20604044.841 8 108275090.022 8  84370256.646 7  20604045.943 7  20604044.640 7
  20604048.343 8  80854851.604 8

  24339341.787 6 127904191.431 6  99665654.626 5  24339344.182 5  24339341.416 5


  24230533.255 6 127332381.140 6  99220096.935 6  24230538.780 6  24230532.840 6


  20608037.313 8 108296022.113 8  84386550.451 7  20608039.566 7  20608037.273 7
  20608039.975 8  80870449.947 8

  24167763.875 6 127002404.222 6  98962908.015 4  24167769.108 4  24167763.527 4


 23  8 31 12 44  0.0000000  0 10G19G03G20G09G11G04G31G07G06G17
  23029476.682 7 121020713.705 7  94301849.783 5  23029478.306 5  23029475.457 5


  22592337.674 7 118723584.828 7  92511923.508 7  22592341.714 7  22592337.576 7
  22592341.370 8  88657267.782 8

  25165305.319 6 132244579.862 6 103047732.543 3  25165307.606 3  25165304.604 3


  20252961.323 8 106430141.797 8  82932641.968 9  20252963.261 9  20252960.854 9
  20252962.492 8  79477125.123 8

  23302089.258 7 122453343.093 7  95418218.201 5  23302092.027 5  23302089.048 5
  23302094.514 8  91442469.781 8

  20611429.505 8 108313896.145 8  84400495.169 7  20611430.432 7  20611429.304 7
  20611432.914 8  80883830.188 8

  24355197.791 6 127987515.574 6  99730582.497 5  24355200.242 5  24355197.420 5


  24211606.185 6 127232919.204 6  99142594.490 6  24211611.309 6  24211605.783 6


  20603129.284 8 108270229.293 8  84366452.160 7  20603131.912 7  20603129.240 7
  20603131.601 8  80851189.091 8

  24185891.623 6 127097665.915 6  99037137.714 4  24185897.181 4  24185891.288 4


 23  8 31 12 44 30.0000000  0 10G19G03G20G09G11G04G31G07G06G17
  23046854.228 7 121112032.603 7  94373007.252 5  23046855.884 5  23046853.008 5


  22608366.529 7 118807816.820 7  92577558.743 7  22608370.466 7  22608366.422 7
  22608370.286 8  88720168.203 8

  25146361.988 6 132145037.198 6 102970166.948 3  25146365.869 3  25146361.233 3


  20249058.260 8 106409632.008 8  82916660.332 9  20249060.698 9  20249057.791 9
  20249059.616 8  79461809.396 8

  23284263.253 7 122359666.746 7  95345223.719 5  23284265.533 5  23284263.039 5
  23284268.470 8  91372516.758 8

  20618897.657 8 108353141.813 8  84431076.199 6  20618898.566 6  20618897.456 6
  20618901.103 8  80913136.991 8

  24371132.339 6 128071250.258 6  99795830.280 5  24371134.258 5  24371132.013 5


  24192692.545 6 127133530.373 6  99065148.997 6  24192697.775 6  24192692.156 6


  20598325.731 8 108244985.907 8  84346782.000 7  20598328.664 7  20598325.678 7
  20598327.827 8  80832338.526 8

  24204034.750 6 127193009.392 6  99111431.140 4  24204040.384 4  24204034.446 4


 23  8 31 12 45  0.0000000  0 10G19G03G20G09G11G04G31G07G06G17
  23064292.505 6 121203668.806 6  94444411.969 5  23064293.732 5  23064291.289 5


  22624432.352 7 118892242.457 7  92643344.889 7  22624436.077 7  22624432.245 7
  22624435.955 8  88783213.242 8

  25127417.010 6 132045482.895 6 102892592.272 3  25127423.185 3  25127416.192 3


  20245249.931 8 106389618.280 8  82901065.237 9  20245252.201 9  20245249.462 9
  20245251.149 8  79446864.095 8

  23266488.330 7 122266255.348 7  95272435.681 5  23266489.740 5  23266488.125 5
  23266492.508 8  91302761.581 8

  20626449.804 8 108392829.150 8  84462001.385 6  20626450.869 6  20626449.599 6
  20626453.385 8  80942773.628 8

  24387145.067 6 128155396.013 6  99861398.372 5  24387146.596 5  24387144.768 5


  24173795.035 6 127034221.142 6  98987765.517 6  24173799.373 6  24173794.655 6


  20593627.352 8 108220297.070 8  84327543.964 7  20593630.106 7  20593627.294 7
  20593629.743 8  80813902.072 8

  24222193.627 6 127288435.429 6  99185788.902 4  24222199.019 4  24222193.337 4


 23  8 31 12 45 30.0000000  0 10G19G03G20G09G11G04G31G07G06G17
  23081789.543 7 121295618.036 7  94516060.604 5  23081791.214 5  23081788.341 5


  22640534.144 6 118976860.147 6  92709280.671 7  22640538.380 7  22640534.037 7
  22640538.275 8  88846401.680 8

  25108470.478 6 131945917.259 6 102815008.776 3  25108476.777 3  25108469.593 3


  20241535.480 8 106370099.653 8  82885855.935 9  20241537.716 9  20241535.011 9
  20241536.940 8  79432288.516 8

  23248763.480 6 122173110.683 6  95199855.479 5  23248764.387 5  23248763.302 5
  23248767.369 7  91233205.575 7

  20634085.727 8 108432955.791 8  84493268.886 6  20634086.740 6  20634085.522 6
  20634089.203 8  80972738.315 8

  24403235.013 6 128239949.440 6  99927284.126 5  24403236.955 5  24403234.736 5


  24154912.161 6 126934993.413 6  98910445.503 6  24154916.382 6  24154911.781 6


  20589035.084 8 108196163.370 8  84308738.496 7  20589037.387 7  20589035.022 7
  20589037.314 8  80795880.165 8

  24240368.272 6 127383940.185 6  99260207.994 4  24240373.262 4  24240367.964 4


 23  8 31 12 46  0.0000000  0 11G19G03G20G09G11G04G31G07G06G17G26
  23099345.771 7 121387875.720 7  94587949.597 5  23099347.275 5  23099344.555 5


  22656672.572 6 119061667.651 6  92775364.363 7  22656676.867 7  22656672.465 7
  22656676.557 8  88909731.860 8

  25089522.372 5 131846339.687 5 102737416.045 3  25089526.667 3  25089521.505 3


  20237915.245 8 106351074.604 8  82871031.238 9  20237917.118 9  20237914.776 9
  20237916.652 8  79418081.519 8

  23231089.348 7 122080233.864 7  95127484.004 5  23231090.740 5  23231089.192 5
  23231094.127 8  91163849.576 8

  20641804.569 8 108473518.685 8  84524876.323 6  20641805.657 6  20641804.368 6
  20641808.131 8  81003028.767 8

  24419401.460 6 128324906.682 6  99993484.539 5  24419403.672 5  24419401.206 5


  24136045.301 6 126835847.917 6  98833189.553 6  24136049.342 6  24136044.899 6


  20584548.014 8 108172584.688 8  84290365.509 7  20584551.044 7  20584547.952 7
  20584550.420 8  80778272.727 8

  24258556.526 6 127479519.323 6  99334685.022 4  24258561.532 4  24258556.200 4


  25161673.535 6 132225484.236 6 103032874.606 5  25161680.140 5  25161673.695 5
  25161678.928 6  98739831.417 6

 23  8 31 12 46 30.0000000  0 10G19G03G20G09G11G04G31G07G06G17
  23116959.097 6 121480436.663 6  94660074.876 5  23116961.046 5  23116957.863 5


  22672846.667 7 119146662.458 7  92841594.002 7  22672851.083 7  22672846.565 7
  22672850.596 8  88973201.919 8

  25070571.985 5 131746749.825 5 102659813.690 3  25070573.509 3  25070571.181 3


  20234388.581 8 106332541.273 8  82856589.698 9  20234390.294 9  20234388.112 9
  20234389.837 8  79404241.714 8

  23213466.515 7 121987625.667 7  95055321.838 5  23213468.679 5  23213466.390 5
  23213471.648 8  91094694.179 8

  20649605.826 8 108514514.432 8  84556821.048 6  20649606.978 6  20649605.625 6
  20649609.464 8  81033642.466 8

  24435644.325 6 128410263.030 6 100059995.951 5  24435646.461 5  24435644.097 5


  24117193.872 6 126736785.700 6  98755998.478 5  24117198.055 5  24117193.452 5


  20580166.645 8 108149560.636 8  84272424.702 7  20580169.780 7  20580166.583 7
  20580169.069 8  80761079.458 8

  24276758.298 6 127575168.324 6  99409216.531 4  24276762.941 4  24276757.977 4


 23  8 31 12 47  0.0000000  0 10G19G03G20G09G11G04G31G07G06G17
  23134630.942 6 121573302.715 6  94732437.905 5  23134632.976 5  23134629.682 5


  22689057.525 6 119231849.136 6  92907973.153 7  22689061.989 7  22689057.414 7
  22689061.243 8  89036815.270 8

  25051617.200 6 131647152.866 6 102582205.837 3  25051619.943 3  25051616.387 3


  20230956.198 8 106314504.903 8  82842535.401 9  20230958.049 9  20230955.729 9
  20230957.534 8  79390773.015 8

  23195895.557 7 121895294.080 7  94983375.215 5  23195898.662 5  23195895.432 5
  23195901.430 8  91025745.344 8

  20657490.127 7 108555946.837 7  84589106.027 6  20657491.319 6  20657489.922 6
  20657493.805 8  81064582.235 8

  24451963.466 6 128496021.158 6 100126820.437 5  24451965.701 5  24451963.243 5


  24098359.959 6 126637814.485 6  98678878.298 6  24098364.719 6  24098359.526 6


  20575892.162 8 108127097.868 8  84254921.263 7  20575895.150 7  20575892.095 7
  20575894.595 8  80744305.326 8

  24294973.919 6 127670890.038 6  99483804.682 4  24294978.198 4  24294973.638 4


 23  8 31 12 47 30.0000000  0 10G19G03G20G09G11G04G31G07G06G17
  23152360.179 7 121666467.467 7  94805033.706 5  23152361.408 5  23152358.896 5


  22705303.489 6 119317223.493 6  92974498.546 7  22705308.274 7  22705303.378 7
  22705307.590 8  89100568.754 8

  25032662.445 6 131547547.160 6 102504591.146 3  25032665.577 3  25032661.600 3


  20227617.739 8 106296961.837 8  82828865.496 9  20227619.640 9  20227617.270 9
  20227619.089 8  79377672.693 8

  23178377.611 7 121803238.159 7  94911643.399 5  23178380.909 5  23178377.442 5
  23178383.519 8  90957002.366 8

  20665456.671 8 108597810.794 8  84621727.280 6  20665457.687 6  20665456.466 6
  20665460.280 8  81095844.268 8

  24468358.241 6 128582175.248 6 100193953.467 5  24468360.255 5  24468357.987 5


  24079543.563 6 126538933.557 6  98601828.461 6  24079548.033 6  24079543.116 6


  20571723.827 8 108105194.267 8  84237853.531 7  20571727.508 7  20571723.769 7
  20571726.504 8  80727948.754 8

  24313201.090 6 127766677.935 6  99558444.401 4  24313206.181 4  24313200.818 4


 23  8 31 12 48  0.0000000  0 10G19G03G20G09G11G04G31G07G06G17
  23170145.574 6 121759926.187 6  94877858.559 5  23170146.595 5  23170144.269 5


  22721584.879 6 119402783.267 6  93041168.425 7  22721589.714 7  22721584.768 7
  22721589.156 8  89164460.696 8

  25013706.863 6 131447932.062 6 102426969.132 3  25013710.522 3  25013705.938 3


  20224373.010 8 106279910.476 8  82815578.735 9  20224374.805 9  20224372.541 9
  20224374.329 8  79364939.552 8

  23160913.079 7 121711459.020 7  94840127.259 5  23160915.649 5  23160912.874 5
  23160918.104 8  90888466.078 8

  20673504.415 8 108640103.223 8  84654682.411 6  20673505.630 6  20673504.210 6
  20673508.256 8  81127426.264 8

  24484827.151 6 128668721.333 6 100261391.954 5  24484829.370 5  24484826.830 5


  24060744.383 6 126440143.981 6  98524849.778 6  24060748.796 6  24060743.936 6


  20567661.947 8 108083849.626 8  84221221.354 7  20567666.339 7  20567661.894 7
  20567664.605 8  80712009.591 8

  24331441.145 6 127862527.810 6  99633132.415 4  24331446.063 4  24331440.864 4


 23  8 31 12 48 30.0000000  0 10G19G03G20G09G11G04G31G07G06G17
  23187985.855 7 121853678.442 7  94950912.128 5  23187987.348 5  23187984.536 5


  22737901.834 6 119488530.692 6  93107984.526 7  22737906.908 7  22737901.732 7
  22737906.350 8  89228492.774 8

  24994749.866 6 131348311.339 6 102349342.740 3  24994754.687 3  24994748.905 3


  20221222.476 8 106263353.711 8  82802677.373 9  20221224.126 9  20221222.007 9
  20221223.568 8  79352575.753 8

  23143501.977 7 121619962.295 7  94768831.168 5  23143504.229 5  23143501.767 5
  23143506.713 8  90820140.670 8

  20681634.227 8 108682825.534 8  84687972.514 6  20681635.460 6  20681634.022 6
  20681637.990 8  81159329.272 8

  24501371.240 6 128755659.230 6 100329135.740 5  24501372.997 5  24501370.901 5


  24041963.525 6 126341451.070 6  98447946.409 6  24041968.227 6  24041963.069 6


  20563707.402 8 108063068.274 8  84205028.106 9  20563711.454 9  20563707.353 9
  20563709.996 8  80696491.054 8

  24349693.095 6 127958440.069 6  99707869.023 4  24349698.437 4  24349692.782 4


 23  8 31 12 49  0.0000000  0 10G19G03G20G09G11G04G31G07G06G17
  23205881.495 6 121947719.605 6  95024190.826 5  23205882.764 5  23205880.163 5


  22754255.298 6 119574464.616 6  93174945.958 7  22754259.681 7  22754255.196 7
  22754259.104 8  89292664.127 8

  24975792.700 6 131248685.666 6 102271712.503 3  24975796.758 3  24975791.766 3


  20218165.741 8 106247290.903 8  82790160.919 9  20218167.510 9  20218165.272 9
  20218166.867 8  79340580.817 8

  23126144.398 7 121528750.157 7  94697756.821 5  23126146.386 5  23126144.211 5
  23126149.583 8  90752027.770 8

  20689845.527 8 108725975.655 8  84721595.978 6  20689846.667 6  20689845.322 6
  20689849.251 8  81191551.756 8

  24517988.828 6 128842985.590 6 100397182.244 5  24517990.708 5  24517988.565 5


  24023201.494 6 126242856.831 6  98371119.911 6  24023206.324 6  24023201.047 6


  20559860.194 8 108042851.032 8  84189274.423 9  20559863.505 9  20559860.145 9
  20559862.748 8  80681393.776 8

  24367955.723 6 128054411.217 6  99782651.493 4  24367961.452 4  24367955.424 4


 23  8 31 12 49 30.0000000  0 10G19G03G20G09G11G04G31G07G06G17
  23223830.649 7 122042043.475 7  95097689.823 5  23223831.505 5  23223829.308 5


  22770642.331 6 119660580.877 6  93242049.470 7  22770647.140 7  22770642.233 7
  22770646.537 8  89356971.643 8

  24956832.891 6 131149052.560 6 102194076.432 3  24956836.781 3  24956831.988 3


  20215202.570 8 106231718.485 8  82778026.583 9  20215204.284 9  20215202.101 9
  20215203.491 8  79328952.085 8

  23108841.997 7 121437821.757 7  94626903.589 5  23108843.258 5  23108841.841 5
  23108846.571 8  90684126.771 8

  20698137.321 8 108769548.601 8  84755548.914 6  20698138.385 6  20698137.116 6
  20698140.909 8  81224089.985 8

  24534679.845 6 128930694.792 6 100465527.047 5  24534681.172 5  24534679.720 5


  24004458.314 6 126144360.496 6  98294369.693 6  24004463.175 6  24004457.872 6


  20556120.095 8 108023195.737 8  84173958.615 9  20556123.461 9  20556120.046 9
  20556122.280 8  80666716.128 8

  24386229.065 6 128150435.425 6  99857475.335 4  24386234.546 4  24386228.806 4


 23  8 31 12 50  0.0000000  0 10G19G03G20G09G11G04G31G07G06G17
  23241834.096 7 122136652.463 7  95171411.009 5  23241834.747 5  23241832.759 5


  22787065.151 7 119746883.818 7  93309298.436 7  22787070.019 7  22787065.053 7
  22787069.540 8  89421418.552 8

  24937871.982 6 131049418.130 6 102116439.351 3  24937875.303 3  24937871.061 3


  20212333.479 8 106216641.376 8  82766278.204 9  20212335.168 9  20212333.010 9
  20212334.488 8  79317693.220 8

  23091594.311 7 121347184.860 7  94556277.492 5  23091595.177 5  23091594.173 5
  23091598.959 8  90616443.451 8

  20706510.005 8 108813547.818 8  84789834.008 6  20706511.206 6  20706509.800 6
  20706513.707 8  81256946.529 8

  24551443.277 6 129018789.291 6 100534172.084 5  24551445.075 5  24551443.206 5


  23985735.111 6 126045969.988 6  98217701.911 6  23985739.833 6  23985734.678 6


  20552487.690 8 108004108.747 8  84159085.638 9  20552491.077 9  20552487.641 9
  20552489.972 8  80652462.861 8

  24404512.067 6 128246514.745 6  99932342.109 4  24404518.350 4  24404511.804 4


 23  8 31 12 50 30.0000000  0 10G19G03G20G09G11G04G31G07G06G17
  23259890.699 7 122231540.346 7  95245349.488 5  23259892.047 5  23259889.371 5


  22803523.197 6 119833370.208 6  93376690.361 7  22803527.556 7  22803523.099 7
  22803527.439 8  89486002.451 8

  24918911.054 6 130949780.858 6 102038800.062 3  24918914.265 3  24918910.098 3


  20209558.073 8 106202056.858 8  82754913.661 9  20209559.806 9  20209557.604 9
  20209559.160 9  79306802.200 9

  23074401.972 7 121256839.552 7  94485878.606 5  23074403.372 5  23074401.852 5
  23074406.659 8  90548977.866 8

  20714963.291 7 108857969.174 7  84824448.045 6  20714964.151 6  20714963.081 6
  20714966.804 8  81290118.307 8

  24568279.177 6 129107263.643 6 100603113.111 5  24568281.352 5  24568279.017 5


  23967031.999 6 125947685.148 6  98141116.461 6  23967036.596 6  23967031.570 6


  20548963.579 8 107985588.784 8  84144654.502 9  20548966.075 9  20548963.530 9
  20548965.749 8  80638633.023 8

  24422805.326 6 128342643.737 6 100007247.612 4  24422811.636 4  24422805.031 4


 23  8 31 12 51  0.0000000  0 10G19G03G20G09G11G04G31G07G06G17
  23277998.853 6 122326699.758 6  95319499.543 5  23278000.294 5  23277997.543 5


  22820015.211 6 119920035.764 6  93444221.893 7  22820019.399 7  22820015.118 7
  22820019.401 8  89550720.160 8

  24899949.239 6 130850138.169 6 101961156.535 3  24899952.668 3  24899948.193 3


  20206875.739 8 106187961.199 8  82743930.043 9  20206877.494 9  20206875.266 9
  20206876.730 8  79296276.239 8

  23057264.614 7 121166784.892 7  94415706.207 5  23057266.775 5  23057264.494 5
  23057269.756 8  90481729.311 8

  20723495.493 8 108902807.521 8  84859387.008 6  20723496.758 6  20723495.279 6
  20723499.211 8  81323601.476 8

  24585186.081 6 129196111.789 6 100672345.413 5  24585188.661 5  24585185.822 5


  23948348.960 7 125849504.780 7  98064612.399 6  23948353.362 6  23948348.527 6


  20545546.810 8 107967633.551 8  84130663.418 9  20545549.519 9  20545546.761 9
  20545549.114 8  80625224.896 8

  24441106.187 6 128438816.183 6 100082186.958 4  24441112.856 4  24441105.839 4


 23  8 31 12 51 30.0000000  0 10G19G03G20G09G11G04G31G07G06G17
  23296159.517 7 122422133.088 7  95393863.036 5  23296160.643 5  23296158.225 5


  22836542.274 6 120006885.560 6  93511896.984 7  22836546.437 7  22836542.181 7
  22836546.383 8  89615575.446 8

  24880989.335 6 130750496.833 6 101883514.073 3  24880991.786 3  24880988.276 3


  20204287.559 8 106174359.989 8  82733331.712 9  20204289.214 9  20204287.090 9
  20204288.457 8  79286119.507 8

  23040185.090 7 121077029.293 7  94345766.831 5  23040186.336 5  23040184.943 5
  23040190.127 8  90414704.087 8

  20732108.327 7 108948067.000 7  84894654.123 6  20732109.572 6  20732108.113 6
  20732111.783 8  81357399.137 8

  24602165.698 6 129285336.645 6 100741871.246 5  24602167.529 5  24602165.345 5


  23929687.223 7 125751437.032 7  97988196.073 6  23929691.510 6  23929686.785 6


  20542238.940 8 107950249.995 8  84117117.791 9  20542242.070 9  20542238.891 9
  20542241.124 8  80612243.671 8

  24459416.595 6 128535034.984 6 100157162.416 4  24459422.910 4  24459416.247 4


 23  8 31 12 52  0.0000000  0 10G19G03G20G09G11G04G31G07G06G17
  23314370.586 7 122517834.320 7  95468435.277 5  23314372.005 5  23314369.312 5


  22853103.853 6 120093915.364 6  93579712.341 7  22853107.832 7  22853103.760 7
  22853107.653 8  89680565.151 8

  24862029.177 5 130650854.747 5 101805871.007 3  24862031.522 3  24862028.122 3


  20201792.573 8 106161249.477 8  82723115.741 9  20201794.102 9  20201792.104 9
  20201793.685 9  79276329.202 9

  23023161.678 7 120987571.910 7  94276059.833 5  23023163.500 5  23023161.518 5
  23023167.149 8  90347901.562 8

  20740799.969 7 108993742.569 7  84930245.463 6  20740801.297 6  20740799.759 6
  20740803.576 8  81391507.498 8

  24619215.568 5 129374932.088 5 100811685.838 5  24619216.852 5  24619215.184 5


  23911047.107 6 125653481.579 6  97911867.240 6  23911051.109 6  23911046.678 6


  20539039.231 8 107933435.821 8  84104015.838 9  20539041.909 9  20539039.182 9
  20539041.446 8  80599687.635 8

  24477734.384 6 128631294.376 6 100232169.499 4  24477740.666 4  24477734.089 4


 23  8 31 12 52 30.0000000  0 10G19G03G20G09G11G04G31G07G06G17
  23332632.250 7 122613799.640 7  95543213.317 5  23332633.206 5  23332630.972 5


  22869699.209 6 120181124.299 6  93647667.280 7  22869703.225 7  22869699.102 7
  22869703.094 8  89745688.611 8

  24843066.877 6 130551212.500 6 101728227.821 3  24843070.937 3  24843065.858 3


  20199390.953 8 106148629.323 8  82713281.871 9  20199392.481 9  20199390.484 9
  20199392.183 9  79266905.076 9

  23006195.594 7 120898415.245 7  94206587.163 5  23006197.884 5  23006195.420 5
  23006201.012 8  90281323.601 8

  20749570.672 7 109039832.339 7  84966159.560 6  20749571.803 6  20749570.462 6
  20749574.253 8  81425925.179 8

  24636334.554 5 129464895.380 5 100881787.079 5  24636336.256 5  24636334.143 5


  23892427.984 6 125555640.472 6  97835627.516 6  23892432.363 6  23892427.551 6


  20535948.143 8 107917192.101 8  84091358.390 9  20535950.403 9  20535948.094 9
  20535950.450 8  80587557.582 8

  24496058.592 6 128727591.284 6 100307205.795 4  24496065.540 4  24496058.324 4


 23  8 31 12 53  0.0000000  0 10G19G03G20G09G11G04G31G07G06G17
  23350944.404 7 122710028.716 7  95618196.877 5  23350945.305 5  23350943.130 5


  22886328.816 6 120268514.602 6  93715763.547 7  22886333.291 7  22886328.705 7
  22886332.971 8  89810947.516 8

  24824105.147 6 130451574.262 6 101650587.768 3  24824110.015 3  24824104.115 3


  20197083.444 8 106136502.390 8  82703832.330 9  20197084.731 9  20197082.979 9
  20197084.515 9  79257849.265 9

  22989287.679 7 120809564.916 7  94137353.193 5  22989290.110 5  22989287.514 5
  22989292.637 8  90214974.388 8

  20758420.247 7 109086337.739 7  85002397.522 6  20758421.431 6  20758420.042 6
  20758423.977 8  81460653.222 8

  24653523.861 5 129555226.574 5 100952174.977 5  24653525.654 5  24653523.441 5


  23873831.588 6 125457919.430 6  97759481.362 6  23873836.442 6  23873831.155 6


  20532966.482 8 107901522.852 8  84079148.583 9  20532969.054 9  20532966.433 9
  20532968.656 8  80575856.517 8

  24514391.235 6 128823925.919 6 100382271.511 4  24514397.175 4  24514390.976 4


 23  8 31 12 53 30.0000000  0 10G19G03G20G09G11G04G31G07G06G17
  23369304.930 6 122806513.103 6  95693379.385 5  23369305.630 5  23369303.661 5


  22902992.330 6 120356080.328 6  93783996.509 7  22902996.750 7  22902992.219 7
  22902996.218 8  89876337.426 8

  24805144.649 6 130351935.834 6 101572947.584 3  24805148.556 3  24805143.590 3


  20194868.508 8 106124862.846 8  82694762.571 9  20194869.874 9  20194868.043 9
  20194869.510 9  79249157.411 9

  22972438.310 7 120721018.274 7  94068355.869 5  22972439.651 5  22972438.150 5
  22972442.689 8  90148851.962 8

  20767347.846 7 109133251.822 7  85038953.943 6  20767348.892 6  20767347.641 6
  20767351.386 8  81495686.464 8

  24670782.286 5 129645917.867 5 101022843.477 5  24670783.534 5  24670781.942 5


  23855258.648 6 125360316.064 6  97683426.913 6  23855262.949 6  23855258.228 6


  20530093.287 8 107886424.001 8  84067383.242 9  20530096.109 9  20530093.234 9
  20530095.324 8  80564581.395 8

  24532728.572 6 128920290.323 6 100457360.409 4  24532735.092 4  24532728.309 4


 23  8 31 12 54  0.0000000  0 10G19G03G20G09G11G04G31G07G06G17
  23387714.006 7 122903252.801 7  95768760.842 5  23387714.857 5  23387712.746 5


  22919689.260 7 120443824.429 7  93852368.460 7  22919694.082 7  22919689.167 7
  22919693.389 8  89941860.530 8

  24786185.219 6 130252301.916 6 101495310.887 3  24786187.719 3  24786184.146 3


  20192746.990 8 106113714.263 8  82686075.381 9  20192748.563 9  20192746.521 9
  20192748.078 9  79240832.190 9

  22955647.479 7 120632781.680 7  93999600.149 5  22955648.809 5  22955647.341 5
  22955651.893 8  90082961.061 8

  20776353.309 7 109180576.658 7  85075830.427 6  20776354.615 6  20776353.099 6
  20776356.971 8  81531026.432 8

  24688108.858 5 129736970.081 5 101093793.197 5  24688110.295 5  24688108.630 5


  23836708.906 6 125262835.913 6  97607468.482 6  23836712.634 6  23836708.495 6


  20527329.538 8 107871900.328 8  84056066.086 9  20527331.857 9  20527329.480 9
  20527331.551 8  80553735.785 8

  24551072.607 6 129016685.696 6 100532473.455 4  24551078.465 4  24551072.330 4


 23  8 31 12 54 30.0000000  0 10G19G03G20G09G11G04G31G07G06G17
  23406171.200 7 123000243.798 7  95844338.102 5  23406172.469 5  23406169.940 5


  22936420.005 7 120531745.350 7  93920878.187 7  22936424.985 7  22936419.912 7
  22936424.189 8  90007515.680 8

  24767226.179 6 130152672.892 6 101417678.002 3  24767228.575 3  24767225.124 3


  20190718.728 8 106103055.549 8  82677769.902 9  20190720.470 9  20190718.259 9
  20190719.879 9  79232872.770 9

  22938915.910 7 120544856.957 7  93931087.439 5  22938917.222 5  22938915.785 5
  22938920.674 8  90017303.059 8

  20785436.770 7 109228309.760 7  85113025.045 6  20785437.865 6  20785436.565 6
  20785440.322 8  81566671.270 8

  24705503.251 6 129828379.826 6 101165021.497 5  24705505.009 5  24705503.001 5


  23818182.435 6 125165480.990 6  97531607.629 6  23818186.463 6  23818182.024 6


  20524674.984 8 107857952.128 8  84045197.355 9  20524677.353 9  20524674.931 9
  20524677.511 8  80543319.914 8

  24569420.576 6 129113107.846 6 100607607.351 4  24569427.175 4  24569420.317 4


 23  8 31 12 55  0.0000000  0 10G19G03G20G09G11G04G31G07G06G17
  23424675.165 7 123097482.635 7  95920108.492 5  23424676.461 5  23424673.905 5


  22953184.435 6 120619841.999 6  93989524.856 7  22953189.220 7  22953184.342 7
  22953188.565 8  90073302.056 8

  24748268.721 6 130053049.422 6 101340049.472 3  24748270.916 3  24748267.657 3


  20188783.358 8 106092886.048 8  82669845.631 9  20188785.266 9  20188782.889 9
  20188784.831 9  79225278.679 9

  22922243.772 7 120457246.359 7  93862819.490 5  22922244.902 5  22922243.643 5
  22922248.759 8  89951879.635 8

  20794597.417 7 109276449.137 7  85150536.246 6  20794598.528 6  20794597.212 6
  20794600.911 8  81602619.497 8

  24722964.393 6 129920144.081 6 101236526.048 5  24722967.170 5  24722963.982 5


  23799680.669 6 125068253.537 6  97455846.123 6  23799684.631 6  23799680.240 6


  20522130.663 8 107844580.106 8  84034777.593 9  20522133.160 9  20522130.605 9
  20522133.023 8  80533334.304 8

  24587774.034 6 129209554.257 6 100682760.179 3  24587780.192 3  24587773.833 3


 23  8 31 12 55 30.0000000  0 10G19G03G20G09G11G04G31G07G06G17
  23443225.452 6 123194965.151 6  95996068.737 5  23443227.041 5  23443224.196 5


  22969981.747 6 120708113.414 6  94058307.702 7  22969986.770 7  22969981.649 7
  22969986.100 8  90139218.924 8

  24729311.606 5 129953432.195 5 101262425.827 3  24729314.467 3  24729310.578 3


  20186941.248 8 106083205.147 8  82662302.088 9  20186943.052 9  20186940.783 9
  20186942.631 9  79218049.451 9

  22905632.405 7 120369952.258 7  93794798.170 5  22905633.417 5  22905632.262 5
  22905637.168 8  89886692.560 8

  20803834.693 7 109324992.825 7  85188362.492 6  20803836.091 6  20803834.483 6
  20803838.458 8  81638869.650 8

  24740493.850 5 130012259.741 5 101308304.414 5  24740496.276 5  24740493.341 5


  23781203.913 7 124971155.978 7  97380185.844 6  23781207.616 6  23781203.462 6


  20519695.765 8 107831785.027 8  84024807.399 9  20519698.086 9  20519695.712 9
  20519698.219 8  80523779.534 8

  24606131.857 6 129306021.737 6 100757929.393 3  24606137.862 3  24606131.638 3


 23  8 31 12 56  0.0000000  0 10G19G03G20G09G11G04G31G07G06G17
  23461822.198 6 123292689.991 6  96072217.816 4  23461823.146 4  23461820.938 4


  22986813.193 7 120796560.238 7  94127227.231 7  22986817.630 7  22986813.086 7
  22986817.127 8  90205266.780 8

  24710356.707 6 129853823.777 6 101184809.034 3  24710359.847 3  24710355.666 3


  20185192.236 8 106074013.923 8  82655140.112 9  20185193.842 9  20185191.767 9
  20185193.542 9  79211185.891 9

  22889081.825 7 120282978.740 7  93727026.657 5  22889083.380 5  22889081.673 5
  22889086.784 8  89821744.875 8

  20813149.356 7 109373940.571 7  85226503.591 6  20813150.490 6  20813149.151 6
  20813152.922 8  81675421.541 8

  24758090.061 5 130104725.497 5 101380355.590 5  24758092.019 5  24758089.619 5


  23762751.451 7 124874191.927 7  97304629.618 6  23762755.672 6  23762750.982 6


  20517371.196 8 107819569.326 8  84015288.666 9  20517373.098 9  20517371.138 9
  20517373.666 8  80514657.413 8

  24624492.321 6 129402508.927 6 100833113.954 3  24624499.462 3  24624492.062 3


 23  8 31 12 56 30.0000000  0 10G19G03G20G09G11G04G31G07G06G17
  23480463.259 6 123390650.661 6  96148550.663 5  23480464.892 5  23480461.999 5


  23003676.579 7 120885178.846 7  94196280.624 7  23003681.140 7  23003676.472 7
  23003680.710 8  90271442.930 8

  24691403.159 6 129754222.348 6 101107197.672 3  24691405.829 3  24691402.109 3


  20183535.780 8 106065309.165 8  82648357.193 9  20183537.211 9  20183535.315 9
  20183537.023 9  79204685.602 9

  22872592.238 7 120196325.498 7  93659504.708 5  22872594.322 5  22872592.078 5
  22872597.275 8  89757036.347 8

  20822539.854 7 109423287.785 7  85264955.962 6  20822540.968 6  20822539.653 6
  20822543.451 8  81712271.725 8

  24775751.137 5 130197535.685 5 101452675.145 5  24775753.448 5  24775750.775 5


  23744325.988 6 124777361.255 6  97229177.352 6  23744329.161 6  23744325.510 6


  20515156.813 8 107807931.103 8  84006219.906 9  20515159.018 9  20515156.746 9
  20515159.022 8  80505966.521 8

  24642856.667 6 129499010.205 6 100908309.510 4  24642863.002 4  24642856.399 4


 23  8 31 12 57  0.0000000  0 10G19G03G20G09G11G04G31G07G06G17
  23499149.860 7 123488847.717 7  96225067.704 5  23499151.657 5  23499148.608 5


  23020573.539 7 120973972.322 7  94265470.269 7  23020578.065 7  23020573.432 7
  23020577.634 7  90337749.664 7

  24672451.334 6 129654632.929 6 101029595.668 3  24672455.101 3  24672450.226 3


  20181972.379 8 106057094.288 8  82641956.005 9  20181974.117 9  20181971.914 9
  20181973.751 9  79198551.134 9

  22856165.185 7 120109998.991 7  93592237.353 5  22856166.742 5  22856165.025 5
  22856169.842 8  89692571.810 8

  20832006.940 7 109473036.617 7  85303721.281 6  20832007.734 6  20832006.735 6
  20832010.359 8  81749421.821 8

  24793478.392 6 130290691.333 6 101525263.882 5  24793480.524 5  24793478.003 5


  23725925.622 7 124680670.157 7  97153833.836 7  23725929.256 7  23725925.122 7


  20513052.543 8 107796875.137 8  83997604.860 9  20513055.413 9  20513052.467 9
  20513055.053 8  80497710.438 8

  24661223.173 6 129595526.959 6 100983517.148 4  24661230.319 4  24661222.901 4


 23  8 31 12 57 30.0000000  0 10G19G03G20G09G11G04G31G07G06G17
  23517879.840 7 123587273.020 7  96301762.610 5  23517881.829 5  23517878.593 5


  23037502.968 7 121062935.201 7  94334791.910 7  23037507.408 7  23037502.875 7
  23037506.720 7  90404182.886 7

  24653502.356 6 129555051.834 6 100952000.124 3  24653504.653 3  24653501.248 3


  20180501.417 8 106049364.173 8  82635932.554 9  20180503.282 9  20180500.952 9
  20180502.693 9  79192778.659 9

  22839799.429 7 120023997.073 7  93525222.931 5  22839801.164 5  22839799.282 5
  22839803.916 8  89628349.660 8

  20841549.062 7 109523180.609 7  85342794.523 6  20841549.716 6  20841548.857 6
  20841552.346 8  81786867.008 8

  24811269.661 5 130384184.885 5 101598115.940 5  24811271.640 5  24811269.250 5


  23707552.000 7 124584116.612 7  97078597.509 7  23707555.869 7  23707551.500 7


  20511059.039 8 107786397.667 8  83989440.596 9  20511060.809 9  20511058.963 9
  20511061.214 8  80489886.347 8

  24679591.738 6 129692051.480 6 101058730.814 4  24679598.340 4  24679591.470 4


 23  8 31 12 58  0.0000000  0 10G19G03G20G09G11G04G31G07G06G17
  23536653.080 6 123685926.866 6  96378635.575 5  23536655.634 5  23536651.842 5


  23054464.496 6 121152070.254 6  94404247.713 7  23054469.435 7  23054464.403 7
  23054468.638 7  90470744.689 7

  24634555.243 6 129455483.683 6 100874414.687 3  24634557.011 3  24634554.099 3


  20179123.178 8 106042121.978 8  82630289.306 9  20179125.084 9  20179122.713 9
  20179124.455 9  79187370.543 9

  22823496.573 7 119938325.927 7  93458466.250 5  22823498.087 5  22823496.448 5
  22823501.128 8  89564374.509 8

  20851166.477 7 109573721.604 7  85382177.106 6  20851167.430 6  20851166.267 6
  20851169.956 8  81824608.652 8

  24829125.120 6 130478017.132 6 101671231.911 5  24829127.427 5  24829124.705 5


  23689205.804 7 124487706.645 7  97003473.057 7  23689209.485 7  23689205.308 7


  20509176.027 8 107776503.156 8  83981730.582 9  20509177.833 9  20509175.947 9
  20509178.450 8  80482497.580 8

  24697961.243 6 129788584.629 6 101133951.208 4  24697968.175 4  24697960.971 4


 23  8 31 12 58 30.0000000  0 10G19G03G20G09G11G04G31G07G06G17
  23555468.353 6 123784803.220 6  96455681.923 5  23555471.277 5  23555467.137 5


  23071458.561 6 121241374.217 6  94473835.133 7  23071463.419 7  23071458.490 7
  23071462.774 7  90537432.613 7

  24615609.968 6 129355927.062 6 100796838.254 3  24615611.839 3  24615608.837 3


  20177837.419 8 106035364.769 8  82625023.964 9  20177839.124 9  20177836.954 9
  20177838.391 8  79182324.592 8

  22807256.621 7 119852985.653 7  93391967.382 5  22807257.879 5  22807256.492 5
  22807261.157 8  89500646.447 8

  20860858.550 7 109624655.385 7  85421865.759 6  20860859.876 6  20860858.336 6
  20860862.363 8  81862643.612 8

  24847044.596 6 130572183.071 6 101744607.904 5  24847046.860 5  24847044.145 5


  23670886.360 7 124391440.600 7  96928460.756 7  23670890.231 7  23670885.864 7


  20507403.793 8 107767189.961 8  83974473.537 9  20507406.134 9  20507403.717 9
  20507406.213 8  80475542.913 8

  24716332.104 6 129885121.087 6 101209174.197 4  24716338.258 4  24716331.814 4


 23  8 31 12 59  0.0000000  0 10G19G03G20G09G11G04G31G07G06G17
  23574326.463 6 123883901.297 6  96532901.023 5  23574329.389 5  23574325.256 5


  23088484.861 6 121330848.900 6  94543555.584 7  23088489.766 7  23088484.799 7
  23088489.281 7  90604248.022 7

  24596667.781 6 129256385.681 6 100719273.672 4  24596669.554 4  24596666.677 4


  20176644.153 8 106029094.648 8  82620138.170 9  20176645.885 9  20176643.693 9
  20176645.229 8  79177642.375 8

  22791080.589 7 119767981.433 7  93325730.372 5  22791081.891 5  22791080.446 5
  22791085.274 8  89437169.318 8

  20870626.265 7 109675982.751 7  85461861.104 6  20870627.270 6  20870626.055 6
  20870629.642 8  81900972.490 8

  24865026.485 6 130666682.405 6 101818243.688 5  24865029.596 5  24865025.998 5


  23652595.885 6 124295322.904 6  96853564.059 6  23652599.532 6  23652595.389 6


  20505742.885 8 107758461.524 8  83967672.154 9  20505745.267 9  20505742.809 9
  20505745.164 8  80469024.911 8

  24734702.390 6 129981660.855 6 101284399.751 4  24734709.220 4  24734702.091 4


 23  8 31 12 59 30.0000000  0 11G19G03G20G09G11G04G31G07G26G06G17
  23593225.897 6 123983216.392 6  96610289.255 5  23593228.279 5  23593224.704 5


  23105543.836 6 121420492.293 6  94613407.490 7  23105548.314 7  23105543.778 7
  23105547.943 7  90671189.413 7

  24577728.465 6 129156859.284 6 100641720.778 4  24577730.713 4  24577727.374 4


  20175543.489 8 106023309.928 8  82615630.608 9  20175545.177 9  20175543.024 9
  20175544.406 8  79173322.635 8

  22774969.021 7 119683314.590 7  93259756.261 5  22774970.289 5  22774968.869 5
  22774974.030 8  89373944.136 8

  20880467.745 7 109727700.778 7  85502160.858 6  20880468.879 6  20880467.535 6
  20880471.299 8  81939593.075 8

  24883073.180 5 130761510.901 5 101892135.963 5  24883074.828 5  24883072.742 5


  23634333.347 6 124199355.107 6  96778784.176 6  23634337.236 6  23634332.869 6


  24977883.509 6 131259670.987 6
  24977889.471 7  98018603.796 7

  20504192.851 8 107750317.445 8  83961326.110 9  20504195.695 9  20504192.775 9
  20504195.493 8  80462943.286 8

  24753074.077 6 130078199.940 6 101359624.763 4  24753080.750 4  24753073.764 4


                            4  1
RINEX FILE SPLICE; other post-header comments skipped       COMMENT
 23  8 31 13  0  0.0000000  0 11G19G03G20G09G11G04G31G07G26G06G17
  23612165.028 6 124082744.169 6  96687843.223 4  23612167.533 4  23612163.839 4


  23122633.816 6 121510302.114 6  94683389.082 7  23122638.699 7  23122633.758 7
  23122638.294 7  90738255.096 7

  24558791.778 6 129057347.254 6 100564179.055 3  24558794.598 3  24558790.665 3


  20174534.548 8 106018008.648 8  82611499.750 9  20174536.589 9  20174534.083 9
  20174535.620 9  79169363.901 9

  22758921.961 7 119598986.258 7  93194045.923 5  22758923.561 5  22758921.814 5
  22758927.075 8  89310971.742 8

  20890382.882 7 109779806.179 7  85542762.462 6  20890384.161 6  20890382.672 6
  20890386.658 8  81978502.944 8

  24901180.594 5 130856664.512 5 101966281.586 5  24901182.030 5  24901180.353 5


  23616099.894 6 124103538.124 6  96704121.813 6  23616103.625 6  23616099.425 6


  24972344.185 6 131230559.531 6 102257604.004 5  24972351.039 5  24972342.871 5
  24972349.524 7  97996864.846 7

  20502754.285 8 107742757.062 8  83955434.889 9  20502757.299 9  20502754.209 9
  20502757.014 8  80457297.539 8

  24771444.296 6 130174734.198 6 101434846.029 3  24771450.925 3  24771443.992 3


 23  8 31 13  0 30.0000000  0 11G19G03G20G09G11G04G31G07G26G06G17
  23631144.745 6 124182482.467 6  96765561.218 4  23631147.342 4  23631143.569 4


  23139756.264 6 121600279.475 6  94753501.225 6  23139760.857 6  23139756.224 6
  23139760.469 7  90805445.879 7

  24539858.691 6 128957852.911 6 100486651.127 3  24539861.692 3  24539857.556 3


  20173618.114 8 106013192.196 8  82607746.679 9  20173619.938 9  20173617.649 9
  20173619.162 9  79165767.212 9

  22742940.031 7 119515000.894 7  93128602.840 6  22742942.285 6  22742939.888 6
  22742945.209 8  89248255.459 8

  20900372.079 7 109832299.098 7  85583666.023 6  20900373.204 6  20900371.860 6
  20900375.676 8  82017702.188 8

  24919349.290 6 130952141.975 6 102040679.544 6  24919350.724 6  24919349.188 6


  23597896.177 6 124007876.296 6  96629580.335 6  23597899.489 6  23597895.721 6


  24966897.857 6 131201941.157 6 102235304.063 5  24966904.814 5  24966896.351 5
  24966903.632 6  97975494.098 6

  20501427.386 8 107735783.037 8  83950000.572 9  20501429.635 9  20501427.310 9
  20501429.829 8  80452089.653 8

  24789812.947 5 130271262.782 5 101510062.866 3  24789819.532 3  24789812.612 3


 23  8 31 13  1  0.0000000  0 11G19G03G20G09G11G04G31G07G26G06G17
  23650163.793 6 124282428.338 6  96843440.953 4  23650166.326 4  23650162.613 4


  23156909.983 6 121690423.906 6  94823743.551 6  23156914.811 6  23156909.948 6
  23156914.421 7  90872761.419 7

  24520928.615 6 128858377.712 6 100409138.094 3  24520932.241 3  24520927.484 3


  20172793.559 8 106008860.342 8  82604371.215 9  20172795.260 9  20172793.094 9
  20172794.858 9  79162532.392 9

  22727023.839 7 119431361.390 7  93063429.247 5  22727026.128 5  22727023.728 5
  22727029.050 8  89185797.446 8

  20910434.527 7 109885178.085 7  85624870.418 6  20910435.489 6  20910434.299 6
  20910438.231 8  82057189.727 8

  24937578.372 6 131047940.887 6 102115327.991 6  24937580.670 6  24937578.203 6


  23579722.251 6 123912372.405 6  96555161.923 6  23579725.417 6  23579721.795 6


  24961545.859 6 131173817.898 6 102213389.916 5  24961552.928 5  24961544.339 5
  24961551.658 7  97954493.048 7

  20500211.631 8 107729396.424 8  83945023.983 9  20500214.187 9  20500211.555 9
  20500214.423 8  80447320.421 8

  24808180.897 5 130367783.275 5 101585273.377 3  24808187.342 3  24808180.549 3


 23  8 31 13  1 30.0000000  0 11G19G03G20G09G11G04G31G07G26G06G17
  23669221.433 6 124382574.583 6  96921476.821 4  23669223.734 4  23669220.244 4


  23174095.168 6 121780730.410 6  94894112.166 6  23174099.735 6  23174095.119 6
  23174099.406 7  90940197.983 7

  24502002.087 6 128758918.479 6 100331637.464 3  24502006.232 3  24502000.925 3


  20172060.748 8 106005008.378 8  82601369.692 9  20172062.053 9  20172060.283 9
  20172061.889 9  79159655.932 9

  22711173.140 7 119348066.068 7  92998523.847 5  22711175.436 5  22711173.038 5
  22711178.173 8  89123596.461 8

  20920569.313 7 109938437.155 7  85666370.982 6  20920570.171 6  20920569.085 6
  20920573.042 8  82096961.098 8

  24955867.773 6 131144054.322 6 102190221.532 5  24955870.373 5  24955867.434 5


  23561577.976 6 123817024.811 6  96480865.271 6  23561581.002 6  23561577.520 6


  24956288.229 6 131146187.015 6 102191859.432 5  24956294.975 5  24956286.700 5
  24956293.854 6  97933859.695 6

  20499107.841 8 107723593.775 8  83940502.424 9  20499110.579 9  20499107.765 9
  20499110.288 8  80442987.253 8

  24826545.405 6 130464288.703 6 101660472.195 3  24826552.422 3  24826545.012 3


 23  8 31 13  2  0.0000000  0 11G19G03G20G09G11G04G31G07G26G06G17
  23688317.365 6 124482922.795 6  96999670.076 4  23688319.409 4  23688316.176 4


  23191311.711 6 121871203.369 6  94964610.489 6  23191316.380 6  23191311.640 6
  23191315.951 7  91007758.861 7

  24483080.140 6 128659481.511 6 100254154.239 3  24483083.817 3  24483079.018 3


  20171419.859 8 106001640.936 8  82598745.722 9  20171421.291 9  20171419.394 9
  20171421.110 9  79157141.293 9

  22695389.711 7 119265122.758 7  92933892.754 5  22695391.620 5  22695389.591 5
  22695394.417 8  89061658.327 8

  20930777.354 7 109992079.721 7  85708170.369 6  20930778.197 6  20930777.126 6
  20930780.861 8  82137018.840 8

  24974218.189 6 131240484.821 6 102265362.132 5  24974220.564 5  24974217.733 5


  23543465.165 7 123721841.282 7  96406696.452 6  23543467.708 6  23543464.718 6


  24951125.125 6 131119055.403 6 102170717.974 5  24951132.061 5  24951123.614 5
  24951130.714 6  97913599.151 6

  20498115.971 8 107718380.979 8  83936440.497 9  20498118.621 9  20498115.891 9
  20498118.353 8  80439094.575 8

  24844907.180 6 130560781.646 6 101735661.303 3  24844914.283 3  24844906.805 3


 23  8 31 13  2 30.0000000  0 11G19G03G20G09G11G04G31G07G26G06G17
  23707450.413 6 124583466.450 6  97078015.639 4  23707452.766 4  23707449.206 4


  23208559.161 6 121961838.956 6  95035235.529 6  23208563.990 6  23208559.081 6
  23208563.365 7  91075441.174 7

  24464162.094 6 128560065.043 6 100176686.969 3  24464165.033 3  24464160.999 3


  20170870.601 8 105998754.415 8  82596496.494 9  20170872.313 9  20170870.136 9
  20170871.835 9  79154985.784 9

  22679672.843 7 119182530.945 7  92869535.532 5  22679674.074 5  22679672.723 5
  22679677.644 8  88999982.673 8

  20941057.260 7 110046100.975 7  85750264.841 6  20941058.148 6  20941057.032 6
  20941060.777 8  82177359.373 8

  24992627.873 6 131337226.237 6 102340745.006 5  24992629.850 5  24992627.400 5


  23525383.712 7 123626821.238 7  96332655.004 6  23525385.880 6  23525383.261 6


  24946057.488 5 131092421.544 5 102149964.396 4  24946063.712 4  24946055.982 4
  24946062.343 6  97893710.316 6

  20497235.787 8 107713755.686 8  83932836.366 9  20497238.028 9  20497235.711 9
  20497238.041 8  80435640.615 8

  24863265.244 6 130657256.106 6 101810835.978 3  24863272.789 3  24863264.829 3


 23  8 31 13  3  0.0000000  0 11G19G03G20G09G11G04G31G07G26G06G17
  23726620.138 6 124684203.942 6  97156512.224 4  23726623.016 4  23726618.936 4


  23225837.678 6 122052638.076 6  95105987.998 6  23225842.672 6  23225837.589 6
  23225841.918 7  91143245.611 7

  24445247.711 6 128460671.681 6 100099237.732 4  24445250.584 4  24445246.611 4


  20170412.976 8 105996349.940 8  82594622.884 9  20170414.934 9  20170412.511 9
  20170414.246 9  79153190.242 9

  22664023.848 7 119100294.870 7  92805455.519 6  22664025.062 6  22664023.728 6
  22664028.444 8  88938572.682 8

  20951409.280 7 110100500.797 7  85792654.304 6  20951410.238 6  20951409.057 6
  20951412.724 8  82217982.607 8

  25011096.236 6 131434277.393 6 102416369.245 5  25011098.169 5  25011095.709 5


  23507333.455 7 123531968.637 7  96258744.014 6  23507335.938 6  23507333.008 6


  24941083.836 5 131066288.657 5 102129601.184 4  24941090.880 4  24941082.303 4
  24941089.235 6  97874195.588 6

  20496468.060 8 107709720.249 8  83929691.863 9  20496470.369 9  20496467.971 9
  20496470.250 8  80432627.132 8

  24881620.764 6 130753711.103 6 101885995.470 3  24881627.873 3  24881620.331 3


 23  8 31 13  3 30.0000000  0 11G19G03G20G09G11G04G31G07G26G06G17
  23745825.765 6 124785131.418 6  97235156.856 4  23745828.870 4  23745824.563 4


  23243147.042 6 122143599.637 6  95176867.052 6  23243152.065 6  23243146.962 6
  23243151.466 7  91211171.346 7

  24426338.379 6 128361302.236 6 100021807.111 4  24426340.178 4  24426337.271 4


  20170046.954 8 105994426.637 8  82593124.211 9  20170049.031 9  20170046.489 9
  20170048.178 9  79151754.013 9

  22648443.050 7 119018416.845 7  92741654.517 6  22648444.534 6  22648442.925 6
  22648447.626 8  88877430.059 8

  20961832.759 7 110155277.093 7  85835337.116 6  20961833.954 6  20961832.536 6
  20961836.271 8  82258886.971 8

  25029623.189 5 131531635.355 5 102492232.541 5  25029624.897 5  25029622.657 5


  23489315.897 7 123437285.882 7  96184965.373 7  23489318.594 7  23489315.459 7


  24936206.418 5 131040657.955 5 102109629.304 4  24936213.069 4  24936204.858 4
  24936211.939 6  97855055.886 6

  20495812.105 8 107706275.043 8  83927007.279 9  20495815.376 9  20495812.016 9
  20495814.757 8  80430054.406 8

  24899971.353 6 130850143.890 6 101961137.706 4  24899978.937 4  24899970.933 4


 23  8 31 13  4  0.0000000  0 11G19G03G20G09G11G04G31G07G26G06G17
  23765067.233 6 124886243.753 6  97313945.509 4  23765070.163 4  23765065.999 4


  23260486.761 6 122234720.825 6  95247870.482 6  23260491.849 6  23260486.685 6
  23260491.325 7  91279216.274 7

  24407433.237 6 128261956.002 6  99944394.590 4  24407434.975 4  24407432.146 4


  20169772.198 8 105992981.902 8  82591998.451 9  20169774.028 9  20169771.733 9
  20169773.201 8  79150675.156 8

  22632930.702 7 118936897.364 7  92678132.900 5  22632931.930 5  22632930.577 5
  22632934.969 8  88816555.181 8

  20972327.262 7 110210426.081 7  85878310.340 6  20972328.588 6  20972327.034 6
  20972330.810 8  82300069.640 8

  25048207.828 5 131629295.264 5 102568331.128 5  25048209.086 5  25048207.475 5


  23471330.783 7 123342773.078 7  96111319.165 7  23471333.041 7  23471330.345 7


  24931423.919 5 131015528.947 5 102090048.330 4  24931431.195 4  24931422.337 4
  24931429.883 6  97836290.797 6

  20495268.537 8 107703418.651 8  83924781.514 9  20495271.634 9  20495268.448 9
  20495271.040 8  80427921.382 8

  24918316.605 6 130946549.526 6 102036258.781 3  24918324.659 3  24918316.239 3


 23  8 31 13  4 30.0000000  0 10G19G03G20G09G11G04G31G07G26G06
  23784344.069 6 124987542.272 6  97392879.270 4  23784346.319 4  23784342.791 4


  23277857.674 6 122326005.847 6  95319001.565 6  23277862.575 6  23277857.612 6
  23277862.346 7  91347383.546 7

  24388533.167 6 128162638.890 6  99867004.753 3  24388535.560 3  24388532.050 3


  20169589.057 8 105992020.101 8  82591249.003 9  20169590.974 9  20169588.592 9
  20169590.175 8  79149956.934 8

  22617487.783 7 118855744.016 7  92614896.577 6  22617489.132 6  22617487.672 6
  22617492.165 8  88755953.726 8

  20982893.476 7 110265950.960 7  85921576.470 6  20982894.711 6  20982893.253 6
  20982896.863 8  82341533.013 8

  25066848.900 6 131727258.929 6 102644666.419 5  25066851.007 5  25066848.579 5


  23453379.180 7 123248438.067 7  96037811.492 7  23453381.792 7  23453378.747 7


  24926739.187 5 130990908.041 5 102070863.286 4  24926746.062 4  24926737.578 4
  24926744.561 6  97817905.154 6

  20494838.016 8 107701156.673 8  83923018.929 9  20494841.107 9  20494837.923 9
  20494840.549 8  80426232.236 8

 23  8 31 13  5  0.0000000  0 10G19G03G20G09G11G04G31G07G26G06
  23803653.748 6 125089015.271 6  97471948.973 4  23803656.500 4  23803652.474 4


  23295258.443 6 122417445.406 6  95390253.071 6  23295262.768 6  23295258.390 6
  23295262.855 7  91415666.220 7

  24369638.252 6 128063343.660 6  99789631.964 3  24369640.268 3  24369637.148 3


  20169496.164 8 105991532.144 8  82590868.785 9  20169498.031 9  20169495.699 9
  20169497.269 8  79149592.556 8

  22602112.954 7 118774950.852 7  92551940.916 6  22602114.842 6  22602112.843 6
  22602117.598 8  88695621.225 8

  20993529.247 7 110321841.450 7  85965127.487 6  20993530.189 6  20993529.019 6
  20993532.478 8  82383269.406 8

  25085545.705 6 131825515.483 6 102721229.929 5  25085548.800 5  25085545.232 5


  23435460.624 7 123154274.542 7  95964437.450 7  23435463.078 7  23435460.186 7


  24922149.302 5 130966788.233 5 102052068.718 4  24922156.441 4  24922147.670 4
  24922154.746 6  97799893.719 6

  20494519.223 8 107699481.200 8  83921713.361 9  20494522.710 9  20494519.134 9
  20494521.829 8  80424981.067 8

 23  8 31 13  5 30.0000000  0 10G19G03G20G09G11G04G31G07G26G06
  23822997.318 6 125190666.970 6  97551157.937 4  23823000.283 4  23822996.026 4


  23312689.531 6 122509046.223 6  95461630.234 6  23312693.876 6  23312689.496 6
  23312694.016 7  91484069.319 7

  24350748.521 6 127964079.038 6  99712283.003 4  24350750.904 4  24350747.399 4


  20169494.938 8 105991524.945 8  82590863.184 9  20169496.517 9  20169494.473 9
  20169495.854 8  79149587.191 8

  22586808.752 7 118694527.953 7  92489273.773 6  22586811.203 6  22586808.645 6
  22586813.609 8  88635565.220 8

  21004235.383 7 110378103.265 7  86008967.849 6  21004236.304 6  21004235.155 6
  21004238.759 8  82425283.076 8

  25104300.563 6 131924069.435 6 102798025.189 5  25104302.970 5  25104299.978 5


  23417575.909 7 123060292.499 7  95891204.822 7  23417578.870 7  23417575.462 7


  24917656.624 5 130943178.523 5 102033671.617 4  24917663.456 4  24917654.988 4
  24917662.048 6  97782263.167 6

  20494313.599 8 107698400.327 8  83920871.117 9  20494316.692 9  20494313.510 9
  20494316.147 8  80424173.913 8

 23  8 31 13  6  0.0000000  0 10G19G03G20G09G11G04G31G07G26G06
  23842373.203 6 125292489.104 6  97630499.681 4  23842376.733 4  23842371.889 4


  23330150.088 6 122600802.679 6  95533128.680 6  23330154.826 6  23330150.057 6
  23330154.932 7  91552588.637 7

  24331864.089 6 127864841.431 6  99634955.127 3  24331866.926 3  24331862.963 3


  20169584.005 8 105991992.990 8  82591227.905 9  20169585.627 9  20169583.540 9
  20169584.818 8  79149936.715 8

  22571575.025 7 118614473.052 7  92426893.376 6  22571576.960 6  22571574.905 6
  22571579.530 8  88575784.014 8

  21015010.774 7 110434729.749 7  86053092.364 6  21015011.945 6  21015010.546 6
  21015014.375 8  82467569.066 8

  25123110.498 5 132022913.146 5 102875046.229 5  25123112.236 5  25123110.016 5


  23399725.678 7 122966489.817 7  95818111.965 7  23399728.742 7  23399725.218 7


  24913260.254 5 130920075.439 5 102015669.299 4  24913266.947 4  24913258.658 4
  24913265.663 6  97765010.934 6

  20494220.169 8 107697909.722 8  83920488.824 9  20494222.877 9  20494220.080 9
  20494222.706 8  80423807.545 8

 23  8 31 13  6 30.0000000  0 10G19G03G20G09G11G04G31G07G26G06
  23861782.054 6 125394484.223 6  97709976.231 4  23861785.676 4  23861780.740 4


  23347641.575 6 122692719.988 6  95604752.463 6  23347646.461 6  23347641.553 6
  23347646.356 7  91621228.077 7

  24312986.190 6 127765637.900 6  99557653.782 4  24312989.210 4  24312985.032 4


  20169764.563 8 105992941.678 8  82591967.150 9  20169766.107 9  20169764.098 9
  20169765.309 8  79150645.160 8

  22556412.765 7 118534794.705 7  92364806.396 6  22556414.439 6  22556412.636 6
  22556416.897 8  88516284.010 8

  21025856.679 7 110491725.163 7  86097504.355 6  21025857.796 6  21025856.447 6
  21025860.224 8  82510130.555 8

  25141976.066 5 132122049.754 5 102952295.495 5  25141977.363 5  25141975.798 5


  23381911.160 7 122872874.700 7  95745165.276 7  23381914.340 7  23381910.682 7


  24908961.504 5 130897486.436 5 101998067.550 4  24908968.345 4  24908959.989 4
  24908966.809 6  97748142.618 6

  20494240.617 8 107698015.966 8  83920571.602 9  20494243.242 9  20494240.528 9
  20494242.932 8  80423886.876 8

 23  8 31 13  7  0.0000000  0 10G19G03G20G09G11G04G31G07G26G06
  23881223.146 6 125496644.649 6  97789581.579 4  23881226.439 4  23881221.845 4


  23365162.540 6 122784793.095 6  95676497.646 6  23365167.645 6  23365162.496 6
  23365167.435 7  91689983.849 7

  24294114.581 6 127666465.461 6  99480376.659 4  24294116.734 4  24294113.423 4


  20170035.514 8 105994366.085 8  82593077.085 9  20170037.196 9  20170035.049 9
  20170036.277 8  79151708.850 8

  22541321.751 7 118455491.201 7  92303011.501 6  22541323.553 6  22541321.613 6
  22541325.959 8  88457063.900 8

  21036771.955 7 110549083.408 7  86142199.068 6  21036772.778 6  21036771.727 6
  21036775.112 8  82552962.986 8

  25160895.212 6 132221472.368 6 103029767.630 5  25160896.794 5  25160894.976 5


  23364131.958 6 122779445.429 6  95672363.422 7  23364135.201 7  23364131.485 7


  24904760.150 5 130875408.618 5 101980864.140 4  24904766.742 4  24904758.715 4
  24904765.503 6  97731656.026 6

  20494373.646 8 107698715.254 8  83921116.492 9  20494376.318 9  20494373.557 9
  20494376.104 8  80424409.065 8

 23  8 31 13  7 30.0000000  0 10G19G03G20G09G11G04G31G07G26G06
  23900694.392 6 125598965.401 6  97869311.871 4  23900697.299 4  23900693.087 4


  23382712.636 6 122877019.240 6  95748362.083 6  23382717.858 6  23382712.565 6
  23382717.601 7  91758853.910 7

  24275248.075 6 127567323.210 6  99403123.057 4  24275250.545 4  24275246.922 4


  20170396.517 8 105996263.539 8  82594555.628 9  20170398.306 9  20170396.052 9
  20170397.385 8  79153125.790 8

  22526302.475 7 118376563.097 7  92241509.125 6  22526304.025 6  22526302.346 6
  22526306.613 8  88398124.142 8

  21047754.986 7 110606800.690 7  86187173.549 6  21047756.024 6  21047754.754 6
  21047758.385 8  82596063.530 8

  25179867.752 6 132321175.806 6 103107458.575 5  25179869.985 5  25179867.453 5


  23346388.077 6 122686202.418 6  95599706.723 6  23346391.315 6  23346387.599 6


  24900656.702 5 130853841.348 5 101964058.548 4  24900662.678 4  24900655.424 4
  24900661.291 6  97715550.685 6

  20494619.254 8 107700006.105 8  83922122.341 9  20494621.828 9  20494619.165 9
  20494621.680 8  80425373.006 8

 23  8 31 13  8  0.0000000  0 10G19G03G20G09G11G04G31G07G26G06
  23920195.795 6 125701444.139 6  97949165.259 4  23920198.216 4  23920194.494 4


  23400292.031 6 122969398.899 6  95820346.132 6  23400297.122 6  23400291.942 6
  23400296.937 7  91827838.600 7

  24256387.397 6 127468213.609 6  99325894.915 4  24256390.289 4  24256386.235 4


  20170847.805 8 105998634.675 8  82596403.272 9  20170849.347 9  20170847.340 9
  20170848.606 8  79154896.450 8

  22511355.079 7 118298014.249 7  92180302.277 6  22511356.926 6  22511354.950 6
  22511359.275 8  88339467.587 8

  21058806.620 7 110664876.540 7  86232427.442 6  21058807.572 6  21058806.392 6
  21058809.933 8  82639431.834 8

  25198894.014 6 132421158.652 6 103185367.244 5  25198896.268 5  25198893.688 5


  23328680.761 6 122593149.493 6  95527198.158 6  23328683.563 6  23328680.274 6


  24896649.346 5 130832787.258 5 101947652.845 4  24896656.325 4  24896648.130 4
  24896654.864 6  97699828.596 6

  20494977.862 8 107701890.253 8  83923590.495 9  20494980.902 9  20494977.773 9
  20494980.194 8  80426779.985 8

 23  8 31 13  8 30.0000000  0 10G19G03G20G09G11G04G31G07G26G06
  23939727.314 6 125804081.275 6  98029142.084 4  23939729.322 4  23939726.045 4


  23417901.370 6 123061934.970 6  95892452.072 6  23417906.252 6  23417901.268 6
  23417906.143 7  91896940.091 7

  24237535.051 6 127369141.712 6  99248696.130 4  24237537.246 4  24237533.911 4


  20171389.658 8 106001482.456 8  82598622.329 9  20171391.311 9  20171389.193 9
  20171390.506 8  79157023.049 8

  22496480.701 7 118219850.885 7  92119395.806 6  22496482.881 6  22496480.567 6
  22496485.442 8  88281098.894 8

  21069926.570 7 110723312.825 7  86277962.190 6  21069927.791 6  21069926.342 6
  21069930.113 8  82683069.292 8

  25217973.574 5 132521421.810 5 103263494.351 5  25217975.888 5  25217973.315 5


  23311010.859 7 122500292.681 7  95454842.392 7  23311012.922 7  23311010.377 7


  24892742.313 5 130812251.375 5 101931650.939 4  24892748.336 4  24892741.209 4
  24892746.728 6  97684493.441 6

  20495450.046 8 107704371.794 8  83925524.152 9  20495453.336 9  20495449.957 9
  20495452.508 8  80428633.080 8

 23  8 31 13  9  0.0000000  0 10G19G03G20G09G11G04G31G07G26G06
  23959287.143 6 125906869.999 6  98109237.010 4  23959289.683 4  23959285.869 4


  23435538.842 6 123154623.169 6  95964676.553 6  23435544.503 6  23435538.740 6
  23435544.068 7  91966155.191 7

  24218688.995 6 127270105.187 6  99171524.908 4  24218691.176 4  24218687.869 4


  20172021.490 8 106004802.658 8  82601209.500 9  20172023.294 9  20172021.025 9
  20172022.216 8  79159502.424 8

  22481679.877 7 118142071.993 7  92058788.929 6  22481682.310 6  22481679.730 6
  22481684.270 8  88223017.301 8

  21081114.293 7 110782104.218 7  86323773.642 6  21081115.528 6  21081114.070 6
  21081117.832 8  82726971.928 8

  25237104.548 6 132621959.052 6 103341835.012 5  25237107.452 5  25237104.298 5


  23293377.802 7 122407631.132 7  95382638.772 7  23293379.651 7  23293377.324 7


  24888932.675 5 130792231.416 5 101916051.060 4  24888938.105 4  24888931.607 4
  24888937.099 6  97669543.587 6

  20496035.481 8 107707447.639 8  83927920.909 9  20496038.299 9  20496035.392 9
  20496037.787 8  80430929.970 8

 23  8 31 13  9 30.0000000  0  9G19G03G20G09G11G04G07G26G06
  23978875.535 6 126009805.941 6  98189446.678 4  23978877.783 4  23978874.221 4


  23453205.887 6 123247462.009 6  96037018.408 6  23453211.490 6  23453205.803 6
  23453210.898 7  92035482.787 7

  24199849.636 6 127171104.385 6  99094381.537 4  24199852.350 4  24199848.536 4


  20172742.965 8 106008593.953 8  82604163.755 9  20172744.893 9  20172742.500 9
  20172743.426 8  79162333.598 8

  22466952.466 7 118064679.493 7  91998483.125 6  22466954.009 6  22466952.319 6
  22466956.802 8  88165224.250 8

  21092368.862 7 110841248.271 7  86369859.892 6  21092370.360 6  21092368.630 6
  21092372.628 8  82771137.911 8

  23275782.045 7 122315166.471 7  95310588.564 7  23275783.931 7  23275781.558 7


  24885219.971 5 130772728.100 5 101900853.730 4  24885226.488 4  24885218.885 4
  24885225.678 6  97654979.501 6

  20496733.676 8 107711117.521 8  83930780.556 9  20496736.646 9  20496733.583 9
  20496736.105 8  80433670.456 8

 23  8 31 13 10  0.0000000  0  9G19G03G20G09G11G04G07G26G06
  23998491.168 6 126112888.046 6  98269770.218 4  23998493.913 4  23998489.823 4


  23470901.637 6 123340452.663 6  96109478.562 6  23470907.119 6  23470901.553 6
  23470906.559 7  92104923.742 7

  24181017.720 6 127072142.575 6  99017268.522 4  24181020.538 4  24181016.625 4


  20173554.156 8 106012857.551 8  82607486.036 9  20173556.519 9  20173553.687 9
  20173554.633 8  79165517.453 8

  22452300.064 7 117987677.842 7  91938481.876 6  22452299.794 6  22452299.921 6
  22452303.865 8  88107723.063 8

  21103690.916 7 110900745.085 7  86416221.021 6  21103692.219 6  21103690.675 6
  21103694.568 8  82815567.327 8

  23258224.960 7 122222903.257 7  95238695.335 7  23258226.904 7  23258224.473 7


  24881607.808 5 130753744.496 5 101886061.378 4  24881614.204 4  24881606.691 4
  24881613.355 6  97640803.510 6

  20497545.532 8 107715383.719 8  83934104.861 9  20497548.742 9  20497545.434 9
  20497548.102 8  80436856.252 8

 23  8 31 13 10 30.0000000  0  9G19G03G20G09G11G04G07G26G06
  24018134.720 6 126216113.528 6  98350205.506 4  24018137.018 4  24018133.375 4


  23488625.986 6 123433595.324 6  96182057.164 6  23488631.499 6  23488625.928 6
  23488631.203 7  92174478.211 7

  24162193.493 6 126973221.912 6  98940187.577 4  24162196.505 4  24162192.371 4


  20174455.485 8 106017593.671 8  82611176.513 9  20174457.706 9  20174455.020 9
  20174455.855 8  79169054.180 8

  22437721.908 7 117911070.545 7  91878787.914 6  22437721.760 6  22437721.765 6
  22437725.852 8  88050516.364 8

  21115079.787 7 110960593.847 7  86462856.396 6  21115081.007 6  21115079.542 6
  21115083.463 8  82860259.551 8

  23240706.673 7 122130844.436 7  95166961.366 7  23240708.583 7  23240706.177 7


  24878094.515 5 130735282.861 5 101871675.765 4  24878101.389 4  24878093.415 4
  24878100.068 6  97627017.308 6

  20498470.956 8 107720247.598 8  83937894.890 9  20498474.164 9  20498470.863 9
  20498473.682 8  80440488.363 8

 23  8 31 13 11  0.0000000  0 10G30G19G03G20G09G11G04G07G26G06
  25428443.894 6 133627374.155 6
  25428456.435 7  99786724.032 7

  24037804.008 6 126319475.610 6  98430747.195 4  24037807.038 4  24037802.627 4


  23506378.574 6 123526885.389 6  96254750.624 6  23506384.123 6  23506378.503 6
  23506383.979 7  92244142.755 7

  24143376.725 6 126874340.101 6  98863136.917 4  24143379.815 4  24143375.590 4


  20175445.732 8 106022797.806 8  82615231.679 9  20175447.780 9  20175445.267 9
  20175446.502 8  79172940.388 8

  22423218.344 7 117834856.373 7  91819400.288 6  22423218.850 6  22423218.206 6
  22423222.920 8  87993603.246 8

  21126534.608 7 111020788.998 7  86509761.686 6  21126535.743 6  21126534.372 6
  21126538.291 8  82905210.449 8

  23223227.052 7 122038988.922 7  95095385.816 7  23223228.620 7  23223226.552 7


  24874681.513 4 130717340.710 4 101857694.926 4  24874687.129 4  24874680.601 4
  24874685.510 6  97613618.987 6

  20499509.584 8 107725705.700 8  83942147.948 9  20499512.720 9  20499509.491 9
  20499512.207 8  80444564.207 8

 23  8 31 13 11 30.0000000  0 10G30G19G03G20G09G11G04G07G26G06
  25407629.649 5 133517996.306 5 104040041.734 5  25407641.303 5  25407628.930 5
  25407642.435 7  99705046.198 7

  24057498.962 6 126422974.183 6  98511395.266 4  24057502.155 4  24057497.585 4


  23524159.427 6 123620324.890 6  96327560.519 6  23524165.040 6  23524159.360 6
  23524165.013 7  92313918.885 7

  24124568.749 6 126775501.337 6  98786119.793 4  24124571.305 4  24124567.605 4


  20176525.570 8 106028472.008 8  82619653.133 9  20176527.422 9  20176525.105 9
  20176526.712 9  79177177.617 9

  22408791.056 7 117759040.649 7  91760323.148 6  22408792.720 6  22408790.909 6
  22408795.724 8  87936987.654 8

  21138055.200 7 111081331.550 7  86556937.680 6  21138056.760 6  21138054.959 6
  21138059.203 8  82950420.768 8

  23205787.297 7 121947342.306 7  95023973.010 7  23205788.228 7  23205786.797 7


  24871366.564 4 130699921.949 4 101844121.914 4  24871372.217 4  24871365.849 4
  24871370.710 6  97600611.532 6

  20500662.081 8 107731761.095 8  83946866.427 9  20500665.119 9  20500661.988 9
  20500664.444 8  80449086.084 8

 23  8 31 13 12  0.0000000  0 10G30G19G03G20G09G11G04G07G26G06
  25386807.090 5 133408574.336 5 103954778.216 5  25386818.535 5  25386806.303 5
  25386819.483 7  99623335.451 7

  24077219.635 6 126526604.020 6  98592145.602 4  24077222.920 4  24077218.254 4


  23541968.557 6 123713911.210 6  96400484.820 6  23541973.578 6  23541968.504 6
  23541973.962 7  92383804.661 7

  24105768.513 6 126676704.295 6  98709135.179 4  24105770.526 4  24105767.351 4


  20177694.279 8 106034613.711 8  82624438.878 9  20177695.989 9  20177693.814 9
  20177695.602 9  79181763.943 9

  22394439.794 7 117683624.073 7  91701557.036 6  22394441.912 6  22394439.634 6
  22394444.786 8  87880670.139 8

  21149641.683 7 111142217.853 7  86604381.531 6  21149643.091 6  21149641.438 6
  21149645.477 8  82995887.790 8

  23188387.020 7 121855904.982 7  94952723.315 7  23188388.257 7  23188386.524 7


  24868150.904 4 130683025.893 4 101830956.200 4  24868156.939 4  24868150.386 4
  24868155.538 6  97587994.413 6

  20501927.540 8 107738412.264 8  83952049.146 9  20501930.332 9  20501927.442 9
  20501930.255 8  80454052.857 8

 23  8 31 13 12 30.0000000  0 10G30G19G03G20G09G11G04G07G26G06
  25365977.156 6 133299114.757 6 103869485.345 5  25365988.308 5  25365976.347 5
  25365990.023 7  99541596.503 7

  24096964.204 6 126630365.163 6  98672998.233 4  24096968.236 4  24096962.827 4


  23559806.116 6 123807647.650 6  96473526.093 6  23559810.727 6  23559806.072 6
  23559811.372 7  92453802.524 7

  24086977.055 6 126577954.814 6  98632187.632 4  24086979.072 4  24086975.929 4


  20178952.731 8 106041226.196 8  82629591.467 9  20178953.951 9  20178952.266 9
  20178954.369 9  79186701.827 9

  22380165.907 7 117608613.212 7  91643107.064 6  22380167.737 6  22380165.742 6
  22380170.546 8  87824655.586 8

  21161293.729 7 111203450.118 7  86652094.963 6  21161295.310 6  21161293.479 6
  21161297.626 8  83041613.153 8

  23171027.621 7 121764683.138 7  94881641.510 7  23171029.313 7  23171027.134 7


  24865035.319 5 130666657.867 5 101818201.944 4  24865042.530 4  24865034.828 4
  24865040.835 6  97575771.562 6

  20503307.537 8 107745663.494 8  83957699.449 9  20503310.078 9  20503307.444 9
  20503310.080 8  80459467.727 8

 23  8 31 13 13  0.0000000  0 10G30G19G03G20G09G11G04G07G26G06
  25345140.189 5 133189615.087 5 103784161.228 5  25345151.075 5  25345139.385 5
  25345152.825 7  99459827.635 7

  24116733.195 6 126734250.029 6  98753947.275 4  24116737.133 4  24116731.805 4


  23577670.959 6 123901528.714 6  96546680.070 6  23577675.798 6  23577670.924 6
  23577676.425 7  92523908.392 7

  24068194.489 6 126479249.770 6  98555274.712 4  24068196.304 4  24068193.385 4


  20180299.438 8 106048304.008 8  82635106.646 9  20180301.131 9  20180298.973 9
  20180300.799 9  79191987.200 9

  22365968.825 7 117534005.918 7  91584971.545 6  22365969.616 6  22365968.673 6
  22365973.085 8  87768942.400 8

  21173010.455 7 111265021.915 7  86700072.966 6  21173011.922 6  21173010.201 6
  21173014.291 8  83087592.063 8

  23153709.000 7 121673674.619 7  94810725.935 7  23153711.137 7  23153708.513 7


  24862020.912 5 130650814.250 5 101805856.297 4  24862027.326 4  24862020.237 4
  24862026.144 6  97563940.340 6

  20504800.777 8 107753510.378 8  83963813.891 9  20504803.865 9  20504800.679 9
  20504803.196 8  80465327.401 8

 23  8 31 13 13 30.0000000  0 10G30G19G03G20G09G11G04G07G26G06
  25324295.142 6 133080078.362 6 103698808.225 5  25324306.856 5  25324294.329 5
  25324307.920 7  99378031.069 7

  24136524.956 6 126838256.043 6  98834990.722 4  24136528.629 4  24136523.606 4


  23595563.644 6 123995554.367 6  96619946.712 6  23595568.597 6  23595563.595 6
  23595569.078 7  92594122.237 7

  24049419.882 6 126380590.632 6  98478397.570 4  24049422.005 4  24049418.774 4


  20181734.864 8 106055847.084 8  82640984.371 9  20181736.961 9  20181734.399 9
  20181735.443 8  79197620.027 8

  22351848.711 7 117459805.443 7  91527153.026 6  22351848.836 6  22351848.568 6
  22351853.085 8  87713533.008 8

  21184791.634 7 111326932.148 7  86748314.685 6  21184792.955 6  21184791.380 6
  21184795.361 8  83133823.708 8

  23136432.003 7 121582882.800 7  94739979.220 7  23136434.242 7  23136431.534 7


  24859104.902 5 130635496.966 5 101793920.780 4  24859112.476 4  24859103.892 4
  24859111.246 7  97552502.138 7

  20506407.349 8 107761953.853 8  83970393.211 9  20506410.743 9  20506407.251 9
  20506409.994 8  80471632.583 8

 23  8 31 13 14  0.0000000  0 10G30G19G03G20G09G11G04G07G26G06
  25303445.234 5 132970509.328 5 103613430.032 5  25303456.022 5  25303444.371 5
  25303457.407 7  99296210.377 7

  24156339.598 6 126942382.413 6  98916127.934 4  24156343.750 4  24156338.257 4


  23613484.157 6 124089726.199 6  96693327.261 6  23613489.364 6  23613484.099 6
  23613489.446 7  92664445.231 7

  24030655.265 6 126281981.445 6  98401559.354 4  24030657.684 4  24030654.179 4


  20183259.170 8 106063857.052 8  82647225.906 9  20183261.559 9  20183258.705 9
  20183260.032 8  79203601.501 8

  22337806.676 7 117386016.686 7  91469655.334 6  22337807.464 6  22337806.533 6
  22337811.299 8  87658431.076 8

  21196637.450 7 111389181.425 7  86796820.599 6  21196638.511 6  21196637.196 6
  21196641.005 8  83180308.538 8

  23119196.893 7 121492312.320 7  94669404.974 7  23119199.374 7  23119196.433 7


  24856292.126 5 130620709.451 5 101782398.076 4  24856298.406 4  24856290.848 4
  24856297.319 7  97541459.530 7

  20508128.357 8 107770996.519 8  83977439.439 9  20508131.354 9  20508128.259 9
  20508130.722 8  80478385.215 8

 23  8 31 13 14 30.0000000  0 10G30G19G03G20G09G11G04G07G26G06
  25282588.272 5 132860907.429 5 103528026.202 5  25282599.043 5  25282587.396 5
  25282601.079 7  99214365.117 7

  24176176.511 6 127046622.693 6  98997353.922 4  24176180.191 4  24176175.192 4


  23631431.530 6 124184040.563 6  96766818.875 6  23631437.103 6  23631431.468 6
  23631436.940 7  92734874.668 7

  24011899.341 6 126183420.415 6  98324758.633 4  24011901.648 4  24011898.259 4


  20184871.466 8 106072330.222 8  82653828.375 9  20184873.576 9  20184871.001 9
  20184872.669 9  79209928.873 9

  22323843.484 7 117312639.291 7  91412478.198 6  22323844.797 6  22323843.337 6
  22323847.629 8  87603636.323 8

  21208546.654 7 111451765.092 7  86845587.068 6  21208547.846 6  21208546.404 6
  21208550.316 8  83227043.068 8

  23102004.135 7 121401962.627 7  94599002.763 7  23102006.176 7  23102003.684 7


  24853577.959 5 130606449.866 5 101771286.732 4  24853585.053 4  24853576.488 4
  24853583.839 7  97530811.182 7

  20509962.461 8 107780635.657 8  83984950.445 9  20509965.740 9  20509962.363 9
  20509964.978 8  80485583.263 8

 23  8 31 13 15  0.0000000  0 10G30G19G03G20G09G11G04G07G26G06
  25261725.793 5 132751277.413 5 103442600.515 5  25261737.569 5  25261724.904 5
  25261738.012 7  99132498.866 7

  24196034.212 6 127150975.998 6  99078667.989 4  24196038.005 4  24196032.907 4


  23649406.746 6 124278499.055 6  96840422.778 6  23649412.212 6  23649406.670 6
  23649411.867 7  92805411.718 7

  23993153.563 6 126084911.590 6  98247998.618 4  23993155.730 4  23993152.495 4


  20186572.298 8 106081268.157 8  82660793.007 9  20186573.374 9  20186571.833 9
  20186573.521 9  79216603.312 9

  22309959.555 7 117239678.096 7  91355625.363 6  22309960.891 6  22309959.403 6
  22309963.591 8  87549152.358 8

  21220519.546 7 111514683.753 7  86894614.575 6  21220520.783 6  21220519.296 6
  21220523.335 8  83274027.760 8

  23084853.957 7 121311838.812 7  94528776.550 7  23084856.034 7  23084853.519 7


  24850966.466 5 130592721.755 5 101760589.541 4  24850972.364 4  24850964.906 4
  24850971.073 7  97520559.701 7

  20511911.190 8 107790873.826 8  83992928.226 9  20511913.950 9  20511911.092 9
  20511913.350 8  80493228.636 8

 23  8 31 13 15 30.0000000  0 10G30G19G03G20G09G11G04G07G26G06
  25240857.994 5 132641618.315 5 103357152.126 5  25240869.225 5  25240857.136 5
  25240870.320 7  99050610.896 7

  24215912.006 6 127255435.856 6  99160065.063 4  24215916.320 4  24215910.710 4


  23667408.265 6 124373097.563 6  96914135.788 6  23667413.996 6  23667408.176 6
  23667413.446 7  92876053.336 7

  23974417.339 6 125986452.812 6  98171277.604 4  23974419.393 4  23974416.253 4


  20188360.833 8 106090666.714 8  82668116.578 9  20188361.135 9  20188360.364 9
  20188362.016 9  79223621.718 9

  22296154.634 7 117167132.319 7  91299096.233 6  22296156.395 6  22296154.487 6
  22296158.478 8  87494978.601 8

  21232555.326 7 111577932.207 7  86943899.054 6  21232556.540 6  21232555.072 6
  21232559.163 8  83321258.720 8

  23067746.681 7 121221939.860 7  94458725.541 7  23067748.759 7  23067746.248 7


  24848455.402 5 130579522.742 5 101750304.626 4  24848460.477 4  24848454.034 4
  24848459.209 6  97510703.343 6

  20513972.574 8 107801707.795 8  84001370.271 9  20513975.593 9  20513972.476 9
  20513975.036 8  80501318.927 8

 23  8 31 13 16  0.0000000  0 10G30G19G03G20G09G11G04G07G26G06
  25219985.968 5 132531937.075 5 103271686.555 5  25219997.605 5  25219985.097 5
  25219998.723 7  98968706.420 7

  24235810.747 6 127360003.712 6  99241546.299 4  24235815.108 4  24235809.424 4


  23685437.108 6 124467839.973 6  96987960.927 6  23685442.973 6  23685437.015 6
  23685442.386 7  92946802.397 7

  23955691.033 6 125888050.133 6  98094600.297 4  23955693.539 4  23955689.938 4


  20190237.795 8 106100529.727 8  82675802.076 9  20190237.557 9  20190237.330 9
  20190238.870 9  79230986.965 9

  22282429.863 7 117095009.086 7  91242896.367 6  22282431.942 6  22282429.725 6
  22282434.187 8  87441120.391 8

  21244654.718 7 111641513.382 7  86993442.809 6  21244655.661 6  21244654.464 6
  21244658.317 8  83368738.142 8

  23050683.565 7 121132272.791 7  94388855.211 7  23050685.639 7  23050683.132 7


  24846046.242 4 130566858.604 4 101740436.488 4  24846050.633 4  24846045.178 4
  24846049.578 7  97501246.373 7

  20516148.495 8 107813142.355 8  84010280.309 9  20516152.073 9  20516148.397 9
  20516150.829 8  80509857.712 8

 23  8 31 13 16 30.0000000  0 10G30G19G03G20G09G11G04G07G26G06
  25199110.562 5 132422232.252 5 103186202.592 5  25199121.598 5  25199109.708 5
  25199121.994 7  98886784.369 7

  24255729.029 6 127464672.457 6  99323106.171 4  24255733.199 4  24255727.684 4


  23703492.809 6 124562721.702 6  97061894.632 6  23703498.455 6  23703492.720 6
  23703497.892 7  93017655.508 7

  23936976.427 6 125789700.789 6  98017964.552 4  23936978.212 4  23936975.310 4


  20192202.057 8 106110852.543 8  82683845.853 9  20192203.402 9  20192201.588 9
  20192203.178 9  79238695.571 9

  22268785.116 7 117023307.121 7  91187024.755 6  22268787.321 6  22268784.978 6
  22268790.003 8  87387576.758 8

  21256815.796 7 111705421.656 7  87043241.437 6  21256816.938 6  21256815.537 6
  21256819.631 8  83416461.823 8

  23033664.137 7 121042836.262 7  94319164.514 7  23033666.457 7  23033663.708 7


  24843737.490 5 130554726.378 5 101730982.834 4  24843742.071 4  24843736.663 4
  24843740.778 7  97492186.638 7

  20518438.084 8 107825173.803 8  84019655.453 9  20518441.757 9  20518437.991 9
  20518440.426 8  80518842.218 8

 23  8 31 13 17  0.0000000  0 10G30G19G03G20G09G11G04G07G26G06
  25178229.983 6 132312505.793 6 103100701.799 5  25178240.892 5  25178229.129 5
  25178241.276 7  98804846.144 7

  24275665.506 6 127569438.575 6  99404741.906 4  24275669.736 4  24275664.161 4


  23721574.090 6 124657741.519 6  97135935.927 6  23721580.027 6  23721573.997 6
  23721579.674 7  93088611.733 7

  23918271.420 6 125691405.768 6  97941371.135 4  23918273.155 4  23918270.267 4


  20194253.874 8 106121633.878 8  82692246.904 9  20194255.705 9  20194253.409 9
  20194254.697 8  79246746.576 8

  22255221.322 7 116952028.417 7  91131482.961 6  22255223.135 6  22255221.179 6
  22255226.239 8  87334349.207 8

  21269039.352 7 111769654.808 7  87093293.219 6  21269040.195 6  21269039.093 6
  21269042.759 8  83464428.112 8

  23016689.236 7 120953632.213 7  94249654.972 7  23016691.382 7  23016688.803 7


  24841527.968 5 130543126.673 5 101721944.131 4  24841534.487 4  24841527.231 4
  24841533.410 7  97483524.555 7

  20520840.915 8 107837801.715 8  84029495.378 9  20520844.500 9  20520840.817 9
  20520843.632 8  80528272.140 8

 23  8 31 13 17 30.0000000  0 10G30G19G03G20G09G11G04G07G26G06
  25157346.133 6 132202762.267 6 103015187.719 5  25157356.947 5  25157345.257 5
  25157357.548 7  98722895.234 7

  24295619.980 6 127674300.908 6  99486452.585 4  24295623.631 4  24295618.608 4


  23739682.871 6 124752900.938 6  97210086.010 6  23739688.376 6  23739682.795 6
  23739688.096 7  93159672.197 7

  23899577.165 6 125593168.941 6  97864823.061 4  23899579.076 4  23899576.003 4


  20196392.776 8 106132875.141 8  82701006.327 9  20196395.799 9  20196392.311 9
  20196393.908 9  79255141.041 9

  22241739.211 7 116881177.765 7  91076274.699 5  22241739.585 5  22241739.073 5
  22241743.703 8  87281441.307 8

  21281324.244 7 111834213.295 7  87143598.518 6  21281325.397 6  21281323.985 6
  21281327.793 8  83512637.349 8

  22999759.360 7 120864665.187 7  94180330.120 7  22999761.448 7  22999758.940 7


  24839423.380 5 130532062.677 5 101713322.871 4  24839428.954 4  24839422.696 4
  24839428.070 7  97475262.548 7

  20523357.930 8 107851028.427 8  84039801.893 9  20523361.416 9  20523357.832 9
  20523360.570 8  80538149.215 8

 23  8 31 13 18  0.0000000  0 10G30G19G03G20G09G11G04G07G26G06
  25136458.719 6 132093002.071 6 102929660.670 5  25136469.715 5  25136457.834 5
  25136470.373 7  98640931.902 7

  24315592.929 6 127779253.929 6  99568233.940 4  24315595.464 4  24315591.516 4


  23757817.026 6 124848197.087 6  97284342.624 6  23757822.770 6  23757816.959 6
  23757822.531 7  93230834.766 7

  23880894.330 6 125494989.538 6  97788319.709 4  23880896.276 4  23880893.163 4


  20198618.957 8 106144573.465 8  82710121.885 9  20198622.792 9  20198618.488 9
  20198620.008 8  79263876.814 8

  22228338.250 7 116810755.600 7  91021400.306 5  22228337.614 5  22228338.112 5
  22228342.444 8  87228853.385 8

  21293670.609 7 111899093.319 7  87194154.355 6  21293671.922 6  21293670.350 6
  21293674.024 8  83561086.688 8

  22982874.368 7 120775935.882 7  94111190.479 7  22982876.457 7  22982873.944 7


  24837419.186 5 130521533.379 5 101705118.256 4  24837425.511 4  24837418.489 4
  24837424.438 7  97467399.768 7

  20525988.457 8 107864851.940 8  84050573.444 9  20525991.596 9  20525988.364 9
  20525991.002 8  80548471.952 8

 23  8 31 13 18 30.0000000  0 10G30G19G03G20G09G11G04G07G26G06
  25115570.289 6 131983231.268 6 102844125.399 5  25115580.623 5  25115569.426 5
  25115581.463 7  98558960.701 7

  24335582.412 6 127884298.282 6  99650086.491 4  24335584.949 4  24335581.013 4


  23775978.019 6 124943632.891 6  97358708.070 6  23775983.722 6  23775977.935 6
  23775983.532 7  93302101.623 7

  23862223.512 6 125396872.651 6  97711865.086 4  23862225.382 4  23862222.363 4


  20200932.684 8 106156731.618 8  82719595.776 9  20200934.414 9  20200932.219 9
  20200933.809 9  79272955.965 9

  22215019.853 7 116740768.043 7  90966864.565 5  22215019.619 5  22215019.719 5
  22215024.131 8  87176590.000 8

  21306078.110 7 111964296.755 7  87244962.201 6  21306079.911 6  21306077.851 6
  21306081.911 8  83609777.543 8

  22966036.003 7 120687450.042 7  94042240.561 7  22966037.781 7  22966035.579 7


  24835517.767 5 130511543.183 5 101697333.739 4  24835524.762 4  24835516.994 4
  24835523.200 7  97459939.663 7

  20528733.338 8 107879275.906 8  84061812.886 9  20528735.942 9  20528733.245 9
  20528735.823 8  80559243.083 8

 23  8 31 13 19  0.0000000  0 10G30G19G03G20G09G11G04G07G26G06
  25094678.832 6 131873448.393 6 102758580.762 5  25094689.417 5  25094677.978 5
  25094690.302 7  98476980.513 7

  24355587.724 6 127989426.899 6  99732004.681 4  24355590.809 4  24355586.365 4


  23794164.877 6 125039203.756 6  97433178.745 6  23794170.266 6  23794164.793 6
  23794170.394 7  93373469.340 7

  23843563.628 6 125298815.646 6  97635457.119 4  23843565.417 4  23843562.475 4


  20203332.836 8 106169344.918 8  82729424.349 9  20203333.171 9  20203332.367 9
  20203334.040 9  79282374.996 9

  22201784.138 7 116671213.742 7  90912666.425 5  22201783.861 5  22201784.000 5
  22201788.440 8  87124650.140 8

  21318546.342 7 112029818.006 7  87296017.697 6  21318548.268 6  21318546.083 6
  21318550.233 8  83658705.720 8

  22949243.751 7 120599206.396 7  93973479.363 7  22949245.162 7  22949243.322 7


  24833718.627 5 130502089.317 5 101689967.142 4  24833725.670 4  24833717.702 4
  24833723.876 6  97452879.988 6

  20531591.925 8 107894296.482 8  84073517.216 9  20531594.264 9  20531591.827 9
  20531594.056 8  80570459.733 8

 23  8 31 13 19 30.0000000  0 10G30G19G03G20G09G11G04G07G26G06
  25073786.492 6 131763657.216 6 102673029.665 5  25073796.135 5  25073785.643 5
  25073797.136 7  98394994.167 7

  24375608.541 6 128094638.121 6  99813987.266 3  24375612.512 3  24375607.236 3


  23812377.438 6 125134910.391 6  97507755.216 6  23812382.852 6  23812377.362 6
  23812382.857 7  93444938.421 7

  23824916.117 6 125200821.346 6  97559098.023 4  23824917.865 4  23824914.964 4


  20205819.718 8 106182413.941 8  82739608.020 9  20205820.921 9  20205819.253 9
  20205820.963 9  79292134.341 9

  22188631.244 7 116602096.631 7  90858808.963 6  22188632.039 6  22188631.101 6
  22188636.060 8  87073036.763 8

  21331075.203 7 112095656.730 7  87347320.572 6  21331076.816 6  21331074.944 6
  21331078.963 8  83707870.980 8

  22932498.358 7 120511208.953 7  93904910.016 7  22932499.960 7  22932497.938 7


  24832022.692 5 130493174.004 5 101683020.196 4  24832028.831 4  24832021.704 4
  24832027.136 7  97446222.513 7

  20534563.726 8 107909915.095 8  84085687.546 9  20534566.438 9  20534563.628 9
  20534566.230 8  80582122.967 8

 23  8 31 13 20  0.0000000  0 10G30G19G03G20G09G11G04G07G26G06
  25052891.656 6 131653859.353 6 102587473.406 5  25052901.618 5  25052890.816 5
  25052902.817 7  98313002.867 7

  24395644.187 6 128199927.917 6  99896031.063 3  24395648.911 3  24395642.900 3


  23830615.236 6 125230751.197 6  97582436.234 6  23830620.832 6  23830615.165 6
  23830620.838 7  93516507.707 7

  23806280.352 6 125102890.678 6  97482788.499 4  23806282.161 4  23806279.226 4


  20208393.121 8 106195936.997 8  82750145.473 9  20208394.914 9  20208392.656 9
  20208394.326 9  79302232.741 9

  22175562.588 7 116533418.365 7  90805293.478 6  22175564.425 6  22175562.436 6
  22175567.065 8  87021751.094 8

  21343663.885 7 112161810.379 7  87398868.840 6  21343665.283 6  21343663.631 6
  21343667.694 8  83757271.397 8

  22915799.953 7 120423459.074 7  93836533.608 7  22915801.718 7  22915799.533 7


  24830429.317 5 130484797.318 5 101676492.956 5  24830434.703 5  24830428.477 5
  24830433.326 7  97439967.270 7

  20537649.530 8 107926130.887 8  84098323.214 9  20537651.926 9  20537649.437 9
  20537652.080 8  80594232.148 8

 23  8 31 13 20 30.0000000  0 10G30G19G03G20G09G11G04G07G26G06
  25031997.076 6 131544057.194 6 102501913.806 5  25032006.449 5  25031996.218 5
  25032007.428 7  98231008.391 7

  24415695.188 6 128305293.045 6  99978133.531 4  24415699.688 4  24415693.896 4


  23848878.630 6 125326725.346 6  97657221.148 6  23848884.104 6  23848878.559 6
  23848884.291 7  93588176.565 7

  23787656.989 6 125005024.708 6  97406529.377 4  23787658.832 4  23787655.894 4


  20211052.654 8 106209913.171 8  82761036.005 9  20211054.598 9  20211052.185 9
  20211053.877 9  79312669.503 9

  22162577.879 7 116465181.353 7  90752121.827 6  22162579.408 6  22162577.732 6
  22162581.771 8  86970794.937 8

  21356312.119 7 112228277.123 7  87450661.082 6  21356313.308 6  21356311.869 6
  21356315.978 8  83806905.626 8

  22899149.261 7 120335959.330 7  93768352.090 7  22899151.018 7  22899148.837 7


  24828938.251 5 130476960.039 5 101670386.041 5  24828943.182 5  24828937.670 5
  24828942.013 7  97434114.827 7

  20540848.896 8 107942943.732 8  84111424.115 9  20540851.713 9  20540848.803 9
  20540851.382 8  80606787.181 8

 23  8 31 13 21  0.0000000  0 10G30G19G03G20G09G11G04G07G26G06
  25011101.127 5 131434253.290 5 102416352.875 5  25011110.908 5  25011100.260 5
  25011111.920 7  98149012.627 7

  24435759.570 6 128410730.349 6 100060292.252 3  24435763.628 3  24435758.274 3


  23867167.466 6 125422832.394 6  97732109.614 6  23867172.714 6  23867167.395 6
  23867172.796 7  93659944.649 7

  23769046.603 6 124907225.535 6  97330322.316 4  23769048.213 4  23769045.526 4


  20213798.338 8 106224341.829 8  82772279.124 9  20213800.331 9  20213797.873 9
  20213799.595 9  79323444.160 9

  22149676.693 7 116397388.345 7  90699296.153 6  22149678.361 6  22149676.546 6
  22149681.154 8  86920170.339 8

  21369019.523 7 112295055.510 7  87502696.167 6  21369020.786 6  21369019.269 6
  21369023.501 8  83856772.572 8

  22882546.402 7 120248712.409 7  93700367.580 7  22882548.418 7  22882545.978 7


  24827548.462 5 130469663.279 5 101664700.298 5  24827554.546 5  24827547.854 5
  24827553.474 7  97428665.984 7

  20544162.065 8 107960353.833 8  84124990.410 9  20544165.230 9  20544161.967 9
  20544164.333 8  80619788.215 8

 23  8 31 13 21 30.0000000  0 10G30G19G03G20G09G11G04G07G26G06
  24990205.375 5 131324450.789 5 102330793.018 5  24990215.524 5  24990204.526 5
  24990216.681 7  98067017.890 7

  24455836.484 6 128516237.568 6 100142505.455 4  24455840.938 4  24455835.179 4


  23885481.192 6 125519072.270 6  97807101.586 6  23885486.689 6  23885481.152 6
  23885486.847 7  93731811.927 7

  23750448.831 6 124809495.010 6  97254168.737 4  23750450.653 4  23750447.785 4


  20216630.005 8 106239222.755 8  82783874.657 9  20216632.027 9  20216629.540 9
  20216631.354 9  79334556.547 9

  22136861.019 7 116330042.485 7  90646818.900 6  22136862.476 6  22136860.850 6
  22136865.700 8  86869879.653 8

  21381786.163 7 112362144.466 7  87554973.249 6  21381787.554 6  21381785.904 6
  21381790.078 8  83906871.436 8

  22865992.432 7 120161720.918 7  93632582.103 7  22865994.448 7  22865992.003 7


  24826262.771 5 130462908.474 5 101659436.852 5  24826269.017 5  24826262.038 5
  24826267.926 7  97423621.888 7

  20547588.682 8 107978361.743 8  84139022.535 9  20547591.919 9  20547588.584 9
  20547591.262 8  80633235.668 8

 23  8 31 13 22  0.0000000  0 10G30G19G03G20G09G11G04G07G26G06
  24969311.412 5 131214650.547 5 102245234.952 5  24969320.984 5  24969310.585 5
  24969321.462 7  97985024.857 7

  24475926.793 6 128621809.914 6 100224769.405 4  24475930.438 4  24475925.501 4


  23903819.726 6 125615442.688 6  97882195.282 6  23903825.574 6  23903819.704 6
  23903825.674 7  93803776.682 7

  23731864.463 6 124711833.010 6  97178068.556 4  23731866.479 4  23731863.435 4


  20219547.406 8 106254553.533 8  82795820.726 9  20219549.125 9  20219546.941 9
  20219548.672 9  79346004.861 9

  22124131.024 7 116263144.653 7  90594690.751 6  22124132.204 6  22124130.859 6
  22124134.964 8  86819923.509 8

  21394611.121 7 112429540.697 7  87607489.765 6  21394612.693 6  21394610.858 6
  21394615.151 8  83957199.763 8

  22849487.141 7 120074986.030 7  93564996.586 7  22849489.253 7  22849486.708 7


  24825080.895 5 130456694.937 5 101654595.175 5  24825086.710 5  24825080.073 5
  24825085.478 7  97418981.939 7

  20551128.809 8 107996965.785 8  84153519.180 9  20551132.168 9  20551128.707 9
  20551131.516 8  80647128.279 8

 23  8 31 13 22 30.0000000  0 10G30G19G03G20G09G11G04G07G26G06
  24948417.099 5 131104854.463 5 102159680.117 5  24948426.436 5  24948416.286 5
  24948427.401 7  97903034.923 7

  24496028.701 6 128727443.789 6 100307081.319 4  24496032.427 4  24496027.423 4


  23922182.733 6 125711942.342 6  97957389.682 6  23922189.058 6  23922182.716 6
  23922188.919 7  93875837.969 7

  23713292.746 6 124614240.569 6  97102022.595 4  23713295.489 4  23713291.718 4


  20222550.077 8 106270332.704 8  82808116.188 9  20222551.602 9  20222549.612 9
  20222551.374 9  79357788.017 9

  22111486.342 7 116196696.774 7  90542913.219 6  22111487.663 6  22111486.190 6
  22111489.851 8  86770303.379 8

  21407494.451 7 112497241.915 7  87660243.930 6  21407495.710 6  21407494.201 6
  21407498.333 8  84007755.826 8

  22833031.325 7 119988509.900 7  93497612.704 7  22833033.592 7  22833030.896 7


  24824001.609 5 130451022.791 5 101650175.363 5  24824007.582 5  24824000.849 5
  24824006.103 7  97414746.314 7

  20554782.491 8 108016165.267 8  84168479.800 9  20554785.931 9  20554782.393 9
  20554784.987 8  80661465.541 8

 23  8 31 13 23  0.0000000  0 10G30G19G03G20G09G11G04G07G26G06
  24927525.607 6 130995067.640 6 102074132.466 5  24927534.328 5  24927524.798 5
  24927535.418 7  97821051.848 7

  24516141.691 6 128833138.703 6 100389440.811 4  24516146.060 4  24516140.404 4


  23940571.240 6 125808573.212 6  98032686.333 6  23940577.314 6  23940571.241 6
  23940577.191 7  93947997.217 7

  23694735.680 6 124516721.896 6  97026034.112 4  23694738.315 4  23694734.643 4


  20225638.357 8 106286562.059 8  82820762.443 9  20225639.882 9  20225637.892 9
  20225639.731 9  79369907.346 9

  22098928.343 7 116130703.992 7  90491490.302 6  22098929.432 6  22098928.191 6
  22098931.673 8  86721023.083 8

  21420435.836 7 112565249.080 7  87713236.504 6  21420437.065 6  21420435.591 6
  21420439.734 8  84058540.378 8

  22816625.787 7 119902297.033 7  93430433.957 7  22816627.760 7  22816625.354 7


  24823025.821 5 130445895.568 5 101646180.171 5  24823031.675 5  24823025.088 5
  24823030.401 7  97410917.592 7

  20558549.842 8 108035962.739 8  84183906.384 9  20558553.301 9  20558549.744 9
  20558552.383 8  80676249.351 8

 23  8 31 13 23 30.0000000  0 10G30G19G03G20G09G11G04G07G26G06
  24906634.964 6 130885289.275 6 101988591.377 5  24906644.096 5  24906634.151 5
  24906644.428 7  97739075.080 7

  24536265.180 6 128938888.463 6 100471843.017 4  24536269.250 4  24536263.852 4


  23958983.963 6 125905331.356 6  98108082.151 6  23958989.866 6  23958983.971 6
  23958989.753 7  94020251.501 7

  23676191.952 6 124419275.224 6  96950101.740 4  23676194.697 4  23676190.924 4


  20228811.716 8 106303237.494 8  82833756.293 9  20228813.321 9  20228811.251 9
  20228812.953 9  79382359.786 9

  22086456.577 7 116065165.551 7  90440421.426 6  22086458.309 6  22086456.421 6
  22086459.987 7  86672082.062 7

  21433434.201 7 112633557.299 7  87766463.656 6  21433435.839 6  21433433.951 6
  21433438.342 8  84109549.721 8

  22800270.052 7 119816347.040 7  93363460.040 7  22800271.632 7  22800269.623 7


  24822153.402 5 130441310.772 5 101642607.652 5  24822159.091 5  24822152.683 5
  24822157.722 7  97407493.949 7

  20562430.311 8 108056354.958 8  84199796.412 9  20562434.016 9  20562430.209 9
  20562432.933 8  80691477.291 8

 23  8 31 13 24  0.0000000  0 10G30G19G03G20G09G11G04G07G26G06
  24885746.772 6 130775523.121 6 101903059.757 6  24885756.094 6  24885745.923 6
  24885756.472 7  97657107.378 7

  24556398.745 6 129044691.066 6 100554286.414 4  24556402.951 4  24556397.404 4


  23977421.084 6 126002217.240 6  98183577.500 6  23977426.929 6  23977421.076 6
  23977426.640 7  94092601.197 7

  23657662.204 6 124321903.164 6  96874227.492 4  23657664.648 4  23657661.154 4


  20232069.939 8 106320359.335 8  82847097.991 9  20232071.621 9  20232069.474 9
  20232071.116 9  79395145.579 9

  22074072.431 7 116000085.153 7  90389709.470 6  22074074.300 6  22074072.275 6
  22074076.162 8  86623483.080 8

  21446490.392 7 112702166.057 7  87819924.998 6  21446491.695 6  21446490.151 6
  21446494.208 8  84160783.505 8

  22783964.905 7 119730663.572 7  93296693.805 7  22783966.595 7  22783964.481 7


  24821384.705 5 130437270.381 5 101639459.357 5  24821390.171 5  24821384.066 5
  24821388.985 7  97404476.828 7

  20566424.376 8 108077342.679 8  84216150.463 9  20566427.748 9  20566424.278 9
  20566426.748 8  80707149.923 8

 23  8 31 13 24 30.0000000  0 10G30G19G03G20G09G11G04G07G26G06
  24864861.872 6 130665770.880 6 101817538.980 6  24864870.626 6  24864861.001 6
  24864870.972 7  97575150.044 7

  24576542.524 6 129150542.519 6 100636767.879 4  24576546.244 4  24576541.241 4


  23995882.205 6 126099229.496 6  98259171.320 6  23995887.987 6  23995882.170 6
  23995887.730 7  94165045.240 7

  23639147.615 6 124224606.632 6  96798412.084 4  23639149.337 4  23639146.507 4


  20235412.568 8 106337925.948 8  82860786.263 9  20235414.398 9  20235412.108 9
  20235413.910 9  79408263.505 9

  22061775.604 7 115935464.477 7  90339355.728 6  22061776.893 6  22061775.452 6
  22061779.739 8  86575227.402 8

  21459602.645 7 112771072.962 7  87873618.655 6  21459604.300 6  21459602.413 6
  21459606.778 8  84212239.921 8

  22767710.700 7 119645248.410 7  93230136.621 8  22767712.736 8  22767710.285 8


  24820718.188 5 130433774.304 5 101636735.209 5  24820724.937 5  24820717.634 5
  24820723.680 7  97401866.193 7

  20570531.227 8 108098925.094 8  84232967.919 9  20570534.223 9  20570531.125 9
  20570533.756 8  80723266.645 8

 23  8 31 13 25  0.0000000  0 10G30G19G03G20G09G11G04G07G26G06
  24843979.229 6 130556035.948 6 101732031.630 6  24843988.129 6  24843978.349 6
  24843988.327 7  97493205.580 7

  24596694.039 6 129256440.728 6 100719285.781 4  24596698.382 4  24596692.792 4


  24014366.580 6 126196368.217 6  98334863.695 6  24014372.839 6  24014366.509 6
  24014372.915 7  94237583.743 7

  23620647.782 6 124127388.320 6  96722657.638 4  23620649.145 4  23620646.665 4


  20238840.115 8 106355937.323 8  82874821.102 9  20238841.833 9  20238839.650 9
  20238841.282 8  79421713.563 8

  22049566.712 7 115871306.877 7  90289362.818 6  22049567.617 6  22049566.569 6
  22049571.024 8  86527317.537 8

  21472772.023 7 112840277.190 7  87927544.001 6  21472773.298 6  21472771.791 6
  21472775.901 8  84263918.371 8

  22751508.412 7 119560104.233 7  93163790.609 8  22751510.310 8  22751508.010 8


  24820156.609 6 130430824.144 6 101634436.442 5  24820163.192 5  24820155.916 5
  24820162.094 7  97399663.221 7

  20574751.545 8 108121102.860 8  84250249.286 9  20574754.408 9  20574751.447 9
  20574754.090 8  80739827.956 8

 23  8 31 13 25 30.0000000  0 10G30G19G03G20G09G11G04G07G26G06
  24823101.220 6 130446322.271 6 101646540.821 6  24823109.971 6  24823100.335 6
  24823110.388 7  97411276.960 7

  24616854.480 6 129362384.092 6 100801838.842 4  24616859.809 4  24616853.242 4


  24032875.781 6 126293634.223 6  98410655.244 6  24032881.978 6  24032875.692 6
  24032882.174 7  94310217.278 7

  23602163.565 6 124030251.274 6  96646966.524 4  23602164.597 4  23602162.439 4


  20242352.145 8 106374394.050 8  82889202.967 9  20242353.890 9  20242351.680 9
  20242353.483 8  79435496.181 8

  22037446.597 7 115807616.312 7  90239733.835 6  22037447.865 6  22037446.454 6
  22037451.209 8  86479756.434 8

  21485997.544 7 112909778.529 7  87981700.862 6  21485998.916 6  21485997.321 6
  21486001.628 8  84315818.694 8

  22735358.440 7 119475235.306 7  93097659.071 8  22735360.171 8  22735358.043 8


  24819699.749 5 130428422.031 5 101632564.728 5  24819706.029 5  24819698.931 5
  24819705.051 7  97397869.512 7

  20579085.229 8 108143877.239 8  84267995.537 9  20579088.203 9  20579085.131 9
  20579087.853 8  80756834.778 8

 23  8 31 13 26  0.0000000  0 10G30G19G03G20G09G11G04G07G26G06
  24802226.808 6 130336628.331 6 101561065.353 6  24802235.695 6  24802225.950 6
  24802236.019 7  97329363.058 7

  24637022.294 6 129468365.696 6 100884421.713 3  24637027.123 3  24637021.060 3


  24051408.281 6 126391022.824 6  98486542.330 6  24051414.456 6  24051408.192 6
  24051414.885 7  94382942.346 7

  23583693.141 6 123933192.841 6  96571336.672 4  23583695.499 4  23583691.970 4


  20245948.246 8 106393291.184 8  82903928.010 9  20245949.871 9  20245947.781 9
  20245949.480 8  79449607.679 8

  22025415.294 7 115744391.172 7  90190467.525 6  22025416.316 6  22025415.138 6
  22025419.619 8  86432542.898 8

  21499278.554 7 112979571.313 7  88036084.818 6  21499279.926 6  21499278.322 6
  21499282.831 8  84367936.639 8

  22719260.394 7 119390640.072 7  93031740.792 8  22719261.981 8  22719260.001 8


  24819346.210 5 130426564.568 5 101631117.427 5  24819352.842 5  24819345.437 5
  24819351.450 7  97396482.539 7

  20583531.952 8 108167243.925 8  84286203.326 9  20583534.569 9  20583531.854 9
  20583534.244 8  80774283.909 8

 23  8 31 13 26 30.0000000  0 10G30G19G03G20G09G11G04G07G26G06
  24781356.950 6 130226958.234 6 101475608.426 5  24781365.932 5  24781356.123 5
  24781366.269 7  97247466.882 7

  24657196.730 6 129574383.945 6 100967033.150 3  24657201.090 3  24657195.478 3


  24069965.376 6 126488534.807 6  98562525.547 6  24069970.597 6  24069965.283 6
  24069970.970 7  94455759.570 7

  23565239.211 6 123836216.195 6  96495770.561 4  23565241.552 4  23565237.982 4


  20249628.236 8 106412629.364 8  82918996.723 9  20249630.031 9  20249627.776 9
  20249629.323 8  79464048.532 8

  22013473.455 7 115681635.435 7  90141566.982 6  22013474.096 6  22013473.299 6
  22013477.606 8  86385679.893 8

  21512615.718 7 113049655.408 7  88090695.774 6  21512616.406 6  21512615.490 6
  21512619.522 8  84420272.134 8

  22703215.081 7 119306322.616 7  92966038.963 8  22703216.668 8  22703214.701 8


  24819097.417 5 130425254.038 5 101630096.292 5  24819103.262 5  24819096.738 5
  24819101.840 7  97395503.961 7

  20588091.315 8 108191204.212 8  84304873.664 9  20588094.061 9  20588091.213 9
  20588093.820 8  80792176.318 8

 23  8 31 13 27  0.0000000  0 10G30G19G03G20G09G11G04G07G26G06
  24760492.205 6 130117315.473 6 101390172.767 5  24760501.047 5  24760491.383 5
  24760501.164 7  97165591.131 7

  24677378.291 6 129680436.977 6 101049671.655 3  24677382.332 3  24677377.013 3


  24088544.176 6 126586170.570 6  98638605.217 6  24088550.408 6  24088544.083 6
  24088550.463 7  94528669.219 7

  23546801.569 6 123739323.824 6  96420270.099 4  23546803.434 4  23546800.335 4


  20253392.149 8 106432408.745 8  82934409.230 9  20253394.049 9  20253391.684 9
  20253393.259 8  79478818.852 8

  22001621.689 7 115619352.621 7  90093034.954 6  22001621.843 6  22001621.542 6
  22001625.225 8  86339170.034 8

  21526007.413 7 113120030.222 7  88145533.265 6  21526008.269 6  21526007.190 6
  21526011.349 8  84472824.714 8

  22687223.225 7 119222286.300 7  92900556.193 7  22687225.096 7  22687222.841 7


  24818952.370 5 130424492.036 5 101629502.578 5  24818957.927 5  24818951.686 5
  24818956.807 7  97394934.988 7

  20592763.950 8 108215758.875 8  84324007.149 9  20592766.765 9  20592763.852 9
  20592766.509 8  80810512.572 8

 23  8 31 13 27 30.0000000  0 10G30G19G03G20G09G11G04G07G26G06
  24739632.831 6 130007701.329 6 101304759.398 5  24739641.854 5  24739632.013 5
  24739642.282 7  97083736.691 7

  24697565.340 6 129786520.193 6 101132333.722 3  24697569.786 3  24697564.048 3


  24107147.151 6 126683928.103 6  98714779.761 6  24107153.238 6  24107147.062 6
  24107153.314 7  94601669.786 7

  23528379.664 6 123642516.196 6  96344835.680 4  23528381.275 4  23528378.430 4


  20257239.550 8 106452627.052 8  82950163.758 9  20257241.364 9  20257239.090 9
  20257240.727 8  79493916.937 8

  21989859.693 7 115557543.774 7  90044872.252 6  21989859.940 6  21989859.541 6
  21989863.432 8  86293014.121 8

  21539454.013 7 113190692.726 7  88200594.931 6  21539454.971 6  21539453.790 6
  21539457.930 8  84525592.134 8

  22671285.259 7 119138532.076 7  92835293.233 7  22671287.071 7  22671284.893 7


  24818911.381 5 130424277.787 5 101629335.692 5  24818916.990 5  24818910.675 5
  24818916.089 7  97394775.068 7

  20597549.494 8 108240906.252 8  84343602.493 9  20597552.122 9  20597549.396 9
  20597551.875 8  80829291.439 8

 23  8 31 13 28  0.0000000  0 10G30G19G03G20G09G11G04G07G26G06
  24718779.223 6 129898116.109 6 101219368.535 5  24718788.057 5  24718778.401 5
  24718788.819 7  97001903.846 7

  24717757.240 6 129892628.384 6 101215015.238 4  24717761.415 4  24717755.912 4


  24125772.448 6 126781804.460 6  98791046.909 6  24125778.241 6  24125772.372 6
  24125778.586 7  94674759.104 7

  23509973.535 6 123545792.818 6  96269466.893 4  23509975.455 4  23509972.319 4


  20261169.880 8 106473281.186 8  82966257.887 9  20261171.483 9  20261169.420 9
  20261171.131 8  79509340.478 8

  21978187.929 7 115496209.126 7  89997079.056 6  21978188.455 6  21978187.760 6
  21978191.917 8  86247212.318 8

  21552954.771 7 113261639.114 7  88255877.807 6  21552955.698 6  21552954.548 6
  21552958.509 8  84578571.549 8

  22655401.012 7 119055060.158 7  92770250.251 7  22655402.915 7  22655400.650 7


  24818974.637 5 130424609.702 5 101629594.374 5  24818979.982 5  24818973.913 5
  24818979.123 7  97395022.970 7

  20602447.012 8 108266643.769 8  84363657.686 9  20602450.118 9  20602446.914 9
  20602449.764 8  80848510.994 8

 23  8 31 13 28 30.0000000  0 10G30G19G03G20G09G11G04G07G26G06
  24697932.101 6 129788565.871 6 101134004.942 5  24697941.333 5  24697931.265 5
  24697941.785 7  96920097.095 7

  24737954.095 6 129998762.271 6 101297716.783 3  24737958.045 3  24737952.781 3


  24144420.755 6 126879802.477 6  98867408.846 6  24144426.670 6  24144420.679 6
  24144427.145 7  94747939.276 7

  23491584.664 6 123449158.616 6  96194167.622 4  23491586.365 4  23491583.466 4


  20265183.614 8 106494373.661 8  82982693.586 9  20265185.076 9  20265183.149 9
  20265184.878 8  79525091.358 8

  21966607.771 7 115435354.545 7  89949659.936 6  21966608.404 6  21966607.593 6
  21966611.804 8  86201769.005 8

  21566509.351 7 113332871.157 7  88311383.266 6  21566510.775 6  21566509.119 6
  21566513.410 8  84631764.281 8

  22639571.668 7 118971876.637 7  92705431.991 7  22639573.475 7  22639571.302 7


  24819142.730 5 130425491.766 5 101630281.729 5  24819147.688 5  24819141.930 5
  24819146.909 7  97395681.713 7

  20607457.699 8 108292974.545 8  84384175.157 9  20607461.100 9  20607457.597 9
  20607460.300 8  80868173.568 8

 23  8 31 13 29  0.0000000  0 10G30G19G03G20G09G11G04G07G26G06
  24677092.655 6 129679051.653 6 101048669.421 5  24677101.215 5  24677091.819 5
  24677101.758 7  96838317.257 7

  24758154.813 6 130104917.235 6 101380434.758 4  24758159.011 4  24758153.512 4


  24163091.469 6 126977920.032 6  98943863.941 5  24163097.986 5  24163091.407 5
  24163098.519 7  94821208.700 7

  23473213.184 6 123352613.943 6  96118938.090 4  23473214.064 4  23473212.000 4


  20269280.304 8 106515902.115 8  82999469.006 9  20269281.963 9  20269279.844 9
  20269281.594 9  79541167.805 9

  21955119.207 7 115374980.995 7  89902615.654 6  21955120.492 6  21955119.029 6
  21955122.962 8  86156684.898 8

  21580118.660 7 113404385.815 7  88367108.947 6  21580119.764 6  21580118.424 6
  21580122.297 8  84685168.057 8

  22623797.373 7 118888982.321 7  92640839.076 7  22623799.173 7  22623797.011 7


  24819414.869 5 130426923.117 5 101631397.085 5  24819420.151 5  24819414.096 5
  24819419.276 7  97396750.596 7

  20612580.652 8 108319896.759 8  84405153.493 9  20612583.928 9  20612580.550 9
  20612583.331 8  80888277.803 8

 23  8 31 13 29 30.0000000  0 10G30G19G03G20G09G11G04G07G26G06
  24656260.025 6 129569574.469 6 100963362.761 5  24656268.201 5  24656259.194 5
  24656268.508 7  96756565.079 7

  24778358.723 6 130211088.756 6 101463165.605 4  24778363.355 4  24778357.422 4


  24181785.513 6 127076154.800 6  99020410.358 5  24181791.797 5  24181785.464 5
  24181792.204 7  94894565.656 7

  23454857.810 6 123256158.657 6  96043778.213 4  23454858.690 4  23454856.630 4


  20273459.496 8 106537864.041 8  83016582.199 9  20273461.346 9  20273459.031 9
  20273460.792 9  79557567.953 9

  21943721.903 7 115315089.321 7  89855946.850 6  21943722.951 6  21943721.729 6
  21943725.885 8  86111960.634 8

  21593780.606 7 113476179.834 7  88423052.306 6  21593781.803 6  21593780.378 6
  21593784.317 8  84738780.441 8

  22608078.266 7 118806378.011 7  92576472.135 7  22608080.178 7  22608077.909 7


  24819791.961 5 130428902.615 5 101632939.559 5  24819796.829 5  24819791.335 5
  24819796.280 7  97398228.799 7

  20617816.128 8 108347408.478 8  84426591.184 9  20617819.269 9  20617816.026 9
  20617818.942 8  80908822.251 8

 23  8 31 13 30  0.0000000  0 10G30G19G03G20G09G11G04G07G26G06
  24635435.228 6 129460137.577 6 100878087.487 5  24635442.837 5  24635434.392 5
  24635443.347 7  96674842.990 7

  24798565.001 6 130317274.524 6 101545907.550 4  24798570.034 4  24798563.718 4


  24200500.868 6 127174506.866 6  99097048.180 5  24200507.930 5  24200500.792 5
  24200508.024 7  94968010.204 7

  23436520.449 6 123159795.299 6  95968689.972 4  23436521.194 4  23436519.282 4


  20277721.192 8 106560259.201 8  83034032.979 9  20277722.943 9  20277720.727 9
  20277722.464 8  79574291.611 8

  21932416.745 8 115255682.565 8  89809655.898 6  21932417.385 6  21932416.571 6
  21932421.284 8  86067598.491 8

  21607495.336 7 113548252.321 7  88479212.662 6  21607496.861 6  21607495.104 6
  21607499.338 8  84792600.789 8

  22592414.810 7 118724066.673 7  92512333.479 8  22592416.989 8  22592414.439 8


  24820272.218 5 130431431.545 5 101634910.161 5  24820278.205 5  24820271.592 5
  24820277.388 7  97400117.281 7

  20623163.649 8 108375509.958 8  84448488.424 9  20623167.231 9  20623163.551 9
  20623166.533 8  80929807.109 8

 23  8 31 13 30 30.0000000  0 10G30G19G03G20G09G11G04G07G26G06
  24614617.714 6 129350745.026 6 100792846.779 6  24614626.030 6  24614616.865 6
  24614626.341 7  96593154.045 7

  24818773.948 6 130423473.027 6 101628659.385 3  24818779.285 3  24818772.674 3


  24219239.510 6 127272977.015 6  99173778.008 5  24219246.352 5  24219239.430 5
  24219246.441 7  95041542.926 7

  23418201.314 6 123063526.960 6  95893675.781 4  23418202.396 4  23418200.165 4


  20282065.317 8 106583088.108 8  83051821.742 9  20282067.030 9  20282064.852 9
  20282066.652 8  79591339.171 8

  21921205.304 7 115196764.605 7  89763745.831 6  21921205.818 6  21921205.126 6
  21921209.303 8  86023601.352 8

  21621263.344 7 113620603.106 7  88535589.872 6  21621264.726 6  21621263.112 6
  21621267.243 8  84846628.935 8

  22576808.101 7 118642052.342 7  92448426.261 8  22576810.036 8  22576807.730 8


  24820858.701 5 130434511.784 5 101637310.340 5  24820864.683 5  24820857.923 5
  24820863.600 7  97402417.447 7

  20628623.590 8 108404202.239 8  84470846.032 9  20628626.999 9  20628623.488 9
  20628626.473 8  80951233.144 8

 23  8 31 13 31  0.0000000  0 11G30G19G03G20G09G11G04G16G07G26G06
  24593809.542 6 129241395.468 6 100707639.576 6  24593817.322 6  24593808.684 6
  24593817.503 7  96511497.193 7

  24838984.278 6 130529677.633 6 101711415.997 3  24838989.666 3  24838983.018 3


  24237999.867 6 127371560.635 6  99250596.259 5  24238006.190 5  24237999.774 5
  24238006.531 7  95115160.382 7

  23399899.127 6 122967351.659 6  95818734.084 5  23399900.949 5  23399898.010 5


  20286490.967 8 106606345.910 8  83069944.706 9  20286492.837 9  20286490.507 9
  20286492.440 8  79608707.011 8

  21910086.515 7 115138333.876 7  89718215.420 6  21910086.789 6  21910086.346 6
  21910090.336 8  85979968.054 8

  21635083.308 7 113693226.683 7  88592179.650 6  21635084.575 6  21635083.080 6
  21635087.072 8  84900860.797 8

  25011749.367 6 131437632.535 6 102418952.246 3  25011753.473 3  25011749.050 3


  22561257.603 7 118560333.424 7  92384749.224 8  22561259.459 8  22561257.219 8


  24821549.328 5 130438139.917 5 101640137.446 5  24821554.881 5  24821548.568 5
  24821553.727 7  97405126.756 7

  20634195.039 8 108433480.929 8  84493660.584 9  20634198.451 9  20634194.941 9
  20634198.130 8  80973097.087 8

 23  8 31 13 31 30.0000000  0 11G30G19G03G20G09G11G04G16G07G26G06
  24573009.523 6 129132094.846 6 100622470.524 6  24573017.462 6  24573008.674 6
  24573018.400 7  96429876.910 7

  24859195.278 5 130635888.819 5 101794177.752 3  24859201.529 3  24859194.085 3


  24256781.929 6 127470260.419 6  99327505.026 5  24256788.567 5  24256781.840 5
  24256788.522 7  95188864.576 7

  23381615.940 6 122871274.173 6  95743868.608 4  23381617.749 4  23381614.840 4


  20290999.067 8 106630035.050 8  83088403.779 9  20291000.804 9  20290998.602 9
  20291000.245 8  79626396.959 8

  21899061.041 7 115080396.154 7  89673069.168 6  21899061.751 6  21899060.867 6
  21899065.043 8  85936702.908 8

  21648955.187 7 113766124.800 7  88648983.361 6  21648956.611 6  21648954.959 6
  21648959.088 8  84955297.680 8

  25000678.856 6 131379458.914 6 102373622.271 3  25000682.995 3  25000678.213 3


  22545764.563 7 118478915.699 7  92321306.881 8  22545766.076 8  22545764.179 8


  24822344.934 5 130442319.726 5 101643394.427 5  24822350.063 5  24822344.228 5
  24822349.226 7  97408248.025 7

  20639878.777 8 108463348.967 8  84516934.365 9  20639882.220 9  20639878.675 9
  20639881.751 8  80995401.121 8

 23  8 31 13 32  0.0000000  0 11G30G19G03G20G09G11G04G16G07G26G06
  24552219.375 6 129022842.540 6 100537339.109 6  24552226.516 6  24552218.530 6
  24552227.838 7  96348292.728 7

  24879407.839 6 130742100.405 6 101876939.775 3  24879413.250 3  24879406.708 3


  24275585.183 6 127569072.534 6  99404501.321 5  24275592.388 5  24275585.072 5
  24275591.862 7  95262652.666 7

  23363351.641 6 122775293.119 6  95669078.263 4  23363352.464 4  23363350.550 4


  20295588.184 8 106654151.366 8  83107195.718 9  20295590.129 9  20295587.719 9
  20295589.399 8  79644405.899 8

  21888129.331 8 115022950.601 8  89628306.428 6  21888130.619 6  21888129.157 6
  21888133.396 8  85893805.296 8

  21662878.616 7 113839292.679 7  88705997.277 6  21662880.148 6  21662878.384 6
  21662882.486 8  85009936.017 8

  24989690.962 6 131321713.013 6 102328625.585 3  24989693.821 3  24989690.381 3


  22530328.392 7 118397798.324 7  92258098.575 8  22530330.021 8  22530328.012 8


  24823244.434 5 130447048.466 5 101647079.143 5  24823250.176 5  24823243.746 5
  24823249.157 7  97411779.223 7

  20645674.027 8 108493802.665 8  84540664.502 9  20645677.275 9  20645673.925 9
  20645676.840 8  81018142.502 8

 23  8 31 13 32 30.0000000  0 11G30G19G03G20G09G11G04G16G07G26G06
  24531439.942 6 128913646.594 6 100452251.639 6  24531447.013 6  24531439.097 6
  24531448.350 7  96266750.636 7

  24899619.555 6 130848314.740 6 101959703.977 3  24899624.718 3  24899618.420 3


  24294411.266 6 127668001.808 6  99481588.917 5  24294418.058 5  24294411.146 5
  24294417.735 7  95336528.255 7

  23345106.110 6 122679415.405 6  95594368.449 4  23345107.660 4  23345105.033 4


  20300259.510 8 106678699.387 8  83126324.053 9  20300261.441 9  20300259.045 9
  20300260.717 8  79662737.216 8

  21877293.016 7 114966005.020 7  89583933.283 6  21877294.675 6  21877292.847 6
  21877297.059 8  85851281.031 8

  21676853.990 7 113912734.195 7  88763224.417 6  21676855.776 6  21676853.762 6
  21676857.939 8  85064778.688 8

  24978784.226 6 131264403.155 6 102283968.684 3  24978787.713 3  24978783.641 3


  22514950.666 7 118316988.929 7  92195130.276 8  22514952.313 8  22514950.277 8


  24824249.845 5 130452332.002 5 101651196.177 5  24824255.781 5  24824249.197 5
  24824254.575 7  97415724.696 7

  20651581.649 8 108524846.940 8  84564854.828 9  20651585.042 9  20651581.551 9
  20651584.406 8  81041324.897 8

 23  8 31 13 33  0.0000000  0 11G30G19G03G20G09G11G04G16G07G26G06
  24510669.870 6 128804502.681 6 100367204.734 6  24510677.427 6  24510669.007 6
  24510678.307 7  96185247.415 7

  24919830.309 6 130954521.904 6 102042462.605 3  24919835.009 3  24919829.151 3


  24313257.430 6 127767040.591 6  99558761.845 5  24313264.336 5  24313257.310 5
  24313264.423 7  95410485.591 7

  23326880.527 7 122583636.062 7  95519735.289 5  23326881.827 5  23326879.454 5


  20305011.484 8 106703671.248 8  83145782.649 9  20305013.188 9  20305011.024 9
  20305012.669 8  79681385.037 8

  21866550.880 7 114909554.864 7  89539946.179 6  21866552.302 6  21866550.715 6
  21866555.073 8  85809126.729 8

  21690879.947 7 113986440.829 7  88820658.135 6  21690881.587 6  21690879.711 6
  21690883.954 8  85119819.334 8

  24967960.817 6 131207525.645 6 102239648.668 3  24967964.140 3  24967960.129 3


  22499631.032 7 118236483.210 7  92132398.592 8  22499632.291 8  22499630.639 8


  24825359.326 6 130458163.831 6 101655740.458 5  24825365.340 5  24825358.584 5
  24825364.478 7  97420079.642 7

  20657600.252 8 108556474.387 8  84589499.569 9  20657603.530 9  20657600.150 9
  20657602.878 8  81064942.779 8

 23  8 31 13 33 30.0000000  0 11G30G19G03G20G09G11G04G16G07G26G06
  24489911.266 6 128695415.690 6 100282202.201 6  24489918.764 6  24489910.386 6
  24489919.588 7  96103786.720 7

  24940039.853 6 131060721.461 6 102125215.297 3  24940044.948 3  24940038.677 3


  24332125.061 6 127866190.568 6  99636021.416 5  24332131.910 5  24332124.927 5
  24332132.236 7  95484525.973 7

  23308673.534 6 122487959.212 6  95445181.984 5  23308675.051 5  23308672.470 5


  20309844.409 8 106729068.242 8  83165572.519 9  20309845.909 9  20309843.944 9
  20309845.506 8  79700350.326 8

  21855903.956 7 114853604.733 7  89496348.697 6  21855904.582 6  21855903.800 6
  21855908.036 8  85767345.815 8

  21704956.549 7 114060413.275 7  88878298.981 6  21704958.095 6  21704956.313 6
  21704960.467 8  85175058.481 8

  24957221.346 6 131151085.560 6 102195669.520 3  24957224.184 3  24957220.698 3


  22484370.172 7 118156286.094 7  92069907.381 8  22484371.181 8  22484369.783 8


  24826574.151 5 130464546.553 5 101660714.013 5  24826579.876 5  24826573.409 5
  24826579.015 7  97424845.971 7

  20663729.920 8 108588686.731 8  84614600.081 9  20663732.813 9  20663729.822 9
  20663732.636 8  81088997.427 8

 23  8 31 13 34  0.0000000  0 11G30G19G03G20G09G11G04G16G07G26G06
  24469163.594 6 128586388.520 6 100197246.277 6  24469171.454 6  24469162.709 6
  24469171.874 7  96022370.680 7

  24960247.210 6 131166911.117 6 102207960.314 3  24960252.586 3  24960246.012 3


  24351014.264 6 127965451.423 6  99713367.385 5  24351020.748 5  24351014.157 5
  24351020.985 7  95558649.157 7

  23290486.895 6 122392387.052 6  95370710.276 4  23290488.138 4  23290485.809 4


  20314758.070 8 106754889.777 8  83185693.198 9  20314759.594 9  20314757.605 9
  20314759.168 8  79719632.648 8

  21845352.688 7 114798157.304 7  89453142.935 6  21845353.615 6  21845352.528 6
  21845356.636 8  85725940.305 8

  21719083.541 7 114134650.336 7  88936146.025 6  21719084.986 6  21719083.313 6
  21719087.338 8  85230495.229 8

  24946564.275 6 131095086.133 6 102152033.712 3  24946567.625 3  24946563.632 3


  22469168.022 7 118076399.985 7  92007658.521 8  22469169.611 8  22469167.638 8


  24827894.743 5 130471480.818 5 101666117.345 5  24827899.703 5  24827894.149 5
  24827898.583 7  97430024.152 7

  20669971.096 8 108621483.747 8  84640156.180 9  20669973.949 9  20669970.994 9
  20669973.777 8  81113488.679 8

 23  8 31 13 34 30.0000000  0 10G30G03G20G09G11G04G16G07G26G06
  24448428.057 6 128477421.513 6 100112337.229 6  24448435.769 6  24448427.172 6
  24448436.131 7  95940999.570 7

  24369923.609 6 128064820.243 6  99790797.494 5  24369929.751 5  24369923.511 5
  24369930.583 7  95632852.960 7

  23272319.391 6 122296918.885 6  95296319.586 4  23272320.537 4  23272318.296 4


  20319752.009 8 106781132.626 8  83206142.173 9  20319753.546 9  20319751.544 9
  20319753.050 8  79739229.583 8

  21834897.284 7 114743212.658 7  89410328.951 6  21834898.026 6  21834897.119 6
  21834900.930 8  85684910.246 8

  21733259.924 7 114209148.156 7  88994196.257 5  21733261.246 5  21733259.679 5
  21733263.819 8  85286126.693 8

  24935992.209 6 131039528.122 6 102108741.900 3  24935994.879 3  24935991.575 3


  22454025.261 7 117996825.010 7  91945652.118 8  22454027.100 8  22454024.872 8


  24829317.862 5 130478964.712 5 101671948.953 5  24829323.840 5  24829317.165 5
  24829322.519 7  97435612.775 7

  20676322.929 8 108654862.577 8  84666165.637 9  20676326.320 9  20676322.831 9
  20676325.562 8  81138414.405 8

 23  8 31 13 35  0.0000000  0 10G30G03G20G09G11G04G16G07G26G06
  24427704.758 6 128368522.177 6 100027480.922 6  24427712.614 6  24427703.878 6
  24427712.603 7  95859679.007 7

  24388854.342 6 128164301.275 6  99868315.022 5  24388860.507 5  24388854.244 5
  24388861.510 7  95707140.557 7

  23254173.568 7 122201561.483 7  95222015.206 5  23254174.664 5  23254172.486 5


  20324826.790 8 106807800.745 8  83226922.525 9  20324828.465 9  20324826.325 9
  20324827.828 8  79759144.089 8

  21824538.864 7 114688777.953 7  89367912.321 6  21824539.563 6  21824538.704 6
  21824542.409 8  85644260.989 8

  21747486.743 7 114283910.110 7  89052452.307 5  21747487.914 5  21747486.498 5
  21747490.451 8  85341955.396 8

  24925504.899 6 130984419.335 6 102065800.097 3  24925507.956 3  24925504.175 3


  22438943.030 7 117917568.365 7  91883893.773 8  22438945.016 8  22438942.637 8


  24830847.439 5 130487003.396 5 101678212.867 5  24830853.536 5  24830846.755 5
  24830852.322 7  97441615.719 7

  20682786.316 8 108688827.565 8  84692631.840 9  20682789.533 9  20682786.214 9
  20682788.834 8  81163777.851 8

 23  8 31 13 35 30.0000000  0 10G30G03G20G09G11G04G16G07G26G06
  24406994.026 6 128259687.078 6  99942674.644 6  24407001.234 6  24406993.155 6
  24407001.884 7  95778406.382 7

  24407805.488 6 128263887.790 6  99945914.739 5  24407811.603 5  24407805.386 5
  24407812.222 7  95781506.908 7

  23236047.976 6 122106310.566 6  95147793.805 5  23236048.963 5  23236046.899 5


  20329981.173 8 106834887.044 8  83248028.734 9  20329982.863 9  20329980.713 9
  20329982.233 8  79779370.873 8

  21814276.285 7 114634849.416 7  89325890.111 6  21814277.527 6  21814276.125 6
  21814280.062 8  85603989.714 8

  21761762.104 7 114358928.514 7  89110908.192 5  21761763.562 5  21761761.859 5
  21761766.062 8  85397975.622 8

  24915102.819 6 130929756.405 6 102023205.729 3  24915106.043 3  24915102.135 3


  22423920.890 7 117838626.766 7  91822380.906 8  22423922.790 8  22423920.497 8


  24832481.698 5 130495591.144 5 101684904.619 5  24832487.911 5  24832481.019 5
  24832486.601 7  97448028.629 7

  20689359.730 8 108723371.939 8  84719549.515 9  20689363.002 9  20689359.632 9
  20689362.432 8  81189573.947 8

 23  8 31 13 36  0.0000000  0 10G30G03G20G09G11G04G16G07G26G06
  24386296.711 6 128150922.386 6  99857923.233 6  24386303.385 6  24386295.822 6
  24386304.333 7  95697186.353 7

  24426776.335 6 128363582.663 6 100023598.895 5  24426783.278 5  24426776.237 5
  24426783.786 7  95855954.202 7

  23217943.670 6 122011171.437 6  95073659.513 5  23217944.355 5  23217942.584 5


  20335215.716 8 106862394.180 8  83269462.869 9  20335217.257 9  20335215.251 9
  20335216.584 8  79799911.921 8

  21804111.152 8 114581432.952 8  89284266.917 6  21804112.216 6  21804110.987 6
  21804115.227 8  85564100.831 8

  21776086.904 7 114434205.476 7  89169565.545 5  21776088.260 5  21776086.645 5
  21776090.837 8  85454188.915 8

  24904787.242 6 130875545.992 6 101980963.962 3  24904789.847 3  24904786.581 3


  22408959.630 7 117760005.444 7  91761117.638 8  22408961.467 8  22408959.237 8


  24834221.312 5 130504731.711 5 101692027.112 5  24834227.141 5  24834220.673 5
  24834226.052 7  97454854.357 7

  20696044.107 8 108758498.665 8  84746920.970 9  20696047.421 9  20696044.009 9
  20696046.834 8  81215804.923 8

 23  8 31 13 36 30.0000000  0 10G30G03G20G09G11G04G16G07G26G06
  24365612.318 6 128042227.791 6  99773226.413 6  24365619.139 6  24365611.451 6
  24365620.027 7  95616018.643 7

  24445768.178 6 128463382.388 6 100101364.745 5  24445774.860 5  24445768.098 5
  24445775.257 7  95930479.764 7

  23199860.198 7 121916142.849 7  94999611.351 5  23199860.554 5  23199859.112 5


  20340529.253 8 106890318.200 8  83291221.851 9  20340531.113 9  20340528.788 9
  20340530.305 8  79820764.279 8

  21794043.782 7 114528527.871 7  89243042.204 6  21794044.463 6  21794043.617 6
  21794047.708 8  85524593.823 8

  21790460.186 7 114509736.455 7  89228420.834 5  21790461.453 5  21790459.932 5
  21790463.917 8  85510591.900 8

  24894556.539 6 130821787.981 6 101939074.700 3  24894559.980 3  24894555.770 3


  22394059.324 7 117681703.800 7  91700103.474 8  22394060.919 8  22394058.931 8


  24836065.979 5 130514422.376 5 101699578.276 5  24836071.199 5  24836065.483 5
  24836070.018 7  97462090.888 7

  20702838.746 8 108794204.155 8  84774743.412 9  20702841.672 9  20702838.648 9
  20702841.379 8  81242468.089 8

 23  8 31 13 37  0.0000000  0 10G30G03G20G09G11G04G16G07G26G06
  24344942.192 6 127933606.261 6  99688586.523 6  24344948.899 6  24344941.316 6
  24344949.583 7  95534905.465 7

  24464779.749 5 128563286.636 5 100179212.033 5  24464786.329 5  24464779.656 5
  24464786.512 7  96005083.386 7

  23181798.031 7 121821227.159 7  94925651.141 5  23181798.244 5  23181796.945 5


  20345922.439 8 106918658.496 8  83313305.202 9  20345924.037 9  20345921.979 9
  20345923.268 8  79841927.488 8

  21784074.524 7 114476136.835 7  89202218.044 6  21784074.434 6  21784074.368 6
  21784077.804 8  85485470.679 8

  21804881.084 7 114585520.346 7  89287473.199 5  21804882.766 5  21804880.834 5
  21804885.147 8  85567183.746 8

  24884414.302 6 130768485.495 6 101897540.406 3  24884416.966 3  24884413.560 3


  22379220.602 7 117603725.352 7  91639341.156 8  22379221.830 8  22379220.191 8


  24838013.847 6 130524663.756 6 101707558.545 5  24838020.252 5  24838013.186 5
  24838018.917 7  97469738.628 7

  20709743.198 8 108830488.077 8  84803016.583 9  20709746.417 9  20709743.096 9
  20709746.112 8  81269563.208 8

 23  8 31 13 37 30.0000000  0 10G30G03G20G09G11G04G16G07G26G06
  24324287.011 6 127825062.752 6  99604007.398 6  24324293.796 6  24324286.122 6
  24324294.132 7  95453850.509 7

  24483810.802 5 128663297.143 5 100257142.130 5  24483817.845 5  24483810.691 5
  24483818.054 7  96079766.346 7

  23163758.464 7 121726428.456 7  94851782.095 5  23163759.085 5  23163757.373 5


  20351394.883 8 106947416.399 8  83335713.956 9  20351396.283 9  20351394.418 9
  20351395.633 8  79863402.548 8

  21774203.030 7 114424264.400 7  89161797.985 6  21774203.750 6  21774202.865 6
  21774206.638 8  85446734.807 8

  21819350.592 7 114661557.831 7  89346723.166 5  21819352.278 5  21819350.338 5
  21819354.657 8  85623964.963 8

  24874358.201 6 130715643.582 6 101856364.971 3  24874361.283 3  24874357.455 3


  22364444.210 7 117526073.937 7  91578833.677 8  22364445.227 8  22364443.786 8


  24840069.019 5 130535458.358 5 101715969.907 5  24840074.490 5  24840068.317 5
  24840073.236 7  97477799.513 7

  20716758.438 8 108867352.036 8  84831741.723 9  20716761.629 9  20716758.331 9
  20716761.203 8  81297091.469 8

 23  8 31 13 38  0.0000000  0 10G30G03G20G09G11G04G16G07G26G06
  24303646.980 6 127716598.142 6  99519489.753 6  24303653.243 6  24303646.086 6
  24303654.256 7  95372854.469 7

  24502861.279 5 128763411.448 5 100335153.094 5  24502868.895 5  24502861.208 5
  24502869.260 7  96154526.821 7

  23145741.121 6 121631746.882 6  94778004.344 4  23145742.581 4  23145740.017 4


  20356946.205 8 106976589.224 8  83358446.037 9  20356947.545 9  20356945.740 9
  20356947.129 8  79885187.458 8

  21764430.950 7 114372911.047 7  89121782.416 6  21764432.398 6  21764430.776 6
  21764434.429 8  85408386.558 8

  21833867.643 7 114737845.696 7  89406168.234 5  21833869.426 5  21833867.393 5
  21833871.735 8  85680933.157 8

  24864392.162 6 130663263.499 6 101815549.412 3  24864393.627 3  24864391.483 3


  22349729.859 7 117448750.578 7  91518581.829 8  22349731.145 8  22349729.439 8


  24842227.980 5 130546804.647 5 101724811.135 5  24842233.694 5  24842227.448 5
  24842232.305 7  97486272.339 7

  20723883.193 8 108904793.534 8  84860916.898 9  20723886.265 9  20723883.086 9
  20723886.013 8  81325051.003 8

 23  8 31 13 38 30.0000000  0 10G30G03G20G09G11G04G16G07G26G06
  24283021.624 6 127608212.912 6  99435033.937 6  24283028.122 6  24283020.730 6
  24283028.896 7  95291917.695 7

  24521932.212 5 128863626.772 5 100413242.777 5  24521939.256 5  24521932.128 5
  24521939.791 7  96229362.726 7

  23127746.307 7 121537182.112 7  94704317.599 5  23127747.512 5  23127745.207 5


  20362575.978 8 107006173.783 8  83381498.946 9  20362577.353 9  20362575.513 9
  20362576.889 8  79907279.833 8

  21754757.519 7 114322076.854 7  89082171.388 6  21754759.038 6  21754757.345 6
  21754760.867 8  85370425.993 8

  21848431.791 7 114814380.266 7  89465805.537 5  21848433.496 5  21848431.541 5
  21848435.842 8  85738085.558 8

  24854510.835 6 130611345.976 6 101775094.283 3  24854514.523 3  24854510.102 3


  22335077.958 7 117371755.303 7  91458585.637 8  22335079.443 8  22335077.538 8


  24844491.646 5 130558700.547 5 101734080.645 5  24844497.562 5  24844491.132 5
  24844495.964 7  97495155.627 7

  20731117.514 8 108942809.704 8  84890539.870 9  20731120.555 9  20731117.412 9
  20731120.124 8  81353439.688 8

 23  8 31 13 39  0.0000000  0 10G30G03G20G09G11G04G16G07G26G06
  24262412.463 6 127499912.684 6  99350644.350 6  24262418.890 6  24262411.578 6
  24262419.920 7  95211044.392 7

  24541022.205 5 128963945.447 5 100491412.993 5  24541029.498 5  24541022.116 5
  24541030.059 7  96304275.806 7

  23109774.514 7 121442739.008 7  94630725.650 5  23109775.280 5  23109773.441 5


  20368284.426 8 107036172.046 8  83404874.224 9  20368285.871 9  20368283.966 9
  20368285.375 8  79929681.136 8

  21745183.939 8 114271767.087 8  89042969.002 6  21745185.037 6  21745183.770 6
  21745187.226 8  85332857.040 8

  21863042.729 7 114891162.992 7  89525636.205 5  21863044.773 5  21863042.475 5
  21863047.248 8  85795423.284 8

  24844720.129 6 130559896.581 6 101735003.916 3  24844723.721 3  24844719.298 3


  22320489.665 7 117295093.321 7  91398849.156 8  22320491.113 8  22320489.241 8


  24846860.260 5 130571149.212 5 101743780.875 5  24846866.146 5  24846859.769 5
  24846864.960 7  97504451.681 7

  20738461.632 8 108981402.751 8  84920612.353 9  20738464.852 9  20738461.525 9
  20738464.294 8  81382259.149 8

 23  8 31 13 39 30.0000000  0 10G30G03G20G09G11G04G16G07G26G06
  24241818.637 6 127391695.014 6  99266319.083 6  24241825.719 6  24241817.752 6
  24241826.217 7  95130232.712 7

  24560130.706 5 129064361.701 5 100569659.234 5  24560138.409 5  24560130.639 5
  24560138.926 7  96379261.757 7

  23091824.795 7 121348414.294 7  94557225.925 5  23091825.016 5  23091823.727 5


  20374070.498 8 107066577.925 8  83428567.125 9  20374071.854 9  20374070.038 9
  20374071.357 8  79952386.832 8

  21735709.153 8 114221978.726 8  89004172.911 6  21735710.641 6  21735708.984 6
  21735712.650 8  85295677.447 8

  21877700.382 7 114968187.283 7  89585655.112 5  21877701.977 5  21877700.141 5
  21877704.551 8  85852941.388 8

  24835019.252 6 130508913.468 6 101695276.895 3  24835021.809 3  24835018.528 3


  22305964.215 7 117218761.819 7  91339370.183 8  22305965.489 8  22305963.795 8


  24849334.018 5 130584145.656 5 101753907.944 5  24849339.196 5  24849333.477 5
  24849338.141 7  97514156.767 7

  20745914.094 8 109020566.770 8  84951129.752 9  20745917.258 9  20745913.987 9
  20745916.837 8  81411504.985 8

 23  8 31 13 40  0.0000000  0 10G30G03G20G09G11G04G16G07G26G06
  24221243.243 6 127283568.920 6  99182065.168 6  24221249.625 6  24221242.358 6
  24221250.799 7  95049489.451 7

  24579259.429 5 129164881.368 5 100647986.061 5  24579266.949 5  24579259.380 5
  24579267.340 7  96454324.929 7

  23073898.883 6 121254216.202 6  94483824.906 4  23073900.083 4  23073897.783 4


  20379934.882 8 107097396.856 8  83452581.882 9  20379936.483 9  20379934.422 9
  20379936.062 8  79975400.973 8

  21726335.816 7 114172720.430 7  88965789.851 6  21726336.726 6  21726335.642 6
  21726339.134 8  85258893.683 8

  21892404.431 7 115045458.086 7  89645866.108 5  21892406.083 5  21892404.199 5
  21892408.767 8  85910643.585 8

  24825407.030 6 130458405.696 6 101655920.264 3  24825410.348 3  24825406.320 3


  22291503.122 7 117142769.540 7  91280155.546 8  22291504.165 8  22291502.702 8


  24851913.222 5 130597696.191 5 101764466.787 5  24851917.971 5  24851912.802 5
  24851916.756 7  97524275.658 7

  20753476.698 8 109060307.407 8  84982096.462 9  20753479.790 9  20753476.591 9
  20753479.145 8  81441181.413 8

 23  8 31 13 40 30.0000000  0 10G30G03G20G09G11G04G16G07G26G06
  24200684.057 6 127175531.149 6  99097880.075 6  24200691.016 6  24200683.190 6
  24200691.348 7  94968812.085 7

  24598406.377 5 129265497.807 5 100726388.284 5  24598413.828 5  24598406.328 5
  24598414.179 7  96529460.345 7

  23055997.501 7 121160140.676 7  94410519.391 5  23055998.436 5  23055996.406 5


  20385876.863 8 107128621.839 8  83476913.038 9  20385878.320 9  20385876.403 9
  20385878.001 8  79998718.328 8

  21717062.768 7 114123988.409 7  88927816.877 6  21717063.110 6  21717062.594 6
  21717065.824 8  85222502.914 8

  21907154.203 7 115122967.863 7  89706263.311 5  21907155.698 5  21907153.962 5
  21907158.357 8  85968524.220 8

  24815885.672 6 130408369.950 6 101616931.440 3  24815889.064 3  24815884.935 3


  22277106.078 7 117067112.844 7  91221202.389 8  22277107.091 8  22277105.658 8


  24854594.869 6 130611795.204 6 101775453.010 5  24854601.030 5  24854594.373 5
  24854599.827 7  97534804.135 7

  20761147.337 8 109100617.801 8  85013507.136 9  20761150.755 9  20761147.235 9
  20761150.137 8  81471283.307 8

 23  8 31 13 41  0.0000000  0 10G30G03G20G09G11G04G16G07G26G06
  24180143.105 6 127067586.716 6  99013767.687 6  24180149.417 6  24180142.247 6
  24180149.775 7  94888204.427 7

  24617571.760 5 129366212.800 5 100804867.328 5  24617579.628 5  24617571.720 5
  24617579.690 7  96604669.413 7

  23038119.759 7 121066192.090 7  94337312.781 5  23038120.349 5  23038118.664 5


  20391896.383 8 107160254.312 8  83501561.719 9  20391897.767 9  20391895.923 9
  20391897.418 8  80022339.983 8

  21707889.941 8 114075787.272 8  88890257.573 6  21707890.428 6  21707889.772 6
  21707893.520 8  85186508.585 8

  21921949.374 7 115200717.579 7  89766847.481 5  21921950.822 5  21921949.133 5
  21921953.711 8  86026584.038 8

  24806454.966 6 130358811.061 6 101578314.188 3  24806458.061 3  24806454.171 3


  22262773.757 8 116991796.331 8  91162514.306 8  22262774.712 8  22262773.333 8


  24857382.570 5 130626445.015 5 101786868.446 5  24857388.748 5  24857381.953 5
  24857387.648 7  97545743.923 7

  20768927.014 8 109141499.564 8  85045363.037 9  20768930.135 9  20768926.907 9
  20768929.695 8  81501811.874 8

 23  8 31 13 41 30.0000000  0 10G30G03G20G09G11G04G16G07G26G06
  24159619.964 6 126959738.347 6  98929730.171 6  24159626.838 6  24159619.101 6
  24159626.680 7  94807668.500 7

  24636756.108 5 129467025.776 5 100883422.707 5  24636763.874 5  24636756.086 5
  24636763.868 7  96679951.610 7

  23020265.657 7 120972372.310 7  94264206.530 5  23020266.675 5  23020264.571 5


  20397993.202 8 107192293.306 8  83526527.167 9  20397994.673 9  20397992.742 9
  20397994.178 8  80046265.207 8

  21698818.831 8 114028119.219 8  88853113.660 6  21698819.209 6  21698818.662 6
  21698822.756 8  85150912.343 8

  21936790.328 7 115278705.799 7  89827617.495 5  21936791.356 5  21936790.105 5
  21936794.372 8  86084821.957 8

  24797115.451 6 130309731.953 6 101540070.786 3  24797118.142 3  24797114.557 3


  22248506.841 7 116916822.571 7  91104093.294 8  22248507.504 8  22248506.421 8


  24860275.677 5 130641645.752 5 101798713.166 5  24860281.577 5  24860275.092 5
  24860280.200 7  97557095.125 7

  20776815.034 8 109182951.880 8  85077663.523 9  20776818.517 9  20776814.927 9
  20776817.665 8  81532766.496 8

 23  8 31 13 42  0.0000000  0 10G30G03G20G09G11G04G16G07G26G06
  24139115.355 6 126851987.027 6  98845768.262 6  24139122.198 6  24139114.488 6
  24139122.373 7  94727205.016 7

  24655957.871 5 129567934.324 5 100962052.565 5  24655966.520 5  24655957.827 5
  24655966.374 7  96755305.153 7

  23002436.909 7 120878681.547 7  94191200.806 4  23002436.847 4  23002435.805 4


  20404166.843 8 107224736.039 8  83551807.221 9  20404168.337 9  20404166.383 9
  20404167.896 8  80070491.928 8

  21689849.868 7 113980984.620 7  88816385.424 6  21689850.231 6  21689849.699 6
  21689853.410 8  85115714.458 8

  21951675.525 7 115356929.289 7  89888570.829 5  21951676.788 5  21951675.297 5
  21951679.742 8  86143235.557 8

  24787867.512 5 130261133.880 5 101502202.205 3  24787870.176 3  24787866.734 3


  22234304.750 7 116842191.876 7  91045939.600 8  22234305.568 8  22234304.339 8


  24863272.627 5 130657395.625 5 101810985.781 5  24863278.821 5  24863272.042 5
  24863277.327 7  97568856.360 7

  20784811.307 8 109224972.102 8  85110406.532 9  20784815.016 9  20784811.200 9
  20784814.008 8  81564145.214 8

 23  8 31 13 42 30.0000000  0 10G30G03G20G09G11G04G16G07G26G06
  24118630.045 6 126744336.078 6  98761884.575 6  24118636.812 6  24118629.165 6
  24118637.095 7  94646816.497 7

  24675179.240 5 129668938.502 5 101040756.936 5  24675187.191 5  24675179.182 5
  24675186.991 7  96830730.154 7

  22984633.334 7 120785122.392 7  94118297.643 5  22984633.830 5  22984632.239 5


  20410417.310 8 107257582.266 8  83577401.691 9  20410418.702 9  20410416.850 9
  20410418.364 8  80095019.955 8

  21680982.580 7 113934386.381 7  88780075.129 6  21680983.125 6  21680982.411 6
  21680985.895 8  85080917.096 8

  21966605.831 7 115435387.347 7  89949706.936 5  21966607.021 5  21966605.599 5
  21966609.897 8  86201824.320 8

  24778711.935 6 130213020.227 6 101464711.087 3  24778714.745 3  24778711.184 3


  22220168.936 7 116767907.315 7  90988055.614 8  22220169.613 8  22220168.534 8


  24866373.735 5 130673695.264 5 101823686.799 5  24866380.606 5  24866373.150 5
  24866378.915 7  97581028.180 7

  20792915.642 8 109267560.061 8  85143591.939 9  20792918.999 9  20792915.540 9
  20792918.152 8  81595947.890 8

 23  8 31 13 43  0.0000000  0 10G30G03G20G09G11G04G16G07G26G06
  24098164.422 6 126636787.657 6  98678080.766 6  24098170.379 6  24098163.537 6
  24098171.281 7  94566504.546 7

  24694417.208 5 129770037.271 5 101119535.013 5  24694425.733 5  24694417.155 5
  24694425.648 7  96906225.774 7

  22966854.739 7 120691696.455 7  94045498.278 5  22966855.463 5  22966853.648 5


  20416744.084 8 107290830.440 8  83603309.360 9  20416745.664 9  20416743.624 9
  20416745.278 8  80119848.139 8

  21672217.159 8 113888326.072 8  88744184.004 6  21672218.385 6  21672216.985 6
  21672220.758 8  85046521.441 8

  21981580.307 7 115514077.960 7  90011024.258 5  21981581.396 5  21981580.088 5
  21981584.315 8  86260586.756 8

  24769648.194 6 130165393.132 6 101427599.121 3  24769651.651 3  24769647.296 3


  22206099.224 7 116693970.538 7  90930442.623 8  22206099.608 8  22206098.840 8


  24869580.978 5 130690544.211 5 101836815.847 5  24869587.029 5  24869580.276 5
  24869585.145 7  97593610.205 7

  20801127.409 8 109310714.358 8  85177218.644 9  20801131.192 9  20801127.302 9
  20801130.046 8  81628173.482 8

 23  8 31 13 43 30.0000000  0 10G30G03G20G09G11G04G16G07G26G06
  24077718.389 6 126529343.752 6  98594358.400 6  24077724.055 6  24077717.491 6
  24077725.057 7  94486270.665 7

  24713673.428 5 129871229.115 5 101198385.631 5  24713681.812 5  24713673.370 5
  24713682.045 7  96981790.931 7

  22949101.864 7 120598404.723 7  93972803.509 5  22949102.786 5  22949100.778 5


  20423147.401 8 107324478.863 8  83629528.912 9  20423148.837 9  20423146.945 9
  20423148.343 8  80144975.207 8

  21663554.833 8 113842805.085 8  88708713.137 6  21663555.899 6  21663554.650 6
  21663558.464 8  85012528.525 8

  21996598.525 7 115592999.006 7  90072521.132 5  21996599.429 5  21996598.311 5
  21996602.560 8  86319521.249 8

  24760678.227 5 130118254.366 5 101390867.657 3  24760681.408 3  24760677.257 3


  22192096.146 7 116620383.153 7  90873101.878 8  22192096.312 8  22192095.762 8


  24872892.620 5 130707941.712 5 101850372.359 5  24872897.393 5  24872892.035 5
  24872895.750 7  97606601.828 7

  20809446.927 8 109354433.280 8  85211285.309 9  20809450.551 9  20809446.825 9
  20809449.588 8  81660820.700 8

 23  8 31 13 44  0.0000000  0 10G30G03G20G09G11G04G16G07G26G06
  24057292.971 6 126422007.785 6  98510720.137 6  24057298.497 6  24057292.064 6
  24057299.926 8  94406117.358 8

  24732948.031 5 129972514.342 5 101277308.999 5  24732955.737 5  24732947.951 5
  24732956.258 7  97057425.773 7

  22931375.431 7 120505249.978 7  93900215.480 5  22931376.057 5  22931374.340 5


  20429626.393 8 107358527.211 8  83656060.095 9  20429627.955 9  20429625.937 9
  20429627.493 8  80170400.923 8

  21654995.885 8 113797826.257 8  88673664.722 6  21654996.243 6  21654995.702 6
  21654999.288 8  84978940.463 8

  22011660.194 7 115672149.715 7  90134196.969 5  22011661.300 5  22011659.966 5
  22011664.545 8  86378627.244 8

  24751802.885 5 130071607.558 5 101354519.536 3  24751804.518 3  24751802.049 3


  22178159.781 7 116547148.148 7  90816035.717 8  22178160.135 8  22178159.397 8


  24876306.044 5 130725888.363 5 101864356.763 5  24876312.271 5  24876305.441 5
  24876310.929 7  97620003.553 7

  20817873.778 8 109398716.634 8  85245791.803 9  20817876.987 9  20817873.676 9
  20817876.424 8  81693889.418 8

 23  8 31 13 44 30.0000000  0 10G30G03G20G09G11G04G16G07G26G06
  24036888.254 6 126314782.262 6  98427167.917 6  24036894.066 6  24036887.351 6
  24036894.959 7  94326046.549 7

  24752239.986 5 130073892.018 5 101356304.405 5  24752247.368 5  24752239.906 5
  24752248.027 7  97133129.658 7

  22913674.861 7 120412233.861 7  93827735.447 5  22913674.958 5  22913673.766 5


  20436181.479 8 107392974.378 8  83682902.045 9  20436183.014 9  20436181.023 9
  20436182.580 8  80196124.458 8

  21646539.962 8 113753391.555 8  88639040.298 6  21646540.739 6  21646539.784 6
  21646543.580 8  84945758.727 8

  22026765.801 7 115751528.568 7  90196050.577 5  22026766.745 5  22026765.565 5
  22026769.877 8  86437903.611 8

  24743019.645 5 130025455.078 5 101318556.620 3  24743022.291 3  24743018.908 3


  22164291.102 7 116474267.675 7  90759245.806 8  22164291.196 8  22164290.713 8


  24879825.068 5 130744383.937 5 101878768.907 5  24879832.052 5  24879824.451 5
  24879830.433 7  97633815.189 7

  20826407.950 8 109443563.311 8  85280737.245 9  20826411.271 9  20826407.848 9
  20826410.578 8  81727378.795 8

 23  8 31 13 45  0.0000000  0 10G30G03G20G09G11G04G16G07G26G06
  24016505.543 6 126207670.812 6  98343704.618 6  24016511.751 6  24016504.640 6
  24016512.409 7  94246060.922 7

  24771549.143 5 130175362.514 5 101435372.137 5  24771556.778 5  24771549.067 5
  24771557.379 7  97208902.870 7

  22896001.164 7 120319359.572 7  93755365.944 5  22896002.056 5  22896000.069 5


  20442812.524 8 107427820.234 8  83710054.657 9  20442813.969 9  20442812.068 9
  20442813.502 8  80222145.713 8

  21638188.075 8 113709503.969 8  88604842.196 6  21638189.390 6  21638187.901 6
  21638191.952 8  84912985.552 8

  22041914.258 7 115831135.058 7  90258081.569 5  22041915.341 5  22041914.035 5
  22041918.514 8  86497349.963 8

  24734331.741 5 129979800.979 5 101282982.072 3  24734334.467 3  24734331.013 3


  22150489.981 7 116401744.618 7  90702734.396 8  22150490.319 8  22150489.588 8


  24883450.311 5 130763429.232 5 101893609.390 5  24883456.155 5  24883449.681 5
  24883454.679 7  97648037.346 7

  20835049.169 8 109488973.246 8  85316121.584 9  20835052.708 9  20835049.062 9
  20835051.919 8  81761288.784 8

 23  8 31 13 45 30.0000000  0 10G30G03G20G09G11G04G16G07G26G06
  23996143.273 6 126100668.148 6  98260326.112 6  23996149.982 6  23996142.370 6
  23996150.398 7  94166156.553 7

  24790874.665 6 130276917.251 6 101514505.506 5  24790882.348 5  24790874.572 5
  24790882.777 7  97284738.975 7

  22878353.900 7 120226620.962 7  93683102.172 5  22878354.709 5  22878352.796 5


  20449517.671 8 107463055.815 8  83737510.954 9  20449518.977 9  20449517.215 9
  20449518.603 8  80248457.989 8

  21629940.112 8 113666157.554 8  88571065.786 6  21629940.531 6  21629939.943 6
  21629943.390 8  84880616.502 8

  22057104.459 7 115910959.783 7  90320282.606 5  22057105.554 5  22057104.236 5
  22057108.722 8  86556959.277 8

  24725737.527 5 129934639.314 5 101247791.240 3  24725740.502 3  24725736.696 3


  22136756.311 7 116329573.510 7  90646497.236 8  22136756.935 8  22136755.914 8


  24887178.288 5 130783016.180 5 101908871.970 5  24887183.208 5  24887177.806 5
  24887181.983 7  97662663.959 7

  20843795.806 8 109534937.443 8  85351937.822 9  20843799.237 9  20843795.699 9
  20843798.713 8  81795612.668 8

 23  8 31 13 46  0.0000000  0 10G30G03G20G09G11G04G16G07G26G06
  23975804.457 6 125993786.147 6  98177041.630 6  23975810.770 6  23975803.550 6
  23975811.039 8  94086342.304 8

  24810218.053 6 130378564.718 6 101593711.144 6  24810225.448 6  24810217.942 6
  24810225.725 7  97360644.337 7

  22860734.333 7 120134029.389 7  93610952.988 5  22860735.271 5  22860733.202 5


  20456298.517 8 107498689.233 8  83765277.252 9  20456299.790 9  20456298.057 9
  20456299.450 8  80275067.356 8

  21621796.631 8 113623363.526 8  88537719.809 6  21621796.797 6  21621796.462 6
  21621800.064 8  84848659.937 8

  22072337.727 7 115991010.454 7  90382659.707 5  22072338.897 5  22072337.508 5
  22072341.825 8  86616737.324 8

  24717238.546 5 129889982.008 5 101212993.430 3  24717242.289 3  24717237.567 3


  22123091.709 7 116257765.711 7  90590543.174 8  22123092.506 8  22123091.312 8


  24891009.277 6 130803153.719 6 101924563.559 5  24891015.242 5  24891008.696 5
  24891014.028 7  97677701.747 7

  20852649.506 8 109581464.047 8  85388192.296 9  20852653.318 9  20852649.395 9
  20852652.525 8  81830356.541 8

 23  8 31 13 46 30.0000000  0 10G30G03G20G09G11G04G16G07G26G06
  23955488.107 6 125887022.922 6  98093849.692 6  23955494.310 6  23955487.218 6
  23955494.459 8  94006616.719 8

  24829577.203 6 130480299.819 6 101672985.071 6  24829585.277 6  24829577.083 6
  24829585.410 7  97436615.151 7

  22843142.235 7 120041582.260 7  93538916.333 5  22843142.408 5  22843141.100 5


  20463153.823 8 107534714.983 8  83793349.259 9  20463155.520 9  20463153.363 9
  20463154.922 8  80301969.694 8

  21613757.656 8 113581119.365 8  88504802.302 6  21613757.930 6  21613757.482 6
  21613761.162 8  84817113.993 8

  22087612.596 7 116071281.209 7  90445208.300 5  22087614.076 5  22087612.377 5
  22087616.949 8  86676679.713 8

  24708837.319 5 129845827.352 5 101178587.322 3  24708839.728 3  24708836.340 3


  22109495.705 7 116186318.780 7  90534870.309 8  22109496.600 8  22109495.303 8


  24894945.526 5 130823837.218 5 101940680.588 5  24894951.263 5  24894944.918 5
  24894949.904 7  97693147.232 7

  20861609.432 8 109628547.480 8  85424880.664 9  20861612.616 9  20861609.325 9
  20861612.225 8  81865516.219 8

 23  8 31 13 47  0.0000000  0 10G30G03G20G09G11G04G16G07G26G06
  23935194.968 6 125780381.920 6  98010752.975 6  23935200.511 6  23935194.088 6
  23935201.232 7  93926982.422 7

  24848954.244 6 130582122.709 6 101752327.392 6  24848961.730 6  24848954.119 6
  24848961.905 7  97512651.495 7

  22825577.825 7 119949282.254 7  93466994.300 5  22825577.492 5  22825576.703 5


  20470084.024 8 107571132.752 8  83821726.735 9  20470085.679 9  20470083.568 9
  20470084.988 8  80329164.773 8

  21605824.113 7 113539427.874 7  88472315.445 6  21605824.736 6  21605823.935 6
  21605827.594 8  84785980.760 8

  22102929.333 7 116151771.323 7  90507927.816 5  22102930.997 5  22102929.105 5
  22102933.689 8  86736785.911 8

  24700532.086 5 129802178.565 5 101144575.408 3  24700533.450 3  24700531.416 3


  22095968.791 8 116115235.835 8  90479481.063 8  22095969.868 8  22095968.389 8


  24898985.058 5 130845067.145 5 101957223.389 5  24898990.989 5  24898984.491 5
  24898989.664 7  97709000.770 7

  20870675.058 8 109676187.410 8  85462002.670 9  20870678.011 9  20870674.951 9
  20870677.773 8  81901091.465 8

 23  8 31 13 47 30.0000000  0 10G30G03G20G09G11G04G16G07G26G06
  23914925.289 6 125673865.404 6  97927753.256 6  23914931.108 6  23914924.400 6
  23914931.317 7  93847441.071 7

  24868346.160 6 130684032.208 6 101831737.205 6  24868354.571 6  24868346.044 6
  24868354.788 7  97588752.533 7

  22808041.880 7 119857130.917 7  93395188.138 5  22808042.312 5  22808040.763 5


  20477088.397 8 107607941.073 8  83850408.535 9  20477089.932 9  20477087.941 9
  20477089.374 8  80356651.495 8

  21597995.880 8 113498290.558 8  88440260.411 6  21597996.736 6  21597995.702 6
  21597999.477 8  84755261.355 8

  22118287.332 7 116232479.020 7  90570816.884 5  22118289.186 5  22118287.087 5
  22118291.979 8  86797054.588 8

  24692321.177 5 129759037.533 5 101110959.183 3  24692324.289 3  24692320.444 3


  22082511.748 8 116044518.440 8  90424376.659 8  22082512.840 8  22082511.328 8


  24903128.798 5 130866842.915 5 101974191.537 5  24903134.792 5  24903128.222 5
  24903133.504 7  97725261.894 7

  20879845.970 8 109724382.323 8  85499557.122 9  20879849.258 9  20879845.859 9
  20879848.987 8  81937081.147 8

 23  8 31 13 48  0.0000000  0 10G30G03G20G09G11G04G16G07G26G06
  23894679.559 6 125567474.327 6  97844851.291 6  23894685.574 6  23894678.656 6
  23894685.595 7  93767993.373 7

  24887755.800 6 130786026.032 6 101911212.717 6  24887763.517 6  24887755.693 6
  24887763.753 7  97664916.514 7

  22790534.675 7 119765128.654 7  93323498.149 5  22790535.202 5  22790533.567 5


  20484166.527 8 107645137.193 8  83879392.515 9  20484168.059 9  20484166.071 9
  20484167.559 8  80384427.809 8

  21590273.109 8 113457707.663 8  88408637.395 6  21590273.674 6  21590272.931 6
  21590276.781 8  84724955.968 8

  22133686.452 7 116313401.094 7  90633872.997 5  22133688.074 5  22133686.193 5
  22133690.958 8  86857483.350 8

  24684207.841 5 129716405.352 5 101077739.409 3  24684211.687 3  24684206.902 3


  22069124.252 8 115974167.109 8  90369557.500 8  22069125.236 8  22069123.805 8


  24907376.271 5 130889162.503 5 101991583.428 5  24907382.025 5  24907375.614 5
  24907380.767 7  97741929.102 7

  20889122.407 8 109773129.327 8  85537541.776 9  20889125.165 9  20889122.300 9
  20889125.356 8  81973483.102 8

 23  8 31 13 48 30.0000000  0 10G30G03G20G09G11G04G16G07G26G06
  23874458.408 6 125461212.490 6  97762050.048 6  23874464.483 6  23874457.496 6
  23874464.309 7  93688642.221 7

  24907180.733 6 130888104.596 6 101990754.263 6  24907188.581 6  24907180.635 6
  24907188.891 7  97741143.784 7

  22773056.059 7 119673278.387 7  93251926.581 5  22773056.131 5  22773054.964 5


  20491318.661 8 107682721.158 8  83908678.709 9  20491320.072 9  20491318.205 9
  20491319.516 8  80412493.743 8

  21582656.640 8 113417682.223 8  88377448.757 6  21582657.024 6  21582656.462 6
  21582660.272 8  84695066.860 8

  22149126.328 7 116394537.307 7  90697095.976 5  22149127.942 5  22149126.065 5
  22149130.776 8  86918072.021 8

  24676192.281 5 129674285.315 5 101044918.752 2  24676195.704 2  24676191.249 2


  22055807.175 8 115904185.188 8  90315026.197 8  22055807.931 8  22055806.715 8


  24911727.527 5 130912026.714 5 102009399.687 5  24911732.903 5  24911726.955 5
  24911731.797 7  97759003.044 7

  20898503.580 8 109822428.398 8  85575956.616 9  20898506.443 9  20898503.469 9
  20898506.733 8  82010297.314 8

 23  8 31 13 49  0.0000000  0 10G30G03G20G09G11G04G16G07G26G06
  23854262.171 6 125355082.410 6  97679351.475 6  23854268.374 6  23854261.237 6
  23854268.240 7  93609389.452 7

  24926621.858 6 130990267.140 6 102070361.234 6  24926629.591 6  24926621.760 6
  24926630.104 7  97817433.767 7

  22755606.572 7 119581582.240 7  93180475.093 5  22755606.470 5  22755605.490 5


  20498544.234 8 107720691.779 8  83938266.195 9  20498545.697 9  20498543.778 9
  20498545.088 8  80440848.418 8

  21575146.470 8 113378216.069 8  88346695.926 6  21575147.349 6  21575146.296 6
  21575150.113 8  84665595.396 8

  22164606.584 7 116475886.104 7  90760484.600 5  22164608.242 5  22164606.321 5
  22164610.983 8  86978819.447 8

  24668276.258 5 129632680.049 5 101012499.231 2  24668278.495 2  24668275.257 2


  22042560.822 7 115834574.608 7  90260784.254 8  22042561.315 8  22042560.357 8


  24916180.997 6 130935435.066 6 102027639.973 5  24916187.262 5  24916180.367 5
  24916186.213 7  97776483.340 7

  20907989.886 8 109872278.258 8  85614800.635 9  20907993.130 9  20907989.779 9
  20907992.837 8  82047522.827 8

 23  8 31 13 49 30.0000000  0 10G30G03G20G09G11G04G16G07G26G06
  23834091.632 6 125249085.635 6  97596756.779 7  23834097.830 7  23834090.680 7
  23834098.048 7  93530236.229 7

  24946078.176 6 131092511.875 6 102150032.245 6  24946086.156 6  24946078.047 6
  24946086.820 7  97893785.093 7

  22738186.383 7 119490040.744 7  93109144.116 5  22738186.719 5  22738185.315 5


  20505842.987 8 107759046.843 8  83968153.249 9  20505844.490 9  20505842.531 9
  20505843.831 8  80469490.173 8

  21567742.700 8 113339309.924 8  88316379.466 6  21567744.079 6  21567742.526 6
  21567746.310 8  84636542.128 8

  22180126.638 7 116557444.918 7  90824036.877 5  22180128.504 5  22180126.366 5
  22180131.140 8  87039723.699 8

  24660458.375 4 129591590.617 4 100980481.593 2  24660459.334 2  24660457.557 2


  22029385.396 8 115765336.382 8  90206832.451 8  22029385.406 8  22029384.940 8


  24920739.422 5 130959386.158 5 102046303.181 5  24920744.907 5  24920738.720 5
  24920743.917 7  97794368.908 7

  20917580.259 8 109922676.541 8  85654071.998 9  20917583.660 9  20917580.152 9
  20917583.371 8  82085157.881 8

 23  8 31 13 50  0.0000000  0 10G30G03G20G09G11G04G16G07G26G06
  23813947.208 6 125143226.086 6  97514269.003 7  23813953.074 7  23813946.256 7
  23813953.536 8  93451185.488 8

  24965550.218 6 131194839.405 6 102229767.773 6  24965558.611 6  24965550.066 6
  24965559.256 7  97970198.268 7

  22720796.832 7 119398657.302 7  93037936.310 5  22720796.737 5  22720795.759 5


  20513214.853 8 107797786.578 8  83998340.048 9  20513216.458 9  20513214.397 9
  20513215.842 8  80498419.184 8

  21560446.083 8 113300966.968 8  88286501.860 6  21560447.481 6  21560445.914 6
  21560449.760 8  84607909.421 8

  22195686.787 7 116639213.677 7  90887752.743 5  22195688.667 5  22195686.506 5
  22195691.284 8  87100784.729 8

  24652736.624 5 129551020.708 5 100948868.811 2  24652739.086 2  24652735.936 2


  22016281.105 8 115696473.842 8  90153173.388 8  22016280.826 8  22016280.663 8


  24925400.273 5 130983880.826 5 102065389.968 5  24925406.128 5  24925399.616 5
  24925405.046 7  97812660.426 7

  20927275.167 8 109973623.347 8  85693770.780 9  20927278.626 9  20927275.060 9
  20927278.315 8  82123202.544 8

 23  8 31 13 50 30.0000000  0 10G30G03G20G09G11G04G16G07G26G06
  23793829.331 6 125037505.209 6  97431889.288 6  23793835.088 6  23793828.366 6
  23793835.258 8  93372238.308 8

  24985039.001 6 131297247.883 6 102309566.369 6  24985046.683 6  24985038.854 6
  24985047.097 7  98046671.874 7

  22703437.202 7 119307432.956 7  92966852.469 5  22703437.540 5  22703436.138 5


  20520659.535 8 107836908.700 8  84028824.809 9  20520661.114 9  20520659.075 9
  20520660.461 8  80527633.743 8

  21553257.300 8 113263187.833 8  88257063.593 6  21553258.159 6  21553257.131 6
  21553260.675 8  84579697.748 8

  22211285.981 7 116721189.768 7  90951630.171 5  22211288.286 5  22211285.722 5
  22211290.769 8  87162000.591 8

  24645115.357 5 129510971.803 5 100917662.000 2  24645118.321 2  24645114.696 2


  22003248.437 7 115627987.734 7  90099807.657 8  22003248.514 8  22003247.995 8


  24930165.011 5 131008917.615 5 102084899.173 5  24930170.696 5  24930164.475 5
  24930169.492 7  97831356.745 7

  20937074.005 8 110025116.203 8  85733895.051 9  20937077.368 9  20937073.898 9
  20937077.096 8  82161654.968 8

 23  8 31 13 51  0.0000000  0 10G30G03G20G09G11G04G16G07G26G06
  23773737.129 6 124931922.191 6  97349616.979 6  23773743.058 6  23773736.159 6
  23773743.085 8  93293394.068 8

  25004540.367 6 131399733.158 6 102389424.801 6  25004549.420 6  25004540.229 6
  25004549.670 7  98123202.813 7

  22686107.707 7 119216366.176 7  92895891.401 5  22686107.953 5  22686106.625 5


  20528176.231 8 107876408.606 8  84059603.948 9  20528177.703 9  20528175.775 9
  20528177.042 8  80557130.417 8

  21546175.299 8 113225970.831 8  88228063.352 6  21546176.043 6  21546175.130 6
  21546178.547 8  84551905.850 8

  22226924.315 7 116803368.270 7  91015665.319 5  22226926.391 5  22226924.074 5
  22226928.846 8  87223367.597 8

  24637591.617 5 129471442.552 5 100886860.086 2  24637595.692 2  24637590.804 2


  21990287.359 7 115559876.800 7  90046734.284 8  21990287.952 8  21990286.926 8


  24935031.131 5 131034492.499 5 102104827.690 5  24935037.330 5  24935030.465 5
  24935036.013 7  97850454.910 7

  20946975.687 8 110077150.331 8  85774441.099 9  20946978.758 9  20946975.580 9
  20946978.607 8  82200511.587 8

 23  8 31 13 51 30.0000000  0 10G30G03G20G09G11G04G16G07G26G06
  23753673.016 6 124826485.477 6  97267458.682 6  23753678.869 6  23753672.051 6
  23753678.767 8  93214659.086 8

  25024058.655 6 131502300.307 6 102469347.025 6  25024067.607 6  25024058.544 6
  25024067.868 7  98199794.920 7

  22668810.111 7 119125464.743 7  92825059.185 5  22668810.166 5  22668809.020 5


  20535765.608 8 107916291.028 8  84090681.153 9  20535767.034 9  20535765.152 9
  20535766.477 8  80586912.732 8

  21539201.014 8 113189323.610 8  88199507.093 6  21539202.398 6  21539200.840 6
  21539204.691 8  84524539.438 8

  22242601.841 7 116885753.596 7  91079861.629 5  22242603.754 5  22242601.600 5
  22242606.327 8  87284889.058 8

  24630169.647 5 129432441.184 5 100856469.522 2  24630174.084 2  24630168.601 2


  21977399.354 8 115492148.991 8  89993959.443 8  21977399.739 8  21977398.934 8


  24940002.842 5 131060610.885 5 102125179.729 5  24940007.397 5  24940002.297 5
  24940006.189 7  97869958.958 7

  20956981.525 8 110129730.281 8  85815412.458 9  20956984.812 9  20956981.418 9
  20956984.221 8  82239775.799 8

 23  8 31 13 52  0.0000000  0 10G30G03G20G09G11G04G16G07G26G06
  23733636.387 6 124721194.776 6  97185414.162 7  23733642.466 7  23733635.444 7
  23733642.296 7  93136033.122 7

  25043591.991 6 131604945.763 6 102549330.270 6  25043600.622 6  25043591.884 6
  25043600.765 7  98276445.475 7

  22651543.313 7 119034727.759 7  92754355.096 5  22651542.975 5  22651542.213 5


  20543426.996 8 107956551.875 8  84122053.236 9  20543428.232 9  20543426.540 9
  20543427.903 8  80616977.642 8

  21532335.764 8 113153244.984 8  88171393.894 6  21532336.442 6  21532335.595 6
  21532339.143 8  84497597.624 8

  22258317.698 7 116968341.391 7  91144215.709 5  22258319.813 5  22258317.462 5
  22258322.371 8  87346561.703 8

  24622849.449 4 129393967.172 4 100826489.849 2  24622852.542 2  24622848.349 2


  21964583.813 8 115424803.364 8  89941482.402 8  21964583.714 8  21964583.398 8


  24945074.070 5 131087269.347 5 102145952.591 5  24945080.332 5  24945073.516 5
  24945079.077 7  97889866.293 7

  20967089.973 8 110182851.741 8  85856805.769 9  20967093.817 9  20967089.866 9
  20967092.905 8  82279444.387 8

 23  8 31 13 52 30.0000000  0 10G30G03G20G09G11G04G16G07G26G06
  23713629.009 6 124616051.559 6  97103484.570 7  23713634.112 7  23713628.084 7
  23713634.130 7  93057517.291 7

  25063139.265 6 131707667.662 6 102629373.089 6  25063148.074 6  25063139.154 6
  25063148.347 7  98353153.130 7

  22634308.028 7 118944156.038 7  92683779.787 5  22634307.635 5  22634306.920 5


  20551159.959 8 107997188.918 8  84153718.456 9  20551161.127 9  20551159.503 9
  20551160.924 8  80647323.474 8

  21525578.507 8 113117735.618 8  88143724.274 6  21525578.478 6  21525578.342 6
  21525582.044 8  84471080.910 8

  22274071.559 7 117051129.136 7  91208725.598 5  22274073.776 5  22274071.323 5
  22274076.284 8  87408383.673 8

  24615629.235 4 129356021.687 4 100796921.999 2  24615631.681 2  24615628.444 2


  21951841.069 7 115357840.678 7  89889303.752 8  21951840.759 8  21951840.654 8


  24950249.932 5 131114466.181 5 102167144.971 5  24950255.706 5  24950249.387 5
  24950254.394 7  97910175.675 7

  20977301.350 8 110236512.279 8  85898619.150 9  20977304.604 9  20977301.243 9
  20977304.179 8  82319515.539 8

 23  8 31 13 53  0.0000000  0 10G30G03G20G09G11G04G16G07G26G06
  23693649.358 6 124511060.637 6  97021673.644 6  23693654.717 6  23693648.442 6
  23693655.039 7  92979115.183 7

  25082701.877 6 131810467.490 6 102709476.640 6  25082710.363 6  25082701.766 6
  25082710.755 7  98429918.985 7

  22617105.071 7 118853754.153 7  92613336.827 5  22617105.308 5  22617103.945 5


  20558964.685 8 108038203.232 8  84185677.655 9  20558965.782 9  20558964.229 9
  20558965.701 8  80677951.034 8

  21518930.311 8 113082799.361 8  88116501.229 6  21518930.681 6  21518930.146 6
  21518933.870 8  84444992.168 8

  22289864.250 7 117134117.600 7  91273391.890 5  22289865.883 5  22289864.027 5
  22289868.556 8  87470355.530 8

  24608508.913 4 129318609.014 4 100767769.358 2  24608512.018 2  24608508.194 2


  21939172.119 7 115291265.247 7  89837426.865 8  21939171.939 8  21939171.704 8


  24955527.807 5 131142203.077 5 102188758.175 5  24955533.922 5  24955527.338 5
  24955532.433 7  97930888.332 7

  20987615.207 8 110290712.689 8  85940853.207 9  20987618.631 9  20987615.100 9
  20987618.414 8  82359989.831 8

 23  8 31 13 53 30.0000000  0 10G30G03G20G09G11G04G16G07G26G06
  23673698.786 6 124406220.790 6  96939980.427 6  23673704.091 6  23673697.883 6
  23673704.381 7  92900825.899 7

  25102277.981 6 131913340.712 6 102789637.359 6  25102286.750 6  25102277.879 6
  25102287.105 7  98506739.626 7

  22599934.025 7 118763519.894 7  92543024.483 5  22599933.911 5  22599932.894 5


  20566840.296 8 108079589.834 8  84217926.951 9  20566841.415 9  20566839.840 9
  20566841.370 8  80708856.606 8

  21512390.954 8 113048434.097 8  88089723.117 6  21512391.888 6  21512390.776 6
  21512394.321 8  84419329.815 8

  22305693.579 7 117217301.525 7  91338210.487 5  22305695.277 5  22305693.365 5
  22305698.043 8  87532473.340 8

  24601490.134 5 129281727.465 5 100739030.546 2  24601493.536 2  24601489.200 2


  21926576.118 8 115225075.161 8  89785850.254 8  21926576.590 8  21926575.698 8


  24960907.628 6 131170475.571 6 102210788.708 5  24960913.992 5  24960907.186 5
  24960912.541 7  97952000.934 7

  20998031.053 8 110345447.694 8  85983503.826 9  20998034.860 9  20998030.946 9
  20998034.218 8  82400863.338 8

 23  8 31 13 54  0.0000000  0 10G30G03G20G09G11G04G16G07G26G06
  23653777.698 7 124301535.254 7  96858407.447 6  23653783.108 6  23653776.800 6
  23653783.277 7  92822651.844 7

  25121868.298 6 132016287.200 6 102869855.179 6  25121876.981 6  25121868.191 6
  25121877.470 7  98583614.989 7

  22582795.454 7 118673455.964 7  92472844.855 5  22582794.348 5  22582794.301 5


  20574786.690 8 108121348.172 8  84250465.913 9  20574787.944 9  20574786.234 9
  20574787.704 8  80740039.777 8

  21505960.717 7 113014642.116 7  88063391.719 6  21505961.630 6  21505960.534 6
  21505963.844 8  84394095.561 8

  22321559.900 7 117300680.145 7  91403180.800 5  22321561.655 5  22321559.686 5
  22321564.545 8  87594736.548 8

  24594573.496 5 129245380.068 5 100710707.952 2  24594576.780 2  24594572.383 2


  21914054.387 8 115159273.216 8  89734576.087 8  21914054.563 8  21914053.963 8


  24966389.605 5 131199283.742 5 102233236.674 5  24966395.710 5  24966389.038 5
  24966394.579 7  97973513.560 7

  21008548.474 8 110400716.518 8  86026570.410 9  21008552.147 9  21008548.367 9
  21008551.454 8  82442135.475 8

 23  8 31 13 54 30.0000000  0 10G30G03G20G09G11G04G16G07G26G06
  23633887.214 7 124197010.444 7  96776959.698 7  23633892.428 7  23633886.320 7
  23633892.617 7  92744597.791 7

  25141473.090 6 132119310.069 6 102950132.514 6  25141481.727 6  25141472.983 6
  25141482.336 7  98660547.378 7

  22565690.359 7 118583568.083 7  92402802.401 5  22565689.528 5  22565689.197 5


  20582804.212 8 108163480.925 8  84283296.633 9  20582805.639 9  20582803.752 9
  20582805.309 8  80771502.545 8

  21499640.205 8 112981428.911 8  88037511.316 6  21499640.881 6  21499640.022 6
  21499643.679 8  84369293.510 8

  22337463.763 7 117384255.839 7  91468304.676 5  22337465.618 5  22337463.535 5
  22337468.530 8  87657146.914 8

  24587759.127 5 129209572.734 5 100682806.213 2  24587762.785 2  24587757.983 2


  21901607.588 7 115093864.682 7  89683608.464 7  21901607.278 7  21901607.159 7


  24971975.068 5 131228630.729 5 102256104.474 5  24971980.105 5  24971974.563 5
  24971978.998 7  97995428.546 7

  21019167.659 8 110456521.548 8  86070054.816 9  21019171.660 9  21019167.552 9
  21019170.964 8  82483808.025 8

 23  8 31 13 55  0.0000000  0 10G30G03G20G09G11G04G16G07G26G06
  23614026.392 7 124092644.093 7  96695635.432 7  23614032.233 7  23614025.498 7
  23614032.231 7  92666662.070 7

  25161091.637 6 132222403.728 6 103030465.023 6  25161100.109 6  25161091.530 6
  25161100.731 7  98737532.652 7

  22548618.027 7 118493853.675 7  92332895.135 5  22548617.894 5  22548616.865 5


  20590891.963 8 108205982.103 8  84316414.435 9  20590893.549 9  20590891.503 9
  20590893.083 8  80803240.435 8

  21493429.425 8 112948791.232 8  88012079.371 6  21493429.988 6  21493429.238 6
  21493433.055 8  84344921.232 8

  22353404.340 7 117468022.377 7  91533577.259 5  22353405.865 5  22353404.121 5
  22353408.730 8  87719699.796 8

  24581048.498 4 129174303.185 4 100655323.504 2  24581051.102 2  24581047.363 2


  21889235.234 7 115028847.177 7  89632945.521 7  21889234.881 7  21889234.805 7


  24977660.735 5 131258511.099 5 102279387.901 5  24977666.396 5  24977660.288 5
  24977665.177 7  98017741.840 7

  21029888.084 8 110512856.399 8  86113952.063 9  21029891.875 9  21029887.977 9
  21029891.067 8  82525876.226 8

 23  8 31 13 55 30.0000000  0 10G30G03G20G09G11G04G16G07G26G06
  23594197.477 7 123988440.591 7  96614438.066 7  23594202.881 7  23594196.583 7
  23594202.665 7  92588847.950 7

  25180723.057 6 132325569.193 6 103110853.479 6  25180732.037 6  25180722.950 6
  25180732.597 7  98814571.541 7

  22531579.864 7 118404316.533 7  92263125.984 5  22531579.281 5  22531578.720 5


  20599049.894 8 108248852.267 8  84349819.757 9  20599051.630 9  20599049.434 9
  20599050.939 8  80835253.865 8

  21487329.192 8 112916732.441 8  87987098.506 6  21487329.895 6  21487329.000 6
  21487332.531 8  84320981.242 8

  22369381.034 7 117551980.086 7  91598998.809 5  22369382.504 5  22369380.824 5
  22369385.372 8  87782395.439 8

  24574438.418 4 129139574.998 4 100628262.658 2  24574442.613 2  24574437.238 2


  21876937.846 7 114964224.223 7  89582590.029 8  21876937.623 8  21876937.417 8


  24983448.004 5 131288925.933 5 102303087.773 5  24983454.227 5  24983447.441 5
  24983452.867 7  98040454.218 7

  21040709.168 8 110569721.386 8  86158262.408 9  21040712.596 9  21040709.061 9
  21040712.050 8  82568340.302 8

 23  8 31 13 56  0.0000000  0 10G30G03G20G09G11G04G16G07G26G06
  23574399.008 7 123884400.424 7  96533367.976 7  23574404.965 7  23574398.114 7
  23574404.370 7  92511155.803 7

  25200368.649 6 132428803.704 6 103191295.742 6  25200377.170 6  25200368.547 6
  25200377.621 7  98891662.006 7

  22514575.177 7 118314956.612 7  92193494.944 5  22514575.260 5  22514574.042 5


  20607277.448 8 108292088.169 8  84383510.071 9  20607279.097 9  20607276.988 9
  20607278.413 8  80867540.416 8

  21481338.255 8 112885252.036 8  87962568.338 6  21481339.266 6  21481338.063 6
  21481341.951 8  84297473.162 8

  22385393.317 7 117636125.473 7  91664566.601 5  22385394.849 5  22385393.112 5
  22385397.753 8  87845231.236 8

  24567934.261 4 129105388.102 4 100601623.551 2  24567937.012 2  24567933.090 2


  21864715.354 7 114899995.569 7  89532541.792 8  21864715.519 8  21864714.925 8


  24989338.070 5 131319872.502 5 102327201.982 5  24989342.968 5  24989337.637 5
  24989341.830 7  98063563.654 7

  21051630.129 8 110627112.874 8  86202983.016 9  21051633.839 9  21051630.022 9
  21051633.430 8  82611197.552 8

 23  8 31 13 56 30.0000000  0  9G30G03G20G09G11G04G07G26G06
  23554632.666 7 123780528.585 7  96452429.043 7  23554638.528 7  23554631.763 7
  23554638.282 8  92433589.357 8

  25220026.743 6 132532108.875 6 103271793.061 6  25220035.624 6  25220026.641 6
  25220036.225 7  98968805.229 7

  22497605.056 7 118225778.236 7  92124005.367 5  22497605.384 5  22497603.925 5


  20615574.788 8 108335691.088 8  84417486.370 9  20615576.369 9  20615574.323 9
  20615575.753 8  80900101.034 8

  21475458.399 8 112854354.021 8  87938491.975 6  21475459.211 6  21475458.207 6
  21475462.224 8  84274399.991 8

  22401441.310 7 117720459.561 7  91730281.438 5  22401443.132 5  22401441.096 5
  22401445.952 8  87908207.942 8

  21852569.035 7 114836165.840 7  89482804.405 8  21852569.146 8  21852568.602 8


  24995327.389 5 131351352.427 5 102351731.762 5  24995333.541 5  24995326.911 5
  24995332.305 7  98087071.357 7

  21062651.864 8 110685031.774 8  86248114.592 9  21062655.617 9  21062651.753 9
  21062655.120 8  82654448.643 8

 23  8 31 13 57  0.0000000  0  9G30G03G20G09G11G04G07G26G06
  23534898.715 7 123676828.679 7  96371624.071 7  23534904.944 7  23534897.808 7
  23534904.649 8  92356151.300 8

  25239699.117 6 132635485.022 6 103352345.699 6  25239707.774 6  25239699.019 6
  25239708.195 7  99046001.466 7

  22480669.815 7 118136784.379 7  92054659.567 5  22480670.090 5  22480668.707 5


  20623941.849 8 108379660.781 8  84451748.466 9  20623943.452 9  20623941.384 9
  20623942.914 8  80932935.546 8

  21469690.062 8 112824040.910 8  87914871.385 6  21469690.785 6  21469689.875 6
  21469693.860 8  84251763.596 8

  22417525.573 7 117804981.982 7  91796143.019 5  22417527.366 5  22417525.368 5
  22417529.982 8  87971325.290 8

  21840498.981 7 114772737.421 7  89433379.719 8  21840498.963 8  21840498.552 8


  25001419.636 6 131383365.953 6 102376677.350 5  25001425.484 5  25001419.104 5
  25001424.343 7  98110977.553 7

  21073773.821 8 110743477.496 8  86293656.681 9  21073777.678 9  21073773.714 9
  21073777.012 8  82698093.140 8

 23  8 31 13 57 30.0000000  0  9G30G03G20G09G11G04G07G26G06
  23515197.508 7 123573298.348 7  96290951.227 7  23515203.581 7  23515196.605 7
  23515203.052 8  92278839.873 8

  25259383.010 6 132738926.436 6 103432949.207 6  25259392.139 6  25259382.908 6
  25259392.700 7  99123246.439 7

  22463769.464 7 118047972.349 7  91985455.450 5  22463769.170 5  22463768.356 5


  20632377.780 8 108423991.220 8  84486291.661 9  20632379.352 9  20632377.311 9
  20632378.635 8  80966039.441 8

  21464032.295 8 112794309.303 8  87891703.906 6  21464032.784 6  21464032.112 6
  21464036.111 8  84229561.438 8

  22433644.577 7 117889686.382 7  91862146.406 5  22433646.080 5  22433644.385 5
  22433648.852 8  88034578.539 8

  21828504.801 8 114709707.367 8  89384265.464 8  21828504.740 8  21828504.372 8


  25007613.547 5 131415907.438 5 102402034.321 5  25007618.132 5  25007613.114 5
  25007616.873 7  98135277.970 7

  21084994.753 8 110802443.560 8  86339604.231 9  21084998.557 9  21084994.642 9
  21084998.070 8  82742126.202 8

 23  8 31 13 58  0.0000000  0 10G30G03G20G09G11G04G29G07G26G06
  23495529.553 7 123469943.199 7  96210414.893 7  23495535.447 7  23495528.650 7
  23495534.947 8  92201659.254 8

  25279080.619 6 132842435.382 6 103513605.324 6  25279089.504 6  25279080.526 6
  25279089.959 7  99200541.848 7

  22446904.520 7 117959347.268 7  91916397.010 5  22446904.295 5  22446903.412 5


  20640882.507 8 108468684.166 8  84521117.331 9  20640884.195 9  20640882.042 9
  20640883.484 8  80999414.039 8

  21458486.095 8 112765163.698 8  87868993.056 6  21458485.925 6  21458485.912 6
  21458489.676 8  84207796.876 8

  22449798.265 7 117974574.400 7  91928292.871 5  22449799.820 5  22449798.087 5
  22449802.534 8  88097968.895 8

  25391249.125 5 133431925.128 5 103972933.118 3  25391252.291 3  25391249.142 3


  21816587.301 8 114647080.583 8  89335465.430 8  21816587.432 8  21816586.868 8


  25013905.151 5 131448979.122 5 102427804.424 5  25013911.534 5  25013904.588 5
  25013910.248 7  98159974.319 7

  21096314.937 8 110861931.392 8  86385958.350 9  21096318.769 9  21096314.835 9
  21096318.285 8  82786548.893 8

 23  8 31 13 58 30.0000000  0 11G30G16G03G20G09G11G04G29G07G26G06
  23475895.550 7 123366765.721 7  96130017.010 7  23475901.399 7  23475894.643 7
  23475900.725 7  92124611.297 7

  24536969.760 5 128942729.063 5 100474817.070 2  24536973.816 2  24536968.571 2


  25298789.973 6 132946010.991 6 103594313.405 6  25298799.397 6  25298789.871 6
  25298800.055 7  99277887.048 7

  22430075.337 7 117870910.889 7  91847485.602 5  22430075.272 5  22430074.237 5


  20649456.239 8 108513738.366 8  84556224.495 9  20649457.891 9  20649455.779 9
  20649457.039 8  81033058.402 8

  21453051.878 8 112736605.451 8  87846739.881 6  21453051.106 6  21453051.695 6
  21453055.294 8  84186470.926 8

  22465986.603 7 118059644.552 7  91994581.257 5  22465988.071 5  22465986.420 5
  22465990.934 8  88161495.257 8

  25383578.369 5 133391617.672 5 103941524.703 3  25383582.564 3  25383578.512 3


  21804746.855 8 114584858.737 8  89286980.931 8  21804746.951 8  21804746.422 8


  25020300.242 5 131482580.059 5 102453986.942 5  25020305.676 5  25020299.701 5
  25020304.277 7  98185065.890 7

  21107734.236 8 110921939.235 8  86432717.676 9  21107737.726 9  21107734.129 9
  21107737.292 8  82831359.907 8

 23  8 31 13 59  0.0000000  0 11G30G16G03G20G09G11G04G29G07G26G06
  23456295.371 7 123263765.652 7  96049757.358 7  23456300.608 7  23456294.468 7
  23456300.417 7  92047695.819 7

  24531091.046 5 128911839.262 5 100450747.132 2  24531095.078 2  24531089.535 2


  25318511.679 6 133049649.700 6 103675070.650 5  25318521.485 5  25318511.581 5
  25318522.053 7  99355279.376 7

  22413282.228 7 117782662.426 7  91778720.617 5  22413282.605 5  22413281.120 5


  20658097.612 8 108559149.825 8  84591610.039 9  20658099.660 9  20658097.156 9
  20658098.585 8  81066969.550 8

  21447728.706 8 112708633.230 8  87824943.350 6  21447728.561 6  21447728.519 6
  21447732.378 8  84165582.582 8

  22482208.807 7 118144892.660 7  92061008.310 5  22482210.303 5  22482208.602 5
  22482213.208 8  88225154.504 8

  25376008.165 5 133351835.894 5 103910525.914 3  25376012.188 3  25376008.223 3


  21792983.434 8 114523041.151 8  89238811.442 8  21792983.498 8  21792983.014 8


  25026794.202 5 131516706.662 5 102480579.070 5  25026800.086 5  25026793.626 5
  25026798.549 7  98210550.005 7

  21119251.317 8 110982462.692 8  86479878.780 9  21119254.657 9  21119251.210 9
  21119254.687 8  82876555.950 8

 23  8 31 13 59 30.0000000  0 11G30G16G03G20G09G11G04G29G07G26G06
  23436730.189 7 123160949.923 7  95969641.341 7  23436735.320 7  23436729.286 7
  23436735.193 8  91970918.009 8

  24525320.686 5 128881507.912 5 100427112.346 2  24525323.292 2  24525319.166 2


  25338246.858 6 133153355.204 6 103755879.949 5  25338256.009 5  25338246.769 5
  25338256.831 7  99432721.576 7

  22396526.349 7 117694608.466 7  91710107.207 5  22396527.155 5  22396525.223 5


  20666807.612 8 108604921.680 8  84627276.412 9  20666809.710 9  20666807.152 9
  20666808.648 8  81101149.821 8

  21442518.483 8 112681252.781 8  87803607.944 6  21442518.771 6  21442518.300 6
  21442521.983 8  84145136.161 8

  22498465.214 7 118230321.663 7  92127576.328 5  22498466.921 5  22498464.991 5
  22498469.801 8  88288948.845 8

  25368539.458 5 133312585.770 5 103879941.401 3  25368542.718 3  25368539.484 3


  21781297.822 8 114461633.792 8  89190961.605 8  21781297.542 8  21781297.407 8


  25033388.833 6 131551362.372 6 102507583.505 5  25033394.910 5  25033388.257 5
  25033393.284 7  98236429.252 7

  21130867.293 8 111043504.400 8  86527443.713 9  21130870.410 9  21130867.186 9
  21130870.548 8  82922139.005 8

                            4  1
RINEX FILE SPLICE; other post-header comments skipped       COMMENT
 23  8 31 14  0  0.0000000  0 11G30G16G05G20G09G11G04G29G07G26G06
  23417199.381 7 123058316.750 7  95889667.558 7  23417204.593 7  23417198.492 7
  23417204.761 8  91894276.517 8

  24519655.050 5 128851732.667 5 100403910.869 2  24519657.059 2  24519653.642 2


  25135770.667 6 132089376.214 6


  22379806.683 7 117606746.653 7  91641643.514 5  22379807.055 5  22379805.561 5


  20675585.408 8 108651048.370 8  84663219.279 9  20675587.226 9  20675584.952 9
  20675586.322 8  81135595.068 8

  21437420.315 8 112654461.164 8  87782731.365 6  21437420.265 6  21437420.128 6
  21437423.695 8  84125129.444 8

  22514755.477 7 118315925.886 7  92194280.875 5  22514756.924 5  22514755.258 5
  22514759.809 8  88352874.021 8

  25361171.217 5 133273864.213 5 103849768.771 3  25361174.394 3  25361171.177 3


  21769690.050 8 114400634.172 8  89143429.483 8  21769689.459 8  21769689.635 8


  25040083.613 5 131586542.016 5 102534996.207 5  25040089.390 5  25040083.095 5
  25040087.584 7  98262699.757 7

  21142580.751 8 111105058.351 8  86575407.793 8  21142583.625 8  21142580.644 8
  21142583.842 8  82968104.576 8

 23  8 31 14  0 30.0000000  0 11G30G16G05G20G09G11G04G29G07G26G06
  23397704.623 7 122955870.671 7  95809839.572 7  23397710.189 7  23397703.756 7
  23397710.044 8  91817774.746 8

  24514095.050 5 128822517.141 5 100381145.565 2  24514097.448 2  24514093.731 2


  25115500.985 6 131982859.582 6 102843789.765 3  25115504.356 3  25115500.802 3


  22363124.571 7 117519081.202 7  91573332.838 5  22363124.755 5  22363123.431 5


  20684430.548 8 108697530.703 8  84699439.271 9  20684432.458 9  20684430.092 9
  20684431.675 8  81170305.890 8

  21432434.674 8 112628261.768 8  87762316.261 6  21432434.836 6  21432434.491 6
  21432438.102 8  84105564.977 8

  22531078.687 7 118401705.898 7  92261122.405 5  22531080.481 5  22531078.486 5
  22531083.208 8  88416930.484 8

  25353903.221 5 133235674.896 5 103820010.846 3  25353907.565 3  25353903.154 3


  21758160.326 8 114340045.983 8  89096217.965 8  21758160.154 8  21758159.906 8


  25046876.946 5 131622246.717 5 102562818.022 5  25046883.859 5  25046876.437 5
  25046881.962 7  98289362.315 7

  21154391.515 8 111167124.841 8  86623771.268 8  21154393.957 8  21154391.408 8
  21154394.903 8  83014452.888 8

 23  8 31 14  1  0.0000000  0 11G30G16G05G20G09G11G04G29G07G26G06
  23378245.832 7 122853613.118 7  95730158.499 7  23378251.314 7  23378244.978 7
  23378250.347 8  91741413.748 8

  24508642.672 5 128793862.495 5 100358817.308 2  24508644.701 2  24508641.528 2


  25095232.739 6 131876346.319 6 102760792.516 3  25095235.707 3  25095232.489 3


  22346479.887 7 117431612.795 7  91505175.692 5  22346479.558 5  22346478.743 5


  20693343.070 8 108744366.326 8  84735934.551 9  20693344.854 9  20693342.614 9
  20693344.180 8  81205280.530 8

  21427561.696 8 112602654.790 8  87742362.778 6  21427562.608 6  21427561.518 6
  21427565.326 8  84086442.886 8

  22547435.054 7 118487659.233 7  92328098.985 5  22547437.189 5  22547434.849 5
  22547439.670 8  88481116.362 8

  25346737.803 5 133198017.915 5 103790667.740 3  25346741.354 3  25346737.710 3


  21746709.058 8 114279869.783 8  89049327.475 8  21746708.974 8  21746708.638 8


  25053770.709 5 131658474.314 5 102591047.321 5  25053777.542 5  25053770.164 5
  25053775.952 7  98316415.394 7

  21166299.350 8 111229701.015 8  86672531.894 8  21166302.363 8  21166299.243 8
  21166302.745 8  83061181.807 8

 23  8 31 14  1 30.0000000  0 11G30G16G05G20G09G11G04G29G07G26G06
  23358823.032 7 122751546.494 7  95650626.199 7  23358828.439 7  23358822.183 7
  23358827.565 7  91665195.311 7

  24503297.174 5 128765770.030 5 100336927.085 2  24503298.476 2  24503296.168 2


  25074965.104 5 131769837.634 5 102677798.813 3  25074967.808 3  25074964.859 3


  22329873.010 7 117344343.692 7  91437173.846 5  22329873.098 5  22329871.866 5


  20702322.556 8 108791553.904 8  84772704.087 9  20702324.302 9  20702322.100 9
  20702323.644 8  81240517.997 8

  21422801.968 8 112577641.455 8  87722871.877 6  21422802.638 6  21422801.790 6
  21422805.463 8  84067764.102 8

  22563824.070 7 118573784.370 7  92395209.441 5  22563826.386 5  22563823.838 5
  22563828.858 8  88545430.543 8

  25339673.260 5 133160894.878 5 103761740.713 3  25339677.054 3  25339673.140 3


  21735336.728 8 114220107.279 8  89002759.346 8  21735336.440 8  21735336.313 8


  25060765.483 5 131695223.779 5 102619683.269 5  25060770.699 5  25060764.965 5
  25060769.112 7  98343858.185 7

  21178303.674 8 111292785.002 8  86721688.210 8  21178307.081 8  21178303.572 8
  21178307.155 8  83108289.934 8

 23  8 31 14  2  0.0000000  0 10G30G16G05G20G09G11G04G29G07G06
  23339437.044 7 122649674.454 7  95571245.517 7  23339442.408 7  23339436.199 7
  23339441.672 7  91589122.178 7

  24498057.690 5 128738243.022 5 100315477.493 2  24498060.306 2  24498056.769 2


  25054699.464 5 131663336.410 5 102594810.975 3  25054701.544 3  25054699.281 3


  22313304.627 7 117257276.855 7  91369329.613 5  22313304.796 5  22313303.487 5


  20711369.149 8 108839093.286 8  84809747.751 9  20711370.759 9  20711368.698 9
  20711370.053 8  81276018.175 8

  21418155.384 8 112553224.087 8  87703845.362 6  21418155.548 6  21418155.210 6
  21418158.798 8  84049530.365 8

  22580245.752 7 118660081.019 7  92462453.529 5  22580248.028 5  22580245.498 5
  22580250.625 8  88609872.788 8

  25332711.882 5 133124308.268 5 103733231.685 2  25332714.871 2  25332711.730 2


  21724043.487 8 114160761.393 8  88956515.852 8  21724043.114 8  21724043.076 8


  21190404.840 8 111356376.140 8  86771239.715 8  21190408.071 8  21190404.729 8
  21190408.320 8  83155776.778 8

 23  8 31 14  2 30.0000000  0 10G30G16G05G20G09G11G04G29G07G06
  23320088.511 7 122547995.857 7  95492015.557 7  23320093.106 7  23320087.675 7
  23320092.980 8  91513193.496 8

  24492928.306 5 128711279.594 5 100294467.064 2  24492929.793 2  24492927.452 2


  25034434.236 5 131556840.296 5 102511827.106 3  25034435.964 3  25034434.156 3


  22296774.557 7 117170410.689 7  91301641.744 5  22296774.347 5  22296773.426 5


  20720481.430 8 108886979.639 8  84847061.785 9  20720483.262 9  20720480.974 9
  20720482.531 8  81311777.454 8

  21413621.977 8 112529400.365 8  87685281.435 6  21413622.031 6  21413621.803 6
  21413625.156 8  84031739.944 8

  22596699.127 7 118746544.183 7  92529827.378 5  22596701.261 5  22596698.864 5
  22596704.108 8  88674439.384 8

  25325851.496 5 133088255.850 5 103705138.918 3  25325854.649 3  25325851.318 3


  21712829.089 8 114101830.054 8  88910595.383 8  21712828.688 8  21712828.678 8


  21202601.227 8 111420468.975 8  86821182.147 8  21202605.272 8  21202601.120 8
  21202604.687 8  83203638.268 8

 23  8 31 14  3  0.0000000  0 10G30G16G05G20G09G11G04G29G07G06
  23300777.413 7 122446518.314 7  95412942.260 7  23300782.491 7  23300776.586 7
  23300782.580 8  91437414.960 8

  24487905.715 5 128684886.140 5 100273900.762 2  24487907.428 2  24487904.915 2


  25014169.934 6 131450355.811 6 102428852.259 3  25014172.939 3  25014169.885 3


  22280284.083 7 117083752.466 7  91234115.910 5  22280283.790 5  22280282.957 5


  20729660.682 8 108935216.769 8  84884649.152 9  20729662.492 9  20729660.231 9
  20729661.809 8  81347798.678 8

  21409202.729 8 112506176.607 8  87667185.002 6  21409203.442 6  21409202.555 6
  21409205.845 8  84014397.525 8

  22613185.276 7 118833177.593 7  92597333.881 5  22613186.973 5  22613185.035 5
  22613189.904 8  88739133.103 8

  25319092.413 4 133052743.976 4 103677467.303 2  25319096.591 2  25319092.221 2


  21701695.115 8 114043320.044 8  88865003.223 8  21701694.848 8  21701694.709 8


  21214893.992 8 111485066.811 8  86871518.084 8  21214897.979 8  21214893.885 8
  21214897.216 8  83251876.867 8

 23  8 31 14  3 30.0000000  0 10G30G16G05G20G09G11G04G29G07G06
  23281504.539 7 122345238.805 7  95334023.282 7  23281509.999 7  23281503.721 7
  23281509.365 7  91361784.305 7

  24482990.780 5 128659059.013 5 100253775.750 3  24482992.408 3  24482989.971 3


  24993907.405 6 131343879.057 6 102345883.459 3  24993911.394 3  24993907.316 3


  22263832.424 7 116997298.667 7  91166749.372 5  22263832.435 5  22263831.320 5


  20738905.549 8 108983797.865 8  84922504.548 9  20738907.176 9  20738905.102 9
  20738906.481 8  81384076.764 8

  21404896.426 8 112483548.404 8  87649552.645 6  21404897.728 6  21404896.252 6
  21404899.944 8  83997499.849 8

  22629702.336 7 118919974.244 7  92664967.589 5  22629703.820 5  22629702.117 5
  22629706.860 8  88803948.723 8

  25312437.443 5 133017768.178 5 103650213.458 3  25312441.178 3  25312437.283 3


  21690640.428 8 113985227.426 8  88819736.309 8  21690640.306 8  21690640.026 8


  21227281.165 8 111550162.190 8  86922241.723 8  21227285.005 8  21227281.058 8
  21227284.537 8  83300487.009 8

 23  8 31 14  4  0.0000000  0 10G30G16G05G20G09G11G04G29G07G06
  23262270.570 7 122244165.067 7  95255264.656 7  23262276.748 7  23262269.757 7
  23262275.292 7  91286307.301 7

  24478184.917 5 128633805.151 5 100234097.437 3  24478186.510 3  24478184.099 3


  24973647.960 6 131237416.722 6 102262925.872 3  24973652.166 3  24973647.804 3


  22247420.962 7 116911056.515 7  91099547.747 5  22247421.233 5  22247419.862 5


  20748216.330 8 109032726.986 8  84960631.129 9  20748218.176 9  20748215.883 9
  20748217.371 8  81420614.738 8

  21400705.065 8 112461522.289 8  87632389.451 6  21400705.684 6  21400704.887 6
  21400708.589 8  83981051.781 8

  22646250.886 7 119006938.111 7  92732731.592 5  22646252.556 5  22646250.676 5
  22646255.619 8  88868889.217 8

  25305885.934 4 132983335.301 4 103623382.667 3  25305888.351 3  25305885.814 3


  21679666.437 8 113927559.029 8  88774799.958 8  21679666.148 8  21679666.031 8


  21239763.651 8 111615758.553 8  86973355.732 8  21239767.672 8  21239763.544 8
  21239767.140 8  83349471.260 8

 23  8 31 14  4 30.0000000  0 10G30G16G05G20G09G11G04G29G07G06
  23243075.844 7 122143295.815 7  95176665.380 7  23243081.684 7  23243075.031 7
  23243080.335 7  91210983.009 7

  24473487.771 5 128609122.527 5 100214864.256 3  24473489.460 3  24473486.922 3


  24953390.411 6 131130966.450 6 102179977.680 3  24953395.040 3  24953390.166 3


  22231049.343 7 116825024.402 7  91032509.795 5  22231050.127 5  22231048.243 5


  20757592.574 8 109081999.084 8  84999024.962 9  20757594.466 9  20757592.132 9
  20757593.459 8  81457408.825 8

  21396627.921 8 112440095.591 8  87615693.331 6  21396628.127 6  21396627.743 6
  21396631.090 8  83965051.329 8

  22662830.504 7 119094064.023 7  92800621.864 5  22662832.039 5  22662830.285 5
  22662835.130 8  88933950.715 8

  25299435.701 5 132949442.633 5 103596972.819 3  25299438.709 3  25299435.572 3


  21668772.670 8 113870312.921 8  88730192.657 8  21668772.170 8  21668772.259 8


  21252340.582 8 111681850.256 8  87024855.722 8  21252344.304 8  21252340.475 8
  21252343.788 8  83398825.404 8

 23  8 31 14  5  0.0000000  0 10G30G16G05G20G09G11G04G29G07G06
  23223920.241 7 122042634.447 7  95098228.082 7  23223925.993 7  23223919.419 7
  23223925.260 8  91135813.948 8

  24468899.242 5 128585013.746 5 100196078.214 3  24468901.741 3  24468898.344 3


  24933136.828 6 131024530.821 6 102097040.960 3  24933140.648 3  24933136.529 3


  22214718.469 7 116739204.801 7  90965637.441 5  22214719.343 5  22214717.352 5


  20767033.864 8 109131613.748 8  85037685.730 9  20767035.868 9  20767033.417 9
  20767034.809 8  81494458.728 8

  21392664.663 8 112419270.353 8  87599465.874 6  21392665.518 6  21392664.489 6
  21392668.197 8  83949500.020 8

  22679440.508 7 119181351.488 7  92868638.016 5  22679442.377 5  22679440.285 5
  22679445.452 8  88999132.845 8

  25293089.674 4 132916092.575 4 103570985.795 3  25293093.007 3  25293089.509 3


  21657960.113 8 113813491.526 8  88685916.299 8  21657959.460 8  21657959.702 8


  21265011.525 8 111748436.289 8  87076740.903 8  21265015.307 8  21265011.418 8
  21265014.561 8  83448548.694 8

 23  8 31 14  5 30.0000000  0 10G30G16G05G20G09G11G04G29G07G06
  23204805.283 7 121942183.003 7  95019954.344 7  23204810.205 7  23204804.456 7
  23204810.029 8  91060801.643 8

  24464421.358 5 128561479.915 5 100177740.192 3  24464423.592 3  24464420.415 3


  24912885.752 6 130918110.357 6 102014116.026 3  24912888.626 3  24912885.422 3


  22198428.479 7 116653600.256 7  90898932.655 5  22198428.769 5  22198427.366 5


  20776540.145 8 109181569.285 8  85076612.113 9  20776541.998 9  20776539.698 9
  20776541.057 8  81531763.180 8

  21388816.754 8 112399047.207 8  87583707.581 6  21388816.860 6  21388816.580 6
  21388819.901 8  83934398.323 8

  22696081.250 7 119268798.688 7  92936778.640 5  22696083.087 5  22696081.022 5
  22696086.166 8  89064434.261 8

  25286846.618 5 132883285.535 5 103545421.864 3  25286849.894 3  25286846.332 3


  21647228.272 8 113757096.094 8  88641971.866 8  21647228.220 8  21647227.866 8


  21277776.213 8 111815514.261 8  87129009.400 8  21277780.058 8  21277776.106 8
  21277779.292 8  83498639.339 8

 23  8 31 14  6  0.0000000  0 10G30G16G05G20G09G11G04G29G07G06
  23185730.555 7 121841943.961 7  94941846.114 7  23185735.170 7  23185729.724 7
  23185734.863 8  90985947.959 8

  24460051.930 5 128538522.476 5 100159851.319 3  24460054.697 3  24460050.889 3


  24892638.036 5 130811706.803 5 101931204.282 3  24892639.918 3  24892637.773 3


  22182179.924 7 116568212.527 7  90832396.811 5  22182179.440 5  22182178.820 5


  20786110.872 8 109231864.441 8  85115803.134 9  20786112.711 9  20786110.425 9
  20786111.942 8  81569321.236 8

  21385083.237 8 112379427.244 8  87568419.299 6  21385082.559 6  21385083.063 6
  21385086.295 8  83919747.056 8

  22712752.080 7 119356404.282 7  93005042.682 5  22712753.972 5  22712751.839 5
  22712756.996 8  89129853.954 8

  25280706.518 5 132851022.928 5 103520282.190 3  25280711.019 3  25280706.201 3


  21636577.807 8 113701128.103 8  88598360.503 8  21636578.192 8  21636577.405 8


  21290633.852 8 111883082.228 8  87181659.724 8  21290637.492 8  21290633.736 8
  21290637.070 8  83549095.889 8

 23  8 31 14  6 30.0000000  0 10G30G16G05G20G09G11G04G29G07G06
  23166696.328 7 121741918.962 7  94863904.667 7  23166701.059 7  23166695.501 7
  23166700.405 8  90911254.100 8

  24455793.313 5 128516142.347 5 100142412.307 3  24455796.448 3  24455792.191 3


  24872394.326 6 130705321.091 6 101848306.454 3  24872395.717 3  24872394.143 3


  22165972.392 7 116483042.766 7  90766030.804 5  22165972.136 5  22165971.297 5


  20795745.954 8 109282497.099 8  85155257.142 9  20795747.752 9  20795745.503 9
  20795747.088 8  81607131.321 8

  21381464.108 8 112360410.686 8  87553601.201 6  21381463.768 6  21381463.930 6
  21381467.507 8  83905546.383 8

  22729452.880 7 119444166.052 7  93073428.415 5  22729454.557 5  22729452.648 5
  22729457.566 8  89195390.271 8

  25274672.013 5 132819305.190 5 103495567.077 3  25274675.482 3  25274671.651 3


  21626008.878 8 113645588.229 8  88555082.738 8  21626009.333 8  21626008.476 8


  21303584.554 8 111951137.423 8  87234689.704 9  21303588.069 9  21303584.438 9
  21303587.562 8  83599916.278 8

 23  8 31 14  7  0.0000000  0 10G30G16G05G20G09G11G04G29G07G06
  23147703.474 7 121642112.392 7  94786133.432 7  23147708.540 7  23147702.643 7
  23147707.568 7  90836723.355 7

  24451645.195 5 128494342.588 5 100125425.511 3  24451647.643 3  24451644.002 3


  24852153.371 6 130598956.648 6 101765425.176 3  24852155.154 3  24852153.228 3


  22149807.683 7 116398094.831 7  90699837.663 5  22149807.551 5  22149806.597 5


  20805445.496 8 109333467.870 8  85194974.617 9  20805447.168 9  20805445.040 9
  20805446.571 8  81645193.903 8

  21377961.113 8 112342000.450 8  87539255.567 6  21377960.641 6  21377960.935 6
  21377964.192 8  83891798.481 8

  22746183.373 7 119532084.562 7  93141936.289 5  22746184.830 5  22746183.154 5
  22746187.905 8  89261043.633 8

  25268739.995 5 132788135.244 5 103471278.841 3  25268743.808 3  25268739.660 3


  21615522.154 8 113590480.234 8  88512141.472 8  21615522.454 8  21615521.743 8


  21316627.780 8 112019679.770 8  87288099.271 9  21316631.788 9  21316627.664 9
  21316630.939 8  83651100.448 8

 23  8 31 14  7 30.0000000  0 10G30G16G05G20G09G11G04G29G07G06
  23128752.772 7 121542525.449 7  94708533.341 7  23128757.586 7  23128751.936 7
  23128756.755 7  90762356.624 7

  24447606.845 6 128473123.655 6 100108891.318 3  24447609.524 3  24447605.602 3


  24831916.494 6 130492613.075 6 101682560.169 4  24831919.085 4  24831916.356 4


  22133684.805 7 116313369.883 7  90633818.267 5  22133684.736 5  22133683.719 5


  20815208.779 8 109384774.274 8  85234953.625 9  20815210.476 9  20815208.332 9
  20815209.866 8  81683507.109 8

  21374572.667 8 112324196.291 8  87525382.197 6  21374572.503 6  21374572.493 6
  21374576.282 8  83878503.173 8

  22762943.137 6 119620157.211 6  93210564.264 5  22762944.568 5  22762942.959 5
  22762947.586 7  89326812.100 7

  25262913.069 5 132757513.123 5 103447417.466 2  25262915.967 2  25262912.712 2


  21605117.581 8 113535804.029 8  88469536.686 8  21605117.862 8  21605117.166 8


  21329762.866 8 112088706.026 8  87341885.911 9  21329767.058 9  21329762.750 9
  21329766.429 8  83702645.981 8

 23  8 31 14  8  0.0000000  0 10G30G16G05G20G09G11G04G29G07G06
  23109844.231 7 121443159.731 7  94631105.624 7  23109848.666 7  23109843.400 7
  23109848.229 8  90688155.091 8

  24443680.003 5 128452486.319 5 100092810.321 3  24443682.070 3  24443678.720 3


  24811683.512 6 130386291.323 6 101599712.193 4  24811687.091 4  24811683.352 4


  22117604.629 7 116228868.953 7  90567973.438 6  22117605.095 6  22117603.543 6


  20825035.592 8 109436414.101 8  85275192.436 9  20825037.170 9  20825035.145 9
  20825036.608 8  81722069.303 8

  21371299.996 8 112306998.307 8  87511981.175 6  21371300.131 6  21371299.827 6
  21371303.635 8  83865660.539 8

  22779731.346 7 119708381.763 7  93279310.602 5  22779733.149 5  22779731.159 5
  22779736.208 7  89392693.994 7

  25257189.511 5 132727438.922 5 103423983.035 2  25257192.019 2  25257189.190 2


  21594795.456 8 113481560.182 8  88427268.805 8  21594795.808 8  21594795.041 8


  21342989.835 8 112158213.309 8  87396047.381 9  21342993.976 9  21342989.724 9
  21342993.033 8  83754550.713 8

 23  8 31 14  8 30.0000000  0 10G30G16G05G20G09G11G04G29G07G06
  23090977.882 7 121344018.076 7  94553852.494 7  23090982.334 7  23090977.055 7
  23090982.331 8  90614120.872 8

  24439864.726 5 128432432.315 5 100077183.854 3  24439866.059 3  24439863.439 3


  24791455.821 6 130279993.663 6 101516882.980 4  24791459.317 4  24791455.611 4


  22101567.746 7 116144594.418 7  90502305.018 6  22101568.155 6  22101566.655 6


  20834925.552 8 109488386.511 8  85315690.407 9  20834927.094 9  20834925.105 9
  20834926.578 8  81760879.853 8

  21368143.254 8 112290407.904 8  87499053.589 6  21368143.079 6  21368143.080 6
  21368146.590 8  83853271.603 8

  22796548.573 7 119796757.293 7  93348174.587 5  22796550.577 5  22796548.341 5
  22796553.584 7  89458688.635 7

  25251571.205 5 132697914.309 5 103400976.854 3  25251574.469 3  25251570.861 3


  21584555.708 8 113427750.723 8  88385339.414 8  21584556.128 8  21584555.293 8


  21356307.798 8 112228200.010 8  87450582.425 9  21356312.347 9  21356307.682 9
  21356311.261 8  83806813.457 8

 23  8 31 14  9  0.0000000  0 10G30G16G05G20G09G11G04G29G07G06
  23072154.655 7 121245102.404 7  94476775.468 7  23072159.405 7  23072153.828 7
  23072159.197 8  90540255.431 8

  24436159.293 6 128412962.500 6 100062012.613 3  24436161.424 3  24436157.992 3


  24771232.119 6 130173720.827 6 101434073.110 3  24771236.397 3  24771231.878 3


  22085574.280 7 116060547.833 7  90436814.210 6  22085574.241 6  22085573.180 6


  20844878.325 8 109540689.675 8  85356446.105 9  20844880.104 9  20844877.869 9
  20844879.597 8  81799937.392 8

  21365101.471 8 112274425.421 8  87486599.709 6  21365101.384 6  21365101.306 6
  21365105.178 8  83841336.641 8

  22813394.415 7 119885281.920 7  93417154.753 5  22813396.418 5  22813394.156 5
  22813399.321 7  89524794.613 7

  25246057.496 5 132668939.478 5 103378399.100 2  25246060.159 2  25246057.112 2


  21574398.785 8 113374376.766 8  88343749.370 8  21574398.946 8  21574398.365 8


  21369716.830 8 112298663.518 8  87505489.003 9  21369721.343 9  21369716.719 9
  21369720.110 8  83859432.255 8

 23  8 31 14  9 30.0000000  0 10G30G16G05G20G09G11G04G29G07G06
  23053375.029 7 121146414.707 7  94399876.087 7  23053379.939 7  23053374.202 7
  23053379.289 8  90466560.214 8

  24432565.305 6 128394077.390 6 100047296.970 3  24432567.068 3  24432563.982 3


  24751014.011 6 130067473.961 6 101351283.450 3  24751018.891 3  24751013.712 3


  22069624.339 7 115976731.027 7  90371502.457 6  22069624.672 6  22069623.213 6


  20854894.077 8 109593321.809 8  85397458.143 9  20854895.694 9  20854893.617 9
  20854895.133 8  81839240.594 8

  21362175.990 8 112259051.302 8  87474619.879 6  21362176.115 6  21362175.830 6
  21362179.477 8  83829855.974 8

  22830268.402 6 119973953.817 6  93486249.672 5  22830270.349 5  22830268.139 5
  22830273.105 7  89591010.575 7

  25240648.990 5 132640515.171 5 103356250.345 3  25240651.249 3  25240648.579 3


  21564325.050 8 113321439.136 8  88302499.312 8  21564324.863 8  21564324.626 8


  21383215.918 8 112369601.290 8  87560765.144 9  21383219.949 9  21383215.802 9
  21383219.016 8  83912405.216 8

 23  8 31 14 10  0.0000000  0 10G30G16G05G20G09G11G04G29G07G06
  23034639.800 7 121047962.325 7  94323160.078 7  23034645.038 7  23034638.973 7
  23034644.179 8  90393040.727 8

  24429084.335 6 128375784.013 6 100033042.438 3  24429086.408 3  24429083.030 3


  24730801.820 6 129961259.497 6 101268519.028 3  24730807.453 3  24730801.490 3


  22053719.483 7 115893151.009 7  90306375.222 6  22053720.083 6  22053718.339 6


  20864972.989 8 109646286.624 8  85438729.408 9  20864974.486 9  20864972.529 9
  20864973.968 8  81878792.220 8

  21359367.258 8 112244291.379 8  87463118.645 6  21359368.272 6  21359367.098 6
  21359370.673 8  83818833.952 8

  22847170.960 6 120062776.654 6  93555462.210 5  22847172.899 5  22847170.724 5
  22847175.541 7  89657339.240 7

  25235345.588 5 132612647.258 5 103334535.124 3  25235349.036 3  25235345.164 3


  21554335.609 8 113268944.203 8  88261594.215 8  21554335.348 8  21554335.171 8


  21396805.576 8 112441016.238 8  87616413.110 9  21396809.807 9  21396805.465 9
  21396809.044 8  83965734.512 8

 23  8 31 14 10 30.0000000  0 10G30G16G05G20G09G11G04G29G07G06
  23015948.976 7 120949740.915 7  94246624.045 7  23015953.801 7  23015948.140 7
  23015953.160 8  90319693.718 8

  24425714.788 6 128358076.501 6 100019244.400 3  24425716.865 3  24425713.483 3


  24710595.404 6 129855072.028 6 101185775.613 3  24710600.572 3  24710595.033 3


  22037858.953 7 115809802.934 7  90241428.719 6  22037859.459 6  22037857.809 6


  20875113.606 8 109699575.961 8  85480253.555 9  20875115.088 9  20875113.146 9
  20875114.624 8  81918586.184 8

  21356674.043 8 112230139.661 8  87452091.344 6  21356675.665 6  21356673.896 6
  21356677.653 8  83808266.120 8

  22864100.471 6 120151742.202 6  93624785.954 4  22864102.578 4  22864100.266 4
  22864105.166 7  89723774.482 7

  25230147.875 5 132585329.863 5 103313248.878 2  25230150.626 2  25230147.437 2


  21544429.559 8 113216886.385 8  88221029.726 8  21544429.424 8  21544429.121 8


  21410484.602 8 112512899.441 8  87672425.942 8  21410488.279 8  21410484.491 8
  21410487.983 8  84019413.467 8

 23  8 31 14 11  0.0000000  0 10G30G16G05G20G09G11G04G29G07G06
  22997302.720 7 120851754.467 7  94170271.106 7  22997307.232 7  22997301.889 7
  22997306.842 8  90246522.194 8

  24422456.500 6 128340957.618 6 100005905.036 3  24422459.275 3  24422455.222 3


  24690395.377 6 129748915.067 6 101103056.001 4  24690398.981 4  24690394.993 4


  22022042.993 7 115726690.589 7  90176665.903 6  22022043.546 6  22022041.858 6


  20885315.898 8 109753190.182 8  85522030.854 9  20885317.551 9  20885315.433 9
  20885317.045 8  81958622.761 8

  21354097.716 8 112216598.566 8  87441539.856 6  21354098.605 6  21354097.569 6
  21354100.938 8  83798154.271 8

  22881056.914 6 120240850.775 6  93694221.135 4  22881059.426 4  22881056.713 4
  22881062.052 7  89790316.516 7

  25225053.896 5 132558565.645 5 103292393.719 3  25225057.340 3  25225053.503 3


  21534607.033 8 113165269.219 8  88180808.612 8  21534607.276 8  21534606.604 8


  21424252.450 8 112585250.355 8  87728803.232 8  21424255.249 8  21424252.339 8
  21424255.933 8  84073441.694 8

 23  8 31 14 11 30.0000000  0 10G30G16G05G20G09G11G04G29G07G06
  22978701.828 7 120754005.902 7  94094103.537 7  22978706.131 7  22978700.992 7
  22978705.693 8  90173528.299 8

  24419311.336 6 128324429.248 6  99993025.815 3  24419313.619 3  24419310.107 3


  24670200.355 6 129642790.026 6 101020361.239 3  24670203.302 3  24670200.007 3


  22006272.742 7 115643816.397 7  90112088.657 6  22006272.516 6  22006271.611 6


  20895580.160 8 109807128.307 8  85564060.543 9  20895581.727 9  20895579.691 9
  20895581.140 8  81998901.212 8

  21351637.368 8 112203669.335 8  87431465.142 6  21351638.416 6  21351637.225 6
  21351640.625 8  83788499.333 8

  22898040.953 6 120330101.479 6  93763767.077 4  22898043.240 4  22898040.757 4
  22898045.896 7  89856964.704 7

  25220065.492 5 132532356.152 5 103271970.768 2  25220069.835 2  25220065.095 2


  21524868.563 8 113114094.325 8  88140932.109 8  21524868.861 8  21524868.139 8


  21438109.263 8 112658067.300 8  87785543.661 8  21438112.032 8  21438109.152 8
  21438112.710 8  84127817.921 8

 23  8 31 14 12  0.0000000  0 10G30G16G05G20G09G11G04G29G07G06
  22960147.011 7 120656500.882 7  94018125.748 7  22960151.541 7  22960146.175 7
  22960151.009 8  90100716.279 8

  24416279.697 6 128308496.045 6  99980610.358 3  24416281.664 3  24416278.486 3


  24650011.991 6 129536702.048 6 100937695.364 4  24650014.712 4  24650011.687 4


  21990548.502 7 115561185.916 7  90047701.319 6  21990548.448 6  21990547.367 6


  20905906.121 8 109861392.467 8  85606344.285 9  20905907.909 9  20905905.648 9
  20905907.280 8  82039423.127 8

  21349294.043 8 112191356.036 8  87421870.373 6  21349295.424 6  21349293.900 6
  21349297.458 8  83779304.344 8

  22915052.299 6 120419496.304 6  93833425.312 4  22915054.421 4  22915052.098 4
  22915057.237 7  89923720.501 7

  25215186.335 5 132506704.975 5 103251982.863 3  25215188.452 3  25215185.955 3


  21515215.068 8 113063366.207 8  88101403.742 8  21515215.196 8  21515214.608 8


  21452054.790 8 112731351.416 8  87842648.119 8  21452057.743 8  21452054.679 8
  21452058.262 8  84182543.022 8

 23  8 31 14 12 30.0000000  0 10G30G16G05G20G09G11G04G29G07G06
  22941637.846 7 120559235.376 7  93942334.600 7  22941642.540 7  22941637.015 7
  22941641.809 8  90028083.117 8

  24413360.185 6 128293152.532 6  99968654.412 3  24413361.666 3  24413358.951 3


  24629830.266 6 129430646.631 6 100855054.848 4  24629832.259 4  24629829.949 4


  21974870.062 7 115478795.007 7  89983500.661 6  21974870.060 6  21974868.922 6


  20916292.756 8 109915974.852 8  85648875.996 9  20916294.575 9  20916292.287 9
  20916294.022 8  82080182.682 8

  21347067.212 8 112179652.985 8  87412751.115 6  21347068.106 6  21347067.069 6
  21347070.525 8  83770565.056 8

  22932089.393 6 120509027.496 6  93903189.816 4  22932091.687 4  22932089.192 4
  22932094.696 7  89990578.126 7

  25210410.039 5 132481607.183 5 103232426.207 3  25210412.390 3  25210409.659 3


  21505646.079 8 113013079.958 8  88062219.690 8  21505645.940 8  21505645.597 8


  21466087.460 8 112805094.090 8  87900109.899 8  21466090.657 8  21466087.349 8
  21466091.011 8  84237610.541 8

 23  8 31 14 13  0.0000000  0 10G30G16G05G20G09G11G04G29G07G06
  22923175.589 7 120462216.478 7  93866735.614 7  22923180.188 7  22923174.762 7
  22923179.611 8  89955634.112 8

  24410553.319 6 128278404.879 6  99957162.767 3  24410555.506 3  24410552.067 3


  24609655.104 6 129324629.678 6 100772444.342 4  24609658.021 4  24609654.783 4


  21959238.424 7 115396650.217 7  89919491.784 6  21959238.453 6  21959237.275 6


  20926740.812 8 109970878.904 8  85691658.354 9  20926742.569 9  20926740.343 9
  20926741.998 8  82121182.441 8

  21344956.967 8 112168565.565 8  87404111.570 7  21344958.284 7  21344956.829 7
  21344960.571 8  83762285.495 8

  22949152.877 6 120598698.432 6  93973063.206 4  22949155.496 4  22949152.658 4
  22949158.556 7  90057540.116 7

  25205740.266 5 132457068.071 5 103213304.824 3  25205743.244 3  25205739.945 3


  21496162.382 8 112963241.608 8  88023384.648 8  21496162.244 8  21496161.940 8


  21480207.969 8 112879297.869 8  87957930.979 8  21480211.554 8  21480207.853 8
  21480211.734 8  84293022.394 8

 23  8 31 14 13 30.0000000  0 10G30G16G05G20G09G11G04G29G07G06
  22904760.551 7 120365444.473 7  93791329.004 7  22904764.633 7  22904759.715 7
  22904764.373 8  89883369.476 8

  24407860.191 6 128264252.091 6  99946134.663 3  24407861.810 3  24407858.926 3


  24589488.353 6 129218650.853 6 100689863.525 4  24589490.793 4  24589488.023 4


  21943653.711 7 115314751.677 7  89855674.786 6  21943653.511 6  21943652.567 6


  20937249.257 8 110026101.216 8  85734688.710 9  20937251.210 9  20937248.792 9
  20937250.503 8  82162419.859 8

  21342964.139 8 112158092.387 8  87395950.659 7  21342965.599 7  21342964.010 7
  21342967.589 8  83754464.622 8

  22966243.330 6 120688505.718 6  94043042.844 4  22966245.177 4  22966243.107 4
  22966248.396 7  90124603.918 7

  25201176.161 5 132433086.335 5 103194617.773 3  25201179.779 3  25201175.880 3


  21486763.300 8 112913850.456 8  87984898.079 8  21486763.734 8  21486762.867 8


  21494415.662 8 112953958.462 8  88016108.023 8  21494419.096 8  21494415.551 8
  21494419.138 8  84348775.375 8

 23  8 31 14 14  0.0000000  0 10G30G16G05G20G09G11G04G29G07G06
  22886392.860 7 120268922.203 7  93716116.991 7  22886396.976 7  22886392.020 7
  22886396.794 8  89811291.330 8

  24405280.347 6 128250695.625 6  99935571.222 3  24405282.415 3  24405279.091 3


  24569328.687 6 129112712.079 6 100607313.931 4  24569330.904 4  24569328.357 4


  21928116.122 7 115233101.669 7  89792051.447 6  21928116.032 6  21928114.987 6


  20947817.989 8 110081640.867 8  85777966.343 9  20947820.175 9  20947817.529 9
  20947819.369 8  82203894.254 8

  21341088.370 8 112148234.523 8  87388269.208 6  21341089.655 6  21341088.241 6
  21341091.671 8  83747103.233 8

  22983358.831 6 120778448.439 6  94113128.012 4  22983361.165 4  22983358.617 4
  22983364.075 7  90191768.847 7

  25196718.006 5 132409663.243 5 103176366.080 2  25196721.626 2  25196717.743 2


  21477449.964 8 112864908.517 8  87946761.543 8  21477450.178 8  21477449.499 8


  21508709.590 8 113029074.054 8  88074639.614 8  21508713.152 8  21508709.479 8
  21508713.164 8  84404868.131 8

 23  8 31 14 14 30.0000000  0 10G30G16G05G20G09G11G04G29G07G06
  22868073.046 7 120172650.710 7  93641100.394 7  22868077.140 7  22868072.210 7
  22868076.734 8  89739400.460 8

  24402814.774 6 128237735.311 6  99925472.330 3  24402816.650 3  24402813.509 3


  24549177.518 6 129006813.735 6 100524795.824 3  24549179.370 3  24549177.183 3


  21912626.390 7 115151701.293 7  89728622.627 6  21912626.111 6  21912625.255 6


  20958446.725 8 110137495.254 8  85821489.226 9  20958448.909 9  20958446.260 9
  20958448.136 8  82245603.679 8

  21339329.287 8 112138991.342 8  87381066.738 6  21339330.633 6  21339329.162 6
  21339332.696 8  83740200.863 8

  23000499.785 6 120868524.048 6  94183316.733 4  23000502.063 4  23000499.593 4
  23000504.879 7  90259033.012 7

  25192367.495 5 132386798.263 5 103158549.213 3  25192370.677 3  25192367.191 3


  21468222.118 8 112816415.131 8  87908974.521 8  21468221.799 8  21468221.671 8


  21523089.725 8 113104641.150 8  88133523.020 8  21523093.289 8  21523089.605 8
  21523093.121 8  84461298.054 8

 23  8 31 14 15  0.0000000  0 10G30G16G05G20G09G11G04G29G07G06
  22849801.667 7 120076636.436 7  93566284.223 7  22849806.189 7  22849800.827 7
  22849805.756 8  89667701.661 8

  24400462.547 6 128225376.174 6  99915841.884 3  24400464.397 3  24400461.260 3


  24529034.057 6 128900961.146 6 100442313.387 4  24529036.472 4  24529033.722 4


  21897185.121 7 115070556.741 7  89665393.148 6  21897184.694 6  21897183.986 6


  20969136.127 8 110193667.154 8  85865259.525 9  20969138.025 9  20969135.667 9
  20969137.303 8  82287550.211 8

  21337688.647 8 112130367.480 8  87374346.853 6  21337689.774 6  21337688.518 6
  21337691.529 8  83733760.968 8

  23017666.485 6 120958735.250 6  94253611.097 4  23017668.830 4  23017666.293 4
  23017671.641 7  90326398.441 7

  25188123.737 5 132364496.207 5 103141170.995 3  25188127.702 3  25188123.429 3


  21459080.258 8 112768375.791 8  87871541.297 8  21459080.112 8  21459079.820 8


  21537555.893 8 113180661.521 8  88192759.628 8  21537559.371 8  21537555.768 8
  21537559.428 8  84518066.452 8

 23  8 31 14 15 30.0000000  0 10G30G16G05G20G09G11G04G29G07G06
  22831579.554 7 119980877.984 7  93491667.385 7  22831583.560 7  22831578.718 7
  22831583.342 8  89596193.886 8

  24398223.915 6 128213615.476 6  99906677.744 3  24398226.239 3  24398222.583 3


  24508899.333 6 128795152.693 6 100359865.348 4  24508901.951 4  24508899.029 4


  21881791.753 7 114989666.048 7  89602361.485 6  21881791.711 6  21881790.618 6


  20979884.608 8 110250151.487 8  85909273.278 9  20979886.600 9  20979884.148 9
  20979885.935 8  82329730.051 8

  21336164.412 8 112122359.744 8  87368107.060 6  21336165.683 6  21336164.283 6
  21336167.710 8  83727781.167 8

  23034858.097 6 121049077.023 6  94324007.220 4  23034860.286 4  23034857.910 4
  23034863.181 8  90393861.372 8

  25183987.257 5 132342753.880 5 103124228.960 2  25183989.376 2  25183986.994 2


  21450024.624 8 112720788.023 8  87834459.956 8  21450024.523 8  21450024.164 8


  21552107.103 7 113257129.152 7  88252344.757 8  21552110.463 8  21552106.978 8
  21552110.819 8  84575168.847 8

 23  8 31 14 16  0.0000000  0 10G30G16G05G20G09G11G04G29G07G06
  22813405.897 7 119885375.698 7  93417250.145 7  22813409.862 7  22813405.075 7
  22813409.849 8  89524877.401 8

  24396100.091 6 128202452.411 6  99897979.327 3  24396102.007 3  24396098.777 3


  24488772.584 6 128689387.641 6 100277451.118 4  24488775.768 4  24488772.276 4


  21866446.684 7 114909029.433 7  89539527.809 6  21866447.203 6  21866445.558 6


  20990692.084 8 110306944.913 8  85953527.882 9  20990694.075 9  20990691.624 9
  20990693.370 8  82372140.708 8

  21334757.752 8 112114966.703 8  87362346.246 6  21334758.193 6  21334757.627 6
  21334761.039 8  83722260.388 8

  23052073.762 6 121139546.078 6  94394502.519 4  23052075.749 4  23052073.566 4
  23052078.933 8  90461419.351 8

  25179954.875 5 132321570.361 5 103107722.339 2  25179958.533 2  25179954.630 2


  21441054.967 8 112673651.300 8  87797730.081 8  21441054.756 8  21441054.538 8


  21566742.714 7 113334039.794 7  88312275.071 8  21566746.587 8  21566742.589 8
  21566746.469 8  84632602.058 8

 23  8 31 14 16 30.0000000  0 10G30G16G05G20G09G11G04G29G07G06
  22795282.498 7 119790136.789 7  93343038.129 7  22795286.282 7  22795281.671 7
  22795286.307 8  89453757.589 8

  24394090.570 6 128191892.770 6  99889751.087 3  24394092.589 3  24394089.256 3


  24468655.513 6 128583672.314 6 100195075.643 4  24468658.792 4  24468655.205 4


  21851152.002 7 114828654.219 7  89476897.813 6  21851151.825 6  21851150.880 6


  21001558.940 8 110364050.999 8  85998026.112 9  21001561.062 9  21001558.484 9
  21001560.295 8  82414784.835 8

  21333469.086 8 112108193.727 8  87357068.597 6  21333469.550 6  21333468.961 6
  21333472.322 8  83717202.646 8

  23069314.304 6 121230145.963 6  94465099.761 4  23069316.329 4  23069314.117 4
  23069319.633 8  90529075.014 8

  25176031.548 5 132300950.836 5 103091655.161 2  25176035.022 2  25176031.267 2


  21432171.847 8 112626971.622 8  87761356.349 8  21432171.766 8  21432171.396 8


  21581463.171 7 113411395.954 7  88372552.542 8  21581466.974 8  21581463.046 8
  21581466.861 8  84690367.960 8

 23  8 31 14 17  0.0000000  0 10G30G16G05G20G09G11G04G29G07G06
  22777208.542 7 119695159.883 7  93269030.271 7  22777212.613 7  22777207.715 7
  22777212.606 8  89382833.416 8

  24392195.430 6 128181933.685 6  99881990.810 3  24392197.167 3  24392194.134 3


  24448547.545 6 128478004.865 6 100112737.512 4  24448550.949 4  24448547.228 4


  21835906.648 7 114748538.597 7  89414470.106 6  21835906.478 6  21835905.522 6


  21012484.438 8 110421464.706 8  86042764.047 9  21012486.507 9  21012483.991 9
  21012485.814 8  82457658.685 8

  21332297.307 8 112102037.628 8  87352271.636 6  21332298.478 6  21332297.182 6
  21332300.824 8  83712605.566 8

  23086578.585 6 121320871.701 6  94535795.062 4  23086580.985 4  23086578.407 4
  23086584.201 8  90596824.662 8

  25172214.262 5 132280892.297 5 103076025.161 3  25172216.944 3  25172213.994 3


  21423375.513 8 112580746.336 8  87725336.685 8  21423374.693 8  21423375.071 8


  21596267.114 7 113489191.666 7  88433172.529 8  21596270.818 8  21596266.994 8
  21596271.013 8  84748462.101 8

 23  8 31 14 17 30.0000000  0 10G30G16G05G20G09G11G04G29G07G06
  22759186.115 7 119600451.321 7  93195231.508 7  22759190.056 7  22759185.293 7
  22759189.943 8  89312109.635 8

  24390415.372 6 128172580.211 6  99874702.453 3  24390417.369 3  24390414.094 3


  24428449.739 6 128372390.800 6 100030440.961 4  24428452.772 4  24428449.418 4


  21820711.899 7 114668688.690 7  89352249.440 6  21820711.234 6  21820710.777 6


  21023469.042 8 110479188.718 8  86087743.780 9  21023470.974 9  21023468.591 9
  21023470.292 8  82500764.259 8

  21331244.514 7 112096502.846 7  87347958.821 6  21331245.290 6  21331244.389 6
  21331247.587 8  83708472.444 8

  23103867.986 6 121411726.022 6  94606590.563 5  23103870.042 5  23103867.826 5
  23103873.338 8  90664670.324 8

  25168505.785 5 132261399.486 5 103060835.964 3  25168508.078 3  25168505.531 3


  21414666.286 8 112534980.778 8  87689675.245 8  21414665.507 8  21414665.817 8


  21611155.133 7 113567428.569 7  88494136.295 8  21611159.228 8  21611155.013 8
  21611158.808 8  84806885.701 8

 23  8 31 14 18  0.0000000  0 10G30G16G05G20G09G11G04G29G07G06
  22741214.092 7 119506006.066 7  93121637.906 7  22741217.594 7  22741213.270 7
  22741217.404 8  89241582.459 8

  24388749.535 6 128163825.679 6  99867880.790 3  24388751.009 3  24388748.279 3


  24408361.431 6 128266824.520 6  99948181.627 4  24408363.930 4  24408361.136 4


  21805566.460 7 114589099.343 7  89290231.814 6  21805566.446 6  21805565.343 6


  21034510.945 8 110537214.338 8  86132958.535 9  21034512.868 9  21034510.494 9
  21034512.179 8  82544095.064 8

  21330307.984 8 112091582.451 8  87344124.752 6  21330309.234 6  21330307.850 6
  21330311.329 8  83704798.123 8

  23121179.909 6 121502700.249 6  94677479.506 5  23121182.194 5  23121179.766 5
  23121185.134 8  90732605.538 8

  25164902.695 5 132242465.304 5 103046082.057 3  25164905.572 3  25164902.396 3


  21406044.110 8 112489668.819 8  87654367.269 8  21406043.153 8  21406043.654 8


  21626125.334 7 113646096.976 7  88555436.289 8  21626129.655 8  21626125.209 8
  21626128.895 8  84865631.524 8

 23  8 31 14 18 30.0000000  0 10G30G16G05G20G09G11G04G29G07G06
  22723293.517 7 119411834.895 7  93048257.881 7  22723297.575 7  22723292.695 7
  22723297.164 8  89171259.965 8

  24387199.647 6 128155679.706 6  99861533.331 3  24387201.296 3  24387198.427 3


  24388284.260 6 128161315.674 6  99865967.036 4  24388286.451 4  24388283.988 4


  21790472.458 7 114509780.885 7  89228425.269 6  21790472.509 6  21790471.345 6


  21045611.666 8 110595548.688 8  86178413.854 9  21045613.506 9  21045611.215 9
  21045612.798 8  82587656.413 8

  21329490.083 8 112087285.329 8  87340776.348 6  21329491.631 6  21329489.940 6
  21329493.599 8  83701589.234 8

  23138515.891 6 121593801.529 6  94748467.442 5  23138518.259 5  23138515.748 5
  23138521.232 8  90800635.637 8

  25161407.239 5 132224099.047 5 103031770.737 2  25161409.276 2  25161406.985 2


  21397509.647 8 112444819.815 8  87619420.044 8  21397508.748 8  21397509.205 8


  21641178.919 7 113725202.956 7  88617077.255 8  21641182.850 8  21641178.799 8
  21641182.299 8  84924704.104 8

 23  8 31 14 19  0.0000000  0 10G30G16G05G20G09G11G04G29G07G06
  22705425.037 7 119317934.268 7  92975088.664 7  22705428.994 7  22705424.219 7
  22705428.206 8  89101139.483 8

  24385764.259 6 128148136.824 6  99855655.809 3  24385765.521 3  24385763.133 3


  24368216.453 6 128055860.841 6  99783794.529 4  24368219.714 4  24368216.221 4


  21775429.469 7 114430729.899 7  89166827.142 6  21775429.398 6  21775428.347 6


  21056769.733 8 110654184.562 8  86224104.130 9  21056771.503 9  21056769.282 9
  21056770.956 8  82631442.920 8

  21328790.133 8 112083605.966 8  87337909.305 6  21328790.771 6  21328789.990 6
  21328793.423 8  83698841.651 8

  23155874.596 6 121685022.747 6  94819548.821 5  23155877.177 5  23155874.436 5
  23155880.155 8  90868755.276 8

  25158019.471 5 132206295.524 5 103017897.904 3  25158021.642 3  25158019.252 3


  21389062.176 8 112400429.177 8  87584829.993 8  21389061.165 8  21389061.734 8


  21656313.960 7 113804738.273 7  88679052.767 8  21656317.977 8  21656313.840 8
  21656317.350 8  84984097.296 8

 23  8 31 14 19 30.0000000  0 10G30G16G05G20G09G11G04G29G07G06
  22687608.216 7 119224308.182 7  92902133.378 8  22687612.656 8  22687607.398 8
  22687611.506 8  89031224.005 8

  24384444.032 6 128141200.085 6  99850250.611 3  24384445.740 3  24384442.968 3


  24348159.557 6 127950462.505 6  99701666.073 4  24348162.838 4  24348159.352 4


  21760438.110 7 114351950.009 7  89105440.261 6  21760437.836 6  21760436.988 6


  21067985.276 8 110713122.381 8  86270029.692 9  21067987.144 9  21067984.825 9
  21067986.497 8  82675454.911 8

  21328207.617 8 112080546.451 8  87335525.264 6  21328208.162 6  21328207.474 6
  21328211.335 8  83696556.951 8

  23173256.510 7 121776364.378 7  94890724.035 5  23173259.115 5  23173256.314 5
  23173261.877 8  90936964.834 8

  25154738.500 5 132189056.528 5 103004464.898 3  25154741.420 3  25154738.214 3


  21380702.763 8 112356499.612 8  87550599.231 8  21380701.190 8  21380702.321 8


  21671530.495 7 113884702.291 7  88741362.335 8  21671534.827 8  21671530.375 8
  21671534.096 8  85043810.618 8

 23  8 31 14 20  0.0000000  0 10G30G16G05G20G09G11G04G29G07G06
  22669844.591 7 119130959.912 7  92829394.560 7  22669848.629 7  22669843.769 7
  22669847.683 8  88961515.978 8

  24383240.066 6 128134871.043 6  99845318.951 3  24383241.315 3  24383239.069 3


  24328113.952 6 127845123.770 6  99619584.052 4  24328117.263 4  24328113.756 4


  21745498.963 7 114273444.363 7  89044267.068 6  21745498.362 6  21745497.832 6


  21079258.284 8 110772361.782 8  86316190.247 9  21079260.211 9  21079257.828 9
  21079259.354 8  82719692.108 8

  21327743.951 8 112078108.131 8  87333625.269 6  21327744.523 6  21327743.808 6
  21327747.305 8  83694736.124 8

  23190661.204 7 121867826.137 7  94961992.865 5  23190663.762 5  23190660.976 5
  23190666.554 8  91005264.115 8

  25151565.914 5 132172383.942 5 102991473.292 2  25151568.081 2  25151565.615 2


  21372431.128 8 112313033.315 8  87516729.433 8  21372429.536 8  21372430.686 8


  21686828.556 7 113965093.568 7  88804004.824 8  21686832.951 8  21686828.436 8
  21686832.266 8  85103842.998 8

 23  8 31 14 20 30.0000000  0 10G30G16G05G20G09G11G04G29G07G06
  22652133.867 7 119037889.575 7  92756872.297 8  22652137.733 8  22652133.040 8
  22652137.114 8  88892015.497 8

  24382150.578 6 128129148.251 6  99840859.673 3  24382151.891 3  24382149.626 3


  24308080.078 6 127739844.019 6  99537548.010 4  24308082.921 4  24308079.873 4


  21730612.134 7 114195213.109 7  88983307.694 6  21730611.406 6  21730611.017 6


  21090587.538 8 110831899.264 8  86362583.077 9  21090589.835 9  21090587.087 9
  21090589.016 8  82764151.897 8

  21327397.614 8 112076289.084 8  87332207.821 6  21327398.473 6  21327397.471 6
  21327401.017 8  83693377.744 8

  23208088.005 6 121959404.550 6  95033352.589 5  23208090.565 5  23208087.773 5
  23208093.472 8  91073650.506 8

  25148500.677 5 132156275.719 5 102978921.488 3  25148503.142 3  25148500.378 3


  21364247.897 8 112270029.236 8  87483219.807 8  21364246.129 8  21364247.446 8


  21702207.278 7 114045907.551 7  88866976.694 8  21702211.532 8  21702207.167 8
  21702210.707 8  85164191.029 8

