     2.11           OBSERVATION DATA    G (GPS)             RINEX VERSION / TYPE
teqc  2019Feb25                         20231112 14:24:49UTCPGM / RUN BY / DATE
BRET                                                        MARKER NAME
10019M001                                                   MARKER NUMBER
Automatic           Lycee JP Timbaud - Bretigny-sur-Orge    OBSERVER / AGENCY
1700681             LEICA GR10          2.00/4.007          REC # / TYPE / VERS
11361006            LEIAS10         NONE                    ANT # / TYPE
  4221686.5280   170665.6260  4762123.8060                  APPROX POSITION XYZ
        0.0000        0.0000        0.0000                  ANTENNA: DELTA H/E/N
     1     1                                                WAVELENGTH FACT L1/2
     6    C1    L1    D1    P2    L2    D2                  # / TYPES OF OBSERV
    30.0000                                                 INTERVAL
Linux 2.6.32-573.12.1.x86_64|x86_64|gcc|Linux 64|=+         COMMENT
teqc  2019Feb25                         20231112 14:24:47UTCCOMMENT
     2.11           OBSERVATION DATA    M (MIXED)           COMMENT
teqc  2019Feb25     IGN-RGP             20231109 09:04:33UTCCOMMENT
teqc  2019Feb25     Administrateur RGP  20231109 09:04:33UTCCOMMENT
teqc  2019Feb25     IGN-RGP             20231109 09:04:32UTCCOMMENT
GR10 V3.01                              2023 11 09 08:59    COMMENT
                                                            COMMENT
                                                            COMMENT
    18                                                      LEAP SECONDS
BIT 2 OF LLI FLAGS DATA COLLECTED UNDER A/S CONDITION       COMMENT
SNR is mapped to RINEX snr flag value [1-9]                 COMMENT
LX:     = 25dBHz -> 1; 26-27dBHz -> 2; 28-31dBHz -> 3       COMMENT
       32-35dBHz -> 4; 36-38dBHz -> 5; 39-41dBHz -> 6       COMMENT
       42-44dBHz -> 7; 45-48dBHz -> 8; >= 49dBHz -> 9       COMMENT
teqc_2019 edited: GLONASS # 25 - 30 excluded                COMMENT
Forced Modulo Decimation to 30 seconds                      COMMENT
teqc_2019 edited: GLONASS # 25 - 30 excluded                COMMENT
teqc_2019 edited: all GLONASS satellites excluded           COMMENT
teqc_2019 edited: all SBAS satellites excluded              COMMENT
teqc_2019 edited: all Galileo satellites excluded           COMMENT
  2023    11     9     8     0    0.0000000     GPS         TIME OF FIRST OBS
                                                            END OF HEADER
 23 11  9  8  0  0.0000000  0  9G03G04G06G07G09G11G17G19G31
  22849107.829   120072850.300 8     -2897.462    22849109.887    93563256.49448
     -2257.766
  20708250.576   108822586.526 8     -1498.344    20708249.212    84796819.01848
     -1167.542
  20705328.601   108807215.687 9      1002.782    20705328.914    84784838.04449
       781.388
  24188983.991   127113988.331 7      3312.377    24188986.185    99049876.92947
      2581.079
  20248326.552   106405677.444 9       761.445    20248326.064    82913526.45149
       593.334
  23113527.041   121462377.906 8      3018.829    23113524.211    94645988.84547
      2352.335
  24377131.936   128102598.544 6     -3201.697    24377133.136    99820176.36246
     -2494.836
  23111086.975   121449530.111 8     -3079.018    23111084.199    94635957.44447
     -2399.239
  24545002.112   128984813.565 7     -2913.479    24545001.890   100507621.48447
     -2270.249
 23 11  9  8  0 30.0000000  0  9G03G04G06G07G09G11G17G19G31
  22865665.271   120159859.793 8     -2903.020    22865667.317    93631056.00248
     -2262.097
  20716843.643   108867743.314 8     -1512.119    20716842.292    84832006.09047
     -1178.276
  20699654.443   108777397.672 9       984.891    20699654.760    84761603.19749
       767.446
  24170080.766   127014651.996 7      3309.815    24170082.969    98972472.12847
      2579.080
  20244025.541   106383075.427 9       745.367    20244025.061    82895914.48749
       580.806
  23096318.965   121371948.916 8      3009.730    23096316.209    94575524.66647
      2345.243
  24395413.730   128198669.158 6     -3203.117    24395414.953    99895036.38646
     -2495.942
  23128692.324   121542046.167 7     -3088.781    23128689.565    94708047.71947
     -2406.850
  24561671.215   129072409.927 7     -2926.185    24561671.026   100575878.28447
     -2280.151
 23 11  9  8  1  0.0000000  0  9G03G04G06G07G09G11G17G19G31
  22882255.209   120247039.999 8     -2908.948    22882257.254    93698988.52448
     -2266.717
  20725516.021   108913316.913 8     -1526.086    20725514.679    84867517.95747
     -1189.158
  20694083.403   108748121.578 9       966.876    20694083.714    84738790.63649
       753.409
  24151192.709   126915395.201 7      3307.170    24151194.910    98895129.26747
      2577.018
  20239816.991   106360959.255 9       729.076    20239816.512    82878681.09949
       568.111
  23079165.306   121281805.822 8      2999.752    23079162.626    94505283.25347
      2337.468
  24413703.938   128294783.810 6     -3204.382    24413705.177    99969930.69146
     -2496.931
  23146353.615   121634856.323 7     -3098.579    23146350.880    94780367.18246
     -2414.479
  24578413.009   129160388.042 7     -2939.081    24578412.857   100644432.50147
     -2290.197
 23 11  9  8  1 30.0000000  0  9G03G04G06G07G09G11G17G19G31
  22898878.379   120334394.850 8     -2914.819    22898880.432    93767057.13447
     -2271.291
  20734268.288   108959310.357 8     -1540.276    20734266.954    84903356.97847
     -1200.217
  20688616.670   108719393.626 9       948.289    20688616.970    84716405.20249
       738.926
  24132321.281   126816225.543 7      3303.927    24132323.459    98817854.27048
      2574.490
  20235701.782   106339333.617 9       712.607    20235701.298    82861829.95349
       555.278
  23062067.411   121191955.827 8      2990.071    23062064.808    94435270.24647
      2329.925
  24432002.875   128390944.080 5     -3206.383    24432004.143   100044860.47745
     -2498.490
  23164071.152   121727962.015 7     -3108.236    23164068.432    94852916.93046
     -2422.007
  24595227.894   129248750.183 7     -2951.722    24595227.748   100713285.97247
     -2300.049
 23 11  9  8  2  0.0000000  0  9G03G04G06G07G09G11G17G19G31
  22915534.034   120421920.430 8     -2920.664    22915536.110    93835258.77648
     -2275.845
  20743099.502   109005718.698 8     -1554.006    20743098.179    84939519.30048
     -1210.914
  20683253.919   108691212.098 9       930.031    20683254.205    84694445.55649
       724.699
  24113466.232   126717141.692 8      3301.185    24113468.368    98740646.09947
      2572.354
  20231679.299   106318195.250 9       696.361    20231678.813    82845358.49449
       542.619
  23045025.184   121102398.378 8      2980.080    23045022.666    94365485.19147
      2322.141
  24450309.266   128487143.671 6     -3207.799    24450310.579   100119820.90846
     -2499.593
  23181843.600   121821356.294 7     -3118.061    23181840.866    94925691.57346
     -2429.662
  24612114.663   129337490.110 7     -2964.409    24612114.506   100782433.83247
     -2309.933
 23 11  9  8  2 30.0000000  0  8G03G04G06G07G09G11G19G31
  22932222.148   120509616.630 8     -2925.815    22932224.243    93903593.37748
     -2279.859
  20752009.497   109052540.977 8     -1567.480    20752008.188    84976004.16047
     -1221.415
  20677995.569   108663579.148 9       912.478    20677995.835    84672913.36249
       711.021
  24094628.213   126618147.115 8      3298.657    24094630.302    98663507.47048
      2570.382
  20227749.649   106297544.761 9       680.521    20227749.168    82829267.20149
       530.276
  23028039.253   121013136.697 8      2970.530    23028036.821    94295930.59247
      2314.697
  23199670.444   121915036.277 7     -3127.268    23199667.725    94998688.78446
     -2436.838
  24629072.884   129426605.377 7     -2976.572    24629072.714   100851874.14247
     -2319.413
 23 11  9  8  3  0.0000000  0  7G03G04G06G07G09G11G19
  22948943.954   120597489.843 8     -2932.782    22948946.080    93972065.89648
     -2285.290
  20760999.270   109099782.535 8     -1582.427    20760997.967    85012815.74548
     -1233.062
  20672843.237   108636503.348 9       892.511    20672843.479    84651815.32049
       695.462
  24075809.022   126519251.481 7      3294.214    24075811.073    98586445.95347
      2566.920
  20223914.163   106277389.133 9       662.838    20223913.689    82813561.51549
       516.496
  23011111.428   120924180.411 8      2959.412    23011109.078    94226613.97947
      2306.035
  23217552.386   122009005.991 7     -3137.743    23217549.707    95071911.78446
     -2445.000
 23 11  9  8  3 30.0000000  0  7G03G04G06G07G09G11G19
  22965696.809   120685526.312 8     -2937.617    22965698.985    94040665.63047
     -2289.056
  20770066.047   109147428.683 9     -1595.199    20770064.745    85049942.58548
     -1243.013
  20667794.737   108609973.149 9       875.048    20667794.964    84631142.41149
       681.854
  24057006.688   126420444.551 7      3291.788    24057008.729    98509453.56147
      2565.029
  20220170.364   106257715.307 9       647.451    20220169.896    82798231.25349
       504.508
  22994239.766   120835519.202 8      2950.078    22994237.500    94157527.28447
      2298.761
  23235486.401   122103249.358 7     -3146.105    23235483.762    95145348.02346
     -2451.517
 23 11  9  8  4  0.0000000  0  7G03G04G06G07G09G11G19
  22982482.057   120773732.991 8     -2943.243    22982484.307    94109397.98047
     -2293.440
  20779210.976   109195485.446 9     -1609.112    20779209.671    85087389.37747
     -1253.854
  20662851.796   108583997.690 9       856.302    20662852.015    84610901.76949
       667.247
  24038223.081   126321736.243 7      3288.338    24038225.145    98432538.03147
      2562.341
  20216519.689   106238530.886 9       631.117    20216519.224    82783282.34949
       491.779
  22977426.212   120747163.319 8      2939.753    22977424.029    94088678.50147
      2290.714
  23253473.274   122197770.567 7     -3155.372    23253470.672    95219000.77446
     -2458.736
 23 11  9  8  4 30.0000000  0  7G03G04G06G07G09G11G19
  22999299.116   120862106.852 8     -2948.715    22999301.432    94178260.61048
     -2297.705
  20788433.278   109243948.752 9     -1622.209    20788431.964    85125152.95547
     -1264.061
  20658014.241   108558576.056 9       838.148    20658014.462    84591092.67749
       653.102
  24019458.182   126223126.593 7      3285.352    24019460.284    98355699.43147
      2560.018
  20212961.695   106219833.457 9       615.049    20212961.232    82768712.91249
       479.259
  22960670.799   120659112.990 8      2929.864    22960668.693    94020067.82047
      2283.010
  23271511.754   122292563.025 7     -3164.300    23271509.212    95292864.86146
     -2465.694
 23 11  9  8  5  0.0000000  0  7G03G04G06G07G09G11G19
  23016147.392   120950644.762 8     -2954.050    23016149.764    94247251.07248
     -2301.860
  20797732.188   109292814.570 9     -1635.800    20797730.867    85163230.16948
     -1274.651
  20653281.894   108533707.310 9       819.436    20653282.129    84571714.40349
       638.520
  24000712.168   126124616.195 7      3281.700    24000714.307    98278938.16947
      2557.172
  20209495.900   106201620.515 9       598.700    20209495.438    82754520.99549
       466.519
  22943973.604   120571368.523 8      2919.432    22943971.568    93951695.46547
      2274.880
  23289600.942   122387622.095 7     -3173.359    23289598.459    95366936.72246
     -2472.752
 23 11  9  8  5 30.0000000  0  7G03G04G06G07G09G11G19
  23033027.398   121039349.384 8     -2959.721    23033029.819    94316371.43148
     -2306.281
  20807107.985   109342084.477 9     -1649.168    20807106.656    85201622.27148
     -1285.067
  20648655.643   108509396.166 9       801.039    20648655.893    84552770.63549
       624.187
  23981986.110   126026210.753 7      3278.338    23981988.264    98202258.72947
      2554.554
  20206122.900   106183895.262 9       582.636    20206122.443    82740709.10149
       454.002
  22927335.728   120483935.823 8      2909.226    22927333.759    93883566.05847
      2266.928
  23307740.893   122482947.755 7     -3181.995    23307738.460    95441216.31246
     -2479.482
 23 11  9  8  6  0.0000000  0  7G03G04G06G07G09G11G19
  23049938.767   121128218.853 8     -2964.878    23049941.220    94385620.25648
     -2310.299
  20816560.145   109391755.716 9     -1662.336    20816558.814    85240327.10648
     -1295.327
  20644135.569   108485642.964 9       782.521    20644135.830    84534261.62749
       609.756
  23963280.287   125927911.607 7      3275.028    23963282.424    98125662.14147
      2551.976
  20202842.471   106166656.492 9       566.637    20202842.026    82727276.28749
       441.535
  22910757.444   120396816.384 8      2898.902    22910755.538    93815680.77047
      2258.885
  23325930.681   122578535.282 7     -3190.477    23325928.289    95515699.96246
     -2486.089
 23 11  9  8  6 30.0000000  0  7G03G04G06G07G09G11G19
  23066881.541   121217253.226 8     -2970.388    23066884.011    94454997.56648
     -2314.593
  20826088.494   109441827.291 9     -1675.521    20826087.176    85279343.87548
     -1305.601
  20639722.073   108462449.778 9       763.932    20639722.338    84516188.98849
       595.271
  23944595.319   125829721.952 7      3271.211    23944597.409    98049150.88447
      2549.002
  20199654.734   106149904.784 9       550.337    20199654.306    82714222.99449
       428.834
  22894239.442   120310013.643 8      2888.271    22894237.598    93748042.23847
      2250.600
  23344169.820   122674382.071 7     -3199.112    23344167.476    95590385.60746
     -2492.816
 23 11  9  8  7  0.0000000  0  7G03G04G06G07G09G11G19
  23083855.411   121306450.948 8     -2975.842    23083857.898    94524502.14448
     -2318.843
  20835692.545   109492296.678 8     -1688.877    20835691.251    85318670.61948
     -1316.010
  20635415.246   108439817.108 9       745.129    20635415.508    84498553.11449
       580.619
  23925931.578   125731643.778 7      3267.275    23925933.599    97972726.50548
      2545.936
  20196559.494   106133639.154 9       534.126    20196559.083    82701548.46249
       416.201
  22877782.022   120223529.320 8      2877.541    22877780.227    93680651.84047
      2242.239
  23362457.440   122770483.668 7     -3207.654    23362455.130    95665269.82246
     -2499.476
 23 11  9  8  7 30.0000000  0  8G03G04G06G07G09G11G19G20
  23100860.355   121395812.009 8     -2981.435    23100862.857    94594134.01148
     -2323.200
  20845372.092   109543162.860 8     -1702.207    20845370.827    85358306.56247
     -1326.396
  20631215.471   108417746.991 9       726.324    20631215.725    84481355.59649
       565.966
  23907289.581   125633680.001 7      3263.810    23907291.531    97896391.29247
      2543.235
  20193556.850   106117860.127 9       517.834    20193556.450    82689253.10649
       403.507
  22861385.838   120137366.749 8      2866.673    22861384.083    93613512.15447
      2233.771
  23380793.147   122866837.952 7     -3215.790    23380790.837    95740350.95746
     -2505.815
  24673331.150   129659228.910 6      3297.943    24673330.492   101033168.87345
      2569.817
 23 11  9  8  8  0.0000000  0  8G03G04G06G07G09G11G19G20
  23117896.217   121485335.474 8     -2986.646    23117898.719    94663892.42048
     -2327.263
  20855126.781   109594423.878 8     -1715.091    20855125.545    85398250.15747
     -1336.437
  20627122.969   108396240.554 9       707.632    20627123.216    84464597.29849
       551.399
  23888669.849   125535833.256 7      3259.811    23888671.756    97820147.24747
      2540.117
  20190646.736   106102567.290 9       501.827    20190646.337    82677336.59449
       391.033
  22845051.347   120051528.322 8      2856.057    22845049.625    93546625.04347
      2225.499
  23399176.286   122963441.277 7     -3224.141    23399174.000    95815626.10746
     -2512.324
  24654507.225   129560302.037 6      3297.318    24654505.843   100956082.86944
      2569.330
 23 11  9  8  8 30.0000000  0  8G03G04G06G07G09G11G19G20
  23134964.781   121575030.810 8     -2992.390    23134967.276    94733784.76548
     -2331.735
  20864958.201   109646088.192 8     -1728.590    20864956.989    85438508.02347
     -1346.955
  20623139.896   108375309.269 9       688.391    20623140.138    84448287.19249
       536.408
  23870074.787   125438116.305 7      3255.322    23870076.660    97744004.35148
      2536.620
  20187831.042   106087770.650 9       485.174    20187830.636    82665806.73649
       378.057
  22828780.992   119966026.877 8      2844.650    22828779.291    93480000.51047
      2216.609
  23417608.088   123060300.314 7     -3232.617    23417605.860    95891100.50046
     -2518.930
  24635686.279   129461396.218 6      3296.776    24635684.332   100879013.27545
      2568.911
 23 11  9  8  9  0.0000000  0  8G03G04G06G07G09G11G19G20
  23152061.561   121664874.265 8     -2997.062    23152064.061    94803792.48448
     -2335.378
  20874861.660   109698131.041 8     -1740.960    20874860.471    85479060.84447
     -1356.594
  20619262.129   108354931.345 9       670.129    20619262.377    84432408.26649
       522.178
  23851500.406   125340507.980 8      3252.142    23851502.253    97667946.07048
      2534.141
  20185105.352   106073446.950 9       469.806    20185104.938    82654645.39749
       366.082
  22812570.852   119880841.898 8      2834.487    22812569.163    93413622.58847
      2208.690
  23436083.504   123157388.674 7     -3239.842    23436081.344    95966753.59346
     -2524.558
  24616865.011   129362489.451 6      3297.146    24616863.046   100801942.95445
      2569.198
 23 11  9  8  9 30.0000000  0  8G03G04G06G07G09G11G19G20
  23169189.025   121754879.055 8     -3002.817    23169191.528    94873925.94148
     -2339.864
  20884839.473   109750564.648 8     -1754.112    20884838.299    85519918.15647
     -1366.841
  20615492.547   108335122.000 9       651.075    20615492.809    84416972.39649
       507.331
  23832949.959   125243025.333 7      3247.459    23832951.764    97591985.70147
      2530.491
  20182472.271   106059609.916 9       453.257    20182471.843    82643863.28549
       353.187
  22796424.085   119795990.028 8      2822.926    22796422.405    93347504.24847
      2199.683
  23454604.606   123254717.194 7     -3248.065    23454602.479    96042593.85846
     -2530.963
  24598046.489   129263596.964 6      3296.352    24598044.596   100724883.75545
      2568.583
 23 11  9  8 10  0.0000000  0  8G03G04G06G07G09G11G19G20
  23186346.442   121845041.254 8     -3007.977    23186348.953    94944182.05948
     -2343.885
  20894890.697   109803384.031 8     -1766.872    20894889.537    85561076.07247
     -1376.785
  20611830.782   108315879.248 9       632.160    20611831.067    84401978.02549
       492.592
  23814423.298   125145667.616 7      3243.373    23814425.047    97516122.67647
      2527.309
  20179931.135   106046256.051 9       437.172    20179930.693    82633457.66549
       340.654
  22780340.586   119711470.597 8      2811.911    22780338.929    93281644.93247
      2191.101
  23473170.212   123352279.528 7     -3255.875    23473168.088    96118616.32446
     -2537.049
  24579230.271   129164716.362 7      3295.925    24579228.428   100647833.80445
      2568.248
 23 11  9  8 10 30.0000000  0  8G03G04G06G07G09G11G19G20
  23203534.714   121935365.610 7     -3013.588    23203537.244    95014564.52947
     -2348.255
  20905016.026   109856592.902 8     -1780.182    20905014.875    85602537.50047
     -1387.155
  20608278.111   108297209.802 9       612.658    20608278.416    84387430.39549
       477.396
  23795921.877   125048442.594 7      3238.610    23795923.576    97440363.07247
      2523.599
  20177482.943   106033390.608 9       420.735    20177482.488    82623432.63449
       327.846
  22764321.871   119627291.716 8      2800.187    22764320.244    93216050.99747
      2181.964
  23491780.660   123450077.325 6     -3263.933    23491778.571    96194822.21346
     -2543.330
  24560417.591   129065854.373 7      3295.142    24560415.737   100570798.35945
      2567.638
 23 11  9  8 11  0.0000000  0  8G03G04G06G07G09G11G19G20
  23220752.559   122025845.429 8     -3018.331    23220755.108    95085068.14448
     -2351.949
  20915214.020   109910183.586 8     -1792.399    20915212.880    85644296.43147
     -1396.675
  20604833.620   108279108.824 9       594.293    20604833.935    84373325.72949
       463.086
  23777445.101   124951346.967 7      3234.773    23777446.766    97364704.27547
      2520.607
  20175126.501   106021007.319 9       405.064    20175126.034    82613783.30649
       315.635
  22748367.311   119543449.966 8      2789.534    22748365.716    93150719.75747
      2173.664
  23510434.129   123548101.291 6     -3270.633    23510432.113    96271204.33646
     -2548.551
  24541607.456   128967005.997 7      3294.897    24541605.606   100493773.55645
      2567.450
 23 11  9  8 11 30.0000000  0  8G03G04G06G07G09G11G19G20
  23238000.270   122116482.092 8     -3023.800    23238002.845    95155693.95248
     -2356.213
  20925484.731   109964156.402 8     -1805.461    20925483.606    85686353.12647
     -1406.855
  20601497.939   108261579.623 9       574.765    20601498.254    84359666.60349
       447.869
  23758993.844   124854385.404 7      3229.869    23758995.478    97289149.94147
      2516.785
  20172862.153   106009108.019 9       388.524    20172861.679    82604511.11249
       302.746
  22732477.809   119459950.098 8      2777.701    22732476.249    93085654.91747
      2164.442
  23529130.432   123646350.365 7     -3278.559    23529128.518    96347761.85546
     -2554.729
  24522800.620   128868174.842 7      3294.115    24522798.793   100416762.12945
      2566.839
 23 11  9  8 12  0.0000000  0  8G03G04G06G07G09G11G19G20
  23255277.792   122207275.400 7     -3028.930    23255280.388    95226441.82447
     -2360.211
  20935827.900   110018510.049 8     -1818.053    20935826.784    85728706.58647
     -1416.665
  20598271.381   108244623.865 9       555.687    20598271.687    84346454.31649
       433.003
  23740568.609   124757560.713 7      3225.279    23740570.234    97213702.27347
      2513.209
  20170689.929   105997692.884 9       372.609    20170689.448    82595616.19549
       290.346
  22716653.958   119376795.237 8      2766.176    22716652.428    93020858.91747
      2155.462
  23547868.977   123744821.516 7     -3286.178    23547867.147    96424492.45646
     -2560.662
  24503997.252   128769362.137 7      3293.513    24503995.471   100339765.10245
      2566.370
 23 11  9  8 12 30.0000000  0  8G03G04G06G07G09G11G19G20
  23272584.762   122298223.476 7     -3034.220    23272587.381    95297310.29547
     -2364.332
  20946243.011   110073241.708 8     -1830.735    20946241.905    85771354.59147
     -1426.548
  20595153.944   108228241.555 9       536.411    20595154.237    84333688.87349
       417.982
  23722169.714   124660874.488 7      3220.534    23722171.358    97138362.48047
      2509.511
  20168609.581   105986760.539 9       356.293    20168609.096    82587097.47149
       277.630
  22700896.054   119293986.808 8      2754.480    22700894.551    92956332.84247
      2146.347
  23566648.938   123843510.228 7     -3293.363    23566647.164    96501392.58346
     -2566.263
  24485197.398   128670567.996 7      3292.751    24485195.694   100262782.55445
      2565.781
 23 11  9  8 13  0.0000000  0  8G03G04G06G07G09G11G19G20
  23289920.745   122389324.025 8     -3039.322    23289923.388    95368297.57448
     -2368.309
  20956729.419   110128348.020 9     -1843.241    20956728.316    85814294.53647
     -1436.294
  20592145.533   108212432.167 9       517.336    20592145.816    84321369.86149
       403.118
  23703797.323   124564327.484 7      3216.136    23703798.999    97063131.13948
      2506.083
  20166620.725   105976309.015 9       340.319    20166620.240    82578953.41449
       265.184
  22685204.287   119211525.872 8      2742.782    22685202.802    92892077.53247
      2137.231
  23585469.394   123942411.748 7     -3300.289    23585467.660    96578458.54346
     -2571.659
  24466401.045   128571792.042 7      3292.153    24466399.457   100185814.12145
      2565.312
 23 11  9  8 13 30.0000000  0  8G03G04G06G07G09G11G19G20
  23307286.240   122480579.681 7     -3044.600    23307288.902    95439405.72447
     -2372.423
  20967287.413   110183830.519 8     -1855.721    20967286.307    85857527.61947
     -1446.018
  20589247.000   108197200.187 9       498.075    20589247.277    84309500.77749
       388.110
  23685452.592   124467925.658 7      3211.029    23685454.291    96988012.89047
      2502.102
  20164723.933   105966341.324 9       324.273    20164723.451    82571186.37149
       252.680
  22669579.756   119129418.299 8      2731.135    22669578.282    92828097.58147
      2128.156
  23604330.365   124041526.023 7     -3307.415    23604328.687    96655690.25847
     -2577.213
  24447608.924   128473038.428 6      3291.331    24447607.410   100108863.13344
      2564.669
 23 11  9  8 14  0.0000000  0  8G03G04G06G07G09G11G19G20
  23324680.784   122571988.017 7     -3049.652    23324683.470    95510632.85047
     -2376.356
  20977916.360   110239685.816 8     -1868.204    20977915.253    85901051.18247
     -1455.745
  20586458.234   108182545.025 9       478.779    20586458.517    84298081.15949
       373.074
  23667135.682   124371669.890 8      3206.139    23667137.385    96913008.43948
      2498.291
  20162918.832   105956855.491 9       308.021    20162918.360    82563794.80149
       240.016
  22654022.681   119047665.132 8      2719.138    22654021.214    92764393.76747
      2118.807
  23623230.875   124140848.138 7     -3314.158    23623229.262    96733083.94346
     -2582.467
  24428821.044   128374307.040 6      3290.882    24428819.588   100031929.45145
      2564.321
 23 11  9  8 14 30.0000000  0  8G03G04G06G07G09G11G19G20
  23342104.090   122663547.446 7     -3055.100    23342106.812    95581977.69547
     -2380.602
  20988615.721   110295911.187 8     -1880.630    20988614.615    85944863.12547
     -1465.427
  20583779.255   108168466.782 9       459.232    20583779.559    84287111.07749
       357.843
  23648846.851   124275561.514 8      3200.745    23648848.541    96838118.81748
      2494.088
  20161205.171   105947850.191 9       291.752    20161204.714    82556777.67649
       227.339
  22638533.321   118966267.946 8      2706.898    22638531.852    92700967.36647
      2109.270
  23642170.105   124240373.775 7     -3321.402    23642168.552    96810636.23646
     -2588.109
  24410037.358   128275597.935 6      3289.611    24410036.003    99955013.16345
      2563.332
 23 11  9  8 15  0.0000000  0  8G03G04G06G07G09G11G19G20
  23359556.126   122755257.931 7     -3059.384    23359558.892    95653440.26547
     -2383.939
  20999385.326   110352505.670 9     -1892.618    20999384.227    85988962.67947
     -1474.769
  20581210.401   108154967.314 9       440.307    20581210.729    84276591.99849
       343.096
  23630586.813   124179604.253 8      3195.976    23630588.486    96763346.91248
      2490.371
  20159583.052   105939325.888 9       276.212    20159582.613    82550135.34449
       215.229
  22623112.353   118885230.172 8      2695.180    22623110.877    92637821.02246
      2100.139
  23661147.566   124340100.312 7     -3327.494    23661146.071    96888345.06445
     -2592.856
  24391258.310   128176913.120 6      3288.782    24391257.088    99878115.77445
      2562.678
 23 11  9  8 15 30.0000000  0  8G03G04G06G07G09G11G19G20
  23377036.816   122847118.962 7     -3064.886    23377039.637    95725020.13047
     -2388.228
  21010224.828   110409467.551 8     -1904.963    21010223.735    86033348.53847
     -1484.388
  20578751.890   108142047.704 9       420.781    20578752.244    84266524.75549
       327.881
  23612355.973   124083800.582 7      3190.529    23612357.625    96688694.71747
      2486.127
  20158052.392   105931282.247 9       260.017    20158051.966    82543867.56949
       202.610
  22607760.279   118804554.492 8      2682.833    22607758.787    92574956.83747
      2090.519
  23680162.627   124440024.543 7     -3334.132    23680161.161    96966207.96545
     -2598.029
  24372484.030   128078253.715 6      3288.355    24372482.881    99801238.29344
      2562.351
 23 11  9  8 16  0.0000000  0  8G03G04G06G07G09G11G19G20
  23394546.077   122939130.243 7     -3069.507    23394548.960    95796717.08647
     -2391.828
  21021134.023   110466795.603 9     -1917.157    21021132.941    86078019.71047
     -1493.890
  20576404.011   108129709.466 9       401.572    20576404.385    84256910.53049
       312.913
  23594154.905   123988153.500 7      3185.522    23594156.552    96614164.55247
      2482.227
  20156613.238   105923719.402 9       244.213    20156612.825    82537974.42949
       190.296
  22592477.710   118724243.987 8      2670.918    22592476.203    92512377.18847
      2081.235
  23699214.799   124540143.726 7     -3340.348    23699213.340    97044222.77545
     -2602.871
  24353714.927   127979621.373 6      3287.479    24353713.825    99724381.87444
      2561.672
 23 11  9  8 16 30.0000000  0  8G03G04G06G07G09G11G19G20
  23412083.352   123031288.788 7     -3074.648    23412086.302    95868528.80048
     -2395.836
  21032112.111   110524485.679 9     -1929.243    21032111.034    86122972.98147
     -1503.308
  20574166.511   108117951.254 9       381.991    20574166.895    84247748.26849
       297.654
  23575983.643   123892663.239 7      3180.437    23575985.300    96539756.60947
      2478.264
  20155265.059   105916634.637 9       228.039    20155264.655    82532453.82549
       177.692
  22577264.700   118644299.001 8      2658.442    22577263.172    92450082.36347
      2071.513
  23718303.020   124640452.140 7     -3346.822    23718301.567    97122385.00345
     -2607.919
  24334950.829   127881015.257 6      3286.193    24334949.737    99647545.88645
      2560.667
 23 11  9  8 17  0.0000000  0  8G03G04G06G07G09G11G19G20
  23429648.548   123123594.050 7     -3079.198    23429651.561    95940454.84647
     -2399.379
  21043158.805   110582536.240 9     -1940.770    21043157.728    86168207.14447
     -1512.289
  20572039.608   108106774.227 9       363.103    20572039.997    84239038.87449
       282.937
  23557842.706   123797332.568 7      3175.358    23557844.384    96465473.06047
      2474.310
  20154007.819   105910027.728 9       212.377    20154007.426    82527305.57049
       165.488
  22562121.768   118564722.270 8      2646.577    22562120.209    92388074.49847
      2062.269
  23737426.610   124740946.456 7     -3352.502    23737425.170    97200692.09146
     -2612.343
  24316191.957   127782436.649 6      3285.768    24316190.846    99570731.36745
      2560.342
 23 11  9  8 17 30.0000000  0  8G03G04G06G07G09G11G19G20
  23447241.937   123216047.366 7     -3084.077    23447245.020    96012496.23547
     -2403.182
  21054274.162   110640947.628 9     -1953.105    21054273.075    86213722.47447
     -1521.902
  20570023.877   108096181.439 9       343.468    20570024.266    84230784.73549
       267.637
  23539732.967   123702166.077 7      3169.701    23539734.678    96391317.48847
      2469.901
  20152841.829   105903900.362 9       196.255    20152841.446    82522530.99049
       152.926
  22547049.811   118485518.522 8      2633.868    22547048.217    92326357.27447
      2052.365
  23756585.381   124841625.684 7     -3358.955    23756583.949    97279143.26746
     -2617.374
  24297438.985   127683888.905 6      3284.442    24297437.854    99493940.89145
      2559.306
 23 11  9  8 18  0.0000000  0  8G03G04G06G07G09G11G19G20
  23464862.686   123308644.436 7     -3088.588    23464865.829    96084649.63847
     -2406.696
  21065457.137   110699714.301 9     -1964.279    21065456.039    86259514.63947
     -1530.609
  20568118.824   108086170.244 9       324.515    20568119.219    84222983.77349
       252.867
  23521654.239   123607162.646 7      3164.249    23521655.980    96317289.01247
      2465.654
  20151766.311   105898248.408 9       180.854    20151765.939    82518126.85449
       140.924
  22532048.627   118406686.658 8      2621.928    22532047.000    92264929.82047
      2043.058
  23775778.010   124942482.839 6     -3364.278    23775776.589    97357733.08446
     -2621.521
  24278691.348   127585369.085 7      3284.005    24278690.195    99417172.15745
      2558.964
 23 11  9  8 18 30.0000000  0  8G03G04G06G07G09G11G19G20
  23482511.766   123401390.365 7     -3093.811    23482514.956    96156919.03647
     -2410.765
  21076708.525   110758840.515 9     -1976.718    21076707.413    86305586.97747
     -1540.301
  20566325.686   108076747.193 9       304.461    20566326.086    84215641.10949
       237.241
  23503608.126   123512330.654 7      3158.312    23503609.862    96243394.17247
      2461.030
  20150782.297   105893077.332 9       164.484    20150781.930    82514097.43449
       128.170
  22517119.804   118328235.148 8      2608.767    22517118.140    92203798.76747
      2032.806
  23795005.036   125043520.699 7     -3370.729    23795003.638    97436463.68846
     -2626.549
  24259950.460   127486884.731 7      3282.391    24259949.266    99340431.07945
      2557.709
 23 11  9  8 19  0.0000000  0  8G03G04G06G07G09G11G19G20
  23500188.015   123494278.997 7     -3098.632    23500191.251    96229299.61047
     -2414.523
  21088026.936   110818318.922 9     -1988.489    21088025.818    86351933.74747
     -1549.476
  20564643.628   108067907.835 9       284.864    20564644.031    84208753.26949
       221.971
  23485594.117   123417667.196 8      3152.466    23485595.818    96169630.65648
      2456.474
  20149888.656   105888381.173 9       148.725    20149888.295    82510438.08149
       115.889
  22502262.803   118250161.052 8      2596.182    22502261.110    92142961.79747
      2022.998
  23814264.716   125144730.234 6     -3376.534    23814263.343    97515328.07446
     -2631.071
  24241215.527   127388431.389 7      3281.285    24241214.292    99263714.11045
      2556.842
 23 11  9  8 19 30.0000000  0  8G03G04G06G07G09G11G19G20
  23517892.136   123587314.190 7     -3103.426    23517895.430    96301794.40047
     -2418.261
  21099412.884   110878152.306 8     -2000.049    21099411.766    86398557.13547
     -1558.480
  20563073.675   108059657.563 9       265.502    20563074.076    84202324.46149
       206.884
  23467613.465   123323179.086 8      3147.010    23467615.087    96096003.81348
      2452.224
  20149086.179   105884164.075 9       132.955    20149085.824    82507152.02349
       103.601
  22487478.986   118172471.566 8      2583.519    22487477.264    92082424.52747
      2013.131
  23833557.339   125246112.748 7     -3381.915    23833556.017    97594327.20646
     -2635.265
  24222487.535   127290014.735 7      3280.257    24222486.251    99187025.78145
      2556.045
 23 11  9  8 20  0.0000000  0  8G03G04G06G07G09G11G19G20
  23535623.157   123680490.817 7     -3108.198    23535626.515    96374399.40847
     -2421.977
  21110865.227   110938334.549 8     -2011.954    21110864.124    86445452.33847
     -1567.757
  20561615.157   108051992.823 9       245.687    20561615.556    84196351.90249
       191.442
  23449665.933   123228864.976 8      3140.821    23449667.455    96022512.55048
      2447.401
  20148373.937   105880421.123 9       116.900    20148373.590    82504235.41949
        91.091
  22472768.025   118095164.892 8      2570.541    22472766.280    92022185.54247
      2003.019
  23852881.364   125347660.449 7     -3387.721    23852880.106    97673455.08046
     -2639.788
  24203766.054   127191632.029 7      3278.894    24203764.737    99110363.83845
      2554.978
 23 11  9  8 20 30.0000000  0  8G03G04G06G07G09G11G19G20
  23553381.094   123773808.835 7     -3112.947    23553384.517    96447114.58147
     -2425.680
  21122383.721   110998864.476 8     -2023.431    21122382.635    86492618.46947
     -1576.701
  20560268.334   108044915.081 9       226.233    20560268.734    84190836.75449
       176.285
  23431751.949   123134727.279 8      3135.008    23431753.368    95949158.77848
      2442.873
  20147751.955   105877152.489 9       101.068    20147751.608    82501688.41649
        78.754
  22458130.524   118018244.263 8      2557.652    22458128.757    91962247.37347
      1992.976
  23872236.311   125449370.809 7     -3392.803    23872235.100    97752709.74447
     -2643.747
  24185051.298   127093284.889 7      3277.836    24185049.905    99033729.67645
      2554.156
 23 11  9  8 21  0.0000000  0  8G03G04G06G07G09G11G19G20
  23571166.050   123867268.808 7     -3117.852    23571169.537    96519940.36647
     -2429.499
  21133968.286   111059741.615 8     -2035.239    21133967.219    86540055.15247
     -1585.901
  20559033.618   108038426.474 9       206.171    20559034.029    84185780.66949
       160.652
  23413872.282   123040769.930 8      3128.619    23413873.606    95875945.52348
      2437.895
  20147220.386   105874358.967 9        84.913    20147220.035    82499511.63049
        66.167
  22443567.214   117941713.502 8      2544.294    22443565.430    91902612.99647
      1982.567
  23891621.774   125551241.437 7     -3398.510    23891620.598    97832089.28746
     -2648.194
  24166343.786   126994975.661 7      3276.045    24166342.317    98957125.02445
      2552.763
 23 11  9  8 21 30.0000000  0  8G03G04G06G07G09G11G19G20
  23588977.980   123960870.538 7     -3122.414    23588981.536    96592876.61547
     -2433.055
  21145618.691   111120964.739 8     -2046.391    21145617.645    86587761.42747
     -1594.592
  20557911.246   108032528.237 9       186.890    20557911.674    84181184.61049
       145.627
  23396027.529   122946996.185 8      3123.104    23396028.780    95802875.34448
      2433.597
  20146779.226   105872040.543 9        69.552    20146778.871    82497705.04549
        54.196
  22429078.689   117865575.758 8      2531.497    22429076.894    91843284.86747
      1972.595
  23911037.347   125653270.195 7     -3403.399    23911036.219    97911592.02446
     -2652.008
  24147643.856   126896706.482 7      3275.079    24147642.306    98880551.62545
      2552.012
 23 11  9  8 22  0.0000000  0  8G03G04G06G07G09G11G19G20
  23606816.041   124054609.501 7     -3127.133    23606819.667    96665919.78747
     -2436.731
  21157333.852   111182528.196 9     -2058.029    21157332.822    86635732.90747
     -1603.661
  20556900.632   108027217.328 9       167.047    20556901.084    84177046.20849
       130.165
  23378217.519   122853404.930 8      3116.419    23378218.728    95729947.33648
      2428.386
  20146427.646   105870192.890 9        53.415    20146427.286    82496265.29949
        41.621
  22414664.688   117789829.729 8      2518.127    22414662.882    91784261.99647
      1962.178
  23930481.585   125755449.614 8     -3408.795    23930480.522    97991212.16147
     -2656.210
  24128951.073   126798474.766 7      3273.767    24128949.453    98804007.40345
      2550.987
 23 11  9  8 22 30.0000000  0  8G03G04G06G07G09G11G19G20
  23624681.107   124148490.394 7     -3131.339    23624684.787    96739073.57047
     -2440.010
  21169114.478   111244435.646 8     -2068.754    21169113.461    86683972.43247
     -1612.018
  20556002.948   108022499.893 9       147.716    20556003.424    84173370.25449
       115.102
  23360443.668   122760003.614 8      3110.547    23360444.849    95657167.31548
      2423.810
  20146166.581   105868820.914 9        38.198    20146166.219    82495196.21049
        29.764
  22400326.765   117714483.433 8      2505.206    22400324.955    91725550.59247
      1952.108
  23949954.848   125857781.608 7     -3413.061    23949953.852    98070951.20546
     -2659.533
  24110266.674   126700287.180 7      3272.764    24110264.975    98727497.58945
      2550.204
 23 11  9  8 23  0.0000000  0  8G03G04G06G07G09G11G19G20
  23642572.033   124242507.141 7     -3136.120    23642575.757    96812333.20747
     -2443.736
  21180959.200   111306679.912 9     -2080.111    21180958.194    86732474.41047
     -1620.867
  20555217.308   108018371.256 9       127.955    20555217.803    84170153.10049
        99.704
  23342705.454   122666789.419 8      3104.200    23342706.621    95584533.07648
      2418.863
  20145994.891   105867918.629 9        22.291    20145994.535    82494493.11349
        17.369
  22386064.358   117639534.004 8      2491.871    22386062.546    91667148.44647
      1941.718
  23969455.561   125960257.756 7     -3418.227    23969454.622    98150802.56446
     -2663.561
  24091589.899   126602139.494 7      3270.989    24091588.116    98651018.82645
      2548.820
 23 11  9  8 23 30.0000000  0  8G03G04G06G07G09G11G19G20
  23660489.413   124336662.896 8     -3140.654    23660493.167    96885701.16648
     -2447.268
  21192868.443   111369263.181 8     -2091.481    21192867.446    86781240.53847
     -1629.728
  20554544.594   108014836.039 9       108.328    20554545.101    84167398.35049
        84.410
  23325004.158   122573769.007 8      3097.835    23325005.314    95512049.79948
      2413.901
  20145913.239   105867489.469 9         6.744    20145912.900    82494158.67449
         5.254
  22371878.722   117564987.963 8      2478.445    22371876.907    91609060.62447
      1931.257
  23988983.859   126062878.843 7     -3422.780    23988982.968    98230766.86346
     -2667.109
  24072921.733   126504037.100 7      3269.693    24072919.859    98574575.36044
      2547.812
 23 11  9  8 24  0.0000000  0  8G03G04G06G07G09G11G19G20
  23678432.546   124430953.961 7     -3145.208    23678436.335    96959174.55947
     -2450.816
  21204841.262   111432180.577 9     -2102.731    21204840.268    86830267.03847
     -1638.493
  20553984.347   108011891.866 9        88.412    20553984.855    84165104.16949
        68.893
  23307339.621   122480941.606 8      3090.886    23307340.769    95439716.89548
      2408.487
  20145920.913   105867529.794 9        -9.123    20145920.593    82494190.08149
        -7.109
  22357769.765   117490844.796 8      2464.874    22357767.942    91551286.71947
      1920.681
  24008538.519   126165638.400 7     -3427.371    24008537.677    98310839.04946
     -2670.684
  24054261.819   126405978.059 7      3267.931    24054259.854    98498165.67345
      2546.437
 23 11  9  8 24 30.0000000  0  8G03G04G06G07G09G11G19G20
  23696402.110   124525383.842 7     -3149.646    23696405.937    97032756.10147
     -2454.276
  21216878.148   111495434.575 8     -2113.747    21216877.161    86879555.80847
     -1647.078
  20553537.525   108009543.640 9        68.591    20553538.040    84163274.34249
        53.446
  23289713.113   122388313.912 8      3084.480    23289714.253    95367539.57348
      2403.494
  20146018.628   105868043.266 9       -24.782    20146018.333    82494590.16749
       -19.312
  22343738.761   117417111.281 8      2451.123    22343736.927    91493832.03047
      1909.965
  24028119.764   126268537.625 7     -3431.984    24028118.971    98391020.06945
     -2674.278
  24035611.229   126307968.121 7      3266.449    24035609.185    98421794.26345
      2545.284
 23 11  9  8 25  0.0000000  0  8G03G04G06G07G09G11G19G20
  23714397.459   124619949.299 7     -3153.702    23714401.316    97106443.29747
     -2457.437
  21228978.271   111559020.888 8     -2124.631    21228977.291    86929103.52847
     -1655.558
  20553203.735   108007789.449 9        48.953    20553204.257    84161907.41549
        38.146
  23272124.679   122295886.299 8      3077.706    23272125.808    95295518.14948
      2398.216
  20146205.785   105869026.772 9       -40.161    20146205.512    82495356.51749
       -31.295
  22329785.722   117343787.437 8      2437.746    22329783.875    91436696.55947
      1899.543
  24047726.441   126371570.380 6     -3436.176    24047725.693    98471305.11444
     -2677.549
  24016969.721   126210005.849 7      3265.022    24016967.617    98345459.95545
      2544.171
 23 11  9  8 25 30.0000000  0  8G03G04G06G07G09G11G19G20
  23732418.138   124714647.883 7     -3158.849    23732422.015    97180234.23247
     -2461.446
  21241140.962   111622935.990 8     -2136.213    21241139.993    86978907.44547
     -1664.583
  20552982.775   108006628.157 9        28.422    20552983.312    84161002.47949
        22.146
  23254574.372   122203659.026 8      3070.864    23254575.499    95223652.80748
      2392.882
  20146481.949   105870477.981 9       -56.488    20146481.699    82496487.30549
       -44.018
  22315910.805   117270874.075 8      2423.245    22315908.942    91379880.93447
      1888.241
  24067357.560   126474731.829 6     -3441.242    24067356.847    98551690.47444
     -2681.487
  23998337.209   126112090.989 7      3262.696    23998335.055    98269162.61445
      2542.361
 23 11  9  8 26  0.0000000  0  8G03G04G06G07G09G11G19G20
  23750464.137   124809479.523 7     -3163.133    23750468.041    97254128.84047
     -2464.785
  21253366.003   111687178.746 8     -2146.748    21253365.046    87028966.67647
     -1672.793
  20552874.858   108006060.952 9         9.213    20552875.411    84160560.47749
         7.178
  23237062.830   122111635.407 8      3064.299    23237063.950    95151946.13148
      2387.766
  20146847.114   105872396.913 9       -71.603    20146846.885    82497982.55649
       -55.796
  22302114.588   117198374.342 8      2409.902    22302112.711    91323387.62947
      1877.845
  24087012.582   126578018.842 6     -3444.871    24087011.915    98632173.64345
     -2684.322
  23979714.094   126014225.494 7      3261.361    23979711.895    98192903.72745
      2541.317
 23 11  9  8 26 30.0000000  0  8G03G04G06G07G09G11G19G20
  23768535.561   124904444.772 7     -3167.905    23768539.505    97328127.54547
     -2468.503
  21265653.299   111751748.675 9     -2157.778    21265652.353    87079280.85147
     -1681.387
  20552880.354   108006089.765 9       -10.965    20552880.922    84160582.91049
        -8.545
  23219590.787   122019819.327 8      3057.197    23219591.885    95080401.16348
      2382.232
  20147301.416   105874784.275 9       -87.326    20147301.205    82499842.82049
       -68.047
  22288397.828   117126292.121 8      2395.736    22288395.942    91267219.64647
      1866.806
  24106691.236   126681430.023 7     -3448.947    24106690.623    98712753.56846
     -2687.499
  23961100.837   125916411.931 8      3259.523    23961098.594    98116685.33245
      2539.885
 23 11  9  8 27  0.0000000  0  8G03G04G06G07G09G11G19G20
  23786632.089   124999541.906 7     -3172.268    23786636.070    97402229.01047
     -2471.903
  21278002.315   111816642.911 8     -2168.517    21278001.377    87129847.72547
     -1689.754
  20552999.164   108006714.019 9       -30.767    20552999.747    84161069.31349
       -23.975
  23202158.508   121928212.112 8      3050.221    23202159.579    95009018.92148
      2376.796
  20147844.534   105877638.343 9      -102.896    20147844.336    82502066.74649
       -80.179
  22274760.783   117054628.832 8      2381.771    22274758.889    91211378.10847
      1855.925
  24126392.769   126784961.209 6     -3453.003    24126392.230    98793426.94245
     -2690.664
  23942497.563   125818650.696 7      3257.819    23942495.276    98040507.67745
      2538.562
 23 11  9  8 27 30.0000000  0  8G03G04G06G07G09G11G19G20
  23804753.309   125094768.851 7     -3175.939    23804757.324    97476431.63547
     -2474.766
  21290412.465   111881858.398 8     -2178.473    21290411.530    87180664.92447
     -1697.515
  20553231.125   108007932.911 9       -49.908    20553231.713    84162019.08349
       -38.891
  23184766.212   121836815.014 8      3043.600    23184767.237    94937800.41948
      2371.638
  20148476.093   105880957.158 9      -117.704    20148475.901    82504652.81549
       -91.718
  22261203.673   116983385.683 8      2368.334    22261201.775    91155863.96847
      1845.456
  24146116.170   126888607.545 7     -3456.286    24146115.699    98874190.09246
     -2693.219
  23923904.229   125720941.743 7      3256.694    23923901.904    97964370.77145
      2537.681
 23 11  9  8 28  0.0000000  0  8G03G04G06G07G09G11G19G20
  23822899.276   125190125.836 7     -3181.167    23822903.323    97550735.59347
     -2478.837
  21302883.581   111947394.258 8     -2190.085    21302882.646    87231731.76447
     -1706.562
  20553576.518   108009747.856 9       -70.638    20553577.102    84163433.30549
       -55.043
  23167414.516   121745631.230 8      3035.755    23167415.492    94866748.13548
      2365.524
  20149196.149   105884741.004 9      -134.053    20149195.958    82507601.24649
      -104.457
  22247727.172   116912566.100 8      2353.383    22247725.278    91100679.87147
      1833.805
  24165861.088   126992366.888 7     -3460.742    24165860.671    98955041.29746
     -2696.689
  23905321.277   125623287.332 7      3254.064    23905318.905    97888276.36445
      2535.634
 23 11  9  8 28 30.0000000  0  8G03G04G06G07G09G11G19G20
  23841069.928   125285612.500 7     -3184.697    23841074.014    97625140.59247
     -2481.589
  21315415.387   112013249.067 8     -2200.109    21315414.443    87283047.14247
     -1714.373
  20554035.499   108012159.694 9       -90.019    20554036.068    84165312.64149
       -70.146
  23150103.890   121654663.448 8      3029.099    23150104.824    94795864.20448
      2360.342
  20150004.639   105888989.585 9      -148.883    20150004.444    82510911.81649
      -116.013
  22234331.822   116842172.966 8      2339.628    22234329.937    91045828.07047
      1823.087
  24185626.940   127096236.169 7     -3463.859    24185626.561    99035978.16347
     -2699.119
  23886749.016   125525689.161 7      3252.562    23886746.582    97812225.79345
      2534.462
 23 11  9  8 29  0.0000000  0  8G03G04G06G07G09G11G19G20
  23859265.036   125381227.666 7     -3189.270    23859269.154    97699645.72547
     -2485.153
  21328007.473   112079420.634 8     -2210.903    21328006.520    87334609.33947
     -1722.784
  20554608.073   108015168.422 9      -110.211    20554608.630    84167657.07649
       -85.880
  23132834.881   121563914.379 8      3021.466    23132835.802    94725150.69748
      2354.392
  20150901.359   105893701.778 9      -164.783    20150901.160    82514583.63449
      -128.403
  22221018.015   116772208.299 8      2325.136    22221016.145    90991310.12747
      1811.793
  24205413.051   127200211.762 7     -3467.431    24205412.720    99116997.84247
     -2701.903
  23868187.677   125428148.419 7      3250.355    23868185.168    97736219.98444
      2532.744
 23 11  9  8 29 30.0000000  0  8G03G04G06G07G09G11G19G20
  23877484.329   125476969.906 7     -3193.440    23877488.468    97774249.88647
     -2488.402
  21340659.367   112145906.507 8     -2221.281    21340658.405    87386416.44947
     -1730.871
  20555294.177   108018773.784 9      -130.012    20555294.726    84170466.42449
      -101.309
  23115607.714   121473385.297 8      3013.847    23115608.646    94654608.62348
      2348.454
  20151886.039   105898876.227 9      -180.017    20151885.835    82518615.65749
      -140.272
  22207786.087   116702673.932 8      2310.700    22207784.225    90937127.49247
      1800.545
  24225218.628   127304289.650 7     -3470.915    24225218.359    99198097.22747
     -2704.617
  23849637.310   125330665.422 7      3248.469    23849634.735    97660259.18645
      2531.274
 23 11  9  8 30  0.0000000  0  8G03G04G06G07G09G11G19G20
  23895728.000   125572840.243 7     -3197.728    23895732.158    97848953.86047
     -2491.741
  21353371.047   112212706.545 8     -2231.784    21353370.080    87438468.35747
     -1739.056
  20556094.202   108022977.812 9      -149.918    20556094.755    84173742.26049
      -116.820
  23098423.185   121383080.387 8      3006.597    23098424.135    94584241.24948
      2342.806
  20152958.865   105904513.884 9      -195.553    20152958.660    82523008.61849
      -152.379
  22194636.835   116633573.971 8      2296.082    22194634.968    90883283.34147
      1789.155
  24245043.404   127408468.463 7     -3474.070    24245043.198    99279275.26347
     -2707.075
  23831098.558   125233243.508 7      3246.591    23831095.929    97584345.99445
      2529.811
 23 11  9  8 30 30.0000000  0  8G03G04G06G07G09G11G19G20
  23913995.973   125668838.308 7     -3201.412    23914000.161    97923757.35947
     -2494.614
  21366142.241   112279819.367 8     -2242.005    21366141.269    87490764.00447
     -1747.018
  20557008.296   108027781.301 9      -169.889    20557008.857    84177485.20949
      -132.382
  23081281.874   121293002.687 8      2998.983    23081282.849    94514050.93748
      2336.873
  20154119.783   105910614.434 9      -210.802    20154119.582    82527762.26449
      -164.263
  22181570.791   116564911.304 8      2281.704    22181568.907    90829779.94447
      1777.951
  24264886.786   127512745.159 7     -3477.285    24264886.626    99360529.60446
     -2709.581
  23812571.779   125135884.453 7      3244.597    23812569.111    97508481.76345
      2528.255
 23 11  9  8 31  0.0000000  0  8G03G04G06G07G09G11G19G20
  23932287.865   125764962.151 7     -3206.041    23932292.071    97998658.88447
     -2498.220
  21378972.393   112347242.006 8     -2252.301    21378971.423    87543301.06347
     -1755.041
  20558036.303   108033183.377 9      -189.864    20558036.871    84181694.58549
      -147.947
  23064183.978   121203153.126 8      2991.459    23064184.981    94444038.39548
      2331.011
  20155368.429   105917175.982 9      -226.312    20155368.232    82532875.13049
      -176.348
  22168588.193   116496687.220 8      2266.878    22168586.288    90776618.30247
      1766.398
  24284748.015   127617115.598 7     -3480.156    24284747.900    99441856.97846
     -2711.817
  23794056.936   125038588.323 7      3242.212    23794054.250    97432666.59045
      2526.398
 23 11  9  8 31 30.0000000  0  8G03G04G06G07G09G11G19G20
  23950603.385   125861210.138 7     -3210.291    23950607.606    98073657.14047
     -2501.532
  21391860.990   112414971.785 8     -2262.999    21391860.024    87596077.45747
     -1763.377
  20559178.106   108039183.464 9      -210.065    20559178.672    84186369.95049
      -163.687
  23047129.839   121113533.491 8      2983.479    23047130.848    94374205.02148
      2324.792
  20156704.469   105924196.827 9      -241.746    20156704.276    82538345.90249
      -188.374
  22155689.316   116428903.217 8      2252.035    22155687.404    90723799.58447
      1754.832
  24304626.243   127721575.474 6     -3483.629    24304626.176    99523254.05546
     -2714.523
  23775554.141   124941355.547 7      3240.108    23775551.450    97356900.78345
      2524.763
 23 11  9  8 32  0.0000000  0  8G03G04G06G07G09G11G19G20
  23968942.324   125957581.188 7     -3214.801    23968946.554    98148751.28447
     -2505.046
  21404807.629   112483006.551 8     -2273.305    21404806.675    87649091.49547
     -1771.407
  20560433.709   108045781.508 9      -230.101    20560434.273    84191511.24449
      -179.300
  23030119.808   121024145.679 8      2975.469    23030120.796    94304552.30848
      2318.552
  20158127.726   105931675.949 9      -257.168    20158127.545    82544173.76049
      -200.392
  22142874.558   116361561.424 8      2237.105    22142872.656    90671325.46447
      1743.199
  24324520.874   127826121.509 6     -3486.312    24324520.898    99604718.23246
     -2716.614
  23757063.607   124844187.162 7      3237.606    23757060.932    97281185.12745
      2522.811
 23 11  9  8 32 30.0000000  0  8G03G04G06G07G09G11G19G20
  23987304.558   126054074.653 7     -3218.056    23987308.798    98223940.81647
     -2507.584
  21417811.982   112551344.596 8     -2282.500    21417811.040    87702341.85447
     -1778.573
  20561803.165   108052977.856 9      -249.497    20561803.725    84197118.74949
      -194.415
  23013154.348   120934992.129 8      2968.346    23013155.299    94235082.14848
      2313.002
  20159638.059   105939612.650 9      -271.870    20159637.890    82550358.17449
      -211.848
  22130144.435   116294664.342 8      2222.978    22130142.562    90619197.85147
      1732.189
  24344431.263   127930750.413 5     -3488.503    24344431.395    99686247.00145
     -2718.323
  23738585.640   124747084.871 7      3235.974    23738582.993    97205520.98445
      2521.536
 23 11  9  8 33  0.0000000  0  8G03G04G06G07G09G11G19G20
  24005690.098   126150690.577 7     -3222.649    24005694.349    98299225.76347
     -2511.162
  21430873.857   112619984.928 8     -2293.206    21430872.934    87755827.76247
     -1786.915
  20563286.671   108060773.551 9      -270.001    20563287.230    84203193.27649
      -210.391
  22996234.101   120846076.069 8      2959.699    22996235.004    94165797.02648
      2306.264
  20161235.467   105948006.936 9      -287.669    20161235.307    82556899.14849
      -224.158
  22117499.550   116228215.181 8      2207.422    22117497.714    90567419.26947
      1720.068
  24364356.958   128035459.657 5     -3491.691    24364357.201    99767838.35744
     -2720.812
  23720120.662   124650050.738 7      3233.145    23720118.045    97129909.92645
      2519.333
 23 11  9  8 33 30.0000000  0  8G03G04G06G07G09G11G19G20
  24024098.974   126247429.125 7     -3226.495    24024103.241    98374606.25947
     -2514.158
  21443993.102   112688926.721 8     -2302.959    21443992.209    87809548.56447
     -1794.516
  20564884.448   108069169.782 9      -289.924    20564885.011    84209735.75649
      -225.915
  22979359.679   120757400.917 8      2951.776    22979360.515    94096699.64248
      2300.091
  20162919.986   105956858.985 9      -302.668    20162919.833    82563796.81649
      -235.846
  22104940.559   116162217.311 8      2192.394    22104938.762    90515992.33747
      1708.358
  24384297.453   128140246.859 5     -3494.176    24384297.843    99849490.45444
     -2722.739
  23701669.122   124553087.273 7      3231.027    23701666.530    97054353.95245
      2517.684
 23 11  9  8 34  0.0000000  0  8G03G04G06G07G09G11G19G20
  24042530.408   126344286.134 7     -3230.447    24042534.707    98450079.04047
     -2517.238
  21457168.701   112758164.720 8     -2312.438    21457167.846    87863500.18348
     -1801.901
  20566595.869   108078163.228 9      -309.634    20566596.443    84216743.60249
      -241.273
  22962530.902   120668965.656 8      2944.098    22962531.660    94027789.19048
      2294.106
  20164690.791   105966164.526 9      -317.415    20164690.644    82571047.86049
      -247.338
  22092467.256   116096669.677 8      2177.637    22092465.490    90464916.24047
      1696.858
  24404251.461   128245105.487 6     -3496.054    24404251.999    99931198.28544
     -2724.203
  23683230.609   124456192.123 8      3228.828    23683228.042    96978851.18345
      2515.968
 23 11  9  8 34 30.0000000  0  8G03G04G06G07G09G11G19G20
  24060984.368   126441261.602 7     -3234.226    24060988.708    98525644.13747
     -2520.182
  21470400.479   112827697.967 8     -2322.475    21470399.673    87917681.86347
     -1809.723
  20568421.131   108087754.890 9      -329.419    20568421.722    84224217.58549
      -256.691
  22945748.337   120580773.373 8      2935.704    22945749.022    93959068.09848
      2287.568
  20166547.910   105975923.631 9      -332.936    20166547.768    82578652.32349
      -259.432
  22080080.244   116031575.471 8      2162.247    22080078.507    90414193.46047
      1684.867
  24424218.681   128350033.208 7     -3498.594    24424219.338   100012959.91346
     -2726.183
  23664805.569   124359367.781 8      3226.211    23664803.002    96903403.60345
      2513.931
 23 11  9  8 35  0.0000000  0  7G03G04G06G07G09G11G20
  24079461.251   126538357.452 7     -3238.105    24079465.654    98601303.00647
     -2523.208
  21483688.590   112897527.262 8     -2332.265    21483687.840    87972094.22547
     -1817.351
  20570360.766   108097947.554 9      -349.719    20570361.378    84232159.87849
      -272.510
  22929012.966   120492829.109 8      2927.348    22929013.614    93890540.25648
      2281.056
  20168491.663   105986138.020 9      -347.822    20168491.522    82586611.55649
      -271.032
  22067780.467   115966939.660 8      2147.004    22067778.756    90363827.86447
      1672.989
  23646394.771   124262618.243 8      3223.971    23646392.197    96828014.31245
      2512.185
 23 11  9  8 35 30.0000000  0  7G03G04G06G07G09G11G20
  24097960.369   126635570.280 7     -3242.216    24097964.836    98677053.05847
     -2526.407
  21497032.207   112967648.211 8     -2342.156    21497031.515    88026733.83947
     -1825.060
  20572414.275   108108738.638 9      -369.550    20572414.912    84240568.47649
      -287.963
  22912324.733   120405132.596 8      2918.979    22912325.367    93822205.46548
      2274.533
  20170521.405   105996804.278 9      -363.082    20170521.262    82594922.89349
      -282.923
  22055567.877   115902762.000 8      2131.535    22055566.193    90313819.26347
      1660.935
  23627997.978   124165942.396 7      3221.323    23627995.388    96752682.47745
      2510.123
 23 11  9  8 36  0.0000000  0  7G03G04G06G07G09G11G20
  24116482.002   126732901.335 7     -3246.125    24116486.543    98752895.21446
     -2529.455
  21510431.354   113038060.991 8     -2351.594    21510430.712    88081600.86547
     -1832.414
  20574582.067   108120130.288 9      -389.319    20574582.729    84249445.04249
      -303.367
  22895684.475   120317688.123 8      2910.991    22895685.109    93754067.04148
      2268.308
  20172637.351   106007923.534 9      -377.873    20172637.203    82603587.21749
      -294.448
  22043443.288   115839046.847 8      2116.473    22043441.632    90264171.06847
      1649.199
  23609615.812   124069343.364 7      3218.931    23609613.207    96677410.49045
      2508.258
 23 11  9  8 36 30.0000000  0  7G03G04G06G07G09G11G20
  24135025.954   126830349.667 7     -3250.104    24135030.569    98828828.75247
     -2532.554
  21523885.679   113108763.657 8     -2361.247    21523885.082    88136693.76147
     -1839.936
  20576864.106   108132122.384 9      -409.522    20576864.788    84258789.49349
      -319.110
  22879092.664   120230498.319 8      2902.317    22879093.296    93686127.07948
      2261.550
  20174839.312   106019494.791 9      -393.053    20174839.155    82612603.75349
      -306.275
  22031407.126   115775796.394 8      2100.751    22031405.494    90214884.98247
      1636.948
  23591248.579   123972822.877 7      3216.257    23591245.964    96602199.71845
      2506.171
 23 11  9  8 37  0.0000000  0  7G03G04G06G07G09G11G20
  24153591.633   126927912.070 7     -3253.928    24153596.320    98904851.16447
     -2535.536
  21537394.370   113179751.987 8     -2371.183    21537393.805    88192009.25547
     -1847.677
  20579259.931   108144712.503 9      -429.846    20579260.629    84268599.94349
      -334.945
  22862549.215   120143562.536 8      2893.420    22862549.843    93618385.04048
      2254.617
  20177126.657   106031514.715 9      -408.339    20177126.485    82621969.89749
      -318.187
  22019459.377   115713010.510 8      2084.792    22019457.772    90165960.88848
      1624.513
  23572896.047   123876379.652 7      3213.117    23572893.419    96527049.14745
      2503.729
 23 11  9  8 37 30.0000000  0  7G03G04G06G07G09G11G20
  24172178.888   127025587.895 7     -3257.736    24172183.639    98980961.97847
     -2538.503
  21550957.119   113251024.380 8     -2380.686    21550956.574    88247546.10147
     -1855.082
  20581769.587   108157900.814 9      -449.767    20581770.300    84278876.51549
      -350.468
  22846054.618   120056883.351 8      2884.664    22846055.229    93550842.94048
      2247.795
  20179499.262   106043982.657 9      -423.374    20179499.072    82631685.14349
      -329.902
  22007600.487   115650691.651 8      2069.101    22007598.909    90117400.72647
      1612.286
  23554558.532   123780015.368 7      3210.576    23554555.895    96451960.09745
      2501.746
 23 11  9  8 38  0.0000000  0  7G03G04G06G07G09G11G20
  24190788.286   127123379.880 7     -3261.696    24190793.100    99057163.27247
     -2541.591
  21564574.233   113322582.450 8     -2390.069    21564573.696    88303305.55647
     -1862.394
  20584393.749   108171690.791 9      -469.625    20584394.478    84289621.90749
      -365.943
  22829610.013   119970466.767 8      2876.083    22829610.591    93483505.46248
      2241.107
  20181957.627   106056901.258 9      -438.014    20181957.416    82641751.55349
      -341.310
  21995831.584   115588845.620 8      2053.624    21995830.035    90069208.99248
      1600.226
  23536236.908   123683734.726 7      3208.041    23536234.272    96376936.24945
      2499.774
 23 11  9  8 38 30.0000000  0  7G03G04G06G07G09G11G20
  24209418.884   127221283.343 7     -3265.489    24209423.741    99133451.46247
     -2544.546
  21578244.654   113394420.625 8     -2399.288    21578244.125    88359283.26847
     -1869.578
  20587131.669   108186078.558 9      -489.591    20587132.408    84300833.11549
      -381.504
  22813215.084   119884311.115 8      2867.338    22813215.617    93416371.29248
      2234.292
  20184500.806   106070265.541 9      -452.852    20184500.577    82652165.24749
      -352.873
  21984152.374   115527470.873 8      2037.866    21984150.848    90021384.49047
      1587.945
  23517930.829   123587535.695 7      3205.046    23517928.201    96301975.97545
      2497.437
 23 11  9  8 39  0.0000000  0  7G03G04G06G07G09G11G20
  24228071.024   127319299.745 7     -3268.865    24228075.930    99209827.60247
     -2547.179
  21591968.433   113466539.234 8     -2408.516    21591967.913    88415479.50947
     -1876.769
  20589983.727   108201066.143 9      -509.437    20589984.473    84312511.72649
      -396.966
  22796870.717   119798421.113 8      2858.624    22796871.202    93349444.11148
      2227.502
  20187129.066   106084076.899 9      -467.654    20187128.824    82662927.30749
      -364.408
  21972563.691   115466571.854 8      2022.110    21972562.176    89973930.69647
      1575.670
  23499640.983   123491421.903 7      3202.376    23499638.372    96227082.10945
      2495.356
 23 11  9  8 39 30.0000000  0  7G03G04G06G07G09G11G20
  24246744.573   127417428.803 7     -3272.605    24246749.518    99286291.57047
     -2550.091
  21605745.337   113538937.064 8     -2417.875    21605744.826    88471893.33347
     -1884.061
  20592950.035   108216654.102 9      -529.469    20592950.782    84324658.16149
      -412.573
  22780577.418   119712799.532 8      2849.794    22780577.859    93282726.09348
      2220.622
  20189842.334   106098335.011 9      -482.554    20189842.081    82674037.49649
      -376.018
  21961066.100   115406151.427 8      2006.185    21961064.596    89926849.81347
      1563.259
  23481367.728   123395395.384 8      3199.588    23481365.131    96152256.27246
      2493.187
 23 11  9  8 40  0.0000000  0  7G03G04G06G07G09G11G20
  24265438.868   127515666.815 7     -3276.561    24265443.845    99362840.42247
     -2553.172
  21619574.491   113611609.435 8     -2427.151    21619573.992    88528521.07847
     -1891.289
  20596030.012   108232839.380 9      -549.596    20596030.755    84337270.03349
      -428.257
  22764335.025   119627445.494 8      2840.536    22764335.436    93216216.53648
      2213.407
  20192639.872   106113035.986 9      -497.555    20192639.616    82685492.77049
      -387.706
  21949659.428   115346208.858 8      1989.950    21949657.925    89880141.31247
      1550.610
  23463110.840   123299454.703 8      3196.349    23463108.263    96077497.28846
      2490.662
 23 11  9  8 40 30.0000000  0  8G03G04G06G07G09G11G20G30
  24284154.280   127614015.671 7     -3279.990    24284159.310    99439475.60647
     -2555.846
  21633456.053   113684557.189 8     -2436.159    21633455.562    88585363.40147
     -1898.309
  20599224.139   108249624.478 9      -569.527    20599224.875    84350349.29049
      -443.789
  22748144.578   119542364.423 8      2831.411    22748144.970    93149919.66648
      2206.297
  20195522.013   106128181.550 9      -512.360    20195521.766    82697294.46949
      -399.243
  21938344.659   115286749.162 8      1973.906    21938343.149    89833809.06147
      1538.109
  23444871.071   123203603.881 8      3193.476    23444868.511    96002808.31345
      2488.422
  24927132.018   130992961.994 6      3664.820    24927137.962   102072460.48847
      2855.710
 23 11  9  8 41  0.0000000  0  8G03G04G06G07G09G11G20G30
  24302890.045   127712471.608 7     -3283.482    24302895.121    99516194.25447
     -2558.568
  21647389.124   113757775.627 8     -2445.204    21647388.639    88642416.64847
     -1905.356
  20602531.815   108267006.296 9      -589.391    20602532.539    84363893.53349
      -459.268
  22732005.855   119457555.229 8      2822.523    22732006.230    93083834.65348
      2199.371
  20198488.021   106143767.835 9      -526.979    20198487.788    82709439.58649
      -410.634
  21927121.626   115227771.570 8      1957.890    21927120.104    89787852.48047
      1525.628
  23426648.127   123107841.485 8      3190.395    23426645.574    95928188.25445
      2486.020
  24906211.410   130883023.638 7      3664.442    24906217.202   101986794.39447
      2855.413
 23 11  9  8 41 30.0000000  0  8G03G04G06G07G09G11G20G30
  24321646.926   127811038.509 7     -3287.031    24321652.059    99592999.35547
     -2561.332
  21661374.228   113831267.545 8     -2453.779    21661373.748    88699683.00447
     -1912.038
  20605953.880   108284989.230 9      -608.966    20605954.578    84377906.18849
      -474.520
  22715920.191   119373024.849 8      2813.424    22715920.548    93017966.89048
      2192.281
  20201538.582   106159798.484 9      -541.265    20201538.363    82721930.96449
      -421.766
  21915991.610   115169282.894 8      1941.870    21915990.075    89742276.89047
      1513.146
  23408443.141   123012173.475 8      3187.738    23408440.598    95853641.74946
      2483.949
  24885293.590   130773100.824 6      3664.199    24885299.270   101901140.39546
      2855.226
 23 11  9  8 42  0.0000000  0  8G03G04G06G07G09G11G20G30
  24340424.173   127909712.546 7     -3290.991    24340429.364    99669887.95747
     -2564.418
  21675410.476   113905028.251 8     -2463.043    21675410.008    88757158.80447
     -1919.257
  20609489.750   108303570.145 9      -629.297    20609490.415    84392384.79449
      -490.361
  22699887.546   119288772.888 8      2803.727    22699887.873    92952316.04248
      2184.724
  20204672.963   106176269.594 9      -556.383    20204672.760    82734765.55049
      -433.547
  21904954.516   115111282.435 8      1925.260    21904952.971    89697081.70047
      1500.202
  23390255.884   122916598.582 8      3184.261    23390253.361    95779167.78346
      2481.242
  24864378.457   130663193.071 6      3663.288    24864384.345   101815498.12946
      2854.515
 23 11  9  8 42 30.0000000  0  8G03G04G06G07G09G11G20G30
  24359221.565   128008492.407 7     -3293.785    24359226.836    99746858.99547
     -2566.593
  21689497.413   113979055.370 8     -2471.702    21689496.967    88814842.20447
     -1926.004
  20613139.264   108322748.242 9      -648.871    20613139.893    84407328.73549
      -505.614
  22683908.152   119204800.743 8      2794.739    22683908.426    92886883.24748
      2177.720
  20207890.864   106193179.649 9      -570.666    20207890.678    82747942.17949
      -444.676
  21894010.614   115053771.805 8      1909.252    21894009.055    89652268.21447
      1487.729
  23372086.549   122821117.819 8      3181.377    23372084.049    95704767.15246
      2478.996
  24843466.563   130553302.284 7      3663.060    24843472.696   101729869.13547
      2854.338
 23 11  9  8 43  0.0000000  0  8G03G04G06G07G09G11G20G30
  24378039.581   128107380.708 7     -3297.947    24378044.939    99823914.53347
     -2569.837
  21703635.369   114053350.539 8     -2481.075    21703634.956    88872734.45347
     -1933.308
  20616903.011   108342526.634 9      -669.363    20616903.602    84422740.43949
      -521.583
  22667983.163   119121114.392 8      2784.766    22667983.378    92821673.13448
      2169.948
  20211192.749   106210531.035 9      -585.773    20211192.584    82761462.69949
      -456.447
  21883160.995   114996756.622 8      1892.217    21883159.429    89607840.78247
      1474.454
  23353936.047   122725736.022 8      3177.725    23353933.570    95630443.63546
      2476.147
  24822559.054   130443434.251 6      3661.687    24822565.351   101644257.92447
      2853.272
 23 11  9  8 43 30.0000000  0  8G03G04G06G07G09G11G20G30
  24396876.981   128206370.881 6     -3301.324    24396882.447    99901049.44046
     -2572.468
  21717822.915   114127906.270 8     -2489.554    21717822.543    88930829.72847
     -1939.916
  20620779.856   108362899.327 9      -689.181    20620780.423    84438615.21949
      -537.025
  22652111.887   119037710.318 8      2775.297    22652112.029    92756682.99448
      2162.569
  20214577.344   106228317.065 9      -600.257    20214577.194    82775321.90649
      -467.734
  21872404.971   114940233.324 8      1875.762    21872403.402    89563796.64247
      1461.632
  23335803.584   122630448.984 8      3174.644    23335801.130    95556193.94245
      2473.747
  24801655.231   130333585.514 7      3661.037    24801661.651   101558661.79146
      2852.765
 23 11  9  8 44  0.0000000  0  8G03G04G06G07G09G11G20G30
  24415734.393   128305466.275 7     -3304.443    24415739.983    99978266.33747
     -2574.899
  21732060.470   114202724.854 8     -2497.730    21732060.136    88989129.83747
     -1946.286
  20624770.496   108383870.079 9      -708.498    20624771.051    84454956.03149
      -552.078
  22636295.513   118954594.657 8      2766.196    22636295.583    92691917.57048
      2155.479
  20218045.229   106246540.795 9      -614.280    20218045.089    82789522.18549
      -478.660
  21861743.729   114884208.161 8      1859.686    21861742.156    89520140.67148
      1449.105
  23317690.199   122535262.309 8      3171.777    23317687.765    95482022.47046
      2471.513
  24780756.349   130223762.454 7      3661.037    24780762.850   101473085.67147
      2852.765
 23 11  9  8 44 30.0000000  0  8G03G04G06G07G09G11G20G30
  24434610.759   128404661.317 7     -3308.219    24434616.450   100055560.90747
     -2577.844
  21746346.822   114277799.843 8     -2506.559    21746346.522    89047629.74147
     -1953.165
  20628873.973   108405433.828 9      -728.445    20628874.536    84471758.91549
      -567.621
  22620533.592   118871765.187 8      2756.427    22620533.589    92627375.15948
      2147.866
  20221595.318   106265196.539 9      -628.917    20221595.182    82804059.10549
      -490.066
  21851176.796   114828678.569 8      1842.846    21851175.224    89476870.84947
      1435.983
  23299595.332   122440172.959 8      3168.243    23299592.927    95407926.83646
      2468.759
  24759862.026   130113962.776 7      3659.826    24759868.520   101387527.72247
      2851.820
 23 11  9  8 45  0.0000000  0  8G03G04G06G07G09G11G20G30
  24453506.524   128503958.305 7     -3311.479    24453512.300   100132934.92847
     -2580.380
  21760682.237   114353132.582 8     -2515.287    21760681.973    89106330.47447
     -1959.967
  20633090.817   108427593.354 9      -748.372    20633091.399    84489026.04349
      -583.148
  22604827.139   118789227.251 8      2746.469    22604827.074    92563059.91148
      2140.107
  20225228.025   106284286.412 9      -643.426    20225227.888    82818934.30249
      -501.371
  21840705.160   114773649.790 8      1826.051    21840703.591    89433991.27047
      1422.896
  23281519.870   122345185.597 8      3164.648    23281517.501    95333910.67545
      2465.958
  24738973.237   130004191.967 7      3658.675    24738979.648   101301992.27247
      2850.925
 23 11  9  8 45 30.0000000  0  8G03G04G06G07G09G11G20G30
  24472422.105   128603359.251 7     -3314.949    24472427.947   100210389.92547
     -2583.083
  21775066.885   114428724.081 8     -2524.059    21775066.653    89165232.85547
     -1966.802
  20637421.484   108450351.044 9      -768.515    20637422.091    84506759.27649
      -598.844
  22589177.031   118706985.515 8      2736.568    22589176.922    92498975.47248
      2132.392
  20228943.675   106303812.155 9      -658.031    20228943.529    82834149.14349
      -512.753
  21830329.762   114719126.755 8      1808.930    21830328.192    89391505.77847
      1409.555
  23263464.626   122250304.563 7      3161.027    23263462.295    95259977.38146
      2463.138
  24718090.900   129894455.281 7      3657.518    24718097.199   101216483.47147
      2850.026
 23 11  9  8 46  0.0000000  0  8G03G04G06G07G09G11G20G30
  24491356.648   128702859.784 7     -3318.342    24491362.561   100287922.51047
     -2585.729
  21789499.771   114504569.002 8     -2532.342    21789499.578    89224332.69047
     -1973.256
  20641865.233   108473702.951 9      -788.389    20641865.870    84524955.52549
      -614.330
  22573583.098   118625039.062 8      2726.483    22573582.959    92435121.12648
      2124.534
  20232741.395   106323769.177 9      -672.529    20232741.236    82849700.04249
      -524.049
  21820050.324   114665107.986 8      1792.206    21820048.751    89349413.21947
      1396.524
  23245429.218   122155527.820 8      3157.405    23245426.923    95186125.36145
      2460.315
  24697214.739   129784751.633 7      3656.300    24697220.907   101131000.51947
      2849.081
 23 11  9  8 46 30.0000000  0  8G03G04G06G07G09G11G20G30
  24510310.401   128802461.349 7     -3321.610    24510316.378   100365533.84047
     -2588.276
  21803980.990   114580667.893 8     -2540.765    21803980.834    89283630.42147
     -1979.820
  20646422.399   108497650.872 9      -808.228    20646423.069    84543616.20349
      -629.789
  22558046.155   118543392.065 8      2716.484    22558045.999    92371500.11148
      2116.741
  20236621.420   106344158.712 9      -686.841    20236621.246    82865587.96149
      -535.202
  21809867.692   114611597.873 8      1775.266    21809866.110    89307717.01047
      1383.323
  23227414.379   122060859.171 8      3153.720    23227412.112    95112357.57246
      2457.443
  24676345.656   129675085.664 7      3654.862    24676351.692   101045547.01247
      2847.963
 23 11  9  8 47  0.0000000  0  8G03G04G06G07G09G11G20G30
  24529282.515   128902159.290 7     -3324.981    24529288.550   100443220.25947
     -2590.906
  21818509.465   114657015.158 8     -2549.094    21818509.340    89343121.69847
     -1986.311
  20651092.176   108522190.537 9      -827.896    20651092.885    84562737.96649
      -645.115
  22542565.864   118462042.841 8      2706.668    22542565.700    92308111.14548
      2109.093
  20240582.824   106364975.905 9      -701.031    20240582.638    82881809.11949
      -546.260
  21799781.529   114558594.652 8      1758.243    21799779.936    89266415.77947
      1370.059
  23209419.661   121966296.255 8      3150.250    23209417.428    95038672.17345
      2454.739
  24655483.396   129565455.795 7      3653.719    24655489.307   100960121.68146
      2847.072
 23 11  9  8 47 30.0000000  0  8G03G04G06G07G09G11G20G30
  24548273.554   129001956.799 7     -3328.612    24548279.616   100520984.30047
     -2593.733
  21833085.639   114733613.075 8     -2557.693    21833085.536    89402808.28947
     -1993.013
  20655875.223   108547325.490 9      -848.006    20655875.974    84582323.59549
      -660.785
  22527143.501   118380997.971 8      2696.084    22527143.334    92244959.32948
      2100.846
  20244626.158   106386223.703 9      -715.766    20244625.969    82898365.82249
      -557.740
  21789792.989   114506104.426 8      1740.711    21789791.387    89225514.28747
      1356.397
  23191446.146   121871844.844 8      3146.294    23191443.935    94965073.68545
      2451.659
  24634629.197   129455868.407 7      3651.777    24634634.969   100874729.47847
      2845.561
 23 11  9  8 48  0.0000000  0  8G03G04G06G07G09G11G20G30
  24567282.892   129101850.220 7     -3330.976    24567288.979   100598823.03446
     -2595.574
  21847708.623   114810457.007 8     -2565.574    21847708.540    89462686.58547
     -1999.151
  20660770.894   108573052.339 9      -867.317    20660771.678    84602370.45349
      -675.833
  22511778.910   118300256.703 8      2686.376    22511778.743    92182044.09648
      2093.281
  20248750.687   106407898.170 9      -729.606    20248750.506    82915254.98549
      -568.525
  21779901.918   114454126.386 8      1723.925    21779900.315    89185011.90347
      1343.317
  23173493.585   121777503.554 8      3142.972    23173491.390    94891561.00845
      2449.071
  24613783.001   129346322.955 6      3650.964    24613788.628   100789369.92246
      2844.926
 23 11  9  8 48 30.0000000  0  8G03G04G06G07G09G11G20G30
  24586310.942   129201842.095 7     -3334.380    24586317.038   100676738.50847
     -2598.224
  21862378.742   114887548.582 8     -2573.648    21862378.681    89522757.84047
     -2005.443
  20665779.745   108599373.916 9      -887.022    20665780.553    84622880.72949
      -691.187
  22496473.068   118219824.168 8      2676.168    22496472.897    92119369.44248
      2085.328
  20252956.841   106430001.598 9      -743.687    20252956.681    82932478.40049
      -579.497
  21770109.343   114402665.916 8      1707.036    21770107.744    89144912.81247
      1330.157
  23155562.954   121683277.478 8      3139.337    23155560.774    94818138.09646
      2446.237
  24592945.862   129236825.100 7      3649.583    24592951.333   100704047.45447
      2843.849
 23 11  9  8 49  0.0000000  0  8G03G04G06G07G09G11G20G30
  24605357.140   129301929.279 6     -3337.587    24605363.267   100754728.22446
     -2600.726
  21877095.209   114964883.718 8     -2581.803    21877095.168    89583018.88746
     -2011.797
  20670901.224   108626287.314 9      -906.805    20670902.055    84643852.16049
      -706.604
  22481226.095   118139700.855 8      2665.694    22481225.914    92056935.72048
      2077.166
  20257243.972   106452530.581 9      -757.979    20257243.844    82950033.41849
      -590.634
  21760415.203   114351722.711 8      1689.634    21760413.609    89105216.78447
      1316.598
  23137654.056   121589165.716 8      3135.286    23137651.882    94744804.28846
      2443.083
  24572117.858   129127374.929 7      3647.666    24572123.187   100618762.06147
      2842.353
 23 11  9  8 49 30.0000000  0  8G03G04G06G07G09G11G20G30
  24624421.457   129402111.798 7     -3340.995    24624427.634   100832792.23546
     -2603.382
  21891857.863   115042461.555 8     -2589.812    21891857.840    89643469.05147
     -2018.039
  20676135.400   108653792.903 9      -926.540    20676136.259    84665285.03149
      -721.981
  22466038.390   118059889.040 8      2655.362    22466038.190    91994744.74548
      2069.115
  20261612.047   106475484.939 9      -772.135    20261611.956    82967919.89749
      -601.665
  21750820.047   114301299.663 8      1672.181    21750818.454    89065926.07248
      1302.997
  23119767.410   121495170.822 8      3131.209    23119765.257    94671561.52445
      2439.904
  24551299.544   129017975.642 6      3645.536    24551304.751   100533516.29247
      2840.691
 23 11  9  8 50  0.0000000  0  8G03G04G06G07G09G11G20G30
  24643503.722   129502388.745 7     -3343.965    24643509.938   100910929.84647
     -2605.695
  21906666.353   115120280.298 8     -2597.799    21906666.341    89704106.94747
     -2024.263
  20681482.123   108681889.946 9      -946.221    20681483.009    84687178.77749
      -737.316
  22450910.420   117980391.120 8      2644.873    22450910.189    91932798.37648
      2060.942
  20266060.841   106498863.438 9      -786.009    20266060.789    82986136.87149
      -612.476
  21741324.236   114251398.671 8      1654.939    21741322.647    89027042.15448
      1289.562
  23101903.279   121401294.309 8      3127.577    23101901.148    94598411.01946
      2437.075
  24530491.368   128908629.469 7      3644.242    24530496.496   100448311.83447
      2839.681
 23 11  9  8 50 30.0000000  0  8G03G04G06G07G09G11G20G30
  24662603.308   129602756.751 6     -3347.155    24662609.573   100989138.42246
     -2608.178
  21921519.890   115198335.718 8     -2605.996    21921519.890    89764929.25747
     -2030.649
  20686940.806   108710575.351 9      -966.174    20686941.716    84709530.99349
      -752.864
  22435842.128   117901206.867 8      2633.984    22435841.857    91871096.43948
      2052.459
  20270589.685   106522662.577 9      -800.441    20270589.664    83004681.61949
      -623.721
  21731927.672   114202019.273 8      1637.049    21731926.094    88988564.67748
      1275.622
  23084061.553   121307535.487 8      3123.002    23084059.452    94525352.20546
      2433.510
  24509693.342   128799336.405 7      3641.954    24509698.430   100363148.67847
      2837.894
 23 11  9  8 51  0.0000000  0  8G03G04G06G07G09G11G20G30
  24681720.742   129703218.418 7     -3350.540    24681727.069   101067419.93547
     -2610.818
  21936418.749   115276629.298 8     -2613.774    21936418.764    89825937.14447
     -2036.710
  20692511.936   108739851.666 9      -985.705    20692512.865    84732343.66149
      -768.083
  22420834.597   117822341.851 8      2623.376    22420834.290    91809643.24248
      2044.191
  20275198.990   106546884.454 9      -814.482    20275198.990    83023555.76649
      -634.663
  21722631.353   114153166.632 8      1619.612    21722629.801    88950497.64348
      1262.034
  23066243.144   121213899.234 8      3119.126    23066241.071    94452388.90346
      2430.490
  24488906.538   128690101.974 7      3640.058    24488911.606   100278031.13047
      2836.415
 23 11  9  8 51 30.0000000  0  8G03G04G06G07G09G11G20G30
  24700854.817   129803767.673 6     -3354.096    24700861.187   101145769.74146
     -2613.593
  21951361.649   115355154.340 8     -2621.498    21951361.677    89887125.39647
     -2042.729
  20698194.450   108769713.271 9     -1005.197    20698195.395    84755612.38949
      -783.272
  22405887.194   117743792.897 8      2613.094    22405886.848    91748436.34248
      2036.180
  20279887.578   106571522.956 9      -828.378    20279887.583    83042754.56449
      -645.490
  21713434.690   114104837.739 8      1602.109    21713433.162    88912838.73848
      1248.396
  23048447.383   121120381.939 8      3115.041    23048445.338    94379518.28246
      2427.305
  24468130.466   128580923.668 7      3638.119    24468135.529   100192957.25547
      2834.903
 23 11  9  8 52  0.0000000  0  8G03G04G06G07G09G11G20G30
  24720006.717   129904410.617 7     -3355.873    24720013.137   101224192.53847
     -2614.972
  21966349.561   115433915.931 8     -2628.737    21966349.603    89948497.97047
     -2048.370
  20703989.498   108800166.277 9     -1024.460    20703990.457    84779341.95649
      -798.282
  22391001.693   117665569.192 8      2602.601    22391001.312    91687482.86648
      2028.003
  20284656.541   106596583.802 9      -841.864    20284656.539    83062282.45849
      -656.000
  21704339.372   114057041.360 8      1584.757    21704337.874    88875594.76448
      1234.874
  23030675.841   121026992.019 8      3111.378    23030673.819    94306746.93846
      2424.451
  24447366.898   128471810.697 6      3636.544    24447371.974   100107934.21047
      2833.672
 23 11  9  8 52 30.0000000  0  8G03G04G06G07G09G11G20G30
  24739175.459   130005141.925 5     -3359.434    24739181.924   101302684.16145
     -2617.757
  21981381.305   115512907.877 8     -2637.178    21981381.362    90010050.04447
     -2054.946
  20709896.087   108831205.436 9     -1044.637    20709897.061    84803528.26649
      -814.004
  22376177.552   117587667.995 8      2591.080    22376177.128    91626780.69948
      2019.024
  20289504.799   106622061.347 9      -856.457    20289504.783    83082135.05149
      -667.370
  21695344.873   114009774.847 9      1566.615    21695343.397    88838763.68547
      1220.738
  23012928.037   120933726.813 8      3106.627    23012926.047    94234072.76446
      2420.749
  24426615.370   128362760.944 7      3633.774    24426620.463   100022960.41847
      2831.514
 23 11  9  8 53  0.0000000  0  8G03G04G06G07G09G11G20G30
  24758360.900   130105961.241 6     -3361.953    24758367.435   101381244.40746
     -2619.711
  21996456.648   115592128.950 8     -2644.396    21996456.728    90071780.65647
     -2060.570
  20715914.190   108862830.552 9     -1063.747    20715915.182    84828171.15649
      -828.896
  22361415.321   117510092.139 8      2580.482    22361414.846    91566332.03648
      2010.768
  20294432.242   106647955.019 9      -869.901    20294432.215    83102311.89549
      -677.847
  21686451.693   113963040.710 8      1548.967    21686450.236    88802347.43247
      1206.985
  22995204.334   120840588.162 8      3102.618    22995202.385    94161497.17546
      2417.622
  24405876.477   128253777.412 6      3631.970    24405881.587    99938038.18546
      2830.105
 23 11  9  8 53 30.0000000  0  7G04G06G07G09G11G20G30
  22011575.312   115671577.645 8     -2652.423    22011575.424    90133688.62847
     -2066.826
  20722043.668   108895040.987 9     -1083.620    20722044.676    84853270.15249
      -844.381
  22346715.370   117432843.675 8      2569.352    22346714.840    91506138.50148
      2002.095
  20299438.665   106674263.787 9      -884.071    20299438.635    83122812.19549
      -688.888
  21677660.187   113916840.932 9      1530.949    21677658.738    88766347.57847
      1192.946
  22977505.056   120747578.028 8      3097.922    22977503.136    94089021.76646
      2413.967
  24385150.619   128144862.690 7      3628.816    24385155.739    99853169.63247
      2827.650
 23 11  9  8 54  0.0000000  0  7G04G06G07G09G11G20G30
  22026736.898   115751251.944 8     -2659.004    22026737.045    90195772.40347
     -2071.954
  20728284.332   108927835.732 9     -1102.364    20728285.352    84878824.46049
      -858.986
  22332078.084   117355924.567 8      2558.914    22332077.511    91446201.61048
      1993.961
  20304523.817   106700986.309 9      -897.135    20304523.797    83143634.89749
      -699.067
  21668970.687   113871177.191 8      1513.701    21668969.244    88730765.41447
      1179.507
  22959830.595   120654698.264 8      3094.437    22959828.716    94016647.92846
      2411.249
  24364438.264   128036018.950 7      3627.369    24364443.376    99768356.39047
      2826.524
 23 11  9  8 54 30.0000000  0  7G04G06G07G09G11G20G30
  22041941.413   115831151.808 8     -2667.106    22041941.599    90258031.93747
     -2078.268
  20734636.331   108961215.557 9     -1122.493    20734637.367    84904834.67049
      -874.672
  22317504.162   117279338.521 8      2547.206    22317503.558    91386524.25948
      1984.839
  20309687.779   106728123.021 9      -911.406    20309687.779    83164780.34549
      -710.188
  21660383.844   113826052.908 8      1495.146    21660382.416    88695603.60448
      1165.047
  22942181.544   120561951.988 8      3089.087    22942179.713    93944378.09546
      2407.081
  24343740.184   127927250.268 7      3624.375    24343745.263    99683601.65547
      2824.191
 23 11  9  8 55  0.0000000  0  7G04G06G07G09G11G20G30
  22057187.888   115911272.141 8     -2674.393    22057188.116    90320463.26147
     -2083.945
  20741098.859   108995176.237 9     -1141.780    20741099.910    84931297.50249
      -889.699
  22302993.366   117203084.159 8      2536.220    22302992.743    91327105.35248
      1976.278
  20314929.695   106755669.396 9      -925.085    20314929.720    83186245.01349
      -720.846
  21651899.352   113781466.541 8      1477.188    21651897.945    88660860.96248
      1151.056
  22924557.530   120469337.335 8      3084.979    22924555.744    93872210.83646
      2403.879
  24323056.152   127818555.595 7      3621.932    24323061.178    99598904.65047
      2822.291
 23 11  9  8 55 30.0000000  0  7G04G06G07G09G11G20G30
  22072476.542   115991614.108 8     -2681.811    22072476.813    90383067.28247
     -2089.726
  20747672.310   109029719.787 9     -1161.264    20747673.381    84958214.51149
      -904.882
  22288546.711   117127166.669 8      2524.829    22288546.075    91267948.90548
      1967.398
  20320249.898   106783627.147 9      -938.861    20320249.949    83208030.22549
      -731.582
  21643518.139   113737422.815 8      1458.899    21643516.755    88626541.13648
      1136.804
  22906959.449   120376858.871 8      3080.470    22906957.705    93800149.68446
      2400.365
  24302387.190   127709940.242 7      3619.050    24302392.155    99514269.49447
      2820.046
 23 11  9  8 56  0.0000000  0  7G04G06G07G09G11G20G30
  22087807.254   116072177.102 8     -2689.007    22087807.564    90445843.53947
     -2095.332
  20754356.714   109064846.397 9     -1180.513    20754357.809    84985585.85649
      -919.882
  22274164.690   117051588.862 8      2513.538    22274164.018    91209057.17148
      1958.604
  20325648.362   106811996.167 9      -952.442    20325648.436    83230135.91049
      -742.165
  21635240.726   113693924.605 8      1440.848    21635239.352    88592646.40348
      1122.738
  22889387.801   120284519.361 8      3075.673    22889386.093    93728196.82146
      2396.628
  24281733.966   127601407.624 7      3616.538    24281738.882    99429698.82447
      2818.089
 23 11  9  8 56 30.0000000  0  7G04G06G07G09G11G20G30
  22103179.373   116152957.626 8     -2696.506    22103179.715    90508789.28747
     -2101.178
  20761151.558   109100553.372 9     -1200.138    20761152.681    85013409.43549
      -935.174
  22259847.401   116976351.148 8      2501.886    22259846.687    91150430.43648
      1949.522
  20331124.526   106840773.495 9      -966.359    20331124.614    83252559.76249
      -753.008
  21627067.126   113650971.911 8      1422.364    21627065.749    88559176.74748
      1108.335
  22871842.593   120192318.721 8      3070.847    22871840.920    93656352.15446
      2392.865
  24261096.551   127492958.311 7      3613.514    24261101.429    99345193.12247
      2815.734
 23 11  9  8 57  0.0000000  0  7G04G06G07G09G11G20G30
  22118592.641   116233954.412 8     -2703.701    22118593.012    90571903.55547
     -2106.785
  20768056.719   109136840.107 9     -1219.331    20768057.872    85041684.77849
      -950.129
  22245595.270   116901455.867 8      2490.510    22245594.513    91092070.54348
      1940.659
  20336678.250   106869958.357 9      -979.807    20336678.345    83275301.16949
      -763.487
  21618997.745   113608566.883 8      1404.192    21618996.360    88526133.84147
      1094.175
  22854324.173   120100258.957 8      3066.231    22854322.525    93584617.28746
      2389.270
  24240475.512   127384595.029 7      3610.518    24240480.367    99260754.45047
      2813.398
 23 11  9  8 57 30.0000000  0  7G04G06G07G09G11G20G30
  22134046.699   116315165.570 8     -2710.888    22134047.095    90635184.87047
     -2112.384
  20775071.996   109173705.502 9     -1238.747    20775073.182    85070411.01949
      -965.259
  22231408.635   116826904.750 8      2479.013    22231407.840    91033978.82448
      1931.700
  20342309.264   106899549.362 9      -993.371    20342309.358    83298359.05449
      -774.058
  21611032.864   113566711.043 8      1385.795    21611031.470    88493518.87847
      1079.839
  22836832.776   120008341.156 8      3061.145    22836831.157    93512993.02546
      2385.307
  24219871.299   127276320.021 7      3607.480    24219876.151    99176384.52947
      2811.030
 23 11  9  8 58  0.0000000  0  7G04G06G07G09G11G20G30
  22149540.969   116396588.041 8     -2717.502    22149541.384    90698630.84347
     -2117.539
  20782196.939   109211147.194 9     -1257.516    20782198.153    85099586.32249
      -979.883
  22217287.634   116752698.494 8      2467.864    22217286.812    90976155.81248
      1923.012
  20348017.071   106929543.930 9     -1006.327    20348017.161    83321731.40649
      -784.152
  21603172.561   113525404.798 8      1367.831    21603171.165    88461332.17447
      1065.841
  22819368.614   119916566.539 8      3056.793    22819367.022    93441480.34646
      2381.916
  24199284.098   127168134.282 7      3604.792    24199288.935    99092084.15047
      2808.937
 23 11  9  8 58 30.0000000  0  7G04G06G07G09G11G20G30
  22165075.576   116478222.484 8     -2724.613    22165076.010    90762241.98547
     -2123.081
  20789431.798   109249166.458 9     -1276.945    20789433.034    85129211.67849
      -995.023
  22203233.067   116678841.385 8      2456.131    22203232.224    90918604.87248
      1913.870
  20353801.890   106959943.177 9     -1019.953    20353801.971    83345419.08849
      -794.771
  21595417.589   113484652.143 8      1349.147    21595416.202    88429576.84448
      1051.283
  22801932.416   119824938.876 8      3051.657    22801930.850    93370082.17546
      2377.914
  24178714.809   127060042.470 7      3601.408    24178719.625    99007856.91747
      2806.296
 23 11  9  8 59  0.0000000  0  7G04G06G07G09G11G20G30
  22180650.135   116560066.916 8     -2731.580    22180650.579    90826016.76447
     -2128.507
  20796776.307   109287761.953 9     -1296.118    20796777.548    85159286.05549
     -1009.964
  22189245.263   116605335.118 8      2444.292    22189244.412    90861327.31248
      1904.645
  20359663.430   106990745.591 9     -1033.443    20359663.500    83369420.92649
      -805.283
  21587768.224   113444454.472 8      1330.520    21587766.861    88398253.96248
      1036.768
  22784524.426   119733459.439 8      3047.055    22784522.881    93298799.49946
      2374.328
  24158163.795   126952046.635 7      3598.254    24158168.579    98923704.45847
      2803.838
 23 11  9  8 59 30.0000000  0  7G04G06G07G09G11G20G30
  22196263.900   116642117.379 8     -2738.656    22196264.361    90889952.08447
     -2134.021
  20804229.859   109326930.386 9     -1315.352    20804231.100    85189806.86349
     -1024.951
  22175324.171   116532179.378 8      2432.364    22175323.316    90804322.88048
      1895.351
  20365601.025   107021947.685 9     -1046.870    20365601.083    83393734.20749
      -815.744
  21580224.349   113404811.178 8      1311.963    21580223.013    88367363.06348
      1022.308
  22767144.544   119642127.734 8      3041.503    22767143.014    93227631.94446
      2370.002
  24137631.102   126844146.968 7      3594.797    24137635.852    98839626.90647
      2801.145
                            4  1
RINEX FILE SPLICE; other post-header comments skipped       COMMENT
 23 11  9  9  0  0.0000000  0  7G04G06G07G09G11G20G30
  22211917.107   116724375.145 8     -2745.218    22211917.584    90954048.94247
     -2139.135
  20811792.784   109366673.605 9     -1334.321    20811794.024    85220775.56149
     -1039.732
  22161470.718   116459379.088 8      2420.783    22161469.863    90747595.41948
      1886.325
  20371615.008   107053551.192 9     -1060.065    20371615.060    83418360.27849
      -826.026
  21572786.850   113365726.888 8      1293.539    21572785.541    88336907.75248
      1007.952
  22749793.587   119550948.016 8      3036.832    22749792.069    93156582.81646
      2366.361
  24117117.721   126736348.828 7      3591.555    24117122.447    98755628.46447
      2798.617
 23 11  9  9  0 30.0000000  0  7G04G06G07G09G11G20G30
  22227609.118   116806836.818 8     -2751.729    22227609.616    91018304.68247
     -2144.209
  20819464.546   109406988.768 9     -1353.125    20819465.799    85252189.92349
     -1054.385
  22147684.967   116386934.486 8      2409.094    22147684.112    90691145.09348
      1877.217
  20377704.809   107085553.116 9     -1073.129    20377704.859    83443296.80349
      -836.206
  21565455.707   113327201.448 9      1274.992    21565454.424    88306887.90248
       993.500
  22732471.607   119459920.539 8      3031.963    22732470.090    93085652.31945
      2362.569
  24096623.734   126628652.783 7      3588.277    24096628.446    98671709.60547
      2796.064
 23 11  9  9  1  0.0000000  0  7G04G06G07G09G11G20G30
  22243339.343   116889499.338 8     -2759.025    22243339.864    91082716.93146
     -2149.895
  20827244.646   109447873.315 9     -1372.562    20827245.917    85284047.96849
     -1069.531
  22133966.995   116314846.103 8      2396.705    22133966.134    90634972.35548
      1867.563
  20383869.922   107117950.824 9     -1086.653    20383869.975    83468541.73649
      -846.744
  21558230.966   113289235.088 9      1256.030    21558229.706    88277303.69548
       978.724
  22715178.787   119369046.264 8      3026.269    22715177.266    93014841.19146
      2358.132
  24076149.363   126521059.899 7      3584.454    24076154.079    98587871.14147
      2793.087
 23 11  9  9  1 30.0000000  0  7G04G06G07G09G11G20G30
  22259107.800   116972362.770 8     -2765.239    22259108.350    91147285.73347
     -2154.736
  20835133.216   109489327.864 9     -1391.214    20835134.504    85316350.17049
     -1084.063
  22120317.496   116243117.549 8      2385.173    22120316.632    90579080.00448
      1858.577
  20390110.451   107150744.842 9     -1099.607    20390110.513    83494095.47949
      -856.838
  21551113.262   113251831.170 9      1237.581    21551112.021    88248157.75648
       964.349
  22697915.709   119278328.316 8      3021.429    22697914.180    92944151.89246
      2354.361
  24055695.416   126413574.336 7      3581.283    24055700.138    98504116.30947
      2790.616
 23 11  9  9  2  0.0000000  0  7G04G06G07G09G11G20G30
  22274913.972   117055424.431 8     -2772.229    22274914.553    91212009.00947
     -2160.182
  20843129.823   109531350.136 9     -1410.277    20843131.126    85349094.75249
     -1098.920
  22106736.630   116171749.690 8      2372.612    22106735.762    90523468.71848
      1848.789
  20396425.949   107183932.842 9     -1112.977    20396426.026    83519956.22149
      -867.255
  21544102.675   113214990.153 9      1218.532    21544101.447    88219450.44847
       949.505
  22680682.472   119187767.199 8      3015.829    22680680.934    92873584.80446
      2349.996
  24035262.158   126306197.406 7      3577.208    24035266.860    98420446.12947
      2787.439
 23 11  9  9  2 30.0000000  0  7G04G06G07G09G11G20G30
  22290757.605   117138682.856 8     -2778.247    22290758.221    91276885.58746
     -2164.871
  20851234.284   109573939.180 9     -1428.767    20851235.594    85382280.97949
     -1113.325
  22093224.788   116100744.552 8      2361.033    22093223.920    90468140.06148
      1839.768
  20402816.221   107217513.804 9     -1125.567    20402816.312    83546123.16949
      -877.066
  21537199.567   113178713.889 9      1200.118    21537198.348    88191183.19647
       935.156
  22663479.469   119097364.919 8      3011.176    22663477.920    92803141.48346
      2346.371
  24014850.062   126198931.703 8      3573.861    24014854.714    98336862.64948
      2784.832
 23 11  9  9  3  0.0000000  0  7G04G06G07G09G11G20G30
  22306638.608   117222137.699 8     -2785.202    22306639.257    91341915.22846
     -2170.290
  20859446.623   109617095.081 9     -1448.230    20859447.931    85415908.90549
     -1128.492
  22079782.553   116030105.346 8      2348.329    22079781.684    90413096.57548
      1829.867
  20409281.272   107251487.742 9     -1139.184    20409281.376    83572596.33149
      -887.677
  21530404.449   113143005.166 9      1180.583    21530403.230    88163358.19547
       919.934
  22646307.274   119007124.449 8      3005.054    22646305.712    92732824.23746
      2341.603
  23994459.858   126091780.894 8      3569.576    23994464.445    98253368.67447
      2781.494
 23 11  9  9  3 30.0000000  0  7G04G06G07G09G11G20G30
  22322556.721   117305787.493 8     -2791.928    22322557.403    91407096.76746
     -2175.532
  20867766.616   109660816.714 9     -1467.134    20867767.923    85449977.65849
     -1143.223
  22066410.363   115959834.082 8      2335.958    22066409.500    90358339.76048
      1820.227
  20415820.894   107285853.590 9     -1152.385    20415821.012    83599374.88049
      -897.963
  21523717.631   113107865.614 9      1161.500    21523716.404    88135976.70947
       905.064
  22629166.279   118917047.899 8      2999.475    22629164.701    92662634.72046
      2337.254
  23974091.991   125984747.527 7      3565.578    23974096.499    98169966.22647
      2778.379
 23 11  9  9  4  0.0000000  0  7G04G06G07G09G11G20G30
  22338512.163   117389633.462 8     -2797.751    22338512.872    91472431.17246
     -2180.070
  20876194.576   109705105.698 9     -1485.465    20876195.878    85484488.50249
     -1157.507
  22053109.129   115889935.659 8      2324.023    22053108.259    90303873.46749
      1810.927
  20422435.393   107320612.909 9     -1164.865    20422435.525    83626460.02649
      -907.687
  21517139.963   113073299.638 9      1142.944    21517138.721    88109042.16247
       890.605
  22612057.299   118827139.594 8      2994.447    22612055.703    92592576.30746
      2333.337
  23953747.419   125877836.755 7      3561.733    23953751.861    98086659.32147
      2775.383
 23 11  9  9  4 30.0000000  0  7G04G06G07G09G11G20G30
  22354503.879   117473670.016 8     -2804.474    22354504.610    91537914.07846
     -2185.310
  20884729.506   109749956.764 9     -1504.549    20884730.805    85519437.32349
     -1172.378
  22039878.393   115820407.736 8      2311.342    22039877.507    90249695.88348
      1801.048
  20429123.775   107355760.489 9     -1178.144    20429123.920    83653847.71449
      -918.035
  21510670.964   113039304.727 9      1123.459    21510669.700    88082552.60247
       875.422
  22594980.000   118737397.753 8      2988.415    22594978.390    92522647.60246
      2328.636
  23933425.835   125771046.977 7      3557.506    23933430.226    98003446.71047
      2772.089
 23 11  9  9  5  0.0000000  0  7G04G06G07G09G11G20G30
  22370531.352   117557894.490 8     -2810.831    22370532.104    91603543.41646
     -2190.262
  20893370.959   109795367.596 9     -1523.251    20893372.244    85554822.33149
     -1186.951
  22026718.388   115751251.527 8      2298.821    22026717.485    90195807.95048
      1791.290
  20435885.606   107391294.035 9     -1191.036    20435885.761    83681536.15549
      -928.081
  21504310.725   113005881.337 9      1104.332    21504309.432    88056508.38947
       860.519
  22577934.531   118647823.183 8      2982.824    22577932.904    92452849.23546
      2324.279
  23913127.547   125664379.671 7      3553.458    23913131.906    97920329.51547
      2768.936
 23 11  9  9  5 30.0000000  0  7G04G06G07G09G11G20G30
  22386594.387   117642305.925 8     -2817.202    22386595.159    91669318.45347
     -2195.225
  20902118.808   109841337.495 9     -1541.869    20902120.076    85590642.96949
     -1201.458
  22013629.498   115682469.061 8      2286.146    22013628.580    90142211.25448
      1781.414
  20442720.760   107427212.909 9     -1204.019    20442720.927    83709524.85549
      -938.197
  21498059.658   112973031.583 9      1085.146    21498058.334    88030911.15248
       845.567
  22560921.286   118558417.980 8      2977.135    22560919.644    92383182.84546
      2319.846
  23892853.126   125557837.815 7      3549.042    23892857.454    97837310.07847
      2765.493
 23 11  9  9  6  0.0000000  0  7G04G06G07G09G11G20G30
  22402692.804   117726903.226 8     -2823.138    22402693.599    91735238.30547
     -2199.852
  20910972.878   109887865.597 9     -1560.350    20910974.122    85626898.57149
     -1215.859
  22000612.197   115614062.806 8      2273.768    22000611.267    90088907.71048
      1771.768
  20449629.090   107463516.308 9     -1216.662    20449629.273    83737813.18249
      -948.050
  21491918.100   112940757.328 9      1066.134    21491916.740    88005762.37048
       830.753
  22543940.734   118469184.582 8      2971.594    22543939.082    92313650.32846
      2315.526
  23872603.113   125451424.225 7      3544.832    23872607.414    97754390.59347
      2762.215
 23 11  9  9  6 30.0000000  0  7G04G06G07G09G11G20G30
  22418826.213   117811684.460 8     -2828.951    22418827.027    91801301.49647
     -2204.380
  20919932.854   109934950.276 9     -1578.804    20919934.071    85663587.87449
     -1230.238
  21987666.768   115546034.244 8      2261.280    21987665.830    90035898.46748
      1762.037
  20456610.316   107500202.740 9     -1229.212    20456610.515    83766399.97449
      -957.829
  21485886.272   112909059.708 9      1046.979    21485884.883    87981062.91248
       815.828
  22526993.183   118380124.632 8      2965.787    22526991.523    92244252.96846
      2311.004
  23852377.941   125345141.072 7      3540.481    23852382.218    97671572.73947
      2758.823
 23 11  9  9  7  0.0000000  0  7G04G06G07G09G11G20G30
  22434994.582   117896649.329 8     -2835.200    22434995.423    91867507.76347
     -2209.252
  20928998.724   109982591.408 9     -1597.204    20928999.916    85700710.76749
     -1244.577
  21974793.819   115478386.571 8      2248.637    21974792.875    89983186.02848
      1752.186
  20463664.418   107537272.102 9     -1241.930    20463664.631    83795285.14649
      -967.739
  21479964.682   112877941.356 8      1027.770    21479963.281    87956814.81248
       800.857
  22510079.203   118291241.093 8      2959.909    22510077.545    92174993.06846
      2306.423
  23832178.281   125238991.923 7      3536.297    23832182.544    97588859.29247
      2755.562
 23 11  9  9  7 30.0000000  0  7G04G06G07G09G11G20G30
  22451197.741   117981797.040 8     -2841.323    22451198.610    91933856.50946
     -2214.021
  20938170.366   110030788.431 9     -1615.910    20938171.543    85738266.82949
     -1259.152
  21961993.832   115411122.322 8      2235.472    21961992.886    89930772.36648
      1741.928
  20470791.313   107574724.004 9     -1254.897    20470791.536    83824468.40549
      -977.844
  21474153.723   112847404.500 8      1008.244    21474152.324    87933019.84548
       785.645
  22493199.299   118202536.654 8      2953.683    22493197.651    92105872.72646
      2301.571
  23812004.727   125132980.035 7      3531.442    23812008.980    97506252.81447
      2751.779
 23 11  9  9  8  0.0000000  0  7G04G06G07G09G11G20G30
  22467435.059   118067124.178 8     -2847.332    22467435.964    92000345.05546
     -2218.705
  20947447.177   110079538.040 9     -1634.301    20947448.353    85776253.45349
     -1273.483
  21949266.814   115344241.423 8      2222.909    21949265.871    89878657.39849
      1732.137
  20477990.412   107612555.299 9     -1267.434    20477990.643    83853947.28349
      -987.612
  21468453.324   112817448.635 9       988.736    21468451.944    87909677.58947
       770.443
  22476353.464   118114011.228 8      2947.726    22476351.825    92036891.86646
      2296.929
  23791857.383   125027105.973 7      3526.546    23791861.644    97423753.72846
      2747.965
 23 11  9  9  8 30.0000000  0  7G04G06G07G09G11G20G30
  22483706.032   118152628.182 8     -2852.863    22483706.974    92066971.42346
     -2223.015
  20956828.653   110128837.750 9     -1652.344    20956829.834    85814668.74449
     -1287.543
  21936612.883   115277744.659 9      2210.235    21936611.935    89826841.77949
      1722.263
  20485261.260   107650763.663 9     -1279.692    20485261.491    83883719.99049
      -997.165
  21462863.536   112788074.048 9       969.555    21462862.181    87886788.27847
       755.497
  22459541.809   118025665.427 8      2941.954    22459540.172    91968050.98046
      2292.432
  23771736.492   124921371.039 7      3522.171    23771740.776    97341363.05847
      2744.554
 23 11  9  9  9  0.0000000  0  7G04G06G07G09G11G20G30
  22500010.321   118238307.310 8     -2858.937    22500011.303    92133734.26347
     -2227.749
  20966314.507   110178685.979 9     -1670.890    20966315.703    85853511.44849
     -1301.994
  21924032.402   115211633.892 8      2197.023    21924031.451    89775326.93948
      1711.968
  20492603.592   107689347.681 9     -1292.535    20492603.820    83913785.41349
     -1007.172
  21457384.587   112759281.922 9       949.827    21457383.257    87864352.83848
       740.125
  22442764.717   117937501.287 8      2935.474    22442763.085    91899351.66046
      2287.382
  23751642.553   124815777.536 7      3517.242    23751646.853    97259082.55647
      2740.713
 23 11  9  9  9 30.0000000  0  7G04G06G07G09G11G20G30
  22516347.682   118324160.278 8     -2864.445    22516348.705    92200632.56947
     -2232.038
  20975904.508   110229081.546 9     -1688.757    20975905.723    85892780.64949
     -1315.917
  21911525.665   115145910.648 8      2184.392    21911524.714    89724114.06248
      1702.124
  20500017.220   107728306.338 9     -1304.819    20500017.445    83944142.75949
     -1016.743
  21452016.786   112731073.803 9       930.689    21452015.482    87842372.45548
       725.212
  22426022.660   117849521.170 8      2929.624    22426021.037    91830795.71746
      2282.823
  23731576.069   124710328.155 7      3512.506    23731580.358    97176914.35147
      2737.022
 23 11  9  9 10  0.0000000  0  7G04G06G07G09G11G20G30
  22532718.394   118410188.516 8     -2870.504    22532719.466    92267667.44547
     -2236.759
  20985598.926   110280025.906 9     -1707.313    20985600.153    85932477.49649
     -1330.376
  21899093.618   115080579.895 9      2171.101    21899092.662    89673207.02349
      1691.769
  20507502.463   107767641.343 9     -1317.419    20507502.691    83974793.36549
     -1026.562
  21446760.922   112703453.957 9       910.847    21446759.630    87820850.48548
       709.750
  22409316.456   117761729.533 8      2923.107    22409314.845    91762386.65846
      2277.746
  23711538.061   124605028.235 7      3507.502    23711542.326    97094862.59247
      2733.123
 23 11  9  9 10 30.0000000  0  7G04G06G07G09G11G20G30
  22549121.829   118496388.744 8     -2876.316    22549122.953    92334836.34247
     -2241.290
  20995397.174   110331515.826 9     -1725.571    20995398.408    85972599.44449
     -1344.604
  21886736.241   115015641.559 8      2157.965    21886735.275    89622605.76948
      1681.532
  20515058.746   107807349.647 9     -1329.869    20515058.983    84005734.85049
     -1036.264
  21441616.921   112676421.915 9       891.142    21441615.629    87799786.54048
       694.396
  22392646.169   117674126.676 8      2916.862    22392644.571    91694124.71147
      2272.881
  23691528.611   124499878.389 7      3502.578    23691532.842    97012927.78847
      2729.286
 23 11  9  9 11  0.0000000  0  7G04G06G07G09G11G20G30
  22565557.986   118582760.901 8     -2882.022    22565559.157    92402139.20046
     -2245.736
  21005299.231   110383551.235 9     -1743.636    21005300.472    86013146.44649
     -1358.680
  21874454.140   114951098.835 8      2144.738    21874453.167    89572312.78448
      1671.226
  20522686.119   107847431.489 9     -1342.346    20522686.369    84036967.39349
     -1045.986
  21436585.300   112649980.400 9       871.459    21436584.001    87779182.73948
       679.058
  22376012.435   117586715.843 8      2910.440    22376010.856    91626012.38046
      2267.877
  23671548.484   124394882.585 7      3497.241    23671552.691    96931112.99947
      2725.128
 23 11  9  9 11 30.0000000  0  7G04G06G07G09G11G20G30
  22582026.297   118669302.053 8     -2887.541    22582027.507    92469573.74946
     -2250.035
  21015304.524   110436129.134 9     -1761.491    21015305.765    86054116.17449
     -1372.593
  21862247.513   114886952.695 9      2131.569    21862246.533    89522328.81849
      1660.965
  20530384.039   107887884.090 9     -1354.519    20530384.306    84068488.84249
     -1055.472
  21431665.998   112624129.152 9       851.887    21431664.687    87759038.88948
       663.807
  22359415.302   117499497.346 8      2904.138    22359413.735    91558049.92747
      2262.965
  23651597.806   124290041.714 7      3492.058    23651602.003    96849418.95947
      2721.089
 23 11  9  9 12  0.0000000  0  7G04G06G07G09G11G20G30
  22598526.155   118756008.942 8     -2892.415    22598527.400    92537137.44246
     -2253.834
  21025412.441   110489246.299 9     -1779.120    21025413.690    86095506.10649
     -1386.330
  21850116.193   114823202.260 9      2118.781    21850115.204    89472653.18949
      1651.000
  20538151.947   107928704.507 9     -1366.332    20538152.233    84100296.90849
     -1064.677
  21426858.924   112598867.708 9       832.756    21426857.594    87739354.63247
       648.900
  22342854.891   117412471.786 8      2898.056    22342853.328    91490237.81746
      2258.225
  23631676.717   124185356.470 7      3487.438    23631680.925    96767846.19547
      2717.489
 23 11  9  9 12 30.0000000  0  7G04G06G07G09G11G20G30
  22615057.056   118842878.893 8     -2898.378    22615058.333    92604828.18846
     -2258.480
  21035622.434   110542899.899 9     -1797.461    21035623.704    86137314.04249
     -1400.621
  21838060.310   114759848.256 9      2105.114    21838059.312    89423286.47049
      1640.350
  20545989.377   107969890.280 9     -1379.024    20545989.683    84132389.67349
     -1074.566
  21422164.080   112574196.049 9       812.460    21422162.730    87720129.94348
       633.084
  22326331.335   117325639.939 8      2891.086    22326329.772    91422576.66646
      2252.795
  23611785.497   124080828.110 7      3481.565    23611789.716    96686395.66747
      2712.913
 23 11  9  9 13  0.0000000  0  7G04G06G07G09G11G20G30
  22631619.192   118929913.027 8     -2903.701    22631620.489    92672646.88346
     -2262.627
  21045934.700   110597090.996 9     -1815.036    21045936.006    86179540.80849
     -1414.315
  21826080.698   114696895.065 9      2092.089    21826079.689    89374232.07049
      1630.200
  20553896.576   108011442.699 9     -1390.932    20553896.898    84164768.14349
     -1083.844
  21417582.179   112550117.957 9       792.902    21417580.814    87701367.77948
       617.846
  22309845.458   117239006.100 8      2884.729    22309843.897    91355069.80347
      2247.844
  23591925.143   123976461.669 7      3476.473    23591929.355    96605071.26947
      2708.943
 23 11  9  9 13 30.0000000  0  7G04G06G07G09G11G20G30
  22648212.218   119017109.410 8     -2909.157    22648213.540    92740591.98846
     -2266.879
  21056348.843   110651817.522 8     -1832.997    21056350.195    86222184.79048
     -1428.311
  21814177.595   114634343.910 9      2078.482    21814176.572    89325490.93749
      1619.599
  20561873.235   108053360.094 9     -1403.194    20561873.572    84197431.00149
     -1093.399
  21413113.361   112526634.142 9       772.958    21413111.996    87683068.68848
       602.306
  22293397.516   117152571.629 8      2877.967    22293395.961    91287718.29147
      2242.573
  23572096.002   123872259.098 7      3470.823    23572100.179    96523874.55647
      2704.541
 23 11  9  9 14  0.0000000  0  7G04G06G07G09G11G20G30
  22664836.757   119104471.406 8     -2914.623    22664838.109    92808666.14347
     -2271.139
  21066865.469   110707082.670 8     -1850.831    21066866.871    86265248.48448
     -1442.208
  21802352.252   114572201.363 8      2065.062    21802351.217    89277068.19048
      1609.140
  20569920.015   108095645.988 9     -1415.254    20569920.359    84230381.00749
     -1102.796
  21408758.767   112503750.559 8       753.135    21408757.418    87665237.30448
       586.857
  22276988.812   117066343.415 8      2871.058    22276987.272    91220527.50647
      2237.189
  23552299.424   123768227.635 7      3465.304    23552303.561    96442811.17647
      2700.241
 23 11  9  9 14 30.0000000  0  7G04G06G07G09G11G20G30
  22681491.643   119191992.973 8     -2919.882    22681493.029    92876864.66146
     -2275.235
  21077483.408   110762880.263 9     -1868.863    21077484.862    86308727.07349
     -1456.259
  21790604.118   114510464.526 9      2051.035    21790603.075    89228961.56949
      1598.209
  20578035.818   108138294.576 9     -1427.638    20578036.163    84263613.62849
     -1112.446
  21404517.745   112481463.793 9       732.885    21404516.420    87647870.97748
       571.079
  22260618.912   116980319.049 8      2864.039    22260617.395    91153495.54146
      2231.720
  23532534.958   123664365.123 7      3459.223    23532539.069    96361879.47547
      2695.503
 23 11  9  9 15  0.0000000  0  7G04G06G07G09G11G20G30
  22698176.419   119279671.506 8     -2924.687    22698177.851    92945185.45446
     -2278.981
  21088202.120   110819207.391 8     -1885.948    21088203.628    86352618.27848
     -1469.571
  21778933.285   114449133.882 9      2038.060    21778932.232    89181171.45549
      1588.099
  20586220.156   108181303.331 9     -1439.175    20586220.503    84297126.90149
     -1121.436
  21400390.277   112459773.677 9       713.531    21400388.986    87630969.55948
       555.998
  22244287.913   116894499.099 8      2857.692    22244286.420    91086622.85547
      2226.774
  23512802.864   123560672.771 7      3454.096    23512806.976    96281080.35847
      2691.508
 23 11  9  9 15 30.0000000  0  7G04G06G07G09G11G20G30
  22714890.454   119367503.901 8     -2929.836    22714891.937    93013626.16246
     -2282.993
  21099020.992   110876060.837 9     -1903.389    21099022.562    86396919.59349
     -1483.162
  21767339.710   114388209.326 8      2024.498    21767338.649    89133697.79048
      1577.531
  20594472.494   108224669.450 9     -1451.063    20594472.846    84330918.64149
     -1130.700
  21396376.254   112438679.728 9       693.594    21396374.991    87614532.69948
       540.463
  22227995.903   116808884.001 8      2850.839    22227994.431    91019909.78547
      2221.433
  23493103.335   123457151.502 8      3448.247    23493107.447    96200414.55348
      2686.948
 23 11  9  9 16  0.0000000  0  7G04G06G07G09G11G20G30
  22731633.912   119455490.898 8     -2935.142    22731635.451    93082187.33046
     -2287.128
  21109940.099   110933441.052 9     -1921.274    21109941.724    86441631.39248
     -1497.099
  21755824.175   114327694.926 8      2010.487    21755823.123    89086543.72448
      1566.614
  20602793.001   108268393.812 9     -1463.256    20602793.360    84364989.52949
     -1140.201
  21392476.303   112418185.195 9       673.413    21392475.063    87598562.91248
       524.737
  22211743.663   116723477.908 8      2843.703    22211742.203    90953359.57746
      2215.873
  23473437.249   123353805.814 8      3442.076    23473441.345    96119885.55248
      2682.142
 23 11  9  9 16 30.0000000  0  7G04G06G07G09G11G20G30
  22748406.848   119543632.739 8     -2940.857    22748408.453    93150869.13246
     -2291.583
  21120959.444   110991347.951 8     -1939.181    21120961.120    86486753.57949
     -1511.052
  21744387.304   114267593.844 8      1996.337    21744386.269    89039711.70648
      1555.587
  20611181.743   108312476.770 9     -1475.626    20611182.109    84399339.84349
     -1149.840
  21388690.914   112398292.710 9       652.868    21388689.694    87583062.25648
       508.728
  22195531.834   116638284.151 8      2836.091    22195530.376    90886974.81746
      2209.940
  23453805.374   123250639.804 8      3435.560    23453809.431    96039496.56448
      2677.063
 23 11  9  9 17  0.0000000  0  7G04G06G07G09G11G20G30
  22765208.886   119631927.653 8     -2945.771    22765210.545    93219670.24546
     -2295.411
  21132078.634   111049779.542 9     -1956.626    21132080.353    86532284.62149
     -1524.646
  21733029.325   114207907.346 9      1982.564    21733028.304    88993202.74049
      1544.855
  20619638.423   108356916.766 9     -1487.265    20619638.794    84433968.37049
     -1158.908
  21385020.227   112379002.993 9       632.933    21385019.026    87568031.28648
       493.193
  22179360.811   116553304.888 8      2828.905    22179359.355    90820757.20146
      2204.341
  23434208.112   123147655.581 8      3429.660    23434212.117    95959249.22048
      2672.467
 23 11  9  9 17 30.0000000  0  7G04G06G07G09G11G20G30
  22782039.582   119720373.079 8     -2950.633    22782041.308    93288588.61646
     -2299.199
  21143297.109   111108732.868 9     -1973.769    21143298.858    86578222.21149
     -1538.004
  21721750.304   114148635.756 9      1968.901    21721749.289    88947017.08049
      1534.208
  20628162.572   108401711.335 9     -1499.010    20628162.951    84468873.18849
     -1168.060
  21381464.205   112360315.851 9       612.923    21381463.023    87553469.84748
       477.602
  22163230.687   116468540.649 8      2821.881    22163229.231    90754707.15046
      2198.868
  23414645.684   123044854.391 8      3423.585    23414649.637    95879144.49148
      2667.731
 23 11  9  9 18  0.0000000  0  7G04G06G07G09G11G20G30
  22798899.438   119808971.803 8     -2955.588    22798901.212    93357626.46046
     -2303.061
  21154615.325   111168210.371 8     -1991.014    21154617.096    86624568.25848
     -1551.442
  21710551.406   114089785.247 9      1954.871    21710550.398    88901159.54648
      1523.277
  20636754.749   108446863.424 9     -1510.771    20636755.140    84504056.59649
     -1177.226
  21378023.831   112342236.463 9       592.653    21378022.659    87539381.98948
       461.807
  22147142.666   116383997.667 8      2814.534    22147141.212    90688829.50246
      2193.143
  23395119.287   122942242.790 7      3417.399    23395123.188    95799187.53048
      2662.914
 23 11  9  9 18 30.0000000  0  7G04G06G07G09G11G20G30
  22815787.070   119897716.382 8     -2959.998    22815788.891    93426777.93546
     -2306.497
  21166031.815   111228204.274 9     -2007.933    21166033.605    86671316.69149
     -1564.624
  21699431.713   114031350.890 9      1941.294    21699430.709    88855626.28149
      1512.696
  20645413.563   108492365.694 9     -1522.102    20645413.968    84539512.87149
     -1186.055
  21374698.145   112324759.726 9       573.007    21374696.978    87525763.71948
       446.499
  22131095.944   116299671.784 8      2807.712    22131094.487    90623121.03846
      2187.829
  23375628.294   122839817.243 8      3411.460    23375632.168    95719375.52248
      2658.284
 23 11  9  9 19  0.0000000  0  8G04G06G07G09G11G16G20G30
  22832702.005   119986604.458 8     -2965.435    22832703.863    93496041.23446
     -2310.732
  21177546.051   111288711.819 9     -2025.683    21177547.850    86718465.37549
     -1578.456
  21688391.387   113973333.538 9      1926.818    21688390.383    88810417.95049
      1501.416
  20654138.609   108538215.963 9     -1534.292    20654139.034    84575240.30249
     -1195.554
  21371487.143   112307885.634 9       552.311    21371485.974    87512615.04148
       430.370
  24460905.915   128542932.147 6       745.526    24460911.250   100163331.36545
       580.932
  22115090.826   116215564.421 8      2799.803    22115089.362    90557582.83646
      2181.665
  23356172.966   122737579.135 7      3404.737    23356176.821    95639709.56247
      2653.046
 23 11  9  9 19 30.0000000  0  8G04G06G07G09G11G16G20G30
  22849643.978   120075634.657 8     -2970.228    22849645.856    93565415.29846
     -2314.468
  21189157.703   111349731.204 8     -2042.622    21189159.512    86766012.87848
     -1591.656
  21677430.724   113915734.818 9      1912.791    21677429.706    88765535.83949
      1490.486
  20662929.624   108584412.948 9     -1545.799    20662930.067    84611237.91449
     -1204.521
  21368390.994   112291615.109 9       532.027    21368389.819    87499936.67948
       414.565
  24456703.592   128520846.053 6       726.275    24456708.300   100146121.46945
       565.933
  22099127.670   116131677.578 8      2792.430    22099126.188    90492216.48346
      2175.920
  23336753.790   122635530.963 8      3398.341    23336757.628    95560191.59448
      2648.061
 23 11  9  9 20  0.0000000  0  8G04G06G07G09G11G16G20G30
  22866613.550   120164809.721 8     -2975.059    22866615.446    93634902.20946
     -2318.231
  21200867.176   111411264.648 8     -2059.516    21200869.004    86813960.94749
     -1604.819
  21666550.780   113858560.242 9      1898.856    21666549.747    88720984.22449
      1479.629
  20671787.151   108630959.432 9     -1557.211    20671787.619    84647507.85449
     -1213.413
  21365410.636   112275953.054 9       512.002    21365409.456    87487732.44348
       398.961
  24452611.401   128499340.992 7       707.263    24452615.585   100129364.32345
       551.115
  22083207.645   116048017.276 8      2785.011    22083206.149    90427026.64047
      2170.139
  23317371.994   122533679.134 8      3392.057    23317375.811    95480826.60648
      2643.163
 23 11  9  9 20 30.0000000  0  8G04G06G07G09G11G16G20G30
  22883610.424   120254128.282 8     -2979.491    22883612.319    93704500.95346
     -2321.688
  21212674.140   111473310.437 8     -2076.602    21212675.991    86862308.24748
     -1618.134
  21655751.837   113801811.377 9      1884.586    21655750.786    88676764.33749
      1468.508
  20680710.964   108677854.260 9     -1568.883    20680711.460    84684049.23449
     -1222.508
  21362546.256   112260900.501 9       491.615    21362545.074    87476003.14548
       383.075
  24448630.215   128478418.940 6       687.594    24448634.238   100113061.45144
       535.786
  22067331.129   115964585.666 8      2777.214    22067329.616    90362015.01647
      2164.062
  23298028.059   122432026.262 8      3385.153    23298031.849    95401616.65348
      2637.783
 23 11  9  9 21  0.0000000  0  8G04G06G07G09G11G16G20G30
  22900633.407   120343584.102 8     -2984.139    22900635.298    93774206.66146
     -2325.305
  21224577.305   111535861.783 8     -2093.561    21224579.170    86911049.49248
     -1631.348
  21645033.255   113745484.809 9      1870.509    21645032.177    88632873.51149
      1457.540
  20689699.893   108725091.238 9     -1580.170    20689700.416    84720857.21749
     -1231.304
  21359797.057   112246453.302 9       471.451    21359795.878    87464745.56348
       367.364
  24444759.124   128458075.532 7       668.433    24444762.884   100097209.53045
       520.857
  22051497.577   115881379.800 8      2769.778    22051496.043    90297179.29647
      2158.271
  23278721.502   122330569.788 8      3378.555    23278725.266    95322559.73548
      2632.643
 23 11  9  9 21 30.0000000  0  8G04G06G07G09G11G16G20G30
  22917683.047   120433179.874 8     -2988.563    22917684.934    93844021.39146
     -2328.755
  21236577.088   111598920.809 9     -2110.233    21236578.968    86960186.32148
     -1644.340
  21634396.149   113689586.300 9      1856.516    21634395.035    88589316.21549
      1446.636
  20698754.457   108772673.119 9     -1591.441    20698754.999    84757933.95749
     -1240.086
  21357163.974   112232616.263 9       451.343    21357162.805    87453963.42448
       351.695
  24440999.259   128438316.404 6       649.103    24441002.767   100081812.80944
       505.792
  22035708.095   115798405.470 8      2762.189    22035706.542    90232523.98647
      2152.356
  23259453.563   122229316.159 8      3372.194    23259457.303    95243660.85448
      2627.685
 23 11  9  9 22  0.0000000  0  8G04G06G07G09G11G16G20G30
  22934759.325   120522915.724 8     -2993.324    22934761.206    93913945.29346
     -2332.466
  21248673.407   111662487.118 8     -2127.062    21248675.303    87009718.43548
     -1657.454
  21623841.036   113634118.783 9      1841.784    21623839.876    88546094.78449
      1435.157
  20707874.703   108820600.123 9     -1603.230    20707875.255    84795279.61849
     -1249.272
  21354647.462   112219391.811 9       430.708    21354646.309    87443658.62948
       335.616
  24437350.966   128419144.379 6       629.147    24437354.321   100066873.62644
       490.247
  22019963.452   115715666.718 8      2754.112    22019961.878    90168052.23347
      2146.061
  23240224.958   122128269.276 8      3364.696    23240228.662    95164923.08248
      2621.844
 23 11  9  9 22 30.0000000  0  8G04G06G07G09G11G16G20G30
  22951861.357   120612786.936 8     -2997.824    22951863.236    93983974.66546
     -2335.973
  21260865.264   111726555.467 8     -2143.785    21260867.184    87059641.73648
     -1670.484
  21613367.526   113579080.141 9      1827.536    21613366.331    88503207.54049
      1424.055
  20717059.745   108868867.616 9     -1614.419    20717060.304    84832890.59249
     -1257.991
  21352247.007   112206777.251 9       410.418    21352245.880    87433829.07748
       319.806
  24433814.042   128400558.012 6       610.034    24433817.378   100052390.79244
       475.355
  22004263.408   115633162.285 8      2746.460    22004261.803    90103763.05947
      2140.098
  23221035.519   122027428.172 8      3358.026    23221039.177    95086345.65048
      2616.646
 23 11  9  9 23  0.0000000  0  8G04G06G07G09G11G16G20G30
  22968989.238   120702793.962 8     -3002.306    22968991.123    94054109.85846
     -2339.465
  21273152.626   111791125.738 8     -2160.676    21273154.566    87109956.15348
     -1683.646
  21602976.326   113524474.003 9      1813.054    21602975.103    88460657.30049
      1412.769
  20726309.685   108917476.132 9     -1625.902    20726310.254    84870767.29249
     -1266.939
  21349963.102   112194775.147 9       389.844    21349962.008    87424476.76048
       303.773
  24430389.031   128382559.865 6       590.115    24430392.385   100038366.29745
       459.828
  21988608.629   115550895.766 8      2738.285    21988606.996    90039659.28046
      2133.729
  23201886.037   121926797.104 8      3350.835    23201889.633    95007931.90348
      2611.044
 23 11  9  9 23 30.0000000  0  8G04G06G07G09G11G16G20G30
  22986141.975   120792931.735 8     -3007.147    22986143.856    94124346.96046
     -2343.236
  21285534.420   111856192.211 8     -2177.323    21285536.371    87160657.21648
     -1696.619
  21592666.948   113470297.872 9      1798.499    21592665.699    88418442.13949
      1401.428
  20735623.560   108966420.646 9     -1637.354    20735624.137    84908905.81449
     -1275.863
  21347795.163   112183382.451 9       369.414    21347794.103    87415599.30748
       287.854
  24427075.473   128365147.560 6       570.498    24427078.846   100024798.33244
       444.547
  21972998.844   115468865.651 8      2730.144    21972997.187    89975739.70146
      2127.384
  23182776.266   121826374.698 8      3343.559    23182779.806    94929680.74548
      2605.372
 23 11  9  9 24  0.0000000  0  8G04G06G07G09G11G16G20G30
  23003320.057   120883202.590 8     -3011.303    23003321.952    94194687.73046
     -2346.475
  21298010.968   111921756.577 9     -2193.869    21298012.924    87211746.24749
     -1709.512
  21582440.363   113416556.868 9      1784.138    21582439.094    88376566.04749
      1390.237
  20745001.830   109015703.544 9     -1648.393    20745002.411    84947308.00649
     -1284.464
  21345744.028   112172603.535 9       348.846    21345743.003    87407200.12148
       271.826
  24423874.438   128348326.273 6       550.800    24423877.796   100011690.85644
       429.196
  21957435.085   115387077.437 8      2722.228    21957433.405    89912008.62246
      2121.216
  23163707.339   121726166.999 8      3336.507    23163710.828    94851596.91048
      2599.878
 23 11  9  9 24 30.0000000  0  8G04G06G07G09G11G16G20G30
  23020522.896   120973603.557 8     -3015.407    23020524.798    94265129.88646
     -2349.674
  21310581.583   111987815.250 9     -2209.778    21310583.531    87263220.46349
     -1721.907
  21572296.517   113363250.610 9      1769.886    21572295.237    88335028.70549
      1379.132
  20754443.953   109065321.951 9     -1659.164    20754444.536    84985971.63149
     -1292.857
  21343809.501   112162437.438 8       328.825    21343808.500    87399278.46548
       256.228
  24420785.822   128332095.883 7       531.425    24420789.132    99999043.87344
       414.100
  21941917.475   115305531.875 8      2714.301    21941915.779    89848466.64646
      2115.042
  23144679.397   121626174.807 8      3329.715    23144682.847    94773681.02248
      2594.586
 23 11  9  9 25  0.0000000  0  8G04G06G07G09G11G16G20G30
  23037750.023   121064132.148 8     -3019.609    23037751.933    94335671.48946
     -2352.948
  21323245.689   112054365.092 9     -2226.495    21323247.629    87315077.39248
     -1734.934
  21562235.561   113310379.927 9      1754.956    21562234.269    88293830.77049
      1367.498
  20763949.462   109115273.396 9     -1670.532    20763950.048    85024894.75749
     -1301.716
  21341991.489   112152883.625 8       308.255    21341990.503    87391833.90148
       240.198
  24417809.607   128316455.812 6       511.459    24417812.833    99986856.84044
       398.542
  21926446.145   115224229.542 8      2705.964    21926444.445    89785114.19747
      2108.545
  23125692.696   121526399.354 8      3322.087    23125696.114    94695934.02048
      2588.644
 23 11  9  9 25 30.0000000  0  8G04G06G07G09G11G16G20G30
  23055001.253   121154787.587 7     -3024.169    23055003.155    94406311.98746
     -2356.497
  21336002.954   112121404.523 8     -2242.926    21336004.897    87367315.82149
     -1747.737
  21552257.734   113257946.134 9      1740.217    21552256.434    88252973.28049
      1356.015
  20773518.189   109165557.068 9     -1681.854    20773518.778    85064076.76949
     -1310.537
  21340290.189   112143943.184 8       287.571    21340289.206    87384867.29448
       224.081
  24414946.058   128301407.758 6       491.518    24414949.187    99975131.12044
       383.001
  21911021.621   115143173.224 8      2697.623    21911019.924    89721953.44847
      2102.044
  23106747.768   121426843.422 8      3314.729    23106751.147    94618358.08248
      2582.910
 23 11  9  9 26  0.0000000  0  8G04G06G07G09G11G16G20G30
  23072276.637   121245569.775 7     -3028.131    23072278.555    94477051.20346
     -2359.585
  21348853.236   112188932.746 8     -2258.723    21348855.194    87419935.11948
     -1760.046
  21542363.507   113205951.691 9      1725.929    21542362.206    88212458.14049
      1344.881
  20783150.136   109216172.918 9     -1692.580    20783150.736    85103517.61149
     -1318.896
  21338705.963   112135617.941 8       267.443    21338704.984    87378380.05548
       208.396
  24412195.675   128286954.348 7       472.067    24412198.745    99963868.76644
       367.849
  21895644.513   115062366.071 8      2689.385    21895642.833    89658986.84247
      2095.625
  23087845.314   121327510.660 8      3307.332    23087848.646    94540956.04048
      2577.146
 23 11  9  9 26 30.0000000  0  8G04G06G07G09G11G16G20G30
  23089576.369   121336479.952 8     -3032.406    23089578.308    94547890.15746
     -2362.918
  21361796.629   112256950.283 9     -2275.433    21361798.606    87472935.70549
     -1773.066
  21532553.657   113154400.687 8      1710.861    21532552.364    88172288.53448
      1333.139
  20792845.539   109267122.239 9     -1703.838    20792846.152    85143218.30349
     -1327.669
  21337239.399   112127911.016 8       246.757    21337238.435    87372374.61948
       192.277
  24409559.140   128273099.161 7       451.960    24409562.181    99953072.54244
       352.179
  21880315.676   114981812.625 8      2680.821    21880314.015    89596217.93347
      2088.953
  23068986.266   121228405.978 8      3299.826    23068989.556    94463731.71548
      2571.296
 23 11  9  9 27  0.0000000  0  8G04G06G07G09G11G16G20G30
  23106898.848   121427509.702 8     -3036.111    23106900.824    94618822.28646
     -2365.805
  21374831.387   112325447.962 9     -2291.028    21374833.371    87526310.43949
     -1785.220
  21522827.141   113103287.621 9      1696.566    21522825.856    88132460.17749
      1322.000
  20802602.804   109318396.650 9     -1714.475    20802603.434    85183172.31249
     -1335.957
  21335889.235   112120815.867 8       226.531    21335888.295    87366845.90648
       176.518
  24407035.335   128259836.557 6       432.402    24407038.328    99942738.11244
       336.942
  21865034.238   114901508.234 8      2672.849    21865032.597    89533643.08147
      2082.739
  23050169.720   121129524.695 8      3292.497    23050172.968    94386681.47148
      2565.586
 23 11  9  9 27 30.0000000  0  8G04G06G07G09G11G16G20G30
  23124244.961   121518663.758 8     -3040.668    23124246.985    94689851.29346
     -2369.354
  21387958.274   112394429.754 9     -2307.695    21387960.267    87580062.39449
     -1798.207
  21513185.342   113052619.744 9      1681.412    21513184.065    88092978.71849
      1310.191
  20812422.834   109370000.922 9     -1725.921    20812423.478    85223383.36249
     -1344.876
  21334656.735   112114339.067 8       205.326    21334655.835    87361799.02548
       159.994
  24404625.553   128247173.094 6       412.063    24404628.459    99932870.52344
       321.089
  21849801.718   114821460.930 8      2663.667    21849800.094    89471268.56247
      2075.585
  23031397.287   121030875.180 8      3284.273    23031400.491    94309811.80748
      2559.177
 23 11  9  9 28  0.0000000  0  8G04G06G07G09G11G16G20G30
  23141614.189   121609939.170 7     -3044.278    23141616.279    94760974.83646
     -2372.169
  21401176.561   112463891.827 8     -2323.230    21401178.576    87634188.58448
     -1810.312
  21503628.171   113002396.623 8      1666.683    21503626.898    88053843.83049
      1298.715
  20822305.054   109421932.037 9     -1736.312    20822305.710    85263849.09749
     -1352.973
  21333541.662   112108479.332 8       185.203    21333540.810    87357232.96948
       144.313
  24402329.713   128235108.381 7       392.480    24402332.514    99923469.47544
       305.828
  21834618.128   114741670.726 8      2655.359    21834616.525    89409094.37547
      2069.112
  23012669.082   120932458.066 8      3276.726    23012672.243    94233123.23148
      2553.295
 23 11  9  9 28 30.0000000  0  8G04G06G07G09G11G16G20G30
  23159006.096   121701333.778 8     -3048.664    23159008.256    94832191.26646
     -2375.586
  21414485.682   112533831.270 8     -2339.624    21414487.732    87688686.75148
     -1823.088
  21494155.743   112952618.778 9      1651.852    21494154.473    88015055.89849
      1287.156
  20832249.067   109474187.860 9     -1747.497    20832249.735    85304567.84549
     -1361.690
  21332543.963   112103236.344 9       164.270    21332543.155    87353147.48948
       128.000
  24400147.868   128223642.721 7       372.022    24400150.541    99914535.23343
       289.889
  21819483.797   114662139.348 8      2646.523    21819482.218    89347121.86747
      2062.227
  22993985.411   120834274.918 8      3268.884    22993988.537    94156616.95148
      2547.184
 23 11  9  9 29  0.0000000  0  8G04G06G07G09G11G16G20G30
  23176420.590   121792847.041 8     -3052.298    23176422.815    94903500.15146
     -2378.418
  21427885.357   112604246.644 8     -2355.154    21427887.441    87743555.78348
     -1835.188
  21484768.426   112903288.176 9      1636.848    21484767.150    87976616.47849
      1275.466
  20842254.748   109526767.856 9     -1758.064    20842255.424    85345539.21549
     -1369.922
  21331663.853   112098611.259 9       143.878    21331663.074    87349543.49948
       112.111
  24398080.310   128212777.512 7       352.233    24398082.876    99906068.84944
       274.468
  21804399.269   114582869.690 8      2637.936    21804397.709    89285353.30247
      2055.534
  22975346.842   120736328.800 8      3260.882    22975349.930    94080295.37948
      2540.949
 23 11  9  9 29 30.0000000  0  8G04G06G07G09G11G16G20G30
  23193857.135   121884476.141 8     -3056.324    23193859.424    94974899.30046
     -2381.557
  21441374.895   112675134.240 8     -2371.044    21441377.025    87798792.76748
     -1847.570
  21475466.167   112854404.478 9      1622.030    21475464.878    87938525.28749
      1263.921
  20852321.578   109579669.184 9     -1768.724    20852322.268    85386760.96549
     -1378.229
  21330901.121   112094602.920 9       123.312    21330900.366    87346420.08648
        96.087
  24396127.046   128202512.788 7       331.984    24396129.565    99898070.34044
       258.685
  21789364.555   114503861.755 8      2629.324    21789363.013    89223788.67647
      2048.823
  22956753.528   120638620.457 8      3253.040    22956756.583    94004159.07548
      2534.840
 23 11  9  9 30  0.0000000  0  8G04G06G07G09G11G16G20G30
  23211315.368   121976219.228 8     -3059.905    23211317.700    95046387.29346
     -2384.346
  21454953.766   112746491.315 8     -2386.112    21454955.944    87854395.58348
     -1859.311
  21466249.091   112805968.437 9      1607.142    21466247.778    87900782.93249
      1252.319
  20862449.185   109632889.965 9     -1779.276    20862449.890    85428231.65349
     -1386.450
  21330255.712   112091211.120 9       102.887    21330254.973    87343777.09648
        80.171
  24394287.947   128192848.148 7       312.265    24394290.445    99890539.46445
       243.325
  21774380.042   114425117.597 8      2620.427    21774378.515    89162429.58947
      2041.892
  22938205.801   120541151.693 8      3244.902    22938208.829    93928209.46148
      2528.498
 23 11  9  9 30 30.0000000  0  8G04G06G07G09G11G16G20G30
  23228795.664   122068078.170 8     -3063.898    23228798.032    95117965.55445
     -2387.456
  21468622.148   112818318.803 8     -2402.051    21468624.360    87910364.96048
     -1871.729
  21457117.997   112757984.146 9      1591.775    21457116.657    87863392.57749
      1240.346
  20872637.925   109686431.992 9     -1790.200    20872638.647    85469952.65849
     -1394.962
  21329728.280   112088439.331 9        81.924    21329727.541    87341617.24248
        63.837
  24392563.816   128183787.544 7       291.798    24392566.321    99883479.24344
       227.377
  21759446.739   114346642.453 8      2611.318    21759445.225    89101280.10447
      2034.793
  22919704.695   120443927.966 8      3236.601    22919707.703    93852450.79348
      2522.030
 23 11  9  9 31  0.0000000  0  8G04G06G07G09G11G16G20G30
  23246298.120   122160053.496 8     -3067.154    23246300.510    95189634.50246
     -2389.994
  21482379.981   112890616.338 8     -2416.965    21482382.206    87966700.60948
     -1883.353
  21448073.465   112710454.707 9      1577.312    21448072.092    87826356.65149
      1229.074
  20882887.900   109740295.822 9     -1800.181    20882888.636    85511924.42449
     -1402.740
  21329319.238   112086289.698 8        61.869    21329318.501    87339942.18548
        48.209
  24390955.264   128175334.186 7       272.429    24390957.787    99876892.16045
       212.282
  21744565.258   114268439.703 8      2602.872    21744563.749    89040342.89447
      2028.212
  22901251.003   120346953.400 8      3229.048    22901254.001    93776886.26148
      2516.144
 23 11  9  9 31 30.0000000  0  8G04G06G07G09G11G16G20G30
  23263821.588   122252139.240 8     -3071.188    23263824.002    95261389.49445
     -2393.137
  21496225.948   112963376.974 8     -2432.967    21496228.184    88023397.10348
     -1895.822
  21439114.886   112663376.960 9      1561.877    21439113.477    87789672.69449
      1217.047
  20893197.967   109794475.409 9     -1811.126    20893198.718    85554142.23349
     -1411.270
  21329027.749   112084757.776 9        40.898    21329027.020    87338748.45148
        31.867
  24389461.546   128167484.125 6       251.824    24389464.093    99870775.12444
       196.221
  21729735.172   114190506.983 8      2593.310    21729733.671    88979616.08547
      2020.760
  22882844.251   120250225.601 8      3220.163    22882847.244    93701514.02048
      2509.220
 23 11  9  9 32  0.0000000  0  8G04G06G07G09G11G16G20G30
  23281366.070   122344335.351 7     -3074.737    23281368.506    95333230.47246
     -2395.905
  21510159.847   113036599.671 8     -2448.345    21510162.098    88080453.63848
     -1907.805
  21430242.686   112616753.173 9      1546.791    21430241.243    87753342.47949
      1205.293
  20903568.107   109848970.652 9     -1821.512    20903568.868    85596606.00749
     -1419.361
  21328854.096   112083845.074 9        20.345    21328853.368    87338037.23048
        15.853
  24388082.982   128160239.391 6       231.867    24388085.545    99865129.79544
       180.671
  21714957.107   114112847.672 8      2584.393    21714955.603    88919102.33247
      2013.812
  22864485.126   120153748.100 8      3212.000    22864488.114    93626336.80648
      2502.860
 23 11  9  9 32 30.0000000  0  8G04G06G07G09G11G16G20G30
  23298931.564   122436641.888 7     -3078.923    23298934.039    95405157.48646
     -2399.165
  21524181.501   113110283.561 8     -2464.017    21524183.764    88137869.55448
     -1920.016
  21421457.305   112570585.601 9      1531.143    21421455.837    87717367.74349
      1193.098
  20913998.339   109903781.652 9     -1832.514    20913999.106    85639315.82249
     -1427.935
  21328798.592   112083553.207 9        -0.818    21328797.858    87337809.77248
        -0.639
  24386819.960   128153601.911 6       211.092    24386822.584    99859957.62644
       164.484
  21700231.771   114035465.451 8      2574.589    21700230.264    88858804.48947
      2006.174
  22846174.315   120057524.546 8      3203.031    22846177.299    93551357.48548
      2495.871
 23 11  9  9 33  0.0000000  0  8G04G06G07G09G11G16G20G30
  23316516.980   122529053.100 8     -3082.299    23316519.495    95477166.04946
     -2401.799
  21538289.620   113184421.819 8     -2478.980    21538291.883    88195639.53148
     -1931.676
  21412758.093   112524870.962 9      1516.023    21412756.600    87681745.96349
      1181.318
  20924487.529   109958902.510 9     -1842.816    20924488.292    85682267.09749
     -1435.962
  21328860.404   112083877.810 9       -21.435    21328859.672    87338062.67348
       -16.703
  24385671.776   128147567.864 6       190.871    24385674.483    99855255.63245
       148.723
  21685558.648   113958357.698 8      2565.401    21685557.139    88798720.53447
      1999.014
  22827911.425   119961552.722 8      3194.634    22827914.411    93476574.30248
      2489.327
 23 11  9  9 33 30.0000000  0  9G04G05G06G07G09G11G16G20G30
  23334122.420   122621569.666 7     -3085.662    23334124.974    95549256.71946
     -2404.418
  24581292.713   129175560.577 6      3536.887    24581292.628   100656282.31446
      2756.020
  21552484.150   113259014.126 8     -2494.123    21552486.398    88253763.31248
     -1943.476
  21404145.658   112479612.292 9      1501.094    21404144.154    87646479.46749
      1169.682
  20935035.819   110014333.917 9     -1852.853    20935036.581    85725460.35249
     -1443.782
  21329039.932   112084821.023 9       -41.861    21329039.209    87338797.60648
       -32.620
  24384638.965   128142140.180 6       170.898    24384641.730    99851026.15744
       133.164
  21670938.445   113881528.110 8      2556.269    21670936.942    88738853.33747
      1991.898
  22809697.249   119865836.825 8      3186.313    22809700.235    93401990.54248
      2482.844
 23 11  9  9 34  0.0000000  0  9G04G05G06G07G09G11G16G20G30
  23351748.176   122714193.095 7     -3088.953    23351750.768    95621430.66446
     -2406.982
  24561104.000   129069472.896 7      3535.990    24561105.134   100573616.59745
      2755.316
  21566765.153   113334060.833 8     -2508.949    21566767.384    88312241.16548
     -1955.028
  21395620.729   112434813.425 9      1485.841    21395619.214    87611571.25049
      1157.799
  20945643.460   110070077.218 9     -1863.053    20945644.218    85768896.64649
     -1451.730
  21329337.713   112086385.697 9       -62.272    21329337.000    87340016.80148
       -48.525
  24383722.227   128137322.392 6       150.519    24383725.046    99847271.93044
       117.285
  21656372.199   113804982.076 8      2547.020    21656370.709    88679207.08547
      1984.691
  22791532.740   119770381.833 8      3177.538    22791535.724    93327610.07248
      2476.005
 23 11  9  9 34 30.0000000  0  9G04G05G06G07G09G11G16G20G30
  23369393.263   122806918.135 7     -3093.420    23369395.887    95693683.78346
     -2410.462
  24540923.832   128963425.665 7      3533.513    24540925.143   100490982.39345
      2753.389
  21581131.424   113409555.652 8     -2524.642    21581133.637    88371068.20548
     -1967.256
  21387182.768   112390471.654 9      1469.782    21387181.232    87577019.23349
      1145.284
  20956309.452   110126127.145 9     -1874.037    20956310.209    85812571.86649
     -1460.290
  21329753.015   112088568.014 9       -83.805    21329752.314    87341717.28948
       -65.304
  24382920.930   128133111.041 7       129.719    24382923.808    99843990.22544
       101.073
  21641859.484   113728717.375 8      2536.835    21641858.010    88619780.05847
      1976.755
  22773417.562   119675186.059 8      3168.277    22773420.543    93253431.58748
      2468.789
 23 11  9  9 35  0.0000000  0  9G04G05G06G07G09G11G16G20G30
  23387058.484   122899748.965 8     -3095.845    23387061.133    95766019.32846
     -2412.351
  24520752.863   128857426.274 7      3532.294    24520754.263   100408385.45545
      2752.440
  21595583.561   113485501.711 8     -2538.831    21595585.755    88430246.86548
     -1978.312
  21378832.983   112346593.198 9      1455.030    21378831.425    87542828.22949
      1133.791
  20967034.573   110182487.813 9     -1883.818    20967035.331    85856489.22549
     -1467.911
  21330286.897   112091373.472 9      -103.836    21330286.212    87343903.33648
       -80.911
  24382236.087   128129511.827 7       109.655    24382238.986    99841185.57844
        85.443
  21627401.777   113652741.765 8      2527.814    21627400.319    88560578.29747
      1969.726
  22755353.156   119580257.175 8      3159.950    22755356.138    93179461.07948
      2462.301
 23 11  9  9 35 30.0000000  0  9G04G05G06G07G09G11G16G20G30
  23404742.673   122992679.317 8     -3099.258    23404745.351    95838432.39345
     -2415.012
  24500590.180   128751470.402 7      3531.000    24500591.665   100325822.40146
      2751.428
  21610120.162   113561891.616 8     -2553.964    21610122.343    88489771.37548
     -1990.105
  21370570.573   112303173.914 9      1439.648    21370568.998    87508995.02249
      1121.804
  20977817.611   110239152.829 9     -1893.912    20977818.368    85900643.73649
     -1475.778
  21330938.411   112094797.091 8      -124.522    21330937.736    87346571.06448
       -97.031
  24381667.020   128126520.845 7        89.561    24381669.936    99838854.84044
        69.784
  21612998.505   113577052.217 8      2518.240    21612997.059    88501599.44147
      1962.266
  22737339.030   119485592.443 8      3151.042    22737342.030    93105696.37248
      2455.357
 23 11  9  9 36  0.0000000  0  9G04G05G06G07G09G11G16G20G30
  23422445.919   123085709.872 8     -3102.589    23422448.615    95910923.56946
     -2417.609
  24480436.651   128645562.635 7      3529.773    24480438.149   100243296.88646
      2750.476
  21624741.116   113638724.796 8     -2568.274    21624743.288    88549641.30048
     -2001.256
  21362396.156   112260217.057 9      1424.465    21362394.572    87475522.14949
      1109.972
  20988658.671   110296122.763 9     -1903.955    20988659.422    85945035.85149
     -1483.603
  21331707.908   112098840.783 8      -144.919    21331707.239    87349721.97948
      -112.924
  24381214.106   128124140.524 6        69.368    24381217.007    99837000.01845
        54.055
  21598650.449   113501652.853 8      2508.621    21598649.013    88442846.70647
      1954.771
  22719375.909   119391195.913 8      3142.379    22719378.935    93032140.67548
      2448.608
 23 11  9  9 36 30.0000000  0  9G04G05G06G07G09G11G16G20G30
  23440167.975   123178839.169 8     -3105.979    23440170.696    95983491.67446
     -2420.247
  24460292.391   128539703.440 7      3527.612    24460293.873   100160809.17145
      2748.792
  21639445.960   113715998.773 8     -2583.254    21639448.136    88609854.69348
     -2012.928
  21354309.892   112217723.451 9      1408.684    21354308.305    87442410.24649
      1097.676
  20999557.476   110353396.141 9     -1914.183    20999558.222    85989664.41549
     -1491.572
  21332595.377   112103504.430 8      -165.895    21332594.728    87353355.96748
      -129.268
  24380877.378   128122370.899 6        48.770    24380880.279    99835621.08745
        38.006
  21584357.912   113426545.198 8      2498.580    21584356.485    88384321.27147
      1946.946
  22701464.231   119297069.727 8      3133.065    22701467.296    92958795.62448
      2441.351
 23 11  9  9 37  0.0000000  0  9G04G05G06G07G09G11G16G20G30
  23457908.335   123272064.686 7     -3108.970    23457911.067    96056134.77646
     -2422.580
  24440157.534   128433893.850 7      3526.137    24440158.982   100078360.14046
      2747.640
  21654233.956   113793709.781 8     -2597.466    21654236.146    88670408.63448
     -2024.002
  21346311.686   112175692.684 9      1393.360    21346310.104    87409659.00949
      1085.736
  21010513.515   110410970.315 9     -1924.193    21010514.257    86034527.36849
     -1499.373
  21333600.535   112108786.615 8      -186.312    21333599.921    87357471.93948
      -145.179
  24380656.795   128121211.504 6        28.354    24380659.709    99834717.62144
        22.092
  21570121.095   113351730.346 8      2488.981    21570119.671    88326024.00247
      1939.467
  22683604.162   119203214.741 8      3124.013    22683607.262    92885661.89348
      2434.296
 23 11  9  9 37 30.0000000  0  9G04G05G06G07G09G11G16G20G30
  23475666.979   123365386.202 8     -3112.303    23475669.736    96128852.66346
     -2425.175
  24420032.586   128328136.206 7      3524.175    24420033.999    99995951.56446
      2746.110
  21669104.847   113871856.459 8     -2612.327    21669107.068    88731302.05848
     -2035.582
  21338401.899   112134126.491 9      1377.771    21338400.342    87377269.75449
      1073.587
  21021526.720   110468844.904 9     -1934.115    21021527.459    86079624.40949
     -1507.104
  21334723.590   112114688.378 8      -207.131    21334723.029    87362070.69248
      -161.401
  24380552.456   128120663.252 7         8.142    24380555.364    99834290.43444
         6.345
  21555940.582   113277211.391 8      2478.985    21555939.162    88267957.31147
      1931.678
  22665796.336   119109634.221 8      3114.612    22665799.463    92812742.02548
      2426.971
 23 11  9  9 38  0.0000000  0  9G04G05G06G07G09G11G16G20G30
  23493444.095   123458804.754 8     -3115.454    23493446.870    96201646.15646
     -2427.631
  24399918.183   128222434.037 7      3522.481    24399919.581    99913586.21745
      2744.787
  21684058.601   113950438.560 8     -2626.669    21684060.874    88792534.75548
     -2046.759
  21330581.137   112093028.233 9      1362.190    21330579.606    87345245.14549
      1061.447
  21032597.290   110527020.884 9     -1944.202    21032598.029    86124956.28349
     -1514.965
  21335964.956   112121211.826 8      -227.826    21335964.453    87367153.86848
      -177.528
  24380564.975   128120729.139 7       -12.533    24380567.841    99834341.80844
        -9.765
  21541817.210   113202992.631 8      2468.923    21541815.797    88210124.52547
      1923.837
  22648041.607   119016332.634 8      3105.502    22648044.751    92740039.49948
      2419.872
 23 11  9  9 38 30.0000000  0  9G04G05G06G07G09G11G16G20G30
  23511239.038   123552316.889 7     -3118.494    23511241.850    96274512.53946
     -2430.005
  24379814.167   128116786.706 7      3520.762    24379815.559    99831263.65246
      2743.453
  21699094.307   114029451.371 8     -2640.768    21699096.632    88854103.08348
     -2057.744
  21322849.163   112052396.548 9      1346.693    21322847.662    87313584.09449
      1049.371
  21043724.512   110585494.612 9     -1954.029    21043725.251    86170520.17649
     -1522.622
  21337324.189   112128354.628 8      -248.379    21337323.737    87372719.65948
      -193.543
  24380694.111   128121407.777 7       -32.927    24380696.911    99834870.64545
       -25.656
  21527750.942   113129073.920 8      2459.012    21527749.530    88152525.54447
      1916.114
  22630339.936   118923309.902 8      3096.199    22630343.083    92667554.27548
      2412.624
 23 11  9  9 39  0.0000000  0  9G04G05G06G07G09G11G16G20G30
  23529051.531   123645921.488 8     -3121.937    23529054.370    96347451.02646
     -2432.685
  24359721.016   128011196.272 7      3518.591    24359722.430    99748985.35546
      2741.759
  21714211.540   114108892.625 8     -2655.159    21714213.921    88916005.26248
     -2068.957
  21315206.236   112012232.859 9      1330.844    21315204.764    87282287.72549
      1037.021
  21054908.187   110644264.998 9     -1964.237    21054908.931    86216315.22849
     -1530.575
  21338801.297   112136116.799 8      -269.216    21338800.883    87378768.07348
      -209.778
  24380939.844   128122699.142 6       -53.176    24380942.552    99835876.95044
       -41.439
  21513742.211   113055457.494 8      2448.754    21513740.800    88095162.09747
      1908.120
  22612691.786   118830568.415 8      3086.707    22612694.932    92595288.20248
      2405.228
 23 11  9  9 39 30.0000000  0  9G04G05G06G07G09G11G16G20G30
  23546881.378   123739617.215 7     -3124.576    23546884.247    96420460.50346
     -2434.740
  24339638.993   127905664.511 7      3516.629    24339640.399    99666752.81846
      2740.234
  21729409.816   114188759.681 8     -2669.148    21729412.257    88978239.21448
     -2079.860
  21307652.468   111972537.716 9      1315.402    21307651.031    87251356.46149
      1024.988
  21066148.030   110703330.514 9     -1973.741    21066148.790    86262340.23849
     -1537.982
  21340396.229   112144498.029 8      -289.665    21340395.846    87385298.85548
      -225.715
  24381302.227   128124603.538 6       -73.790    24381304.862    99837360.94244
       -57.495
  21499791.380   112982145.317 8      2438.767    21499789.969    88038035.72547
      1900.337
  22595097.540   118738110.207 8      3077.077    22595100.694    92523242.86248
      2397.723
 23 11  9  9 40  0.0000000  0  9G04G05G06G07G09G11G16G20G30
  23564728.991   123833406.363 7     -3128.129    23564731.891    96493542.78246
     -2437.508
  24319568.921   127800195.547 7      3514.259    24319570.344    99584569.19546
      2738.382
  21744689.303   114269053.541 8     -2683.848    21744691.803    89040805.74948
     -2091.312
  21300188.644   111933315.208 8      1299.323    21300187.250    87220793.47548
      1012.460
  21077444.427   110762693.286 9     -1983.910    21077445.206    86308596.88649
     -1545.905
  21342109.588   112153501.612 9      -310.755    21342109.216    87392314.59948
      -242.148
  24381782.034   128127124.982 6       -94.502    24381784.648    99839325.71944
       -73.637
  21485899.509   112909143.029 8      2428.101    21485898.098    87981150.83647
      1892.026
  22577558.266   118645940.947 8      3067.194    22577561.433    92451422.68448
      2390.023
 23 11  9  9 40 30.0000000  0  9G04G05G06G07G09G11G16G20G30
  23582592.995   123927281.447 7     -3130.888    23582595.958    96566691.96546
     -2439.659
  24299510.182   127694785.978 6      3512.283    24299511.631    99502431.81446
      2736.843
  21760048.346   114349765.368 8     -2697.736    21760050.913    89103697.95148
     -2102.137
  21292813.786   111894560.184 8      1283.631    21292812.435    87190594.74848
      1000.231
  21088795.952   110822345.695 9     -1993.458    21088796.756    86355079.20749
     -1553.347
  21343940.145   112163121.039 8      -331.193    21343939.763    87399810.22248
      -258.074
  24382378.151   128130257.617 6      -114.681    24382380.785    99841766.70845
       -89.363
  21472065.764   112836446.164 8      2417.819    21472064.361    87924503.92848
      1884.014
  22560073.174   118554056.481 8      3057.607    22560076.360    92379824.43348
      2382.552
 23 11  9  9 41  0.0000000  0  9G04G05G06G07G09G11G16G20G30
  23600473.798   124021245.078 8     -3133.264    23600476.807    96639910.21145
     -2441.513
  24279463.567   127589440.326 7      3510.646    24279465.034    99420344.29746
      2735.567
  21775487.158   114430896.468 9     -2711.011    21775489.777    89166916.88748
     -2112.479
  21285528.700   111856276.948 9      1268.505    21285527.385    87160763.65949
       988.446
  21100203.057   110882290.240 9     -2002.753    21100203.887    86401789.17849
     -1560.589
  21345888.574   112173359.879 9      -351.316    21345888.162    87407788.51248
      -273.754
  24383091.156   128134004.846 6      -134.682    24383093.820    99844686.65844
      -104.945
  21458291.296   112764060.848 9      2407.856    21458289.906    87868099.79647
      1876.251
  22542643.413   118462462.816 8      3048.640    22542646.611    92308452.79348
      2375.564
 23 11  9  9 41 30.0000000  0  9G04G05G06G07G09G11G16G20G30
  23618370.529   124115292.383 8     -3136.227    23618373.597    96713193.64545
     -2443.816
  24259428.883   127484157.244 7      3508.570    24259430.376    99338305.50745
      2733.950
  21791004.618   114512440.719 8     -2724.861    21791007.274    89230457.74148
     -2123.272
  21278332.968   111818463.263 8      1252.729    21278331.691    87131298.44849
       976.151
  21111664.820   110942521.935 9     -2012.263    21111665.680    86448722.88749
     -1568.000
  21347954.157   112184214.257 9      -371.904    21347953.713    87416246.42048
      -289.797
  24383920.614   128138363.690 6      -155.351    24383923.319    99848083.10743
      -121.055
  21444575.807   112691985.494 8      2397.439    21444574.434    87811937.19747
      1868.135
  22525268.737   118371158.488 8      3038.785    22525271.936    92237306.60048
      2367.886
 23 11  9  9 42  0.0000000  0  9G04G05G06G07G09G11G16G20G30
  23636283.921   124209427.105 7     -3139.123    23636287.048    96786545.17245
     -2446.076
  24239407.156   127378942.447 7      3506.251    24239408.653    99256319.97645
      2732.146
  21806601.129   114594400.391 8     -2738.922    21806603.801    89294322.31448
     -2134.229
  21271227.589   111781124.386 9      1236.745    21271226.347    87102203.21849
       963.698
  21123181.895   111003044.349 9     -2022.312    21123182.782    86495883.14649
     -1575.830
  21350137.729   112195688.693 9      -392.813    21350137.253    87425187.49448
      -306.090
  24384867.308   128143338.745 6      -176.120    24384870.029    99851959.75744
      -137.236
  21430920.638   112620227.143 8      2386.686    21430919.282    87756021.61547
      1859.757
  22507950.469   118280150.498 8      3028.657    22507953.653    92166391.32548
      2359.994
 23 11  9  9 42 30.0000000  0  9G04G05G06G07G09G11G16G20G30
  23654213.006   124303644.310 7     -3141.950    23654216.190    96859960.97945
     -2448.277
  24219398.337   127273795.123 7      3503.947    24219399.832    99174386.93246
      2730.346
  21822275.526   114676769.309 8     -2752.168    21822278.206    89358505.77548
     -2144.551
  21264212.022   111744257.409 8      1221.273    21264210.811    87073475.69148
       951.642
  21134753.347   111063852.443 9     -2031.422    21134754.264    86543265.99949
     -1582.929
  21352438.542   112207779.250 9      -413.040    21352438.047    87434608.66248
      -321.850
  24385930.765   128148927.410 7      -196.114    24385933.465    99856314.56244
      -152.816
  21417325.478   112548784.145 8      2376.315    21417324.130    87700351.76347
      1851.674
  22490688.328   118189437.354 8      3019.033    22490691.485    92095705.79248
      2352.494
 23 11  9  9 43  0.0000000  0  9G04G05G06G07G09G11G16G20G30
  23672158.456   124397947.393 8     -3144.713    23672161.696    96933443.68245
     -2450.432
  24199403.324   127168720.642 7      3501.361    24199404.776    99092510.72546
      2728.332
  21838028.152   114759549.361 8     -2765.841    21838030.837    89423009.60448
     -2155.205
  21257287.264   111707867.718 9      1205.095    21257286.082    87045120.09349
       939.034
  21146379.762   111124949.377 9     -2041.216    21146380.706    86590873.92649
     -1590.560
  21354857.365   112220489.996 9      -433.955    21354856.859    87444513.10048
      -338.148
  24387111.817   128155133.951 6      -217.159    24387114.490    99861150.82644
      -169.213
  21403791.568   112477663.037 8      2365.600    21403790.214    87644932.73647
      1843.324
  22473483.543   118099025.601 8      3008.777    22473486.667    92025255.11348
      2344.503
 23 11  9  9 43 30.0000000  0  9G04G05G06G07G09G11G16G20G30
  23690119.113   124492330.387 7     -3147.332    23690122.392    97006988.66146
     -2452.476
  24179421.668   127063716.100 7      3499.124    24179423.099    99010688.95946
      2726.589
  21853857.615   114842733.204 8     -2779.299    21853860.301    89487828.07948
     -2165.690
  21250452.578   111671951.324 9      1189.492    21250451.430    87017133.29349
       926.877
  21158059.973   111186329.035 9     -2050.558    21158060.943    86638702.16349
     -1597.839
  21357393.221   112233815.791 9      -454.349    21357392.707    87454896.80848
      -354.038
  24388409.557   128161953.697 7      -237.509    24388412.200    99866464.91844
      -185.071
  21390318.408   112406861.153 9      2354.710    21390317.038    87589762.45147
      1834.840
  22456335.623   118008912.660 8      2998.881    22456338.711    91955037.26748
      2336.791
 23 11  9  9 44  0.0000000  0  9G04G05G06G07G09G11G16G20G30
  23708095.306   124586795.254 7     -3150.068    23708098.600    97080597.48645
     -2454.604
  24159454.141   126958785.953 7      3496.490    24159455.541    98928925.20046
      2724.537
  21869764.013   114926321.351 8     -2792.754    21869766.705    89552961.59348
     -2176.175
  21243708.689   111636512.024 9      1173.397    21243707.572    86989518.25048
       914.335
  21169794.336   111247993.245 9     -2059.949    21169795.330    86686752.12549
     -1605.157
  21360046.650   112247759.413 9      -474.851    21360046.131    87465761.93348
      -370.015
  24389824.549   128169389.527 6      -258.032    24389827.154    99872259.07344
      -201.062
  21376907.004   112336383.807 9      2344.033    21376905.601    87534845.06147
      1826.521
  22439245.545   117919103.741 8      2988.796    22439248.596    91885056.33148
      2328.934
 23 11  9  9 44 30.0000000  0  9G04G05G06G07G09G11G16G20G30
  23726087.425   124681343.634 7     -3153.115    23726090.746    97154271.33445
     -2456.980
  24139501.772   126853935.339 7      3493.704    24139503.161    98847223.38446
      2722.366
  21885747.381   115010313.980 8     -2806.454    21885750.087    89618410.28548
     -2186.852
  21237056.234   111601553.219 8      1157.301    21237055.140    86962277.62448
       901.793
  21181583.117   111309943.423 9     -2069.701    21181584.140    86735024.91349
     -1612.757
  21362818.088   112262323.150 9      -495.761    21362817.567    87477110.25948
      -386.309
  24391357.358   128177444.706 6      -278.603    24391359.951    99878535.86744
      -217.091
  21363558.292   112266235.849 9      2332.870    21363556.852    87480184.32747
      1817.821
  22422214.222   117829603.716 8      2978.318    22422217.249    91815316.10648
      2320.770
 23 11  9  9 45  0.0000000  0  9G04G05G06G07G09G11G16G20G30
  23744093.809   124775967.171 7     -3154.998    23744097.142    97228003.78845
     -2458.446
  24119563.398   126749158.287 7      3491.570    24119564.767    98765578.89946
      2720.704
  21901805.860   115094701.418 8     -2819.294    21901808.585    89684166.63448
     -2196.856
  21230494.042   111567068.722 9      1141.707    21230492.964    86935406.58849
       889.642
  21193424.708   111372171.175 9     -2078.602    21193425.762    86783514.00149
     -1619.691
  21365706.091   112277499.495 9      -515.701    21365705.565    87488935.95648
      -401.846
  24393006.745   128186112.540 6      -299.027    24393009.377    99885290.04644
      -233.007
  21350271.315   112196412.311 9      2322.180    21350269.839    87425776.39247
      1809.491
  22405240.746   117740407.668 8      2968.236    22405243.764    91745812.73448
      2312.913
 23 11  9  9 45 30.0000000  0  9G04G05G06G07G09G11G16G20G30
  23762115.364   124870670.233 7     -3158.084    23762118.727    97301798.15345
     -2460.852
  24099640.421   126644462.197 7      3488.418    24099641.781    98683997.51246
      2718.247
  21917940.007   115179486.444 8     -2832.873    21917942.762    89750232.77548
     -2207.437
  21224023.254   111533064.502 9      1125.469    21224022.183    86908909.79149
       876.989
  21205319.895   111434680.579 9     -2088.419    21205320.983    86832222.55649
     -1627.341
  21368711.609   112293293.375 8      -536.712    21368711.087    87501242.83848
      -418.218
  24394773.639   128195397.988 5      -319.883    24394776.365    99892525.47244
      -249.259
  21337047.480   112126920.592 9      2310.813    21337045.973    87371627.01947
      1800.636
  22388326.519   117651523.053 8      2957.815    22388329.530    91676552.04348
      2304.793
 23 11  9  9 46  0.0000000  0  9G04G05G06G07G09G11G16G20G30
  23780151.081   124965447.896 7     -3160.479    23780154.475    97375650.69545
     -2462.716
  24079732.504   126539845.342 7      3485.756    24079733.862    98602477.88346
      2716.174
  21934148.587   115264662.700 8     -2845.832    21934151.376    89816603.78348
     -2217.535
  21217643.266   111499537.436 9      1109.491    21217642.196    86882784.81149
       864.539
  21217267.723   111497466.629 9     -2097.623    21217268.849    86881146.68349
     -1634.515
  21371833.820   112309700.566 9      -557.300    21371833.309    87514027.63348
      -434.261
  24396657.262   128205296.990 6      -340.361    24396660.133    99900238.98845
      -265.219
  21323886.493   112057759.138 9      2299.789    21323884.971    87317734.98747
      1792.044
  22371471.267   117562948.337 8      2947.222    22371474.270    91607532.83148
      2296.538
 23 11  9  9 46 30.0000000  0  9G04G05G06G07G09G11G16G20G30
  23798201.032   125060300.201 7     -3162.948    23798204.480    97449561.35645
     -2464.644
  24059840.138   126435310.222 7      3483.280    24059841.507    98521021.94146
      2714.244
  21950431.331   115350228.690 8     -2858.384    21950434.148    89883278.48048
     -2227.314
  21211354.445   111466489.414 9      1093.830    21211353.371    86857033.10749
       852.335
  21229268.149   111560529.096 9     -2106.402    21229269.310    86930286.20849
     -1641.354
  21375072.835   112326721.633 9      -577.406    21375072.338    87527290.78548
      -449.927
  24398657.990   128215811.412 6      -360.114    24398661.016    99908432.05144
      -280.604
  21310788.936   111988931.080 8      2288.869    21310787.407    87264102.75547
      1783.535
  22354675.603   117474686.661 8      2937.034    22354678.593    91538757.53448
      2288.600
 23 11  9  9 47  0.0000000  0  9G04G05G06G07G09G11G16G20G30
  23816264.767   125155224.999 7     -3165.480    23816268.260    97523528.53945
     -2466.616
  24039963.415   126330857.385 7      3480.222    24039964.790    98439630.13246
      2711.862
  21966787.541   115436180.757 8     -2871.589    21966790.374    89950254.02548
     -2237.605
  21205156.720   111433920.115 9      1077.546    21205155.636    86831654.44549
       839.646
  21241320.735   111623865.671 9     -2115.892    21241321.920    86979639.33349
     -1648.749
  21378428.379   112344355.036 8      -598.132    21378427.894    87541031.07048
      -466.077
  24400775.577   128226939.691 6      -381.189    24400778.765    99917103.38744
      -297.029
  21297755.058   111920437.681 8      2277.384    21297753.536    87210731.28947
      1774.584
  22337939.723   117386739.131 8      2926.255    22337942.683    91470227.03448
      2280.199
 23 11  9  9 47 30.0000000  0  9G04G05G06G07G09G11G16G20G30
  23834342.361   125250222.656 7     -3167.487    23834345.894    97597552.51146
     -2468.178
  24020103.130   126226491.043 7      3477.730    24020104.517    98358305.74746
      2709.920
  21983217.010   115522517.752 8     -2884.113    21983219.858    90017529.51048
     -2247.363
  21199050.547   111401831.925 9      1061.828    21199049.450    86806650.67949
       827.399
  21253425.519   111687476.580 9     -2124.642    21253426.719    87029206.23649
     -1655.565
  21381900.617   112362601.691 8      -618.227    21381900.140    87555249.21648
      -481.735
  24403010.131   128238682.643 6      -401.375    24403013.463    99926253.70944
      -312.762
  21284785.517   111852282.425 8      2266.385    21284784.011    87157623.31847
      1766.014
  22321264.316   117299109.341 8      2915.942    22321267.233    91401944.12448
      2272.165
 23 11  9  9 48  0.0000000  0  9G04G05G06G07G09G11G16G20G30
  23852433.961   125345293.557 7     -3170.431    23852437.548    97671633.47946
     -2470.476
  24000259.725   126122213.490 7      3474.360    24000261.121    98277050.56846
      2707.297
  21999719.502   115609238.436 8     -2897.205    21999722.366    90085103.96648
     -2257.566
  21193036.226   111370226.379 9      1045.219    21193035.117    86782022.98949
       814.456
  21265582.531   111751361.896 9     -2134.209    21265583.743    87078986.95149
     -1663.022
  21385489.721   112381462.434 8      -639.097    21385489.247    87569945.86448
      -497.998
  24405362.068   128251042.339 6      -422.638    24405365.507    99935884.61945
      -329.329
  21271881.026   111784468.975 8      2254.603    21271879.544    87104781.67647
      1756.833
  22304650.048   117211800.779 8      2904.767    22304652.919    91333911.50948
      2263.455
 23 11  9  9 48 30.0000000  0  9G04G05G06G07G09G11G16G20G30
  23870538.595   125440433.179 7     -3172.525    23870542.242    97745768.04746
     -2472.106
  23980433.025   126018023.557 7      3471.596    23980434.444    98195863.62046
      2705.142
  22016293.866   115696336.790 8     -2909.330    22016296.744    90152972.70848
     -2267.015
  21187113.260   111339100.935 9      1029.689    21187112.142    86757769.40649
       802.355
  21277790.874   111815516.980 9     -2142.837    21277792.096    87128977.87849
     -1669.745
  21389194.931   112400933.276 8      -659.005    21389194.459    87585117.90348
      -513.512
  24407830.765   128264015.220 6      -442.185    24407834.276    99945993.28345
      -344.562
  21259041.329   111716995.961 8      2243.636    21259039.873    87052205.29847
      1748.288
  22288096.669   117124812.206 8      2894.413    22288099.486    91266128.24248
      2255.388
 23 11  9  9 49  0.0000000  0  9G04G05G06G07G09G11G16G20G30
  23888656.890   125535644.621 7     -3175.123    23888660.604    97819958.57045
     -2474.132
  23960623.964   125913926.565 7      3468.149    23960625.390    98114749.15246
      2702.455
  22032940.377   115783814.275 8     -2922.445    22032943.276    90221136.87248
     -2277.234
  21181282.489   111308460.077 9      1013.000    21181281.363    86733893.43749
       789.351
  21290051.088   111879944.682 9     -2152.333    21290052.317    87179181.24549
     -1677.145
  21393016.897   112421017.748 8      -679.925    21393016.427    87600768.11148
      -529.812
  24410416.908   128277605.091 7      -463.520    24410420.447    99956582.72144
      -361.189
  21246267.558   111649869.400 9      2231.533    21246266.123    86999898.89147
      1738.857
  22271605.339   117038149.777 8      2883.069    22271608.092    91198599.13448
      2246.549
 23 11  9  9 49 30.0000000  0  9G04G05G06G07G09G11G16G20G30
  23906787.862   125630922.657 7     -3177.014    23906791.655    97894200.97045
     -2475.603
  23940832.341   125809921.094 7      3465.406    23940833.779    98033705.96947
      2700.317
  22049657.734   115871664.119 8     -2934.493    22049660.655    90289591.19848
     -2286.622
  21175543.328   111278300.579 9       997.471    21175542.196    86710392.53949
       777.250
  21302362.157   111944639.642 9     -2160.771    21302363.393    87229592.86949
     -1683.719
  21396954.722   112441711.079 8      -699.794    21396954.259    87616892.75248
      -545.295
  24413119.795   128291808.154 7      -483.562    24413123.324    99967649.94544
      -376.801
  21233559.426   111583087.705 9      2220.432    21233558.004    86947861.20247
      1730.206
  22255175.697   116951811.512 8      2872.670    22255178.385    91131322.62148
      2238.446
 23 11  9  9 50  0.0000000  0  9G04G05G06G07G09G11G16G20G30
  23924931.675   125726268.171 7     -3179.206    23924935.538    97968495.94245
     -2477.311
  23921058.740   125706010.419 8      3462.335    23921060.181    97952736.67746
      2697.923
  22066445.813   115959885.599 8     -2946.771    22066448.755    90358335.10648
     -2296.188
  21169896.243   111248624.963 9       981.176    21169895.100    86687268.69649
       764.553
  21314724.217   112009602.516 9     -2169.786    21314725.464    87280213.24849
     -1690.744
  21401008.644   112463014.531 9      -720.154    21401008.196    87633492.81148
      -561.159
  24415939.650   128306625.617 7      -503.918    24415943.143    99979195.88944
      -392.668
  21220917.717   111516654.986 9      2208.697    21220916.300    86896095.43147
      1721.062
  22238808.495   116865801.387 8      2861.660    22238811.119    91064301.80648
      2229.867
 23 11  9  9 50 30.0000000  0  9G04G05G06G07G09G11G16G20G30
  23943088.569   125821682.436 7     -3181.372    23943092.493    98042844.49146
     -2478.999
  23901303.966   125602198.523 8      3459.017    23901305.406    97871844.31946
      2695.337
  22083304.552   116048478.366 8     -2959.147    22083307.511    90427368.32348
     -2305.833
  21164341.773   111219436.055 9       965.076    21164340.623    86664524.10949
       752.008
  21327137.451   112074834.359 9     -2178.671    21327138.707    87331043.22549
     -1697.666
  21405178.981   112484929.731 8      -740.475    21405178.547    87650569.56048
      -576.993
  24418876.781   128322059.388 7      -524.574    24418880.230    99991222.09545
      -408.764
  21208343.232   111450575.551 9      2196.934    21208341.805    86844604.96047
      1711.897
  22222504.557   116780123.812 8      2850.522    22222507.130    90997540.13348
      2221.189
 23 11  9  9 51  0.0000000  0  9G04G05G06G07G09G11G16G20G30
  23961257.531   125917160.193 7     -3183.563    23961261.499    98117242.53746
     -2480.708
  23881567.678   125498483.745 8      3455.551    23881569.112    97791027.64646
      2692.639
  22100232.609   116137435.436 8     -2971.157    22100235.580    90496685.42148
     -2315.191
  21158879.221   111190730.156 9       948.967    21158878.066    86642155.89049
       739.455
  21339600.817   112140329.616 9     -2187.398    21339602.087    87382078.44949
     -1704.467
  21409464.783   112507451.665 8      -760.763    21409464.365    87668119.08648
      -592.803
  24421930.470   128338105.468 7      -544.927    24421933.896   100003725.37544
      -424.623
  21195835.598   111384847.343 9      2185.155    21195834.154    86793388.16047
      1702.719
  22206263.475   116694776.550 8      2839.478    22206266.015    90931035.83448
      2212.582
 23 11  9  9 51 30.0000000  0  9G04G05G06G07G09G11G16G20G30
  23979439.123   126012704.161 7     -3186.121    23979443.144    98191692.14445
     -2482.699
  23861850.699   125394870.374 8      3451.748    23861852.111    97710289.98746
      2689.676
  22117230.200   116226757.883 8     -2983.567    22117233.184    90566287.22448
     -2324.861
  21153509.352   111162511.249 9       932.357    21153508.192    86620167.13549
       726.513
  21352114.788   112206090.762 9     -2196.611    21352116.075    87433320.84949
     -1711.646
  21413866.624   112530583.325 8      -781.318    21413866.231    87686143.71148
      -608.820
  24425101.263   128354767.218 7      -565.593    24425104.654   100016708.46044
      -440.724
  21183395.884   111319476.060 9      2173.074    21183394.415    86742449.48647
      1693.304
  22190086.352   116609765.420 8      2828.105    22190088.861    90864793.45748
      2203.722
 23 11  9  9 52  0.0000000  0  9G04G05G06G07G09G11G16G20G30
  23997632.562   126108310.471 7     -3187.712    23997636.636    98266190.36346
     -2483.940
  23842153.086   125291358.740 8      3448.746    23842154.465    97629631.60045
      2687.337
  22134296.275   116316440.250 8     -2995.215    22134299.279    90636169.48348
     -2333.937
  21148231.778   111134777.360 9       916.627    21148230.606    86598556.32549
       714.255
  21364678.584   112272113.803 9     -2204.980    21364679.887    87484767.34049
     -1718.167
  21418383.817   112554321.184 8      -801.176    21418383.448    87704640.70748
      -624.294
  24428388.678   128372041.841 7      -585.811    24428392.054   100030169.10344
      -456.481
  21171023.965   111254461.163 9      2161.458    21171022.470    86691788.53847
      1684.254
  22173973.034   116525089.686 8      2817.038    22173975.510    90798812.44148
      2195.098
 23 11  9  9 52 30.0000000  0  9G04G05G06G07G09G11G16G20G30
  24015837.890   126203979.020 7     -3189.779    24015842.061    98340737.01245
     -2485.551
  23822475.307   125187951.232 8      3445.541    23822476.642    97549054.33346
      2684.839
  22151430.492   116406480.713 8     -3006.896    22151433.522    90706330.76948
     -2343.040
  21143046.810   111107530.088 9       900.462    21143045.629    86577324.69149
       701.659
  21377292.158   112338398.404 9     -2213.552    21377293.488    87536417.63349
     -1724.847
  21423016.393   112578665.357 8      -821.227    21423016.043    87723610.14548
      -639.918
  24431792.659   128389929.175 7      -605.995    24431796.030   100044107.19744
      -472.206
  21158720.448   111189805.751 9      2149.441    21158718.937    86641407.70347
      1674.890
  22157924.108   116440752.323 8      2806.016    22157926.554    90733095.08848
      2186.508
 23 11  9  9 53  0.0000000  0  9G04G05G06G07G09G11G16G20G30
  24034054.906   126299709.197 7     -3192.534    24034059.164    98415331.73445
     -2487.698
  23802817.720   125084649.815 8      3441.075    23802819.008    97468559.73546
      2681.358
  22168632.411   116496877.022 8     -3019.798    22168635.466    90776769.34448
     -2353.094
  21137954.525   111080769.866 9       883.351    21137953.341    86556472.57649
       688.325
  21389955.339   112404943.701 9     -2222.964    21389956.701    87588271.06849
     -1732.182
  21427764.270   112603615.432 8      -842.178    21427763.930    87743051.71248
      -656.244
  24435313.268   128408429.567 6      -627.249    24435316.632   100058523.03245
      -488.768
  21146485.813   111125512.341 9      2136.535    21146484.295    86591308.94647
      1664.832
  22141940.039   116356755.800 8      2793.651    22141942.457    90667643.32948
      2176.873
 23 11  9  9 53 30.0000000  0  9G04G05G06G07G09G11G16G20G30
  24052282.886   126395496.951 7     -3193.997    24052287.249    98489971.29045
     -2488.837
  23783180.169   124981453.738 7      3438.120    23783181.406    97388147.23046
      2679.055
  22185900.932   116587623.326 8     -3030.782    22185904.018    90847480.63548
     -2361.651
  21132954.467   111054494.302 9       867.680    21132953.283    86535998.11349
       676.114
  21402667.329   112471745.428 9     -2231.158    21402668.737    87640324.29849
     -1738.566
  21432626.714   112629167.567 8      -861.949    21432626.375    87762962.41648
      -671.650
  24438949.950   128427540.202 7      -647.246    24438953.310   100073414.43445
      -504.345
  21134319.832   111061579.735 9      2125.122    21134318.313    86541491.33547
      1655.939
  22126020.623   116273099.048 8      2782.637    22126023.017    90602456.33648
      2168.291
 23 11  9  9 54  0.0000000  0  9G04G05G06G07G09G11G16G20G30
  24070522.714   126491347.124 7     -3196.028    24070527.146    98564659.52445
     -2490.419
  23763564.183   124878371.015 7      3434.098    23763565.375    97307823.05246
      2675.921
  22203236.644   116678722.771 8     -3042.635    22203239.761    90918467.10348
     -2370.889
  21128047.793   111028709.554 9       851.288    21128046.612    86515906.11349
       663.341
  21415428.969   112538808.128 9     -2239.723    21415430.424    87692580.89749
     -1745.240
  21437604.651   112655326.613 8      -882.075    21437604.309    87783346.03848
      -687.333
  24442703.739   128447266.092 7      -667.641    24442707.134   100088785.20644
      -520.241
  21122224.070   110998016.147 9      2112.780    21122222.558    86491961.27147
      1646.322
  22110167.351   116189789.859 8      2771.193    22110169.726    90537540.16748
      2159.374
 23 11  9  9 54 30.0000000  0  9G04G05G06G07G09G11G16G20G30
  24088772.889   126587251.508 7     -3197.521    24088777.388    98639389.96145
     -2491.585
  23743968.625   124775395.731 7      3430.482    23743969.782    97227582.60446
      2673.105
  22220637.669   116770165.422 8     -3053.862    22220640.826    90989720.99748
     -2379.638
  21123233.289   111003409.164 9       835.222    21123232.121    86496191.53049
       650.822
  21428238.683   112606123.416 9     -2248.257    21428240.188    87745034.30749
     -1751.890
  21442696.546   112682084.539 9      -902.043    21442696.206    87804196.32348
      -702.892
  24446573.088   128467599.453 7      -687.883    24446576.517   100104629.37345
      -536.014
  21110197.567   110934816.553 9      2100.467    21110196.068    86442714.84247
      1636.728
  22094379.248   116106823.133 8      2759.829    22094381.606    90472890.85248
      2150.520
 23 11  9  9 55  0.0000000  0  9G04G05G06G07G09G11G16G20G30
  24107034.398   126683215.516 7     -3199.826    24107038.951    98714166.88345
     -2493.377
  23724395.028   124672535.861 7      3426.692    23724396.163    97147432.08047
      2670.152
  22238104.699   116861954.946 8     -3065.533    22238107.893    91061245.19048
     -2388.731
  21118512.164   110978599.545 9       818.670    21118511.016    86476859.37449
       637.926
  21441097.430   112673696.409 9     -2256.919    21441098.977    87797688.53849
     -1758.640
  21447903.452   112709446.826 8      -922.254    21447903.107    87825517.54648
      -718.641
  24450559.205   128488546.647 7      -708.592    24450562.655   100120951.90745
      -552.147
  21098241.935   110871989.427 9      2087.770    21098240.454    86393758.65448
      1626.835
  22078657.887   116024207.210 8      2747.872    22078660.223    90408514.90648
      2141.203
 23 11  9  9 55 30.0000000  0  9G04G05G06G07G09G11G16G20G30
  24125306.570   126779235.283 7     -3201.776    24125311.164    98788987.21046
     -2494.905
  23704843.277   124569791.060 7      3422.822    23704844.390    97067371.27047
      2667.138
  22255636.678   116954085.723 8     -3076.931    22255639.910    91133035.28548
     -2397.611
  21113884.021   110954278.540 9       802.284    21113882.896    86457907.94949
       625.156
  21454004.443   112741522.987 9     -2265.242    21454006.027    87850540.35749
     -1765.125
  21453224.650   112737409.668 8      -942.255    21453224.303    87847306.72948
      -734.227
  24454661.341   128510103.512 6      -728.781    24454664.808   100137749.49145
      -567.880
  21086357.037   110809533.961 9      2075.408    21086355.578    86345092.06147
      1617.201
  22063003.131   115941941.232 8      2736.116    22063005.451    90344411.63049
      2132.042
 23 11  9  9 56  0.0000000  0  9G04G05G06G07G09G11G16G20G30
  24143588.805   126875308.369 7     -3203.292    24143593.441    98863849.18745
     -2496.077
  23685313.637   124467162.164 7      3419.234    23685314.738    96987400.71346
      2664.338
  22273232.804   117046553.590 8     -3087.821    22273236.060    91205088.05248
     -2406.099
  21109348.674   110930445.217 9       786.269    21109347.569    86439336.54549
       612.678
  21466959.235   112809600.579 9     -2273.407    21466960.850    87903587.75949
     -1771.488
  21458659.677   112765970.723 9      -962.089    21458659.333    87869562.05948
      -749.680
  24458879.170   128532268.584 6      -748.754    24458882.631   100155021.04344
      -583.439
  21074543.043   110747451.072 9      2063.234    21074541.602    86296715.78847
      1607.716
  22047415.090   115860025.811 8      2724.722    22047417.384    90280581.51648
      2123.163
 23 11  9  9 56 30.0000000  0  9G04G05G06G07G09G11G16G20G30
  24161882.071   126971438.914 8     -3205.124    24161886.774    98938755.81345
     -2497.507
  23665807.362   124364656.184 7      3415.049    23665808.433    96907525.97446
      2661.078
  22290893.503   117139360.753 8     -3099.138    22290896.779    91277405.20548
     -2414.917
  21104907.097   110907104.643 9       769.879    21104906.010    86421149.10049
       599.905
  21479962.505   112877932.916 9     -2281.862    21479964.144    87956833.66749
     -1778.077
  21464209.302   112795133.962 8      -982.059    21464208.967    87892286.61748
      -765.242
  24463213.589   128555046.459 6      -769.295    24463217.031   100172770.10844
      -599.450
  21062801.275   110685747.670 9      2050.605    21062799.838    86248635.21747
      1597.875
  22031895.065   115778467.823 8      2712.941    22031897.338    90217029.91748
      2113.982
 23 11  9  9 57  0.0000000  0  9G04G05G06G07G09G11G16G20G30
  24180184.439   127067617.672 7     -3206.672    24180189.180    99013700.11145
     -2498.709
  23646323.108   124262265.769 8      3411.320    23646324.137    96827741.26446
      2658.176
  22308616.706   117232496.309 8     -3109.937    22308620.000    91349978.24348
     -2423.330
  21100557.787   110884248.918 9       753.871    21100556.711    86403339.46049
       587.433
  21493012.459   112946510.614 9     -2289.884    21493014.117    88010270.77349
     -1784.326
  21469871.763   112824890.180 8     -1001.612    21469871.441    87915473.23548
      -780.478
  24467662.864   128578428.096 6      -789.484    24467666.271   100190989.66244
      -615.177
  21051130.616   110624417.914 9      2038.172    21051129.170    86200845.80148
      1588.187
  22016441.880   115697261.145 8      2701.203    22016444.138    90153752.07448
      2104.837
 23 11  9  9 57 30.0000000  0  9G04G05G06G07G09G11G16G20G30
  24198496.824   127163848.893 8     -3208.321    24198501.601    99088685.24645
     -2499.995
  23626862.323   124159998.622 8      3406.913    23626863.304    96748052.60546
      2654.739
  22326402.865   117325962.662 8     -3120.893    22326406.176    91422809.04048
     -2431.869
  21096301.818   110861883.734 9       737.475    21096300.750    86385912.06849
       574.656
  21506109.865   113015337.648 9     -2298.279    21506111.546    88063902.15649
     -1790.869
  21475647.845   112855243.539 8     -1021.642    21475647.536    87939125.16548
      -796.085
  24472227.927   128602418.231 6      -809.532    24472231.309   100209683.35645
      -630.797
  21039532.388   110563468.770 9      2025.392    21039530.927    86153352.96847
      1578.228
  22001056.905   115616412.874 8      2689.086    22001059.148    90090753.49748
      2095.395
 23 11  9  9 58  0.0000000  0  9G04G05G06G07G09G11G16G20G30
  24216819.215   127260132.512 7     -3210.833    24216824.017    99163711.17544
     -2501.953
  23607425.640   124057858.132 8      3402.186    23607426.564    96668462.64747
      2651.057
  22344251.590   117419757.795 8     -3132.412    22344254.920    91495896.03248
     -2440.845
  21092139.396   110840010.106 9       720.519    21092138.334    86368867.70149
       561.443
  21519254.626   113084413.565 9     -2307.062    21519256.334    88117727.47449
     -1797.713
  21481537.509   112886193.764 8     -1042.009    21481537.211    87963242.17948
      -811.956
  24476908.910   128627017.265 6      -830.248    24476912.270   100228851.47545
      -646.945
  21028007.170   110502903.327 9      2012.090    21028005.686    86106159.13348
      1567.863
  21985740.665   115535925.768 9      2676.433    21985742.887    90028036.33949
      2085.534
 23 11  9  9 58 30.0000000  0  9G04G05G06G07G09G11G16G20G30
  24235150.886   127356465.302 7     -3211.820    24235155.695    99238775.49246
     -2502.724
  23588012.981   123955843.837 8      3398.404    23588013.849    96588971.01746
      2648.108
  22362161.975   117513876.934 8     -3142.654    22362165.338    91569235.48348
     -2448.826
  21088070.212   110818626.420 9       704.861    21088069.150    86352205.10849
       549.243
  21532446.134   113153735.129 9     -2314.710    21532447.878    88171744.19849
     -1803.672
  21487540.157   112917737.734 8     -1061.232    21487539.880    87987821.84148
      -826.937
  24481705.171   128652221.881 6      -850.105    24481708.509   100248491.45244
      -662.416
  21016555.002   110442721.760 9      1999.690    21016553.494    86059264.42148
      1558.202
  21970493.146   115455799.720 9      2665.028    21970495.338    89965600.51649
      2076.647
 23 11  9  9 59  0.0000000  0  9G04G05G06G07G09G11G16G20G30
  24253491.838   127452846.581 7     -3213.147    24253496.699    99313877.49545
     -2503.756
  23568624.661   123853957.333 8      3394.253    23568625.474    96509578.94046
      2644.871
  22380133.474   117608317.270 8     -3153.095    22380136.889    91642825.21348
     -2456.961
  21084094.299   110797732.891 9       688.492    21084093.230    86335924.45849
       536.488
  21545684.153   113223301.115 9     -2322.664    21545685.936    88225951.38049
     -1809.870
  21493655.567   112949874.346 8     -1080.758    21493655.313    88012863.31448
      -842.150
  24486616.629   128678031.857 6      -870.146    24486619.965   100268603.14845
      -678.039
  21005176.274   110382926.112 9      1987.031    21005174.743    86012670.42448
      1548.337
  21955314.710   115376036.666 8      2653.044    21955316.868    89903447.54348
      2067.310
 23 11  9  9 59 30.0000000  0  9G04G05G06G07G09G11G16G20G30
  24271842.003   127549276.642 7     -3214.836    24271846.896    99389017.60345
     -2505.075
  23549261.364   123752202.339 8      3389.740    23549262.108    96430289.34746
      2641.355
  22398165.810   117703077.368 8     -3163.803    22398169.285    91716664.11548
     -2465.307
  21080211.968   110777331.146 9       672.216    21080210.890    86320027.01849
       523.806
  21558968.731   113293111.741 9     -2330.960    21558970.557    88280349.18449
     -1816.335
  21499883.807   112982603.845 8     -1100.528    21499883.570    88038366.76847
      -857.557
  24491643.398   128704447.840 6      -890.603    24491646.744   100289187.07244
      -693.974
  20993871.652   110323519.946 9      1973.916    20993870.099    85966379.92847
      1538.116
  21940205.993   115296639.919 9      2640.620    21940208.120    89841579.98749
      2057.627
                            4  1
RINEX FILE SPLICE; other post-header comments skipped       COMMENT
 23 11  9 10  0  0.0000000  0  9G04G05G06G07G09G11G16G20G30
  24290201.431   127645755.092 8     -3216.091    24290206.403    99464195.35245
     -2506.048
  23529923.467   123650580.863 8      3385.570    23529924.143    96351103.80346
      2638.107
  22416258.553   117798154.864 8     -3173.812    22416262.100    91790750.32448
     -2473.104
  21076423.359   110757421.897 9       656.145    21076422.276    86304513.33949
       511.282
  21572299.709   113363166.162 9     -2338.406    21572301.578    88334936.95449
     -1822.138
  21506224.737   113015925.476 8     -1119.823    21506224.513    88064331.61248
      -872.592
  24496785.453   128731469.629 6      -910.272    24496788.785   100310243.04645
      -709.302
  20982641.607   110264505.666 9      1961.325    20982640.041    85920394.78348
      1528.306
  21925167.414   115217611.774 8      2628.914    21925169.510    89779999.65548
      2048.506
 23 11  9 10  0 30.0000000  0  9G04G05G06G07G09G11G16G20G30
  24308568.986   127742276.346 6     -3218.406    24308574.002    99539406.52945
     -2507.856
  23510610.650   123549091.122 8      3380.343    23510611.247    96272020.89946
      2634.033
  22434410.280   117893542.429 8     -3185.169    22434413.898    91865078.16148
     -2481.954
  21072727.649   110738000.860 9       638.952    21072726.561    86289380.08849
       497.886
  21585676.001   113433458.725 9     -2347.409    21585677.905    88389710.30049
     -1829.152
  21512677.262   113049833.576 8     -1140.394    21512677.050    88090753.45748
      -888.620
  24502041.704   128759091.549 6      -930.937    24502045.034   100331766.64444
      -725.404
  20971485.629   110205880.706 9      1947.319    20971484.053    85874713.01647
      1517.393
  21910198.473   115138949.637 8      2615.671    21910200.538    89718704.53048
      2038.187
 23 11  9 10  1  0.0000000  0  9G04G05G06G07G09G11G16G20G30
  24326945.328   127838843.661 7     -3219.478    24326950.421    99614653.56045
     -2508.690
  23491323.961   123447738.690 8      3376.390    23491324.487    96193044.98446
      2630.953
  22452621.254   117989241.388 8     -3194.577    22452624.932    91939648.66048
     -2489.285
  21069125.654   110719072.312 9       623.252    21069124.564    86274630.59249
       485.651
  21599098.159   113503992.308 9     -2354.779    21599100.089    88444671.46049
     -1834.896
  21519241.941   113084331.048 8     -1159.384    21519241.729    88117634.56548
      -903.418
  24507412.880   128787317.319 7      -950.603    24507416.228   100353760.73545
      -740.731
  20960404.964   110147651.550 9      1934.770    20960403.389    85829339.66447
      1507.612
  21895300.326   115060659.530 8      2603.898    21895302.364    89657699.29148
      2029.012
 23 11  9 10  1 30.0000000  0  8G04G05G06G07G09G11G20G30
  24345329.999   127935454.850 7     -3221.509    24345335.135    99689934.81945
     -2510.274
  23472063.595   123346524.705 7      3370.815    23472064.049    96114176.97446
      2626.610
  22470890.710   118085247.615 8     -3205.874    22470894.445    92014458.58048
     -2498.088
  21065617.171   110700635.196 9       605.914    21065616.077    86260264.03149
       472.142
  21612565.705   113574764.451 9     -2363.607    21612567.652    88499818.52149
     -1841.774
  21525918.299   113119415.341 8     -1179.638    21525918.080    88144972.93048
      -919.200
  20949399.720   110089818.741 9      1920.595    20949398.155    85784275.15348
      1496.567
  21880473.086   114982742.068 8      2590.430    21880475.092    89596984.42948
      2018.518
 23 11  9 10  2  0.0000000  0  8G04G05G06G07G09G11G20G30
  24363723.607   128032112.717 7     -3222.958    24363728.819    99765252.35145
     -2511.402
  23452830.538   123245454.282 8      3366.218    23452830.929    96035420.82946
      2623.028
  22489218.817   118181562.079 8     -3215.704    22489222.600    92089508.69748
     -2505.748
  21062202.969   110682693.511 9       589.515    21062201.870    86246283.51449
       459.363
  21626079.141   113645777.750 9     -2371.298    21626081.099    88555153.49449
     -1847.767
  21532706.815   113155089.005 8     -1199.276    21532706.586    88172770.54147
      -934.503
  20938471.048   110032388.308 9      1907.325    20938469.494    85739524.18448
      1486.229
  21865717.826   114905202.887 8      2577.960    21865719.812    89536564.33148
      2008.802
 23 11  9 10  2 30.0000000  0  8G04G05G06G07G09G11G20G30
  24382125.270   128128813.186 7     -3223.686    24382130.573    99840603.11245
     -2511.973
  23433624.670   123144526.809 8      3361.912    23433625.003    95956776.08447
      2619.674
  22507604.398   118278178.525 8     -3225.380    22507608.235    92164794.10948
     -2513.287
  21058882.404   110665243.911 9       573.479    21058881.299    86232686.44149
       446.867
  21639637.605   113717027.688 9     -2378.956    21639639.568    88610672.86549
     -1853.734
  21539606.607   113191347.467 8     -1218.219    21539606.365    88201023.84547
      -949.262
  20927618.699   109975358.901 9      1894.375    20927617.157    85695085.69948
      1476.138
  21851034.267   114828040.513 8      2566.043    21851036.243    89476437.85149
      1999.516
 23 11  9 10  3  0.0000000  0  8G04G05G06G07G09G11G20G30
  24400533.631   128225549.064 6     -3225.316    24400538.981    99915981.51446
     -2513.245
  23414445.176   123043737.812 8      3356.885    23414445.457    95878239.21546
      2615.756
  22526045.780   118375088.277 8     -3235.492    22526049.670    92240308.08248
     -2521.167
  21055654.375   110648280.575 9       556.824    21055653.268    86219468.26849
       433.889
  21653239.724   113788507.004 9     -2386.873    21653241.689    88666370.96149
     -1859.903
  21546616.274   113228183.348 8     -1237.999    21546616.018    88229727.08247
      -964.676
  20916841.886   109918726.400 9      1880.690    20916840.348    85650956.49248
      1465.474
  21836421.630   114751250.790 8      2553.062    21836423.598    89416601.73748
      1989.399
 23 11  9 10  3 30.0000000  0  8G04G05G06G07G09G11G20G30
  24418949.982   128322326.812 7     -3226.443    24418955.407    99991392.49445
     -2514.112
  23395293.779   122943096.452 8      3352.440    23395293.993    95799817.40546
      2612.293
  22544543.757   118472295.450 8     -3244.884    22544547.686    92316053.82048
     -2528.484
  21052520.262   110631810.766 9       541.000    21052519.156    86206634.65849
       421.560
  21666886.613   113860221.608 9     -2394.199    21666888.574    88722252.40449
     -1865.611
  21553736.909   113265602.408 8     -1256.843    21553736.645    88258884.73847
      -979.359
  20906142.445   109862500.513 9      1867.524    20906140.905    85607144.12947
      1455.215
  21821881.597   114674842.603 8      2540.772    21821883.554    89357062.92748
      1979.823
 23 11  9 10  4  0.0000000  0  8G04G05G06G07G09G11G20G30
  24437373.393   128419141.426 6     -3227.983    24437378.846   100066832.20946
     -2515.327
  23376170.316   122842601.849 8      3347.117    23376170.466    95721509.95147
      2608.145
  22563097.068   118569793.413 8     -3254.895    22563101.029    92392026.15948
     -2536.285
  21049479.428   110615831.125 9       524.367    21049478.323    86194182.99649
       408.598
  21680577.319   113932166.502 8     -2402.094    21680579.276    88778313.29648
     -1871.763
  21560967.522   113303599.455 8     -1276.222    21560967.259    88288492.77148
      -994.461
  20895520.028   109806679.440 9      1853.854    20895518.485    85563647.21048
      1444.562
  21807413.781   114598813.951 8      2527.886    21807415.730    89297819.86948
      1969.783
 23 11  9 10  4 30.0000000  0  8G04G05G06G07G09G11G20G30
  24455804.449   128515996.217 7     -3229.091    24455809.951   100142303.22745
     -2516.181
  23357075.817   122742259.464 8      3342.346    23357075.904    95643321.11747
      2604.429
  22581705.934   118667583.272 8     -3264.235    22581709.921    92468225.94348
     -2543.563
  21046532.564   110600345.285 9       508.142    21046531.457    86182116.11249
       395.955
  21694312.381   114004344.506 8     -2409.795    21694314.337    88834555.82948
     -1877.764
  21568308.629   113342177.119 8     -1295.493    21568308.370    88318553.23148
     -1009.478
  20884975.762   109751269.064 9      1840.201    20884974.220    85520470.30848
      1433.924
  21793019.302   114523170.700 8      2515.046    21793021.251    89238877.12348
      1959.779
 23 11  9 10  5  0.0000000  0  8G04G05G06G07G09G11G20G30
  24474243.566   128612893.249 6     -3230.712    24474249.085   100217807.16245
     -2517.449
  23338011.187   122642074.099 8      3336.649    23338011.218    95565254.64647
      2599.988
  22600370.373   118765665.115 8     -3274.521    22600374.393    92544653.23648
     -2551.580
  21043680.223   110585356.161 9       491.055    21043679.113    86170436.27949
       382.640
  21708092.120   114076757.339 8     -2417.712    21708094.077    88890981.35248
     -1883.935
  21575760.533   113381336.937 8     -1315.092    21575760.281    88349067.31148
     -1024.750
  20874510.581   109696274.246 9      1826.118    20874509.043    85477617.21148
      1422.949
  21778699.058   114447917.541 9      2501.857    21778701.007    89180238.34149
      1949.500
 23 11  9 10  5 30.0000000  0  9G04G05G06G07G09G11G13G20G30
  24492688.872   128709823.040 6     -3231.530    24492694.441   100293336.64946
     -2518.076
  23318975.230   122542039.365 8      3331.699    23318975.214    95487305.53746
      2596.131
  22619088.216   118864027.662 8     -3283.605    22619092.261    92621299.28148
     -2558.657
  21040920.847   110570855.521 9       475.026    21040919.734    86159137.07549
       370.150
  21721914.738   114149395.519 8     -2425.136    21721916.694    88947582.47249
     -1889.718
  21583321.367   113421069.149 8     -1334.193    21583321.118    88380027.42148
     -1039.634
  24364068.360                        3427.420

  20864123.245   109641688.476 9      1812.423    20864121.714    85435082.84748
      1412.277
  21764451.798   114373047.934 8      2489.041    21764453.743    89121898.43748
      1939.514
 23 11  9 10  6  0.0000000  0  9G04G05G06G07G09G11G13G20G30
  24511141.882   128806793.332 7     -3232.610    24511147.524   100368897.65745
     -2518.919
  23299969.852   122442165.311 8      3326.515    23299969.794    95409481.62646
      2592.089
  22637860.508   118962676.297 8     -3292.807    22637864.584    92698168.23848
     -2565.827
  21038256.004   110556851.650 9       458.678    21038254.885    86148224.96649
       357.411
  21735781.565   114222266.032 8     -2432.740    21735783.512    89004364.64049
     -1895.644
  21590992.410   113461380.481 8     -1353.149    21590992.156    88411438.79447
     -1054.404
  24344511.797   127931272.435 6      3423.940    24344515.084    99686735.53044
      2668.013
  20853815.736   109587522.222 9      1798.718    20853814.216    85392875.38248
      1401.599
  21750279.416   114298571.850 9      2476.075    21750281.354    89063865.18649
      1929.411
 23 11  9 10  6 30.0000000  0  9G04G05G06G07G09G11G13G20G30
  24529600.367   128903792.227 7     -3233.961    24529606.076   100444480.92145
     -2519.982
  23280993.606   122342444.287 8      3321.142    23280993.499    95331776.94846
      2587.902
  22656684.681   119061597.571 8     -3302.062    22656688.802    92775249.63147
     -2573.039
  21035683.723   110543334.246 9       442.251    21035682.603    86137691.92949
       344.611
  21749690.380   114295357.111 9     -2440.250    21749692.314    89061318.66749
     -1901.495
  21598771.370   113502258.924 8     -1372.198    21598771.101    88443292.06848
     -1069.248
  24324973.797   127828602.600 6      3420.729    24324976.769    99606733.17443
      2665.501
  20843586.426   109533766.935 8      1784.742    20843584.929    85350988.15248
      1390.708
  21736180.240   114224480.422 8      2463.117    21736182.167    89006131.65948
      1919.313
 23 11  9 10  7  0.0000000  0  9G04G05G06G07G09G11G13G20G30
  24548066.542   129000831.701 7     -3235.268    24548072.317   100520095.84044
     -2520.988
  23262049.188   122242890.551 8      3315.861    23262049.027    95254202.63346
      2583.786
  22675562.582   119160801.150 8     -3311.310    22675566.761    92852550.98747
     -2580.246
  21033206.367   110530315.657 9       425.817    21033205.253    86127547.57549
       331.806
  21763643.341   114368680.153 9     -2447.771    21763645.254    89118453.44349
     -1907.356
  21606660.333   113543715.478 8     -1391.241    21606660.048    88475595.82448
     -1084.086
  24305457.281   127726044.482 6      3417.078    24305460.157    99526817.89543
      2662.665
  20833438.089   109480437.151 9      1770.729    20833436.623    85309432.47648
      1379.789
  21722156.999   114150788.040 9      2449.863    21722158.902    88948709.08349
      1908.986
 23 11  9 10  7 30.0000000  0  9G04G05G06G07G09G11G13G20G30
  24566537.748   129097897.669 5     -3236.082    24566543.533   100595731.44645
     -2521.638
  23243134.417   122143492.680 8      3310.439    23243134.209    95176749.77746
      2579.564
  22694491.162   119260271.094 8     -3320.336    22694495.401    92930059.91148
     -2587.278
  21030821.435   110517782.784 9       409.532    21030820.328    86117781.70649
       319.116
  21777637.737   114442220.949 9     -2455.216    21777639.622    89175757.90849
     -1913.156
  21614656.550   113585735.656 8     -1410.291    21614656.249    88508338.76647
     -1098.931
  24285959.793   127623585.913 7      3413.268    24285963.061    99446980.16744
      2659.690
  20823368.679   109427522.102 9      1756.725    20823367.249    85268199.96648
      1368.876
  21708207.557   114077483.404 9      2436.780    21708209.428    88891588.63449
      1898.792
 23 11  9 10  8  0.0000000  0  9G04G05G06G07G09G11G13G20G30
  24585015.386   129194997.350 7     -3237.049    24585021.223   100671393.28844
     -2522.376
  23224251.300   122044261.251 8      3304.976    23224251.061    95099426.62446
      2575.307
  22713471.402   119360012.435 8     -3328.896    22713475.703    93007780.29548
     -2593.950
  21028530.440   110505743.532 9       393.163    21028529.346    86108400.46849
       306.361
  21791674.866   114515986.252 9     -2462.498    21791676.717    89233237.30849
     -1918.832
  21622761.226   113628325.785 8     -1429.147    21622760.909    88541525.82847
     -1113.623
  24266483.238   127521235.886 7      3409.779    24266486.709    99367226.98744
      2656.971
  20813380.137   109375031.925 9      1742.694    20813378.742    85227298.51348
      1357.942
  21694333.737   114004576.158 9      2423.801    21694335.571    88834777.84149
      1888.678
 23 11  9 10  8 30.0000000  0  8G05G06G07G09G11G13G20G30
  23205400.774   121945201.134 8      3299.398    23205400.528    95022236.95447
      2570.962
  22732503.324   119460025.421 8     -3338.020    22732507.677    93085712.36547
     -2601.059
  21026333.955   110494200.959 9       376.623    21026332.880    86099406.25649
       293.472
  21805755.096   114589978.021 9     -2469.943    21805756.916    89290893.17049
     -1924.633
  21630974.666   113671487.433 8     -1448.126    21630974.341    88575158.22448
     -1128.412
  24247028.140   127418998.159 7      3406.004    24247031.676    99287561.35745
      2654.037
  20803473.310   109322971.098 9      1728.498    20803471.937    85186731.61648
      1346.881
  21680536.447   113932071.102 9      2410.403    21680538.240    88778280.43949
      1878.238
 23 11  9 10  9  0.0000000  0  8G05G06G07G09G11G13G20G30
  23186581.518   121846305.366 8      3293.681    23186581.283    94945175.34047
      2566.505
  22751584.520   119560297.357 8     -3346.684    22751588.912    93163846.21748
     -2607.809
  21024230.137   110483145.366 9       360.344    21024229.081    86090791.50849
       280.787
  21819876.345   114664185.336 9     -2477.214    21819878.139    89348716.98749
     -1930.299
  21639294.695   113715209.238 8     -1466.886    21639294.379    88609227.10448
     -1143.029
  24227592.847   127316864.430 7      3402.787    24227596.395    99207976.74245
      2651.524
  20793646.720   109271331.932 9      1714.225    20793645.353    85146493.29948
      1335.760
  21666814.168   113859960.210 8      2396.960    21666815.923    88722090.16448
      1867.763
 23 11  9 10  9 30.0000000  0  8G05G06G07G09G11G13G20G30
  23167795.448   121747583.946 8      3287.629    23167795.237    94868249.57147
      2561.789
  22770715.966   119660833.306 8     -3355.670    22770720.390    93242185.78048
     -2614.812
  21022220.465   110472584.505 9       343.755    21022219.428    86082562.25749
       267.860
  21834039.899   114738614.978 9     -2484.779    21834041.681    89406714.04548
     -1936.193
  21647722.531   113759497.576 8     -1485.874    21647722.234    88643737.43648
     -1157.825
  24208178.973   127214843.652 7      3398.703    24208182.495    99128480.19145
      2648.348
  20783902.301   109220124.576 9      1699.614    20783900.935    85106591.45948
      1324.375
  21653168.730   113788253.165 8      2383.407    21653170.446    88666214.58849
      1857.202
 23 11  9 10 10  0.0000000  0  8G05G06G07G09G11G13G20G30
  23149042.206   121649035.018 8      3282.032    23149042.025    94791458.20347
      2557.427
  22789896.539   119761627.422 8     -3364.216    22789900.991    93320726.51447
     -2621.472
  21020304.372   110462515.368 9       327.353    21020303.346    86074716.16049
       255.079
  21848244.974   114813262.825 8     -2491.948    21848246.756    89464881.12948
     -1941.780
  21656257.300   113804347.830 8     -1504.429    21656257.032    88678685.61248
     -1172.284
  24188786.130   127112933.790 7      3395.083    24188789.612    99049070.08144
      2645.527
  20774239.868   109169348.071 9      1685.312    20774238.502    85067025.35248
      1313.230
  21639599.887   113716948.626 8      2370.023    21639601.582    88610652.65148
      1846.772
 23 11  9 10 10 30.0000000  0  8G05G06G07G09G11G13G20G30
  23130322.199   121550660.865 8      3276.640    23130322.043    94714803.05147
      2553.227
  22809125.574   119862676.174 7     -3372.106    22809130.054    93399465.65847
     -2627.620
  21018481.672   110452937.070 9       311.441    21018480.651    86067252.54849
       242.681
  21862491.250   114888127.175 8     -2498.651    21862493.043    89523216.91448
     -1947.004
  21664898.569   113849757.763 8     -1522.633    21664898.336    88714069.90448
     -1186.470
  24169414.397   127011135.140 7      3391.822    24169417.816    98969746.64445
      2642.983
  20764659.693   109119003.833 9      1671.298    20764658.322    85027796.07748
      1302.311
  21626107.855   113646047.743 9      2357.070    21626109.544    88555405.24849
      1836.680
 23 11  9 10 11  0.0000000  0  8G05G06G07G09G11G13G20G30
  23111636.275   121452465.729 8      3270.383    23111636.154    94638287.36547
      2548.351
  22828402.874   119963978.580 7     -3380.728    22828407.391    93478402.45047
     -2634.338
  21016752.752   110443851.556 9       294.841    21016751.728    86060172.91949
       229.746
  21876778.856   114963208.738 9     -2506.120    21876780.664    89581721.96348
     -1952.823
  21673646.386   113895727.623 8     -1541.525    21673646.183    88749890.50747
     -1201.191
  24150064.278   126909450.356 7      3387.695    24150067.641    98890511.96444
      2639.771
  20755162.521   109069095.737 9      1656.484    20755161.137    84988906.64748
      1290.767
  21612693.307   113575554.043 9      2343.162    21612694.994    88500475.13549
      1825.842
 23 11  9 10 11 30.0000000  0  8G05G06G07G09G11G13G20G30
  23092984.099   121354448.088 8      3264.384    23092984.009    94561910.01947
      2543.678
  22847727.270   120065528.570 7     -3389.168    22847731.833    93557532.17347
     -2640.915
  21015117.056   110435255.881 9       278.505    21015116.021    86053474.98349
       217.017
  21891106.990   115038503.239 8     -2513.160    21891108.823    89640392.92248
     -1958.310
  21682499.824   113942252.539 8     -1560.029    21682499.641    88786143.62447
     -1215.610
  24130735.421   126807877.483 7      3383.803    24130738.741    98811364.52745
      2636.738
  20745748.157   109019622.809 9      1641.959    20745746.755    84950356.30848
      1279.447
  21599355.963   113505466.038 9      2329.653    21599357.660    88445861.14449
      1815.315
 23 11  9 10 12  0.0000000  0  8G05G06G07G09G11G13G20G30
  23074366.456   121256611.916 8      3257.978    23074366.406    94485674.07147
      2538.685
  22867098.529   120167324.816 7     -3397.491    22867103.140    93636853.78247
     -2647.400
  21013574.784   110427151.071 9       261.987    21013573.733    86047159.52449
       204.146
  21905475.719   115114011.096 8     -2520.632    21905477.584    89699230.13848
     -1964.131
  21691458.851   113989332.362 8     -1578.628    21691458.676    88822829.14747
     -1230.102
  24111428.379   126706419.112 7      3379.818    24111431.661    98732306.31745
      2633.637
  20736417.200   108970588.239 9      1627.103    20736415.779    84912147.55048
      1267.872
  21586096.438   113435786.961 9      2315.628    21586098.147    88391565.80249
      1804.388
 23 11  9 10 12 30.0000000  0  8G05G06G07G09G11G13G20G30
  23055783.851   121158959.891 8      3251.984    23055783.848    94409581.61347
      2534.015
  22886516.171   120269364.835 7     -3405.323    22886520.840    93716365.34247
     -2653.503
  21012125.893   110419537.032 9       245.863    21012124.818    86041226.50149
       191.582
  21919884.919   115189731.601 8     -2527.350    21919886.823    89758233.04148
     -1969.366
  21700523.241   114036965.824 8     -1596.837    21700523.070    88859946.06747
     -1244.291
  24092143.416   126605076.578 6      3376.402    24092146.658    98653338.35045
      2630.972
  20727170.145   108921994.613 9      1612.591    20727168.709    84874282.38348
      1256.564
  21572915.120   113366518.843 9      2302.173    21572916.845    88337590.68349
      1793.901
 23 11  9 10 13  0.0000000  0  8G05G06G07G09G11G13G20G30
  23037237.387   121061497.814 8      3245.497    23037237.440    94333637.16647
      2528.960
  22905980.390   120371649.568 7     -3413.981    22905985.126    93796067.57847
     -2660.251
  21010771.108   110412417.555 9       228.812    21010769.998    86035678.86649
       178.295
  21934335.106   115265667.515 8     -2534.983    21934337.061    89817403.79148
     -1975.314
  21709693.396   114085155.051 8     -1615.837    21709693.231    88897496.04748
     -1259.096
  24072881.334   126503854.595 6      3371.748    24072884.553    98574464.36444
      2627.344
  20718008.095   108873847.705 9      1597.263    20718006.648    84836765.30548
      1244.620
  21559813.062   113297667.213 9      2287.902    21559814.801    88283940.09149
      1782.782
 23 11  9 10 13 30.0000000  0  8G05G06G07G09G11G13G20G30
  23018726.634   120964223.468 8      3239.460    23018726.755    94257839.01247
      2524.256
  22925489.862   120474172.009 7     -3421.218    22925494.673    93875955.02147
     -2665.890
  21009509.708   110405788.677 9       212.859    21009508.565    86030513.49049
       165.864
  21948825.287   115341813.620 8     -2541.497    21948827.303    89876738.32248
     -1980.391
  21718968.198   114133894.144 8     -1633.729    21718968.060    88935474.47748
     -1273.038
  24053641.564   126402749.980 6      3368.203    24053644.790    98495681.80145
      2624.580
  20708930.634   108826145.270 9      1582.814    20708929.173    84799594.56748
      1233.361
  21546789.780   113229229.562 9      2274.381    21546791.529    88230612.07949
      1772.246
 23 11  9 10 14  0.0000000  0  8G05G06G07G09G11G13G20G30
  23000251.839   120867138.112 8      3233.226    23000252.037    94182188.12647
      2519.399
  22945043.602   120576927.123 7     -3428.848    22945048.468    93956023.79547
     -2671.835
  21008341.227   110399648.078 9       196.689    21008340.049    86025728.59249
       153.265
  21963354.852   115418166.732 8     -2548.422    21963356.939    89936234.15748
     -1985.786
  21728346.895   114183179.230 8     -1651.892    21728346.777    88973878.36847
     -1287.191
  24034423.923   126301761.719 5      3364.479    24034427.174    98416989.87545
      2621.681
  20699937.767   108778887.336 9      1567.983    20699936.293    84762770.18848
      1221.805
  21533845.185   113161205.430 9      2260.655    21533846.945    88177606.29349
      1761.551
 23 11  9 10 14 30.0000000  0  8G05G06G07G09G11G13G20G30
  22981813.924   120770246.604 8      3226.580    22981814.196    94106688.29647
      2514.221
  22964641.827   120679915.886 7     -3436.606    22964646.738    94036274.62047
     -2677.881
  21007266.334   110393999.270 9       180.309    21007265.122    86021326.90349
       140.499
  21977924.326   115494729.566 8     -2555.406    21977926.488    89995893.41248
     -1991.229
  21737829.881   114233012.343 8     -1670.089    21737829.765    89012709.29747
     -1301.370
  24015229.251   126200894.564 5      3360.452    24015232.545    98338392.37644
      2618.545
  20691030.549   108732079.523 9      1552.907    20691029.063    84726296.56248
      1210.057
  21520980.302   113093600.208 9      2246.598    21520982.075    88124926.93049
      1750.597
 23 11  9 10 15  0.0000000  0  8G05G06G07G09G11G13G20G30
  22963412.109   120673544.870 8      3219.990    22963412.452    94031336.35847
      2509.085
  22984282.621   120783128.335 7     -3444.104    22984287.570    94116699.74747
     -2683.722
  21006283.618   110388834.902 9       163.904    21006282.380    86017302.70849
       127.718
  21992532.171   115571494.010 8     -2562.460    21992534.402    90055709.76448
     -1996.726
  21747415.482   114283384.680 8     -1688.188    21747415.344    89051960.41047
     -1315.473
  23996056.600   126100142.586 6      3356.309    23996059.929    98259884.51144
      2615.312
  20682208.037   108685716.873 9      1537.753    20682206.542    84690169.81748
      1198.249
  21508194.119   113026408.512 9      2232.687    21508195.900    88072569.78749
      1739.759
 23 11  9 10 15 30.0000000  0  8G05G06G07G09G11G13G20G30
  22945047.747   120577039.941 8      3213.637    22945048.159    93956137.76947
      2504.134
  23003966.432   120886566.795 7     -3451.497    23003971.412    94197300.98547
     -2689.483
  21005394.044   110384160.010 9       147.852    21005392.800    86013659.91649
       115.208
  22007179.153   115648464.097 8     -2568.886    22007181.440    90115686.36148
     -2001.733
  21757104.330   114334299.562 8     -1706.019    21757104.149    89091634.28747
     -1329.367
  23976907.139   125999512.098 6      3352.390    23976910.508    98181471.25945
      2612.256
  20673471.562   108639806.369 9      1522.961    20673470.061    84654395.39448
      1186.723
  21495487.904   112959637.065 9      2219.000    21495489.684    88020540.11649
      1729.091
 23 11  9 10 16  0.0000000  0  8G05G06G07G09G11G13G20G30
  22926721.619   120480735.895 8      3207.024    22926722.080    93881095.71547
      2498.982
  23023693.069   120990230.271 7     -3459.046    23023698.076    94278077.55947
     -2695.366
  21004597.985   110379976.597 9       131.479    21004596.745    86010400.10149
       102.450
  22021865.455   115725640.751 8     -2575.741    22021867.780    90175823.91348
     -2007.075
  21766896.444   114385757.124 8     -1724.066    21766896.221    89131731.03347
     -1343.432
  23957781.225   125899005.399 6      3348.452    23957784.650    98103154.47344
      2609.187
  20664821.898   108594352.072 9      1507.765    20664820.395    84618976.45848
      1174.881
  21482862.342   112893289.451 9      2204.802    21482864.117    87968840.71049
      1718.027
 23 11  9 10 16 30.0000000  0  8G05G06G07G09G11G13G20G30
  22908433.607   120384632.130 8      3199.885    22908434.099    93806209.73147
      2493.419
  23043461.399   121094112.795 7     -3466.483    23043466.430    94359024.81547
     -2701.162
  21003894.658   110376280.531 9       114.852    21003893.432    86007520.03849
        89.494
  22036590.270   115803019.748 8     -2582.908    22036592.609    90236119.13348
     -2012.660
  21776790.876   114437752.348 8     -1742.399    21776790.631    89172246.72647
     -1357.716
  23938678.559   125798620.740 6      3343.870    23938682.060    98024932.74745
      2605.615
  20656258.830   108549352.862 9      1492.101    20656257.323    84583912.14048
      1162.676
  21470317.144   112827364.109 9      2190.145    21470318.904    87917470.34249
      1706.606
 23 11  9 10 17  0.0000000  0  8G05G06G07G09G11G13G20G30
  22890184.043   120288730.250 8      3193.217    22890184.560    93731481.03047
      2488.222
  23063270.718   121198210.736 7     -3473.952    23063275.771    94440139.93347
     -2706.981
  21003283.991   110373071.401 9        98.635    21003282.789    86005019.39749
        76.857
  22051353.266   115880599.335 8     -2589.393    22051355.599    90296570.64848
     -2017.713
  21786787.120   114490282.620 8     -1760.193    21786786.863    89213179.33647
     -1371.582
  23919599.252   125698358.728 7      3339.828    23919602.807    97946806.58144
      2602.466
  20647782.554   108504809.742 9      1476.959    20647781.047    84549203.21348
      1150.877
  21457852.465   112761861.845 9      2176.125    21457854.201    87866429.63749
      1695.684
 23 11  9 10 17 30.0000000  0  8G05G06G07G09G11G13G20G30
  22871973.760   120193034.780 8      3186.129    22871974.298    93656913.17047
      2482.698
  23083121.022   121302523.978 7     -3480.906    23083126.096    94521422.80547
     -2712.400
  21002766.420   110370351.526 9        82.178    21002765.240    86002899.99749
        64.034
  22066154.755   115958381.238 8     -2596.380    22066157.061    90357179.82548
     -2023.155
  21796885.345   114543348.841 8     -1778.109    21796885.081    89254529.56847
     -1385.542
  23900543.963   125598222.729 7      3335.375    23900547.548    97868778.57145
      2598.997
  20639393.961   108460727.485 9      1461.366    20639392.455    84514853.41348
      1138.728
  21445469.126   112696787.038 9      2161.689    21445470.837    87815722.01849
      1684.435
 23 11  9 10 18  0.0000000  0  8G05G06G07G09G11G13G20G30
  22853802.909   120097546.536 8      3179.130    22853803.457    93582506.79647
      2477.246
  23103011.381   121407047.753 7     -3487.784    23103016.473    94602869.73947
     -2717.759
  21002341.492   110368118.496 9        66.041    21002340.330    86001159.96249
        51.460
  22080994.200   116036362.541 8     -2603.078    22080996.477    90417944.36448
     -2028.377
  21807084.829   114596947.239 8     -1795.624    21807084.562    89296294.49247
     -1399.189
  23881512.488   125498211.902 7      3331.578    23881516.072    97790848.12145
      2596.036
  20631093.076   108417106.184 9      1446.051    20631091.570    84480862.80348
      1126.793
  21433167.036   112632139.300 9      2147.500    21433168.725    87765347.19849
      1673.379
 23 11  9 10 18 30.0000000  0  8G05G06G07G09G11G13G20G30
  22835671.905   120002267.643 8      3172.197    22835672.463    93508263.54247
      2471.843
  23122941.293   121511779.412 8     -3494.550    23122946.389    94684478.67248
     -2723.031
  21002009.259   110366372.587 9        49.802    21002008.109    85999799.50549
        38.807
  22095871.422   116114542.410 8     -2609.541    22095873.675    90478863.64048
     -2033.411
  21817385.261   114651076.135 8     -1813.292    21817384.983    89338472.79447
     -1412.957
  23862505.216   125398327.895 8      3327.074    23862508.772    97713016.43344
      2592.527
  20622880.319   108373948.039 9      1430.570    20622878.815    84447233.10048
      1114.730
  21420946.568   112567920.457 9      2133.196    21420948.250    87715306.56449
      1662.231
 23 11  9 10 19  0.0000000  0  8G05G06G07G09G11G13G20G30
  22817581.879   119907204.060 8      3164.854    22817582.436    93434188.06347
      2466.121
  23142910.742   121616718.823 7     -3501.686    23142915.840    94766249.48647
     -2728.591
  21001770.135   110365115.961 9        33.557    21001768.991    85998820.30549
        26.147
  22110786.754   116192922.570 8     -2616.127    22110789.003    90539938.98748
     -2038.544
  21827786.795   114705736.302 8     -1831.044    21827786.508    89381065.06647
     -1426.790
  23843522.684   125298573.843 7      3322.550    23843526.191    97635286.00945
      2588.999
  20614756.565   108331257.542 9      1414.906    20614755.062    84413967.78848
      1102.524
  21408808.509   112504134.708 9      2118.812    21408810.189    87665603.40949
      1651.023
 23 11  9 10 19 30.0000000  0  8G05G06G07G09G11G13G20G30
  22799532.857   119812356.016 8      3158.303    22799533.402    93360280.55847
      2461.018
  23162918.900   121721861.567 7     -3507.817    23162924.002    94848178.72147
     -2733.369
  21001623.759   110364346.689 9        17.801    21001622.612    85998220.85749
        13.870
  22125739.725   116271500.495 8     -2622.332    22125741.991    90601168.42748
     -2043.379
  21838288.768   114760924.293 8     -1848.134    21838288.495    89424068.62447
     -1440.105
  23824564.846   125198949.714 7      3318.796    23824568.309    97557656.84846
      2586.076
  20606721.868   108289035.027 9      1399.899    20606720.360    84381067.14348
      1090.831
  21396752.880   112440782.123 9      2104.710    21396754.567    87616237.78149
      1640.035
 23 11  9 10 20  0.0000000  0  8G05G06G07G09G11G13G20G30
  22781525.032   119717724.420 8      3150.734    22781525.560    93286541.70747
      2455.118
  23182964.857   121827203.012 7     -3514.794    23182969.956    94930262.80147
     -2738.807
  21001569.792   110364063.012 9         1.358    21001568.632    85997999.79549
         1.057
  22140729.770   116350273.306 8     -2629.104    22140732.076    90662549.73748
     -2048.656
  21848890.458   114816636.366 8     -1865.843    21848890.216    89467480.56447
     -1453.906
  23805631.556   125099454.727 7      3314.161    23805635.011    97480128.32146
      2582.463
  20598776.257   108247280.675 9      1383.957    20598774.738    84348531.31148
      1078.408
  21384779.616   112377862.346 9      2090.195    21384781.310    87567209.40449
      1628.725
 23 11  9 10 20 30.0000000  0  8G05G06G07G09G11G13G20G30
  22763558.667   119623310.711 8      3143.769    22763559.166    93212972.64547
      2449.691
  23203048.025   121932740.005 7     -3520.960    23203053.106    95012499.25747
     -2743.611
  21001608.077   110364264.078 9       -14.473    21001606.898    85998156.44549
       -11.277
  22155756.674   116429239.765 8     -2635.233    22155759.040    90724081.92248
     -2053.433
  21859591.429   114872870.220 8     -1882.928    21859591.231    89511299.09347
     -1467.218
  23786722.906   125000089.260 6      3310.332    23786726.391    97402700.71246
      2579.480
  20590920.010   108205995.923 9      1368.569    20590918.480    84316361.39948
      1066.419
  21372888.956   112315376.669 9      2075.923    21372890.657    87518519.29649
      1617.604
 23 11  9 10 21  0.0000000  0  8G05G06G07G09G11G13G20G30
  22745634.596   119529119.263 8      3135.690    22745635.055    93139576.77947
      2443.399
  23223168.256   122038471.747 7     -3528.100    23223173.313    95094887.45947
     -2749.175
  21001738.921   110364951.620 9       -31.332    21001737.713    85998692.18449
       -24.415
  22170820.627   116508400.947 8     -2642.342    22170823.067    90785765.83948
     -2058.972
  21870391.714   114929625.927 8     -1900.784    21870391.566    89555524.25247
     -1481.133
  23767839.477   124900856.544 6      3305.162    23767842.993    97325376.59545
      2575.458
  20583153.974   108165185.157 9      1352.157    20583152.435    84284560.81148
      1053.630
  21361081.587   112253328.662 9      2060.594    21361083.301    87470170.22749
      1605.658
 23 11  9 10 21 30.0000000  0  8G05G06G07G09G11G13G20G30
  22727752.937   119435150.619 8      3128.609    22727753.358    93066354.50647
      2437.878
  23243324.614   122144393.322 7     -3533.668    23243329.667    95177423.56547
     -2753.514
  21001961.871   110366123.157 9       -46.950    21001960.634    85999605.05349
       -36.586
  22185921.048   116587753.821 8     -2648.230    22185923.554    90847599.13848
     -2063.561
  21881290.545   114986899.473 8     -1917.590    21881290.443    89600152.92447
     -1494.229
  23748981.190   124801755.667 6      3301.172    23748984.747    97248155.14345
      2572.339
  20575478.121   108124848.264 9      1336.710    20575476.566    84253129.47248
      1041.592
  21349357.398   112191717.712 9      2046.453    21349359.118    87422161.71549
      1594.640
 23 11  9 10 22  0.0000000  0  8G05G06G07G09G11G13G20G30
  22709914.055   119341406.745 8      3121.227    22709914.438    92993307.37347
      2432.125
  23263516.480   122250501.622 7     -3539.866    23263521.543    95260105.19147
     -2758.343
  21002276.816   110367778.199 9       -63.203    21002275.553    86000894.69249
       -49.250
  22201057.717   116667297.178 8     -2654.438    22201060.280    90909580.86148
     -2068.397
  21892287.478   115044688.578 8     -1934.946    21892287.417    89645183.33447
     -1507.752
  23730148.107   124702787.282 6      3296.900    23730151.656    97171036.96745
      2569.015
  20567892.691   108084986.490 9      1320.892    20567891.114    84222068.34948
      1029.267
  21337716.609   112130545.074 9      2031.953    21337718.322    87374494.75949
      1583.341
 23 11  9 10 22 30.0000000  0  8G05G06G07G09G11G13G20G30
  22692118.466   119247890.347 8      3113.217    22692118.811    92920437.48447
      2425.884
  23283743.347   122356793.784 7     -3546.310    23283748.427    95342930.06647
     -2763.365
  21002683.634   110369916.007 9       -79.457    21002682.356    86002560.49949
       -61.915
  22216230.434   116747029.961 8     -2661.098    22216233.048    90971710.18648
     -2073.587
  21903382.135   115102991.158 8     -1952.118    21903382.113    89690613.83247
     -1521.134
  23711340.520   124603952.805 7      3291.961    23711344.045    97094023.12745
      2565.163
  20560398.059   108045601.807 9      1304.572    20560396.460    84191378.97348
      1016.550
  21326159.524   112069812.214 9      2016.832    21326161.224    87327170.47349
      1571.558
 23 11  9 10 23  0.0000000  0  8G05G06G07G09G11G13G20G30
  22674366.653   119154603.942 8      3105.814    22674366.964    92847746.79847
      2420.114
  23304004.704   122463267.224 7     -3551.993    23304009.814    95425896.19947
     -2767.793
  21003182.283   110372536.444 9       -95.254    21003180.999    86004602.38349
       -74.225
  22231439.068   116826951.478 8     -2666.972    22231441.715    91033986.57848
     -2078.165
  21914574.158   115161805.428 8     -1968.784    21914574.184    89736443.04947
     -1534.121
  23692558.549   124505253.197 7      3287.927    23692562.039    97017114.43145
      2562.020
  20552994.545   108006696.010 9      1288.938    20552992.933    84161062.75948
      1004.366
  21314686.439   112009520.800 9      2002.451    21314688.123    87280190.18049
      1560.352
 23 11  9 10 23 30.0000000  0  8G05G06G07G09G11G13G20G30
  22656659.053   119061549.876 8      3097.923    22656659.334    92775237.15047
      2413.966
  23324300.043   122569919.220 8     -3557.678    23324305.191    95509001.46648
     -2772.223
  21003772.717   110375639.238 9      -111.332    21003771.437    86007020.13249
       -86.753
  22246683.466   116907060.957 8     -2673.489    22246686.135    91096409.44448
     -2083.242
  21925863.193   115221129.492 8     -1985.705    21925863.267    89782669.50647
     -1547.306
  23673802.505   124406689.730 7      3283.120    23673805.952    96940311.78744
      2558.278
  20545682.655   107968271.724 9      1272.879    20545681.045    84131121.74548
       991.853
  21303297.664   111949672.431 9      1987.687    21303299.329    87233555.11149
      1548.847
 23 11  9 10 24  0.0000000  0  8G05G06G07G09G11G13G20G30
  22638995.548   118968727.568 8      3090.108    22638995.796    92702908.10147
      2407.878
  23344628.211   122676743.723 8     -3563.870    23344633.396    95592241.16448
     -2777.047
  21004454.269   110379220.852 9      -127.611    21004453.000    86009810.98649
       -99.438
  22261962.822   116987354.144 8     -2679.747    22261965.498    91158975.47248
     -2088.118
  21937248.226   115280957.984 8     -2002.882    21937248.328    89829289.02947
     -1560.690
  23655071.966   124308260.163 8      3278.646    23655075.359    96863613.46144
      2554.793
  20538462.076   107930327.322 9      1256.624    20538460.477    84101554.67148
       979.187
  21291992.852   111890265.322 9      1972.552    21291994.492    87187263.88649
      1537.055
 23 11  9 10 24 30.0000000  0  8G05G06G07G09G11G13G20G30
  22621377.518   118876144.140 8      3082.327    22621377.738    92630765.17547
      2401.813
  23364989.611   122783742.764 7     -3569.324    23364994.838    95675616.85647
     -2781.298
  21005227.796   110383285.774 9      -143.306    21005226.539    86012978.44449
      -111.668
  22277277.888   117067834.983 8     -2685.550    22277280.570    91221687.72448
     -2092.640
  21948729.798   115341293.726 8     -2019.379    21948729.925    89876303.80547
     -1573.546
  23636368.013   124209970.268 8      3274.345    23636371.327    96787023.99145
      2551.438
  20531334.113   107892869.587 9      1240.701    20531332.528    84072366.81148
       966.779
  21280773.207   111831305.782 9      1958.035    21280774.822    87141321.41649
      1525.743
 23 11  9 10 25  0.0000000  0  8G05G06G07G09G11G13G20G30
  22603805.191   118783800.923 8      3074.044    22603805.380    92558809.43547
      2395.358
  23385383.497   122890912.454 7     -3575.108    23385388.779    95759125.50547
     -2785.806
  21006093.070   110387832.799 9      -159.591    21006091.822    86016521.56749
      -124.357
  22292628.300   117148501.480 8     -2691.875    22292630.999    91284544.62448
     -2097.568
  21960307.290   115402133.534 8     -2036.384    21960307.447    89923711.35547
     -1586.796
  23617690.664   124111820.263 8      3269.377    23617693.900    96710543.57145
      2547.570
  20524298.859   107855898.994 9      1224.228    20524297.284    84043558.53848
       953.942
  21269638.797   111772794.146 9      1942.924    21269640.397    87095727.95449
      1513.967
 23 11  9 10 25 30.0000000  0  8G05G06G07G09G11G13G20G30
  22586278.792   118691699.074 8      3065.918    22586278.953    92487041.78047
      2389.028
  23405809.158   122998249.137 7     -3580.527    23405814.489    95842764.28447
     -2790.027
  21007049.775   110392860.278 9      -175.706    21007048.528    86020439.08049
      -136.914
  22308013.705   117229351.917 8     -2698.164    22308016.419    91347544.86448
     -2102.469
  21971980.144   115463474.525 8     -2053.035    21971980.344    89971509.44047
     -1599.770
  23599040.001   124013810.572 8      3264.429    23599043.181    96634172.52145
      2543.715
  20517356.536   107819416.761 9      1207.889    20517354.963    84015130.81648
       941.212
  21258589.728   111714731.020 9      1927.891    21258591.315    87050483.98849
      1502.253
 23 11  9 10 26  0.0000000  0  8G05G06G07G09G11G13G20G30
  22568799.069   118599842.510 8      3057.570    22568799.210    92415465.25047
      2382.523
  23426266.200   123105750.664 7     -3586.306    23426271.586    95926531.49347
     -2794.531
  21008097.843   110398367.802 9      -191.700    21008096.591    86024730.64349
      -149.378
  22323434.050   117310385.935 8     -2704.387    22323436.781    91410688.15048
     -2107.317
  21983748.069   115525315.131 8     -2069.666    21983748.323    90019696.83947
     -1612.729
  23580416.244   123915942.231 8      3259.853    23580419.363    96557911.60845
      2540.149
  20510507.648   107783425.523 9      1191.319    20510506.071    83987085.69148
       928.301
  21247626.385   111657118.414 9      1912.690    21247627.963    87005591.07949
      1490.409
 23 11  9 10 26 30.0000000  0  8G05G06G07G09G11G13G20G30
  22551366.130   118508231.844 8      3049.974    22551366.258    92344080.34147
      2376.604
  23446753.774   123213412.699 7     -3590.992    23446759.220    96010423.77547
     -2798.183
  21009237.002   110404354.052 9      -207.187    21009235.738    86029395.25149
      -161.444
  22338888.894   117391601.216 8     -2709.847    22338891.637    91473972.67448
     -2111.573
  21995610.401   115587651.820 8     -2085.914    21995610.705    90068270.79947
     -1625.391
  23561819.356   123818215.243 7      3255.427    23561822.399    96481760.87645
      2536.703
  20503752.239   107747925.514 9      1175.416    20503750.662    83959423.34348
       915.908
  21236748.773   111599956.305 9      1898.221    21236750.351    86961049.19749
      1479.133
 23 11  9 10 27  0.0000000  0  8G05G06G07G09G11G13G20G30
  22533980.679   118416870.796 8      3041.227    22533980.806    92272889.94647
      2369.790
  23467271.551   123321233.559 7     -3596.570    23467277.045    96094439.84147
     -2802.528
  21010467.375   110410819.645 9      -223.430    21010466.102    86034433.37349
      -174.101
  22354378.278   117472997.989 8     -2716.211    22354381.031    91537398.61748
     -2116.532
  22007566.943   115650483.512 8     -2102.664    22007567.292    90117230.47147
     -1638.442
  23543249.814   123720631.988 7      3250.141    23543252.783    96405722.11945
      2532.583
  20497090.838   107712919.566 9      1158.650    20497089.262    83932145.98648
       902.845
  21225957.355   111543247.202 9      1882.825    21225958.937    86916860.31849
      1467.138
 23 11  9 10 27 30.0000000  0  8G05G06G07G09G11G13G20G30
  22516642.988   118325760.793 8      3032.853    22516643.123    92201895.18247
      2363.263
  23487818.910   123429209.758 7     -3601.658    23487824.459    96178576.91647
     -2806.494
  21011788.718   110417763.271 9      -239.412    21011787.442    86039843.98149
      -186.555
  22369901.874   117554574.585 8     -2722.148    22369904.633    91600964.68548
     -2121.158
  22019617.140   115713807.378 8     -2118.902    22019617.521    90166573.66747
     -1651.095
  23524707.561   123623192.380 6      3245.670    23524710.460    96329795.30345
      2529.099
  20490523.678   107678408.836 9      1142.162    20490522.109    83905254.50548
       889.996
  21215252.246   111486991.680 9      1867.740    21215253.837    86873024.88549
      1455.384
 23 11  9 10 28  0.0000000  0  8G05G06G07G09G11G13G20G30
  22499353.306   118234903.101 8      3023.930    22499353.459    92131097.02547
      2356.311
  23508395.029   123537337.213 7     -3606.990    23508400.632    96262831.86947
     -2810.648
  21013200.746   110425183.489 9      -255.588    21013199.470    86045625.96049
      -199.159
  22385459.293   117636328.837 8     -2728.437    22385462.058    91664669.16848
     -2126.059
  22031760.334   115777619.907 8     -2135.600    22031760.744    90216297.62847
     -1664.105
  23506192.551   123525896.220 7      3240.311    23506195.395    96253980.30846
      2524.924
  20484050.897   107644394.100 9      1125.181    20484049.333    83878749.51448
       876.764
  21204633.479   111431189.861 9      1852.134    21204635.085    86829542.98349
      1443.223
 23 11  9 10 28 30.0000000  0  8G05G06G07G09G11G13G20G30
  22482111.883   118144299.045 8      3016.203    22482112.061    92060496.50947
      2350.291
  23528999.213   123645612.090 7     -3611.570    23529004.872    96347201.67747
     -2814.218
  21014703.028   110433078.034 9      -271.004    21014701.757    86051777.54449
      -211.172
  22401050.153   117718258.871 8     -2733.942    22401052.927    91728510.63448
     -2130.348
  22043995.913   115841917.891 8     -2151.164    22043996.347    90266399.86047
     -1676.235
  23487704.968   123428743.939 7      3236.045    23487707.789    96178277.36746
      2521.598
  20477672.619   107610875.976 9      1109.097    20477671.056    83852631.49048
       864.231
  21194101.119   111375842.094 9      1837.465    21194102.740    86786414.88749
      1431.793
 23 11  9 10 29  0.0000000  0  8G05G06G07G09G11G13G20G30
  22464919.601   118053953.238 8      3006.721    22464919.804    91990097.22847
      2342.900
  23549631.188   123754033.052 7     -3616.676    23549636.885    96431685.33947
     -2818.195
  21016295.800   110441448.147 9      -287.131    21016294.535    86058299.70149
      -223.739
  22416674.590   117800365.314 8     -2740.033    22416677.385    91792489.55348
     -2135.095
  22056323.731   115906700.660 8     -2167.785    22056324.184    90316879.85847
     -1689.187
  23469245.221   123331737.881 7      3230.822    23469248.015    96102688.36845
      2517.530
  20471389.440   107577857.597 9      1092.107    20471387.867    83826902.88448
       850.993
  21183655.708   111320951.196 9      1821.753    21183657.340    86743642.79249
      1419.549
 23 11  9 10 29 30.0000000  0  8G05G06G07G09G11G13G20G30
  22447776.833   117963867.573 8      2998.548    22447777.062    91919900.64347
      2336.532
  23570290.391   123862597.082 8     -3621.164    23570296.113    96516280.49247
     -2821.692
  21017978.967   110450293.257 9      -302.691    21017977.709    86065191.97649
      -235.864
  22432332.372   117882646.983 8     -2745.478    22432335.200    91856605.01448
     -2139.338
  22068743.307   115971965.681 8     -2183.460    22068743.765    90367735.64747
     -1701.399
  23450813.418   123234878.807 7      3226.202    23450816.192    96027213.93245
      2513.931
  20465201.644   107545340.439 9      1075.530    20465200.058    83801564.83448
       838.075
  21173297.448   111266518.196 9      1806.806    21173299.084    86701227.49049
      1407.901
 23 11  9 10 30  0.0000000  0  8G05G06G07G09G11G13G20G30
  22430683.865   117874043.678 8      2989.949    22430684.119    91849908.04847
      2329.832
  23590976.182   123971300.767 8     -3625.652    23590981.921    96600984.46848
     -2825.190
  21019752.184   110459611.635 9      -318.438    21019750.927    86072453.04549
      -248.134
  22448023.207   117965102.415 8     -2751.161    22448026.076    91920855.89648
     -2143.767
  22081254.113   116037710.131 8     -2199.568    22081254.568    90418965.02347
     -1713.951
  23432409.683   123138167.283 7      3221.390    23432412.459    95951854.47045
      2510.179
  20459109.442   107513325.694 9      1058.894    20459107.835    83776618.29048
       825.112
  21163026.451   111212543.774 9      1791.679    21163028.080    86659169.53449
      1396.115
 23 11  9 10 30 30.0000000  0  8G05G06G07G09G11G13G20G30
  22413641.703   117784486.725 8      2980.847    22413641.987    91780123.44647
      2322.740
  23611688.487   124080143.766 8     -3630.217    23611694.239    96685797.00248
     -2828.748
  21021615.885   110469405.521 9      -334.354    21021614.626    86080084.64249
      -260.537
  22463747.412   118047733.183 8     -2757.114    22463750.339    91985243.39148
     -2148.404
  22093856.192   116103934.217 8     -2215.468    22093856.635    90470568.13547
     -1726.340
  23414034.663   123041606.577 7      3216.357    23414037.455    95876612.50045
      2506.255
  20453113.649   107481817.573 9      1041.796    20453112.022    83752066.51148
       811.789
  21152843.444   111159031.748 9      1776.146    21152845.061    86617471.89249
      1384.012
 23 11  9 10 31  0.0000000  0  8G05G06G07G09G11G13G20G30
  22396650.072   117695195.327 8      2971.780    22396650.388    91710545.76947
      2315.674
  23632426.204   124189120.261 7     -3635.083    23632431.975    96770713.55147
     -2832.539
  21023569.406   110479671.309 9      -350.211    21023568.150    86088083.93549
      -272.892
  22479504.244   118130535.379 8     -2762.906    22479507.241    92049764.44848
     -2152.919
  22106548.501   116170632.562 8     -2231.227    22106548.913    90522540.82047
     -1738.619
  23395687.982   122945194.811 7      3211.095    23395690.792    95801486.58045
      2502.156
  20447213.999   107450814.698 9      1024.901    20447212.355    83727908.42948
       798.625
  21142748.083   111105980.283 9      1760.497    21142749.692    86576133.12149
      1371.816
 23 11  9 10 31 30.0000000  0  8G05G06G07G09G11G13G20G30
  22379709.781   117606173.673 8      2962.926    22379710.135    91641178.26147
      2308.772
  23653189.033   124298228.665 7     -3639.216    23653194.840    96855732.86647
     -2835.760
  21025612.859   110490409.669 9      -365.831    21025611.606    86096451.46649
      -285.064
  22495293.753   118213509.315 8     -2768.668    22495296.816    92114419.32848
     -2157.407
  22119330.886   116237804.170 8     -2246.916    22119331.259    90574882.26247
     -1750.847
  23377370.103   122848934.503 7      3206.098    23377372.916    95726478.69744
      2498.263
  20441411.068   107420320.097 9      1007.871    20441409.413    83704146.40348
       785.354
  21132740.835   111053391.853 9      1745.234    21132742.442    86535155.14849
      1359.923
 23 11  9 10 32  0.0000000  0  8G05G06G07G09G11G13G20G30
  22362820.715   117517421.290 8      2953.749    22362821.098    91572020.59047
      2301.624
  23673975.742   124407462.599 7     -3643.430    23673981.595    96940850.00047
     -2839.044
  21027745.375   110501616.043 9      -381.535    21027744.123    86105183.68449
      -297.302
  22511115.106   118296650.624 8     -2774.324    22511118.217    92179204.64048
     -2161.815
  22132202.197   116305443.106 8     -2262.583    22132202.533    90627587.86647
     -1763.056
  23359080.582   122752822.897 7      3201.183    23359083.379    95651586.62744
      2494.432
  20435704.475   107390331.812 9       990.955    20435702.810    83680778.92048
       772.173
  21122821.240   111001264.159 9      1729.750    21122822.847    86494536.21049
      1347.858
 23 11  9 10 32 30.0000000  0  8G05G06G07G09G11G13G20G30
  22345983.911   117428943.511 8      2944.671    22345984.319    91503076.88747
      2294.550
  23694786.410   124516822.452 7     -3647.454    23694792.328    97026065.23847
     -2842.179
  21029967.494   110513293.281 9      -397.167    21029966.239    86114282.81449
      -309.481
  22526968.736   118379961.565 8     -2779.889    22526971.870    92244122.14448
     -2166.150
  22145162.608   116373550.241 8     -2277.948    22145162.923    90680658.30047
     -1775.026
  23340820.210   122656864.418 8      3195.980    23340822.928    95576813.89044
      2490.380
  20430095.164   107360854.747 9       973.903    20430093.502    83657809.78648
       758.886
  21112990.141   110949601.558 9      1714.189    21112991.757    86454279.68449
      1335.734
 23 11  9 10 33  0.0000000  0  8G05G06G07G09G11G13G20G30
  22329199.506   117340741.054 8      2935.426    22329199.934    91434347.71247
      2287.346
  23715620.105   124626303.333 7     -3651.339    23715626.098    97111374.77647
     -2845.206
  21032278.692   110525438.601 9      -412.601    21032277.437    86123746.67749
      -321.508
  22542854.091   118463439.175 8     -2785.374    22542857.238    92309169.51648
     -2170.425
  22158211.280   116442121.171 8     -2293.492    22158211.575    90734090.13447
     -1787.138
  23322588.767   122561057.898 8      3191.185    23322591.371    95502159.58045
      2486.644
  20424583.081   107331888.610 9       957.008    20424581.433    83635238.77348
       745.721
  21103247.391   110898403.203 9      1698.977    21103249.016    86414384.89449
      1323.879
 23 11  9 10 33 30.0000000  0  8G05G06G07G09G11G13G20G30
  22312468.310   117252818.201 8      2925.809    22312468.752    91365836.41247
      2279.852
  23736476.730   124735904.741 7     -3655.806    23736482.795    97196778.24147
     -2848.687
  21034679.282   110538053.684 9      -428.570    21034678.032    86133576.59249
      -333.951
  22558771.443   118547084.915 8     -2791.133    22558774.590    92374347.89748
     -2174.912
  22171348.200   116511155.770 8     -2308.968    22171348.474    90787883.25347
     -1799.197
  23304386.875   122465406.618 7      3185.510    23304389.377    95427626.22945
      2482.220
  20419168.920   107303437.047 9       939.562    20419167.289    83613068.72148
       732.127
  21093593.643   110847672.549 9      1682.916    21093595.268    86374854.54349
      1311.364
 23 11  9 10 34  0.0000000  0  8G05G06G07G09G11G13G20G30
  22295790.802   117165177.439 8      2916.656    22295791.257    91297544.91847
      2272.719
  23757355.736   124845623.665 7     -3659.202    23757361.875    97282273.25547
     -2851.335
  21037169.070   110551137.437 9      -444.069    21037167.830    86143771.68749
      -346.030
  22574720.598   118630897.728 8     -2796.791    22574723.748    92439656.45448
     -2179.322
  22184572.885   116580651.520 8     -2324.437    22184573.137    90842035.69747
     -1811.254
  23286214.709   122369911.590 7      3180.466    23286217.139    95353214.62644
      2478.290
  20413852.947   107275501.410 9       922.471    20413851.334    83591300.67648
       718.807
  21084029.100   110797410.618 9      1667.341    21084030.713    86335689.42049
      1299.227
 23 11  9 10 34 30.0000000  0  8G05G06G07G09G11G13G20G30
  22279167.490   117077821.595 8      2906.956    22279167.953    91229475.46747
      2265.162
  23778256.543   124955457.319 7     -3663.156    23778262.749    97367857.70647
     -2854.415
  21039747.800   110564688.660 9      -459.585    21039746.560    86154331.06649
      -358.119
  22590701.353   118714876.700 8     -2802.107    22590704.500    92505094.50548
     -2183.464
  22197884.839   116650605.951 8     -2339.614    22197885.071    90896545.57547
     -1823.078
  23268072.354   122274573.355 7      3174.980    23268074.746    95278925.21045
      2474.014
  20408635.484   107248083.488 9       905.092    20408633.881    83569936.05848
       705.266
  21074553.940   110747618.458 9      1651.789    21074555.533    86296890.36749
      1287.109
 23 11  9 10 35  0.0000000  0  8G05G06G07G09G11G13G20G30
  22262598.519   116990751.227 8      2897.783    22262598.990    91161628.44647
      2258.014
  23799178.439   125065401.763 7     -3666.415    23799184.714    97453528.47847
     -2856.954
  21042415.248   110578706.052 9      -474.802    21042414.007    86165253.68049
      -369.977
  22606713.365   118799019.920 8     -2807.329    22606716.521    92570660.53548
     -2187.533
  22211283.440   116721015.606 8     -2354.465    22211283.655    90951410.15247
     -1834.651
  23249959.880   122179392.295 7      3170.279    23249962.256    95204758.28645
      2470.352
  20403516.677   107221183.983 9       888.168    20403515.087    83548975.39548
       692.079
  21065168.191   110698296.153 9      1636.443    21065169.764    86258457.43149
      1275.152
 23 11  9 10 35 30.0000000  0  8G05G06G07G09G11G13G20G30
  22246083.852   116903966.308 8      2887.949    22246084.329    91094003.87147
      2250.352
  23820120.316   125175451.221 7     -3670.077    23820126.655    97539281.08747
     -2859.808
  21045170.653   110593185.732 9      -490.477    21045169.412    86176536.53349
      -382.190
  22622755.872   118883323.446 8     -2812.842    22622759.039    92636351.48948
     -2191.828
  22224767.627   116791875.049 8     -2369.647    22224767.833    91006625.21047
     -1846.481
  23231876.946   122084366.558 7      3164.702    23231879.302    95130712.40844
      2466.007
  20398496.195   107194801.201 9       870.534    20398494.618    83528417.37848
       678.338
  21055871.487   110649441.815 9      1620.514    21055873.037    86220389.15349
      1262.739
 23 11  9 10 36  0.0000000  0  8G05G06G07G09G11G13G20G30
  22229624.618   116817472.629 8      2878.363    22229625.104    91026606.21947
      2242.882
  23841082.299   125285606.328 7     -3673.385    23841088.693    97625116.02747
     -2862.385
  21048014.570   110608130.517 9      -505.826    21048013.334    86188181.80049
      -394.151
  22638829.410   118967789.935 8     -2818.330    22638832.589    92702169.41248
     -2196.105
  22238337.591   116863185.262 8     -2384.604    22238337.808    91062191.51247
     -1858.136
  23213824.433   121989500.353 7      3159.541    23213826.754    95056790.77245
      2461.981
  20393575.018   107168940.276 9       853.315    20393573.454    83508266.00648
       664.922
  21046664.708   110601059.975 9      1604.933    21046666.239    86182689.04649
      1250.598
 23 11  9 10 36 30.0000000  0  8G05G06G07G09G11G13G20G30
  22213220.831   116731270.348 8      2868.757    22213221.319    90959435.64247
      2235.396
  23862063.395   125395861.812 7     -3676.723    23862069.841    97711029.16847
     -2864.986
  21050946.368   110623537.125 9      -521.028    21050945.137    86200186.93049
      -405.996
  22654933.298   119052415.968 8     -2823.141    22654936.493    92768111.67248
     -2199.853
  22251992.394   116934941.319 8     -2399.053    22251992.632    91118105.22247
     -1869.395
  23195801.968   121894792.123 7      3154.379    23195804.210    94982992.27245
      2457.959
  20388752.985   107143600.319 9       836.116    20388751.427    83488520.57948
       651.520
  21037547.584   110553149.262 9      1589.364    21037549.099    86145356.05449
      1238.468
 23 11  9 10 37  0.0000000  0  8G05G06G07G09G11G13G20G30
  22196873.624   116645365.382 8      2858.445    22196874.103    90892496.74047
      2227.361
  23883063.633   125506217.999 7     -3680.320    23883070.127    97797020.80547
     -2867.788
  21053966.485   110639407.866 9      -536.923    21053965.262    86212553.72349
      -418.382
  22671067.999   119137203.897 8     -2829.092    22671071.212    92834180.08248
     -2204.491
  22265732.162   117007143.906 8     -2414.320    22265732.429    91174366.88047
     -1881.292
  23177810.386   121800246.194 7      3148.719    23177812.542    94909320.25345
      2453.550
  20384030.952   107118785.844 9       818.296    20384029.396    83469184.61848
       637.633
  21028520.913   110505713.846 9      1573.159    21028522.412    86108393.41949
      1225.839
 23 11  9 10 37 30.0000000  0  8G05G06G07G09G11G13G20G30
  22180583.068   116559758.027 8      2848.307    22180583.529    90825789.72847
      2219.460
  23904082.161   125616670.231 7     -3683.413    23904088.723    97883087.25847
     -2870.199
  21057074.452   110655740.264 9      -552.250    21057073.237    86225280.24649
      -430.325
  22687232.993   119222150.933 8     -2834.361    22687236.234    92900372.44748
     -2208.597
  22279556.059   117079788.620 8     -2428.997    22279556.348    91230973.06047
     -1892.727
  23159849.539   121705861.640 7      3143.064    23159851.618    94835773.94345
      2449.146
  20379408.860   107094496.540 9       800.679    20379407.303    83450257.87748
       623.906
  21019584.526   110458752.873 9      1557.374    21019586.007    86071800.48249
      1213.539
 23 11  9 10 38  0.0000000  0  8G05G06G07G09G11G13G20G30
  22164349.815   116474451.823 8      2838.567    22164350.242    90759317.39448
      2211.873
  23925118.720   125727217.212 7     -3686.420    23925125.364    97969227.53147
     -2872.543
  21060270.317   110672534.566 9      -567.488    21060269.111    86238366.69349
      -442.199
  22703428.379   119307257.728 8     -2839.443    22703431.645    92966689.30748
     -2212.558
  22293463.908   117152874.469 8     -2443.466    22293464.217    91287922.97447
     -1904.002
  23141919.849   121611641.014 7      3137.936    23141921.878    94762355.39446
      2445.148
  20374887.278   107070735.434 9       783.372    20374885.714    83431742.72648
       610.420
  21010738.908   110412268.900 9      1541.597    21010740.373    86035579.23549
      1201.245
 23 11  9 10 38 30.0000000  0  8G05G06G07G09G11G13G20G30
  22148174.079   116389447.848 8      2828.624    22148174.473    90693080.55947
      2204.125
  23946172.340   125837853.899 6     -3689.424    23946179.080    98055437.70146
     -2874.884
  21063553.514   110689787.775 9      -582.466    21063552.322    86251810.72149
      -453.870
  22719653.581   119392521.209 8     -2844.608    22719656.878    93033128.25248
     -2216.583
  22307454.802   117226396.716 8     -2457.769    22307455.126    91345212.93847
     -1915.148
  23124021.141   121517583.280 7      3132.858    23124023.151    94689063.78145
      2441.194
  20370466.081   107047501.816 9       765.881    20370464.519    83413638.59048
       596.790
  21001983.827   110366260.694 9      1525.877    21001985.283    85999728.71149
      1188.996
 23 11  9 10 39  0.0000000  0  8G05G06G07G09G11G13G20G30
  22132055.949   116304746.595 8      2818.246    22132056.306    90627079.61847
      2196.037
  23967242.211   125948576.088 6     -3692.212    23967249.051    98141714.50746
     -2877.056
  21066923.643   110707497.865 9      -598.028    21066922.468    86265610.76949
      -465.997
  22735908.173   119477939.115 8     -2850.086    22735911.501    93099687.52048
     -2220.852
  22321527.976   117300351.392 8     -2472.504    22321528.299    91402839.87347
     -1926.630
  23106153.307   121423687.739 7      3127.082    23106155.302    94615898.53745
      2436.691
  20366145.219   107024795.520 9       747.946    20366143.661    83395945.36648
       582.816
  20993319.200   110320727.835 9      1509.731    20993320.648    85964248.58849
      1176.416
 23 11  9 10 39 30.0000000  0  8G05G06G07G09G11G13G20G30
  22115996.268   116220352.539 8      2807.872    22115996.588    90561318.06247
      2187.955
  23988328.131   126059382.599 6     -3695.135    23988335.076    98228057.00746
     -2879.334
  21070380.835   110725665.471 9      -613.415    21070379.676    86279767.32249
      -477.986
  22752192.287   119563512.157 8     -2855.312    22752195.642    93166367.67348
     -2224.924
  22335683.286   117374737.581 8     -2486.772    22335683.623    91460803.01847
     -1937.748
  23088316.868   121329957.124 8      3121.316    23088318.830    94542861.80045
      2432.199
  20361925.290   107002619.625 9       730.086    20361923.737    83378665.43748
       568.898
  20984745.516   110275672.906 9      1493.604    20984746.964    85929140.87549
      1163.848
 23 11  9 10 40  0.0000000  0  8G05G06G07G09G11G13G20G30
  22099995.511   116136268.080 8      2797.621    22099995.801    90495797.74247
      2179.966
  24009429.530   126170270.461 6     -3697.493    24009436.595    98314462.88646
     -2881.174
  21073924.886   110744289.514 9      -628.294    21073923.742    86294279.53949
      -489.581
  22768505.729   119649239.324 8     -2860.276    22768509.108    93233167.92848
     -2228.792
  22349920.172   117449552.517 8     -2500.875    22349920.533    91519100.25647
     -1948.738
  23070511.979   121236392.247 8      3115.990    23070513.876    94469954.21745
      2428.048
  20357806.575   106980975.600 9       712.555    20357805.018    83361799.95148
       555.236
  20976262.915   110231096.657 9      1477.896    20976264.373    85894406.16149
      1151.608
 23 11  9 10 40 30.0000000  0  8G05G06G07G09G11G13G20G30
  22084054.394   116052497.021 8      2787.379    22084054.650    90430521.63147
      2171.985
  24030546.159   126281238.425 6     -3700.171    24030553.349    98400931.19046
     -2883.259
  21077555.923   110763370.647 9      -643.309    21077554.790    86309147.92849
      -501.279
  22784848.652   119735121.415 8     -2865.245    22784852.066    93300088.89548
     -2232.664
  22364238.447   117524795.226 8     -2514.914    22364238.833    91577730.83247
     -1959.677
  23052739.142   121142995.718 8      3110.746    23052740.959    94397177.81145
      2423.961
  20353789.656   106959866.485 9       694.881    20353788.085    83345351.27648
       541.466
  20967871.896   110187001.660 9      1461.976    20967873.368    85860046.43949
      1139.202
 23 11  9 10 41  0.0000000  0  8G05G06G07G09G11G13G20G30
  22068172.779   115969038.621 8      2776.587    22068173.004    90365489.14247
      2163.574
  24051676.902   126392280.488 6     -3702.986    24051684.212    98487457.22347
     -2885.452
  21081273.182   110782904.865 9      -658.857    21081272.056    86324369.37249
      -513.396
  22801220.263   119821154.352 8     -2870.513    22801223.718    93367127.41848
     -2236.769
  22378637.042   117600459.965 8     -2529.389    22378637.457    91636690.24047
     -1970.956
  23034997.914   121049765.275 8      3104.601    23034999.636    94324530.83845
      2419.172
  20349874.103   106939290.039 9       676.766    20349872.514    83329317.66948
       527.349
  20959572.013   110143385.625 9      1445.695    20959573.503    85826059.93949
      1126.517
 23 11  9 10 41 30.0000000  0  8G05G06G07G09G11G13G20G30
  22052351.186   115885895.683 8      2765.855    22052351.375    90300702.48247
      2155.214
  24072821.203   126503393.867 7     -3705.190    24072828.610    98574038.86447
     -2887.169
  21085076.475   110802891.121 9      -673.948    21085075.360    86339943.03949
      -525.154
  22817620.393   119907337.157 8     -2875.448    22817623.890    93434282.72348
     -2240.613
  22393115.412   117676543.984 8     -2543.365    22393115.867    91695976.36847
     -1981.847
  23017288.506   120956702.149 8      3099.048    23017290.132    94252014.27045
      2414.848
  20346060.179   106919247.665 9       658.893    20346058.572    83313700.22948
       513.423
  20951363.424   110100249.377 9      1429.607    20951364.935    85792447.30349
      1113.980
 23 11  9 10 42  0.0000000  0  8G05G06G07G09G11G13G20G30
  22036590.503   115803072.729 8      2755.561    22036590.668    90236165.13847
      2147.190
  24093978.981   126614577.971 7     -3707.306    24093986.466    98660675.61347
     -2888.817
  21088966.107   110823331.180 9      -688.876    21088965.002    86355870.34149
      -536.787
  22834049.339   119993671.367 8     -2880.503    22834052.871    93501556.01348
     -2244.551
  22407673.529   117753047.017 8     -2557.031    22407674.036    91755588.98547
     -1992.496
  22999611.500   120863809.179 7      3093.679    22999613.059    94179630.24145
      2410.661
  20342348.629   106899743.267 9       641.146    20342347.014    83298501.98648
       499.594
  20943246.753   110057596.109 9      1413.702    20943248.288    85759211.00449
      1101.587
 23 11  9 10 42 30.0000000  0  8G05G06G07G09G11G13G20G30
  22020891.438   115720573.610 8      2744.436    22020891.590    90171880.13447
      2138.522
  24115150.055   126725831.857 7     -3709.432    24115157.602    98747366.73547
     -2890.473
  21092942.111   110844225.143 9      -704.019    21092941.020    86372151.33949
      -548.586
  22850507.272   120080157.863 8     -2885.364    22850510.840    93568947.95948
     -2248.340
  22422311.224   117829968.253 8     -2570.990    22422311.780    91815527.48247
     -2003.374
  22981967.427   120771089.356 7      3087.486    22981968.941    94107381.11544
      2405.835
  20338740.020   106880779.841 9       623.097    20338738.407    83283725.27648
       485.529
  20935222.508   110015428.501 9      1397.493    20935224.060    85726353.14249
      1088.957
 23 11  9 10 43  0.0000000  0  8G05G06G07G09G11G13G20G30
  22005253.905   115638397.822 8      2733.749    22005254.048    90107847.07147
      2130.194
  24136333.157   126837148.903 7     -3711.598    24136340.750    98834107.07147
     -2892.161
  21097003.667   110865568.667 9      -718.869    21097002.593    86388782.63849
      -560.159
  22866993.289   120166791.994 8     -2890.188    22866996.898    93636454.95348
     -2252.099
  22437027.274   117907301.181 8     -2584.525    22437027.903    91875786.75747
     -2013.921
  22964355.678   120678539.766 7      3082.174    22964357.173    94035264.68445
      2401.697
  20335233.883   106862354.906 9       605.266    20335232.275    83269368.16848
       471.635
  20927290.110   109973743.524 9      1381.546    20927291.677    85693871.35649
      1076.530
 23 11  9 10 43 30.0000000  0  8G05G06G07G09G11G13G20G30
  21989678.260   115556547.326 8      2722.850    21989678.392    90044067.50348
      2121.702
  24157527.723   126948526.208 7     -3713.494    24157535.356    98920894.37147
     -2893.639
  21101150.497   110887360.329 9      -733.754    21101149.438    86405763.14049
      -571.757
  22883507.234   120253572.836 8     -2894.966    22883510.891    93704076.25348
     -2255.824
  22451821.132   117985043.033 8     -2598.257    22451821.836    91936364.69247
     -2024.620
  22946776.516   120586161.411 7      3076.785    22946778.040    93963281.65745
      2397.498
  20331830.483   106844469.840 9       587.324    20331828.876    83255431.73648
       457.655
  20919449.698   109932541.967 9      1365.462    20919451.275    85661766.27449
      1063.998
 23 11  9 10 44  0.0000000  0  8G05G06G07G09G11G13G20G30
  21974165.330   115475026.381 8      2711.746    21974165.460    89980544.71947
      2113.051
  24178733.566   127059962.643 7     -3715.853    24178741.236    99007727.71347
     -2895.478
  21105382.746   110909600.880 9      -748.837    21105381.701    86423093.42749
      -583.510
  22900049.232   120340501.128 8     -2900.072    22900052.942    93771812.45648
     -2259.801
  22466692.623   118063192.817 8     -2611.805    22466693.395    91997260.49747
     -2035.176
  22929230.428   120493956.824 8      3070.354    22929231.986    93891434.03145
      2392.485
  20328530.327   106827127.279 9       569.043    20328528.715    83241918.03648
       443.409
  20911701.745   109891826.226 9      1348.968    20911703.332    85630039.73649
      1051.145
 23 11  9 10 44 30.0000000  0  8G05G06G07G09G11G13G20G30
  21958714.789   115393833.253 8      2701.115    21958714.922    89917277.36847
      2104.766
  24199949.383   127171451.479 6     -3717.029    24199957.078    99094601.89147
     -2896.395
  21109699.532   110932285.701 9      -763.456    21109698.499    86440769.90349
      -594.900
  22916618.386   120427572.189 8     -2904.578    22916622.155    93839659.91548
     -2263.311
  22481640.509   118141744.005 8     -2624.824    22481641.350    92058469.07247
     -2045.321
  22911716.927   120401923.188 8      3064.927    22911718.497    93819719.57845
      2388.258
  20325332.890   106810324.519 9       551.102    20325331.264    83228824.97248
       429.431
  20904045.665   109851593.309 9      1333.147    20904047.262    85598689.43049
      1038.817
 23 11  9 10 45  0.0000000  0  8G05G06G07G09G11G13G20G30
  21943327.957   115312974.892 9      2689.574    21943328.084    89854270.86947
      2095.773
  24221175.521   127282994.449 6     -3718.730    24221183.231    99181518.23146
     -2897.723
  21114101.467   110955417.944 9      -778.601    21114100.446    86458795.00949
      -606.702
  22933215.407   120514789.621 8     -2909.867    22933219.252    93907621.39748
     -2267.434
  22496665.097   118220698.275 8     -2638.708    22496666.009    92119991.73847
     -2056.141
  22894237.013   120310065.788 8      3058.833    22894238.572    93748142.41845
      2383.506
  20322239.302   106794067.476 9       532.660    20322237.667    83216157.13648
       415.060
  20896482.438   109811848.341 9      1316.636    20896484.048    85567719.34149
      1025.950
 23 11  9 10 45 30.0000000  0  8G05G06G07G09G11G13G20G30
  21928004.937   115232451.923 8      2678.736    21928005.048    89791525.72747
      2087.328
  24242410.984   127394586.362 6     -3720.346    24242418.709    99268472.69046
     -2898.980
  21118587.915   110978994.361 9      -792.908    21118586.900    86477166.23949
      -617.851
  22949839.650   120602150.232 8     -2914.006    22949843.555    93975694.48148
     -2270.657
  22511765.434   118300050.585 8     -2651.430    22511766.419    92181824.56348
     -2066.055
  22876790.384   120218383.344 8      3053.389    22876791.914    93676701.61845
      2379.265
  20319249.308   106778354.925 8       514.916    20319247.663    83203913.59648
       401.234
  20889011.753   109772589.757 9      1300.739    20889013.377    85537128.26849
      1013.563
 23 11  9 10 46  0.0000000  0  8G05G06G07G09G11G13G20G30
  21912746.325   115152267.376 8      2667.395    21912746.416    89729044.27647
      2078.490
  24263655.374   127506225.279 6     -3722.325    24263663.111    99355463.78846
     -2900.522
  21123158.855   111003014.740 9      -807.768    21123157.844    86495883.40249
      -629.429
  22966491.128   120689653.882 8     -2918.935    22966495.080    94043879.01548
     -2274.498
  22526941.139   118379798.925 8     -2664.381    22526942.204    92243965.97547
     -2076.146
  22859377.324   120126877.317 8      3047.494    22859378.828    93605398.30045
      2374.673
  20316363.285   106763188.761 9       496.697    20316361.637    83192095.80248
       387.037
  20881633.907   109733819.007 9      1284.459    20881635.544    85506917.31449
      1000.878
 23 11  9 10 46 30.0000000  0  8G05G06G07G09G11G13G20G30
  21897552.588   115072423.836 8      2656.021    21897552.655    89666828.55347
      2069.628
  24284908.215   127617908.577 6     -3723.076    24284915.964    99442489.46246
     -2901.107
  21127814.090   111027478.096 9      -822.606    21127813.080    86514945.74849
      -640.992
  22983169.738   120777300.065 8     -2923.693    22983173.712    94112174.61348
     -2278.207
  22542191.748   118459940.880 8     -2677.699    22542192.888    92306414.11147
     -2086.524
  22841998.143   120035549.231 8      3041.513    22841999.626    93534233.61445
      2370.012
  20313581.518   106748570.498 9       478.279    20313579.866    83180704.94548
       372.685
  20874349.090   109695537.114 9      1268.114    20874350.730    85477087.28649
       988.142
 23 11  9 10 47  0.0000000  0  8G05G06G07G09G11G13G20G30
  21882424.365   114992924.663 8      2644.514    21882424.418    89604881.17447
      2060.660
  24306169.114   127729634.152 6     -3724.944    24306176.875    99529548.06746
     -2902.560
  21132553.506   111052383.806 9      -837.288    21132552.493    86534352.78049
      -652.433
  22999875.403   120865088.425 8     -2928.453    22999879.390    94180580.99848
     -2281.915
  22557516.841   118540474.275 8     -2690.753    22557518.054    92369167.27347
     -2096.696
  22824653.071   119944400.465 8      3035.445    22824654.538    93463208.66545
      2365.283
  20310904.307   106734501.672 8       460.041    20310902.654    83169742.21448
       358.473
  20867157.540   109657745.329 9      1251.819    20867159.181    85447639.15649
       975.444
 23 11  9 10 47 30.0000000  0  8G05G06G07G09G11G13G20G30
  21867361.800   114913770.584 8      2632.667    21867361.862    89543202.69648
      2051.430
  24327437.246   127841397.739 7     -3725.860    24327445.020    99616636.29847
     -2903.276
  21137376.688   111077729.707 9      -852.161    21137375.666    86554102.81849
      -664.021
  23016607.713   120953016.840 8     -2933.200    23016611.698    94249096.52748
     -2285.613
  22572915.644   118621394.997 8     -2703.903    22572916.920    92432222.24847
     -2106.943
  22807342.041   119853430.632 8      3029.264    22807343.499    93392323.13745
      2360.467
  20308331.653   106720982.345 9       441.475    20308330.004    83159207.66948
       344.007
  20860059.136   109620442.999 9      1235.314    20860060.771    85418572.41549
       962.584
 23 11  9 10 48  0.0000000  0  8G05G06G07G09G11G13G20G30
  21852365.396   114834964.283 8      2621.564    21852365.480    89481795.22748
      2042.778
  24348712.102   127953196.501 7     -3726.578    24348719.895    99703751.90747
     -2903.837
  21142283.494   111103515.020 9      -866.190    21142282.457    86574195.24849
      -674.954
  23033366.508   121041084.300 7     -2937.278    23033370.509    94317720.36547
     -2288.795
  22588387.580   118702700.107 8     -2715.979    22588388.938    92495576.74847
     -2116.351
  22790065.243   119762640.806 8      3023.835    22790066.708    93321577.88746
      2356.237
  20305863.758   106708013.506 9       423.666    20305862.124    83149102.06848
       330.130
  20853053.982   109583630.658 9      1219.482    20853055.601    85389887.48149
       950.247
 23 11  9 10 48 30.0000000  0  8G05G06G07G09G11G13G20G30
  21837435.556   114756507.725 8      2609.399    21837435.672    89420660.27248
      2033.298
  24369993.071   128065027.400 7     -3728.533    24370000.890    99790892.56047
     -2905.361
  21147273.472   111129737.387 9      -881.375    21147272.418    86594628.23449
      -686.787
  23050151.552   121129289.708 8     -2942.505    23050155.584    94386451.68348
     -2292.869
  22603932.082   118784386.588 8     -2729.098    22603933.517    92559228.42748
     -2126.575
  22772822.796   119672031.459 8      3017.365    22772824.279    93250973.26546
      2351.196
  20303500.730   106695595.746 9       404.619    20303499.111    83139425.88348
       315.287
  20846142.144   109547308.673 9      1202.500    20846143.738    85361584.64149
       937.014
 23 11  9 10 49  0.0000000  0  8G05G06G07G09G11G13G20G30
  21822572.648   114678402.882 8      2597.511    21822572.788    89359799.38848
      2024.035
  24391279.573   128176887.386 7     -3729.240    24391287.429    99878055.87247
     -2905.912
  21152346.399   111156395.683 9      -895.967    21152345.331    86615400.91049
      -698.156
  23066962.616   121217631.999 8     -2946.979    23066966.681    94455289.70348
     -2296.350
  22619548.574   118866451.429 8     -2741.762    22619550.083    92623174.94547
     -2136.440
  22755614.817   119581603.231 8      3011.255    22755616.312    93180509.78345
      2346.436
  20301242.749   106683730.000 9       386.262    20301241.137    83130179.84748
       300.983
  20839323.687   109511477.429 9      1186.205    20839325.242    85333664.20649
       924.316
 23 11  9 10 49 30.0000000  0  8G05G06G07G09G11G13G20G30
  21807777.101   114600651.936 8      2585.758    21807777.261    89299214.25648
      2014.877
  24412570.948   128288772.963 7     -3730.053    24412578.856    99965239.11447
     -2906.545
  21157501.926   111183487.979 9      -910.313    21157500.856    86636511.74749
      -709.337
  23083799.430   121306109.578 8     -2951.471    23083803.521    94524233.15548
     -2299.851
  22635236.411   118948891.046 8     -2754.284    22635237.997    92687413.47147
     -2146.200
  22738441.438   119491356.571 8      3005.053    22738442.926    93110187.73445
      2341.603
  20299089.902   106672416.639 9       367.863    20299088.289    83121364.23148
       286.646
  20832598.607   109476136.798 9      1169.758    20832600.118    85306126.04849
       911.500
 23 11  9 10 50  0.0000000  0  9G05G06G07G09G11G13G14G20G30
  21793049.579   114523258.438 8      2573.581    21793049.752    89238907.65447
      2005.389
  24433866.902   128400682.740 7     -3731.195    24433874.861   100052441.23847
     -2907.436
  21162740.113   111211014.674 9      -924.998    21162739.039    86657961.08149
      -720.779
  23100662.112   121394722.937 8     -2956.277    23100666.234    94593282.38448
     -2303.597
  22650995.283   119031703.947 8     -2766.823    22650996.949    92751942.85847
     -2155.972
  22721303.026   119401293.716 8      2998.804    22721304.492    93040008.93745
      2336.732
  24698651.328   129792296.795 5      3409.518    24698659.024   101136876.78245
      2656.781
  20297042.611   106661657.921 9       349.152    20297040.991    83112980.80048
       272.066
  20825967.240   109441288.695 9      1153.073    20825968.704    85278971.69249
       898.499
 23 11  9 10 50 30.0000000  0  9G05G06G07G09G11G13G14G20G30
  21778391.810   114446231.423 8      2561.733    21778391.991    89178886.61048
      1996.155
  24455168.182   128512620.403 6     -3731.249    24455176.197   100139665.06446
     -2907.478
  21168062.005   111238981.232 9      -939.267    21168060.933    86679753.15949
      -731.897
  23117551.719   121483477.777 8     -2960.650    23117555.878    94662441.85448
     -2307.007
  22666825.888   119114893.854 8     -2778.864    22666827.621    92816766.03447
     -2165.354
  22704200.949   119311421.810 8      2992.854    22704202.392    92969978.94445
      2332.096
  24679189.093   129690024.627 6      3409.338    24679196.981   101057184.47846
      2656.634
  20295102.310   106651461.431 9       330.835    20295100.688    83105035.46348
       257.793
  20819430.945   109406940.214 9      1136.926    20819432.372    85252206.64849
       885.916
 23 11  9 10 51  0.0000000  0  9G05G06G07G09G11G13G14G20G30
  21763801.552   114369559.171 8      2549.738    21763801.735    89119142.00648
      1986.810
  24476471.498   128624568.858 6     -3732.254    24476479.561   100226897.32046
     -2908.261
  21173464.653   111267372.171 9      -953.557    21173463.592    86701875.91949
      -743.033
  23134465.326   121572358.809 8     -2964.844    23134469.544    94731699.65448
     -2310.272
  22682724.944   119198443.498 8     -2791.037    22682726.737    92881869.52547
     -2174.837
  22687132.669   119221727.503 8      2986.700    22687134.090    92900087.34646
      2327.302
  24659727.058   129587750.727 5      3408.766    24659734.748   100977490.84245
      2656.195
  20293266.419   106641813.656 9       312.292    20293264.796    83097517.70048
       243.345
  20812987.077   109373077.467 9      1120.439    20812988.474    85225820.09849
       873.070
 23 11  9 10 51 30.0000000  0  9G05G06G07G09G11G13G14G20G30
  21749281.334   114293255.034 8      2537.580    21749281.517    89059684.26348
      1977.336
  24497778.428   128736536.282 5     -3732.308    24497786.542   100314144.35145
     -2908.303
  21178949.872   111296197.023 9      -967.801    21178948.827    86724336.79249
      -754.132
  23151404.882   121661376.288 8     -2969.298    23151409.162    94801063.78848
     -2313.744
  22698694.014   119282361.049 8     -2803.104    22698695.858    92947259.69647
     -2184.240
  22670100.442   119132222.736 7      2980.405    22670101.847    92830343.45546
      2322.397
  24640267.275   129485488.953 6      3408.703    24640274.811   100897806.56245
      2656.139
  20291537.260   106632726.799 9       293.828    20291535.644    83090437.01548
       228.956
  20806637.842   109339712.054 9      1104.242    20806639.212    85199821.08549
       860.449
 23 11  9 10 52  0.0000000  0  9G05G06G07G09G11G13G14G20G30
  21734830.497   114217315.489 8      2525.318    21734830.683    89000510.62248
      1967.782
  24519087.445   128848514.501 5     -3732.646    24519095.627   100401399.73945
     -2908.564
  21184516.376   111325448.994 9      -981.930    21184515.354    86747130.47449
      -765.143
  23168369.176   121750523.739 8     -2973.607    23168373.513    94870529.18948
     -2317.103
  22714731.487   119366638.091 8     -2814.956    22714733.356    93012930.01247
     -2193.475
  22653103.382   119042902.882 7      2974.630    22653104.786    92760743.65746
      2317.896
  24620809.358   129383236.607 6      3408.505    24620816.621   100818129.60545
      2655.983
  20289913.927   106624196.113 9       275.305    20289912.326    83083789.71748
       214.522
  20800382.283   109306838.914 9      1087.857    20800383.635    85174205.65649
       847.682
 23 11  9 10 52 30.0000000  0  9G05G06G07G09G11G13G14G20G30
  21720449.720   114141744.135 8      2513.009    21720449.908    88941623.89248
      1958.191
  24540398.061   128960501.185 6     -3732.946    24540406.281   100488661.74745
     -2908.801
  21190164.038   111355127.543 9      -996.168    21190163.034    86770256.57949
      -776.237
  23185358.182   121839800.993 8     -2978.256    23185362.571    94940095.72348
     -2320.724
  22730836.961   119451272.398 8     -2826.958    22730838.829    93078878.71446
     -2202.827
  22636141.883   118953770.010 8      2968.233    22636143.303    92691289.55645
      2312.912
  24601354.046   129280997.228 6      3407.842    24601360.989   100738462.73345
      2655.467
  20288396.737   106616223.202 9       256.532    20288395.157    83077577.04548
       199.896
  20794220.611   109274459.183 9      1071.106    20794221.955    85148974.69849
       834.629
 23 11  9 10 53  0.0000000  0  9G05G06G07G09G11G13G14G20G30
  21706139.512   114066543.571 8      2500.164    21706139.703    88883026.08148
      1948.180
  24561709.855   129072494.297 6     -3733.645    24561718.073   100575928.83846
     -2909.342
  21195892.810   111385232.232 9     -1010.839    21195891.833    86793714.71749
      -787.669
  23202371.858   121929207.825 8     -2982.742    23202376.285    95009763.22348
     -2324.221
  22747010.000   119536261.697 8     -2839.074    22747011.859    93145104.02547
     -2212.270
  22619216.135   118864825.096 8      2961.340    22619217.574    92621981.92245
      2307.540
  24581901.787   129178774.157 7      3406.896    24581908.428   100658808.58346
      2654.729
  20286985.993   106608809.632 9       237.475    20286984.437    83071800.21748
       185.044
  20788153.028   109242573.932 9      1054.315    20788154.367    85124129.05749
       821.545
 23 11  9 10 53 30.0000000  0  9G05G06G07G09G11G13G14G20G30
  21691900.866   113991719.133 8      2487.633    21691901.059    88824721.36948
      1938.417
  24583022.883   129184493.830 7     -3733.679    24583031.074   100663200.93447
     -2909.369
  21201702.910   111415764.314 9     -1024.992    21201701.951    86817505.89549
      -798.697
  23219410.545   122018746.076 8     -2986.920    23219414.997    95079533.13648
     -2327.476
  22763250.561   119621605.820 8     -2850.798    22763252.414    93211605.81646
     -2221.405
  22602326.871   118776071.872 8      2955.007    22602328.329    92552823.65645
      2302.604
  24562453.651   129076573.069 7      3406.070    24562460.060   100579171.52846
      2654.085
  20285682.374   106601959.034 9       218.841    20285680.836    83066462.08248
       170.525
  20782180.149   109211186.370 9      1037.696    20782181.490    85099671.22649
       808.595
 23 11  9 10 54  0.0000000  0  8G05G07G09G11G13G14G20G30
  21677734.377   113917273.852 8      2475.121    21677734.582    88766712.09248
      1928.668
  21207594.216   111446723.131 9     -1039.251    21207593.267    86841629.59149
      -809.808
  23236474.182   122108415.410 8     -2991.251    23236478.665    95149405.17748
     -2330.850
  22779558.165   119707302.229 8     -2862.513    22779560.025    93278382.11047
     -2230.533
  22585474.372   118687511.696 8      2948.937    22585475.829    92483815.79745
      2297.877
  24543010.175   128974397.000 6      3405.368    24543016.433   100499554.02945
      2653.541
  20284486.080   106595672.348 9       199.972    20284484.555    83061563.34448
       155.822
  20776302.127   109180297.258 9      1021.200    20776303.476    85075601.79349
       795.741
 23 11  9 10 54 30.0000000  0  8G05G07G09G11G13G14G20G30
  21663639.908   113843207.044 8      2462.354    21663640.121    88708997.73348
      1918.719
  21213565.907   111478104.377 9     -1053.268    21213564.965    86866082.45449
      -820.730
  23253562.053   122198212.116 8     -2995.507    23253566.582    95219376.45848
     -2334.168
  22795931.708   119793345.243 8     -2874.025    22795933.578    93345428.49547
     -2239.505
  22568658.293   118599142.810 8      2942.140    22568659.726    92414956.98546
      2292.577
  24523571.415   128872246.257 6      3404.662    24523577.601   100419956.23045
      2652.992
  20283396.797   106589948.030 8       181.344    20283395.276    83057102.82048
       141.307
  20770518.525   109149904.298 9      1004.656    20770519.878    85051918.97149
       782.849
 23 11  9 10 55  0.0000000  0  8G05G07G09G11G13G14G20G30
  21649617.603   113769519.439 8      2449.775    21649617.820    88651578.85348
      1908.917
  21219617.466   111509905.324 9     -1067.159    21219616.533    86890862.35649
      -831.555
  23270673.663   122288133.603 8     -2999.484    23270678.231    95289444.98548
     -2337.266
  22812370.336   119879730.230 8     -2885.335    22812372.231    93412741.33547
     -2248.317
  22551878.400   118510964.150 8      2935.921    22551879.783    92346246.44046
      2287.733
  24504137.556   128770121.774 6      3403.522    24504143.701   100340378.96246
      2652.103
  20282414.310   106584784.926 9       162.711    20282412.785    83053079.60148
       126.786
  20764829.088   109120006.129 9       988.229    20764830.437    85028621.69649
       770.048
 23 11  9 10 55 30.0000000  0  8G05G07G09G11G13G14G20G30
  21635668.320   113696215.549 8      2437.401    21635668.536    88594458.96948
      1899.275
  21225749.015   111542126.658 9     -1080.741    21225748.088    86915969.84449
      -842.137
  23287809.291   122378181.232 8     -3003.498    23287813.892    95359611.80948
     -2340.395
  22828873.864   119966456.342 8     -2896.270    22828875.790    93480320.00147
     -2256.838
  22535135.313   118422978.868 8      2929.762    22535136.648    92277686.57845
      2282.935
  24484709.675   128668028.584 6      3402.980    24484715.825   100260826.02245
      2651.678
  20281539.201   106580186.155 9       144.084    20281537.669    83049496.13148
       112.272
  20759234.286   109090605.235 9       971.967    20759235.620    85005711.91149
       757.376
 23 11  9 10 56  0.0000000  0  8G05G07G09G11G13G14G20G30
  21621792.683   113623298.621 8      2424.663    21621792.897    88537640.60448
      1889.349
  21231960.429   111574767.662 9     -1094.664    21231959.511    86941404.34149
      -852.987
  23304968.896   122468354.853 7     -3007.166    23304973.551    95429876.79447
     -2343.251
  22845441.912   120053521.392 8     -2907.375    22845443.879    93548162.74947
     -2265.492
  22518429.316   118335188.490 8      2923.722    22518430.609    92209278.58546
      2278.229
  24465288.351   128565970.133 7      3401.530    24465294.450   100181300.23746
      2650.553
  20280771.703   106576152.884 9       125.350    20280770.162    83046353.30648
        97.675
  20753734.334   109061702.742 9       955.471    20753735.646    84983190.48849
       744.522
 23 11  9 10 56 30.0000000  0  8G05G07G09G11G13G14G20G30
  21607990.851   113550769.572 8      2411.069    21607991.065    88481124.48348
      1878.756
  21238251.146   111607825.419 9     -1108.896    21238250.238    86967163.58149
      -864.076
  23322151.972   122558651.841 8     -3011.787    23322156.700    95500237.89747
     -2346.854
  22862073.548   120140920.564 8     -2918.899    22862075.560    93616265.84547
     -2274.473
  22501760.273   118247592.304 8      2916.512    22501761.527    92141021.91146
      2272.609
  24445873.943   128463947.490 6      3400.006    24445879.952   100101802.26845
      2649.362
  20280111.641   106572684.190 9       106.161    20280110.092    83043650.41148
        82.722
  20748328.937   109033297.103 9       938.611    20748330.224    84961056.21949
       731.386
 23 11  9 10 57  0.0000000  0  8G05G07G09G11G13G14G20G30
  21594263.200   113478630.419 8      2398.164    21594263.412    88424912.18448
      1868.700
  21244620.906   111641298.626 9     -1122.664    21244620.005    86993246.56049
      -874.805
  23339358.349   122649071.495 8     -3016.084    23339363.122    95570694.64748
     -2350.199
  22878768.231   120228651.111 8     -2929.942    22878770.288    93684627.16347
     -2283.075
  22485128.354   118160191.300 8      2910.306    22485129.575    92072917.34746
      2267.775
  24426466.900   128361963.647 7      3398.813    24426472.758   100022334.59645
      2648.435
  20279559.216   106569781.138 9        87.305    20279557.661    83041388.27848
        68.029
  20743018.182   109005388.863 9       921.981    20743019.440    84939309.54749
       718.428
 23 11  9 10 57 30.0000000  0  8G05G07G09G11G13G14G20G30
  21580609.997   113406882.529 8      2385.031    21580610.213    88369004.76448
      1858.467
  21251069.261   111675184.826 9     -1136.347    21251068.372    87019651.34349
      -885.466
  23356587.742   122739611.856 7     -3019.964    23356592.542    95641245.41947
     -2353.223
  22895525.192   120316708.902 8     -2940.659    22895527.297    93753243.46447
     -2291.428
  22468533.506   118072985.095 8      2903.646    22468534.708    92004964.56546
      2262.585
  24407067.657   128260020.350 6      3397.714    24407073.367    99942898.46145
      2647.575
  20279114.365   106567443.383 8        68.438    20279112.813    83039566.63248
        53.329
  20737801.926   108977977.166 9       905.561    20737803.157    84917949.77449
       705.632
 23 11  9 10 58  0.0000000  0  8G05G07G09G11G13G14G20G30
  21567033.048   113335535.409 8      2371.875    21567033.266    88313409.64048
      1848.216
  21257597.307   111709489.858 9     -1150.284    21257596.433    87046382.49549
      -896.326
  23373841.344   122830279.338 7     -3024.199    23373846.181    95711895.20647
     -2356.527
  22912345.242   120405098.265 8     -2951.578    22912347.403    93822118.12647
     -2299.937
  22451977.326   117985982.063 8      2897.171    22451978.526    91937170.08046
      2257.538
  24387677.970   128158127.587 7      3395.857    24387683.543    99863501.75545
      2646.128
  20278778.537   106565678.550 8        49.574    20278777.000    83038191.41648
        38.628
  20732681.593   108951069.582 9       888.747    20732682.799    84896982.82449
       692.529
 23 11  9 10 58 30.0000000  0  8G05G07G09G11G13G14G20G30
  21553531.504   113264584.497 8      2358.120    21553531.721    88258123.24048
      1837.497
  21264203.511   111744205.589 9     -1164.276    21264202.656    87073433.66749
      -907.230
  23391117.601   122921066.090 8     -3028.379    23391122.482    95782637.96448
     -2359.781
  22929226.458   120493809.155 8     -2962.477    22929228.689    93891243.33347
     -2308.429
  22435458.605   117899175.985 8      2889.942    22435459.807    91869529.07746
      2251.907
  24368297.191   128056281.342 5      3393.353    24368302.640    99784141.24645
      2644.184
  20278550.511   106564480.239 9        30.203    20278548.997    83037257.64448
        23.534
  20727655.896   108924659.366 9       871.831    20727657.090    84876403.43749
       679.349
 23 11  9 10 59  0.0000000  0  8G05G07G09G11G13G14G20G30
  21540105.514   113194030.596 9      2345.468    21540105.719    88203146.20348
      1827.638
  21270887.365   111779329.379 9     -1177.231    21270886.527    87100802.81349
      -917.324
  23408416.146   123011969.900 8     -3031.711    23408421.064    95853471.94048
     -2362.377
  22946168.027   120582837.225 7     -2972.690    22946170.329    93960615.69147
     -2316.387
  22418977.236   117812566.232 8      2884.029    22418978.446    91802041.05646
      2247.300
  24348925.487   127954482.918 7      3392.963    24348930.886    99704817.95045
      2643.869
  20278430.153   106563847.717 9        12.086    20278428.657    83036764.74748
         9.416
  20722724.617   108898745.346 9       855.889    20722725.808    84856210.69449
       666.927
