     2.11           OBSERVATION DATA    G (GPS)             RINEX VERSION / TYPE
teqc  2019Feb25                         20231109 19:42:08UTCPGM / RUN BY / DATE
Linux 2.6.32-573.12.1.x86_64|x86_64|gcc|Linux 64|=+         COMMENT
teqc  2019Feb25                         20231109 19:42:07UTCCOMMENT
     2.11           OBSERVATION DATA    M (MIXED)           COMMENT
teqc  2019Feb25     IGN-RGP             20231109 09:02:28UTCCOMMENT
teqc  2019Feb25     Administrateur RGP  20231109 09:02:28UTCCOMMENT
teqc  2019Feb25     IGN-RGP             20231109 09:02:26UTCCOMMENT
teqc  2019Feb25     IGN-RGP             20231109 09:02:25UTCCOMMENT
BIT 2 OF LLI FLAGS DATA COLLECTED UNDER A/S CONDITION       COMMENT
MLVL                                                        MARKER NAME
10092M001                                                   MARKER NUMBER
Automatic           IGN                                     OBSERVER / AGENCY
2090132             LEICA GR50          4.51                REC # / TYPE / VERS
5411118464          TRM57971.00     NONE                    ANT # / TYPE
  4201577.2080   189859.8580  4779064.5580                  APPROX POSITION XYZ
        0.0750        0.0000        0.0000                  ANTENNA: DELTA H/E/N
     1     1                                                WAVELENGTH FACT L1/2
    21    L1    L2    C1    P1    P2    D1    D2    S1    S2# / TYPES OF OBSERV
          L5    C5    D5    S5    L7    C7    D7    S7    L8# / TYPES OF OBSERV
          C8    D8    S8                                    # / TYPES OF OBSERV
    30.0000                                                 INTERVAL
DefaultJobName                                              COMMENT
DefaultUserDiscription                                      COMMENT
Project creator:                                            COMMENT
 SNR is mapped to RINEX snr flag value [0-9]                COMMENT
  L1 & L2: min(max(int(snr_dBHz/6), 0), 9)                  COMMENT
    18                                                      LEAP SECONDS
Forced Modulo Decimation to 30 seconds                      COMMENT
teqc_2019 edited: all GLONASS satellites excluded           COMMENT
teqc_2019 edited: all SBAS satellites excluded              COMMENT
teqc_2019 edited: all Galileo satellites excluded           COMMENT
  2023    11     9     8     0    0.0000000     GPS         TIME OF FIRST OBS
                                                            END OF HEADER
 23 11  9  8  0  0.0000000  0 11G03G04G06G07G09G11G17G19G20G26G31
 119990807.856 7  93499329.90447  22833494.580                    22833496.380
     -2903.487       -2262.461          46.800          46.850    89603533.294 8
  22833498.660       -2168.187          49.200


 108751105.356 8  84741135.69548  20694648.340                    20694648.060
     -1477.832       -1151.558          49.050          48.800    81210262.081 9
  20694652.620       -1103.603          55.150


 108837126.608 8  84808144.41848  20711020.320                    20711021.060
       989.731         771.219          51.650          51.550    81274481.278 9
  20711022.740         739.074          55.450


 127223409.717 7  99135153.81347  24209801.340                    24209803.700
      3320.438        2587.357          43.500          43.600



 106439444.140 8  82939838.19148  20254751.220                    20254751.160
       785.617         612.169          52.450          52.450    79484015.795 9
  20254752.920         586.694          56.900


 121455491.581 7  94640651.38347  23112216.340                    23112215.020
      3013.685        2348.322          47.250          43.300    90697305.103 8
  23112220.120        2250.525          49.500


 128270525.108 7  99951031.34447  24409082.580                    24409084.280
     -3204.406       -2496.946          42.700          42.850



 121601922.474 7  94754727.06946  23140083.840                    23140081.880
     -3089.591       -2407.476          44.750          41.400



 131196875.857 6 102231330.69846  24965939.280                    24965936.780
      3308.870        2578.334          41.350          37.350



 132024185.947 6 102876009.63645  25123363.440                    25123370.100
      1480.653        1153.759          36.750          35.350    98589522.387 6
  25123372.120        1105.837          41.550


 128817341.326 7 100377134.54447  24513132.720                    24513132.780
     -2911.472       -2268.683          44.200          44.400



 23 11  9  8  0 30.0000000  0 11G03G04G06G07G09G11G17G19G20G26G31
 120077998.853 7  93567270.83447  22850086.620                    22850088.260
     -2909.524       -2267.166          46.250          46.250    89668643.324 8
  22850090.780       -2172.646          49.400


 108795651.498 8  84775846.93848  20703125.220                    20703124.900
     -1492.047       -1162.635          48.950          48.950    81243527.005 9
  20703129.500       -1114.249          55.050


 108807705.892 8  84785219.16948  20705421.760                    20705422.520
       971.356         756.900          51.400          51.450    81252511.236 9
  20705424.100         725.371          55.300


 127123837.006 7  99057564.73847  24190853.380                    24190855.560
      3317.664        2585.194          44.250          44.250



 106416117.379 8  82921661.49848  20250312.260                    20250312.180
       769.279         599.438          52.350          52.250    79466596.466 9
  20250313.960         574.425          56.800


 121365223.194 7  94570312.34747  23095038.900                    23095037.640
      3004.233        2340.960          47.000          44.250    90629896.866 8
  23095042.660        2243.146          49.400


 128366680.596 7 100025957.46747  24427380.560                    24427382.100
     -3206.068       -2498.242          42.500          42.400



 121694755.088 7  94827064.03346  23157749.300                    23157747.380
     -3099.535       -2415.227          44.250          41.850



 131097603.705 6 102153975.63946  24947048.440                    24947045.960
      3309.059        2578.483          41.350          36.000



 131979973.181 5 102841558.25345  25114949.620                    25114957.220
      1466.689        1142.885          34.850          33.900    98556506.525 6
  25114958.800        1095.035          40.750


 128904876.953 7 100445343.96847  24529790.200                    24529790.380
     -2924.315       -2278.693          44.000          44.200



 23 11  9  8  1  0.0000000  0 11G03G04G06G07G09G11G17G19G20G26G31
 120165366.069 7  93635349.07447  22866712.200                    22866713.800
     -2915.092       -2271.504          46.400          46.200    89733884.951 8
  22866716.480       -2176.840          50.050


 108840619.761 8  84810887.11148  20711682.440                    20711682.140
     -1505.843       -1173.385          49.400          49.150    81277107.162 9
  20711686.700       -1124.484          55.300


 108778832.533 8  84762720.42948  20699927.340                    20699928.160
       953.358         742.876          52.050          52.050    81230949.941 9
  20699929.700         711.971          55.600


 127024345.729 7  98980039.11747  24171920.940                    24171922.900
      3315.067        2583.171          44.750          44.750



 106393279.245 8  82903865.54548  20245966.360                    20245966.220
       753.280         586.972          53.000          52.950    79449542.013 9
  20245967.920         562.482          57.100


 121275246.776 7  94500200.82047  23077917.020                    23077915.640
      2994.317        2333.233          47.650          43.300    90562706.631 8
  23077920.780        2236.126          49.850


 128462880.815 7 100100918.44347  24445687.000                    24445688.600
     -3207.147       -2499.084          42.800          43.100



 121787882.254 7  94899630.50947  23175470.840                    23175469.020
     -3108.904       -2422.529          44.500          42.250



 130998328.911 7 102076618.50446  24928157.140                    24928154.560
      3309.285        2578.658          42.700          36.600



 131936195.178 6 102807445.65546  25106618.560                    25106626.600
      1451.698        1131.197          37.500          36.550    98523815.279 6
  25106628.080        1084.399          41.900


 128992799.030 7 100513854.53047  24546521.240                    24546521.460
     -2936.748       -2288.380          44.200          43.600



 23 11  9  8  1 30.0000000  0 11G03G04G06G07G09G11G17G19G20G26G31
 120252907.070 7  93703562.72247  22883370.780                    22883372.500
     -2920.407       -2275.646          46.800          46.850    89799256.332 8
  22883375.280       -2180.785          49.850


 108886006.840 8  84846253.62948  20720319.360                    20720319.120
     -1519.435       -1183.977          49.600          49.350    81311000.074 9
  20720323.560       -1134.578          54.850


 108750506.384 8  84740648.09148  20694537.060                    20694537.860
       935.537         728.989          52.000          52.000    81209797.272 9
  20694539.360         698.692          55.200


 126924937.048 7  98902577.87147  24153004.160                    24153005.960
      3312.829        2581.428          44.200          44.100



 106370928.081 8  82886449.04448  20241713.180                    20241712.960
       737.385         574.585          53.350          53.300    79432851.195 9
  20241714.620         550.709          56.750


 121185563.226 7  94430317.50047  23060850.880                    23060849.540
      2985.148        2326.089          47.900          43.350    90495735.106 8
  23060854.520        2229.172          49.600


 128559120.888 6 100175910.48546  24464001.200                    24464002.480
     -3208.148       -2499.862          41.750          40.850



 121881299.083 7  94972422.71646  23193247.500                    23193245.640
     -3118.342       -2429.882          44.200          40.850



 130899050.708 7 101999258.75846  24909265.240                    24909262.880
      3309.828        2579.082          42.000          37.700



 131892852.310 6 102773672.10846  25098370.620                    25098379.040
      1437.629        1120.232          39.050          40.150    98491448.972 6
  25098380.260        1073.840          41.000


 129081103.487 7 100582663.06347  24563324.940                    24563325.240
     -2949.172       -2298.061          43.900          43.700



 23 11  9  8  2  0.0000000  0 11G03G04G06G07G09G11G17G19G20G26G31
 120340621.232 7  93771911.30147  22900062.300                    22900064.100
     -2926.940       -2280.736          46.400          46.400    89864757.016 8
  22900067.080       -2185.609          50.000


 108931811.119 8  84881945.24248  20729035.700                    20729035.420
     -1533.765       -1195.142          49.550          49.400    81345204.534 9
  20729039.840       -1145.401          55.000


 108722729.008 8  84719003.36348  20689251.200                    20689251.940
       916.708         714.317          51.900          51.900    81189054.414 9
  20689253.520         684.497          55.300


 126825612.986 7  98825182.59447  24134103.360                    24134105.220
      3309.056        2578.489          44.200          44.750



 106349063.954 8  82869412.05448  20237552.620                    20237552.420
       720.646         561.542          53.050          53.100    79416524.084 9
  20237554.060         538.083          56.850


 121096175.252 7  94360664.49847  23043840.940                    23043839.560
      2974.507        2317.796          47.950          43.650    90428984.309 8
  23043844.600        2221.260          49.600


 128655397.917 7 100250931.28747  24482322.280                    24482323.500
     -3210.131       -2501.410          42.650          42.250



 121975001.862 7  95045437.73046  23211078.720                    23211076.800
     -3128.374       -2437.698          44.300          41.500



 130799769.974 7 101921897.07446  24890372.760                    24890370.420
      3309.278        2578.651          42.300          36.800



 131849946.906 6 102740239.43646  25090206.140                    25090214.220
      1422.776        1108.659          39.300          39.100    98459409.347 6
  25090215.480        1062.318          40.850


 129169787.350 7 100651767.22547  24580200.840                    24580201.360
     -2962.545       -2308.480          44.550          44.850



 23 11  9  8  2 30.0000000  0 11G03G04G06G07G09G11G17G19G20G26G31
 120428509.490 7  93840395.53947  22916787.000                    22916788.740
     -2932.222       -2284.852          46.050          46.050    89930387.723 8
  22916791.880       -2189.814          49.550


 108978032.746 8  84917962.06948  20737831.460                    20737831.000
     -1547.433       -1205.792          49.650          49.150    81379720.645 9
  20737835.540       -1155.649          54.700


 108695503.644 8  84697788.77848  20684070.400                    20684071.140
       898.430         700.074          51.700          51.750    81168723.760 9
  20684072.800         670.868          55.200


 126726378.034 7  98747856.76247  24115219.500                    24115221.320
      3306.438        2576.448          44.300          44.000



 106327688.619 8  82852755.93848  20233485.100                    20233484.860
       704.560         549.007          52.950          52.900    79400561.969 9
  20233486.500         526.059          56.650


 121007087.187 7  94291245.18847  23026888.040                    23026886.640
      2964.828        2310.254          47.800          43.550    90362457.466 8
  23026891.700        2213.888          49.450


 128751710.967 7 100325980.18747  24500650.280                    24500651.500
     -3210.756       -2501.896          42.800          42.950



 122068988.823 7  95118674.19046  23228963.960                    23228962.040
     -3137.287       -2444.643          43.800          40.500



 130700489.660 6 101844535.73546  24871480.360                    24871478.160
      3309.374        2578.730          41.600          38.500



 131807483.009 6 102707150.75346  25082125.720                    25082133.440
      1407.935        1097.095          38.750          38.100    98427699.347 6
  25082134.860        1051.534          41.000


 129258849.321 7 100721166.00947  24597148.760                    24597149.420
     -2974.624       -2317.894          43.200          43.400



 23 11  9  8  3  0.0000000  0 11G03G04G06G07G09G11G17G19G20G26G31
 120516568.916 7  93909013.15947  22933544.180                    22933546.140
     -2938.038       -2289.384          45.850          45.600    89996146.246 8
  22933549.200       -2194.002          49.850


 109024667.733 8  84954300.99448  20746705.840                    20746705.320
     -1561.146       -1216.478          49.450          49.200    81414545.439 9
  20746709.800       -1165.842          54.850


 108668829.483 8  84677003.69348  20678994.520                    20678995.200
       880.080         685.776          51.800          51.800    81148804.716 9
  20678996.940         657.205          55.550


 126627232.554 7  98670600.65247  24096352.720                    24096354.300
      3303.514        2574.170          44.650          44.700



 106306799.696 8  82836478.84748  20229510.020                    20229509.840
       688.399         536.414          52.750          52.700    79384963.086 9
  20229511.500         513.981          56.950


 120918299.335 7  94222059.82447  23009992.300                    23009990.840
      2954.756        2302.406          47.950          43.950    90296154.814 8
  23009996.060        2206.441          49.850


 128848055.434 6 100401053.50746  24518984.220                    24518985.880
     -3211.920       -2502.804          41.850          41.700



 122163254.716 7  95192128.00346  23246902.320                    23246900.340
     -3146.640       -2451.931          43.950          40.000



 130601208.432 6 101767173.68846  24852587.900                    24852585.720
      3309.530        2578.852          41.950          38.700



 131765460.348 6 102674405.88146  25074129.120                    25074136.780
      1393.624        1085.943          39.050          38.700    98396318.843 6
  25074138.280        1040.529          41.600


 129348284.751 7 100790855.82647  24614167.840                    24614168.500
     -2987.321       -2327.787          43.000          43.100



 23 11  9  8  3 30.0000000  0 11G03G04G06G07G09G11G17G19G20G26G31
 120604799.153 7  93977763.87947  22950333.860                    22950335.860
     -2944.095       -2294.104          45.400          45.400    90062032.333 8
  22950339.060       -2198.455          49.200


 109071714.862 8  84990961.06848  20755658.680                    20755658.100
     -1575.257       -1227.474          49.700          49.300    81449678.002 9
  20755662.540       -1176.253          54.650


 108642708.396 8  84656649.58348  20674023.840                    20674024.560
       861.308         671.147          51.700          51.700    81129298.684 9
  20674026.340         643.281          55.400


 126528179.705 7  98593416.74147  24077503.540                    24077505.040
      3300.067        2571.486          45.200          45.550



 106286397.617 8  82820581.11148  20225627.580                    20225627.400
       671.867         523.532          52.250          52.000    79369727.754 9
  20225629.140         501.736          56.800


 120829814.756 7  94153110.77547  22993154.280                    22993152.880
      2944.191        2294.176          47.900          43.650    90230078.632 8
  22993158.160        2198.716          49.900


 128944429.043 7 100476149.55947  24537323.720                    24537325.380
     -3213.188       -2503.793          42.550          42.200



 122257796.872 7  95265797.08246  23264893.200                    23264891.480
     -3156.022       -2459.242          43.950          39.250



 130501927.867 6 101689812.14546  24833695.480                    24833693.140
      3309.325        2578.692          41.550          38.050



 131723881.677 6 102642006.96246  25066217.000                    25066224.240
      1378.277        1073.984          38.950          38.250    98365269.900 7
  25066226.120        1029.291          42.200


 129438091.297 7 100860834.81647  24631257.520                    24631258.260
     -2999.965       -2337.641          43.150          43.750



 23 11  9  8  4  0.0000000  0 11G03G04G06G07G09G11G17G19G20G26G31
 120693203.152 7  94046649.98647  22967156.680                    22967158.740
     -2949.380       -2298.222          44.850          44.750    90128048.168 8
  22967161.920       -2202.546          49.350


 109119176.109 8  85027943.83148  20764690.280                    20764689.720
     -1588.594       -1237.866          49.150          49.050    81485119.821 9
  20764694.100       -1186.336          54.850


 108617145.497 8  84636730.41648  20669159.400                    20669160.160
       843.161         657.008          51.350          51.400    81110209.485 9
  20669161.980         629.562          55.600


 126429225.369 7  98516309.58747  24058673.040                    24058674.580
      3297.197        2569.247          44.750          44.700



 106266485.988 8  82805065.54348  20221838.440                    20221838.260
       655.862         511.062          52.150          52.000    79354858.668 9
  20221840.060         489.728          56.900


 120741639.741 7  94084402.94747  22976375.160                    22976373.740
      2934.289        2286.458          47.950          42.750    90164233.635 8
  22976379.140        2191.123          50.200


 129040832.222 6 100551268.61346  24555668.880                    24555670.700
     -3213.410       -2503.966          41.550          41.750



 122352615.461 7  95339681.56646  23282936.620                    23282934.960
     -3164.853       -2466.123          42.850          40.350



 130402652.511 6 101612454.68046  24814804.080                    24814801.940
      3309.373        2578.732          41.950          38.600



 131682752.771 6 102609958.53046  25058390.320                    25058397.580
      1363.903        1062.784          38.550          38.300    98334556.878 7
  25058399.660        1018.219          42.800


 129528270.052 7 100931103.82847  24648418.040                    24648418.900
     -3011.691       -2346.777          43.700          43.900



 23 11  9  8  4 30.0000000  0 11G03G04G06G07G09G11G17G19G20G26G31
 120781775.235 7  94115667.06547  22984011.460                    22984013.480
     -2955.539       -2303.021          45.050          45.350    90194189.504 8
  22984016.820       -2207.048          49.150


 109167044.863 8  85065244.13048  20773799.400                    20773798.920
     -1602.650       -1248.819          49.400          49.200    81520865.931 9
  20773803.340       -1196.812          54.950


 108592137.251 8  84617243.45148  20664400.440                    20664401.280
       823.967         642.051          51.350          51.350    81091534.462 9
  20664403.120         615.337          55.550


 126330366.903 7  98439277.20547  24039860.800                    24039862.320
      3293.056        2566.022          44.550          44.400



 106247059.772 8  82789928.22448  20218141.720                    20218141.540
       639.058         497.967          52.550          52.450    79340352.065 9
  20218143.420         477.271          56.850


 120653771.893 8  94015934.46547  22959654.540                    22959653.160
      2923.481        2278.036          48.400          43.800    90098617.995 8
  22959658.580        2183.125          50.350


 129137257.438 7 100626404.85647  24574018.260                    24574020.220
     -3214.777       -2505.031          42.050          42.550



 122447701.187 7  95413774.19246  23301030.940                    23301029.360
     -3174.126       -2473.349          43.850          40.800



 130303378.367 6 101535098.10246  24795912.960                    24795910.840
      3308.821        2578.298          41.900          37.750



 131642070.977 6 102578258.50046  25050648.660                    25050656.140
      1348.061        1050.439          38.700          38.600    98304177.685 7
  25050658.180        1006.804          42.800


 129618813.231 7 101001656.83347  24665648.140                    24665648.940
     -3024.491       -2356.751          44.000          43.950



 23 11  9  8  5  0.0000000  0 11G03G04G06G07G09G11G17G19G20G26G31
 120870516.777 7  94184816.19847  23000898.500                    23000900.440
     -2961.079       -2307.339          44.650          44.900    90260457.403 8
  23000903.940       -2211.283          49.250


 109215321.563 8  85102862.31148  20782986.220                    20782985.700
     -1616.365       -1259.506          49.250          48.950    81556916.686 9
  20782990.240       -1207.049          55.000


 108567687.189 8  84598191.43648  20659747.660                    20659748.620
       805.191         627.421          51.550          51.450    81073276.278 9
  20659750.460         601.349          55.600


 126231609.334 7  98362323.42147  24021067.600                    24021069.200
      3289.763        2563.456          44.500          44.550



 106228121.042 8  82775170.76048  20214537.780                    20214537.660
       622.776         485.280          52.700          52.600    79326209.499 9
  20214539.520         465.063          56.800


 120566216.000 8  93947709.07547  22942993.140                    22942991.940
      2912.913        2269.802          48.000          43.300    90033235.332 8
  22942997.460        2175.273          50.600


 129233704.515 7 100701558.15647  24592371.780                    24592373.660
     -3215.934       -2505.932          42.050          42.200



 122543054.028 7  95488074.94846  23319176.080                    23319174.600
     -3183.132       -2480.369          43.500          41.050



 130204108.795 7 101457745.11046  24777022.760                    24777020.580
      3308.274        2577.872          43.100          38.350



 131601840.457 6 102546910.07346  25042993.020                    25043000.740
      1333.251        1038.898          39.300          38.750    98274135.482 7
  25043002.660         995.470          43.750


 129709720.105 7 101072493.24647  24682947.420                    24682948.060
     -3036.619       -2366.201          44.700          45.000



 23 11  9  8  5 30.0000000  0 11G03G04G06G07G09G11G17G19G20G26G31
 120959425.279 7  94254095.43247  23017817.300                    23017819.160
     -2966.930       -2311.897          45.000          44.950    90326849.961 8
  23017822.900       -2215.401          49.400


 109264002.724 8  85140795.66148  20792249.960                    20792249.440
     -1629.903       -1270.055          49.400          48.950    81593269.468 9
  20792254.080       -1217.065          55.150


 108543794.903 8  84579574.05248  20655201.060                    20655202.100
       786.706         613.017          51.600          51.650    81055434.616 9
  20655204.000         587.481          55.700


 126132953.306 7  98285448.76347  24002293.780                    24002295.460
      3286.500        2560.914          44.600          44.400



 106209667.911 8  82760791.68548  20211026.300                    20211026.120
       606.590         472.667          52.650          52.700    79312429.544 9
  20211027.940         453.001          56.900


 120478972.892 7  93879727.41447  22926391.240                    22926390.200
      2902.347        2261.567          47.700          43.050    89968086.230 8
  22926395.760        2167.432          50.600


 129330168.700 6 100776724.75046  24610728.380                    24610730.540
     -3216.031       -2506.010          41.700          41.400



 122638668.910 7  95562579.90146  23337371.040                    23337369.560
     -3192.265       -2487.482          44.150          40.800



 130104842.919 7 101380394.96946  24758133.280                    24758131.260
      3308.160        2577.784          42.750          36.900



 131562061.528 6 102515913.55446  25035423.500                    25035431.340
      1318.048        1027.051          40.300          39.950    98244430.477 7
  25035432.900         984.242          43.350


 129800986.188 7 101143609.55147  24700314.960                    24700315.520
     -3048.568       -2375.512          44.150          44.400



 23 11  9  8  6  0.0000000  0 11G03G04G06G07G09G11G17G19G20G26G31
 121048502.185 7  94323505.87847  23034768.080                    23034770.020
     -2971.555       -2315.501          45.300          45.450    90393368.286 8
  23034773.800       -2219.086          49.350


 109313088.894 8  85179044.59448  20801590.720                    20801590.240
     -1642.704       -1280.030          49.450          49.000    81629924.691 9
  20801595.000       -1226.674          55.000


 108520464.030 8  84561394.12248  20650761.380                    20650762.400
       768.583         598.895          52.050          51.800    81038012.175 9
  20650764.300         573.937          55.650


 126034403.411 7  98208656.80747  23983540.140                    23983541.900
      3283.644        2558.688          44.850          45.000



 106191702.498 8  82746792.64548  20207607.660                    20207607.420
       590.954         460.483          52.900          53.000    79299013.799 9
  20207609.260         441.333          56.750


 120392047.348 7  93811993.19947  22909849.840                    22909848.860
      2892.572        2253.951          47.100          43.650    89903174.280 8
  22909854.480        2160.014          50.450


 129426649.687 7 100851904.45246  24629088.280                    24629090.660
     -3215.965       -2505.957          42.100          41.900



 122734544.223 7  95637287.76746  23355615.660                    23355614.260
     -3199.730       -2493.303          44.350          40.950



 130005583.989 7 101303050.22346  24739245.140                    24739243.120
      3308.612        2578.136          44.400          37.100



 131522738.615 6 102485272.35646  25027940.860                    25027948.520
      1303.562        1015.764          40.900          41.650    98215066.021 7
  25027949.780         973.281          43.050


 129892611.302 7 101215005.63747  24717750.800                    24717751.320
     -3059.912       -2384.351          43.550          43.900



 23 11  9  8  6 30.0000000  0 11G03G04G06G07G09G11G17G19G20G26G31
 121137744.826 7  94393045.48047  23051750.520                    23051752.500
     -2977.059       -2319.790          44.800          45.050    90460010.371 8
  23051756.240       -2223.201          49.100


 109362576.390 8  85217606.24948  20811007.840                    20811007.440
     -1655.837       -1290.263          49.250          49.050    81666879.616 9
  20811012.160       -1236.570          54.800


 108497693.924 8  84543651.16048  20646428.420                    20646429.420
       749.995         584.411          52.100          52.050    81021008.503 9
  20646431.360         560.042          55.450


 125935960.219 7  98131947.97647  23964806.880                    23964808.580
      3279.862        2555.741          44.250          44.650



 106174222.726 8  82733172.03148  20204281.400                    20204281.140
       574.794         447.891          52.750          52.800    79285960.709 9
  20204282.940         429.277          56.450


 120305440.093 7  93744507.00947  22893368.920                    22893368.000
      2881.909        2245.643          47.000          43.400    89838500.007 8
  22893373.620        2152.046          50.100


 129523142.528 6 100927093.37546  24647450.600                    24647452.800
     -3216.140       -2506.093          41.550          41.550



 122830674.797 7  95712194.55046  23373908.920                    23373907.540
     -3208.387       -2500.046          44.650          41.250



 129906331.201 7 101225710.24946  24720358.100                    24720356.260
      3308.458        2578.015          44.300          37.350



 131483871.779 6 102454986.55346  25020544.820                    25020552.500
      1287.813        1003.493          40.600          40.850    98186042.132 7
  25020553.540         961.902          43.100


 129984590.198 7 101286677.37847  24735253.960                    24735254.400
     -3071.600       -2393.458          43.750          43.800



 23 11  9  8  7  0.0000000  0 11G03G04G06G07G09G11G17G19G20G26G31
 121227154.509 7  94462715.23247  23068764.680                    23068766.840
     -2982.906       -2324.347          45.100          45.100    90526777.184 8
  23068770.400       -2227.533          48.950


 109412465.553 8  85256480.88448  20820501.400                    20820501.080
     -1669.437       -1300.861          48.700          48.650    81704134.466 9
  20820505.760       -1246.705          54.750


 108475487.900 8  84526347.73848  20642202.840                    20642203.820
       730.897         569.529          51.700          51.550    81004426.049 9
  20642205.740         545.822          55.450


 125837628.476 7  98055325.98647  23946094.780                    23946096.380
      3276.071        2552.788          43.850          43.400



 106157230.432 8  82719931.28748  20201047.900                    20201047.640
       558.408         435.123          52.450          52.600    79273271.658 9
  20201049.300         416.992          56.400


 120219155.716 7  93677272.41147  22876949.560                    22876948.540
      2870.719        2236.924          46.500          44.050    89774066.839 8
  22876954.140        2143.835          50.000


 129619646.399 6 101002290.87947  24665814.840                    24665817.120
     -3217.027       -2506.785          41.550          42.550



 122927058.948 7  95787298.91546  23392250.400                    23392249.080
     -3216.877       -2506.662          44.350          41.950



 129807087.494 7 101148377.33946  24701472.680                    24701471.080
      3308.067        2577.710          43.950          38.500



 131445465.037 6 102425059.27346  25013236.100                    25013243.860
      1272.668         991.692          38.800          39.300    98157361.798 7
  25013244.820         950.398          42.650


 130076922.464 7 101358624.46747  24752824.340                    24752824.620
     -3083.209       -2402.505          43.700          43.700



 23 11  9  8  7 30.0000000  0 11G03G04G06G07G09G11G17G19G20G26G31
 121316729.427 7  94532513.74647  23085810.300                    23085812.580
     -2988.387       -2328.617          44.400          44.900    90593667.387 8
  23085816.120       -2231.669          48.900


 109462753.649 8  85295666.38148  20830070.860                    20830070.560
     -1682.844       -1311.308          48.900          48.750    81741687.223 9
  20830075.360       -1256.695          54.950


 108453846.247 8  84509484.08248  20638084.680                    20638085.580
       712.146         554.918          52.100          51.850    80988265.044 9
  20638087.480         531.733          55.650


 125739409.454 7  97978791.83547  23927404.040                    23927405.740
      3272.042        2549.648          44.000          44.400



 106140724.473 8  82707069.49748  20197906.940                    20197906.640
       542.091         422.408          52.400          52.350    79260945.776 9
  20197908.360         404.823          56.600


 120133195.793 7  93610290.64647  22860591.940                    22860590.920
      2859.937        2228.522          46.700          43.500    89709875.979 8
  22860596.480        2135.625          50.200


 129716157.768 6 101077494.26146  24684180.520                    24684182.960
     -3217.220       -2506.934          40.000          40.100



 123023692.886 7  95862597.92647  23410639.360                    23410638.120
     -3225.303       -2513.229          44.400          42.450



 129707853.012 7 101071051.65046  24682588.980                    24682587.420
      3307.809        2577.510          43.650          37.750



 131407519.495 6 102395491.35546  25006015.160                    25006022.720
      1257.088         979.553          37.950          36.600    98129025.873 7
  25006023.780         938.723          42.700


 130169604.311 7 101430843.98347  24770461.240                    24770461.260
     -3095.122       -2411.786          44.300          44.600



 23 11  9  8  8  0.0000000  0 11G03G04G06G07G09G11G17G19G20G26G31
 121406469.347 7  94602440.81947  23102887.340                    23102889.880
     -2993.848       -2332.873          44.100          44.100    90660680.805 8
  23102893.160       -2235.658          48.550


 109513439.396 8  85335161.73348  20839716.020                    20839715.800
     -1695.891       -1321.475          48.950          48.700    81779536.925 9
  20839720.600       -1266.458          55.050


 108432770.751 8  84493061.59548  20634074.180                    20634075.140
       693.211         540.164          52.050          52.050    80972526.821 9
  20634077.020         517.640          55.900


 125641306.405 7  97902348.05447  23908735.460                    23908737.260
      3268.412        2546.820          44.300          43.800



 106124705.126 8  82694586.88648  20194858.580                    20194858.260
       526.043         409.904          52.700          52.650    79248983.271 9
  20194860.060         392.849          56.850


 120047563.427 7  93543564.10347  22844296.720                    22844295.620
      2849.026        2220.020          47.300          42.200    89645929.712 8
  22844301.200        2127.550          50.400


 129812674.845 6 101152702.07046  24702547.220                    24702549.880
     -3216.992       -2506.758          40.300          39.950



 123120573.590 7  95938089.22247  23429075.320                    23429074.040
     -3233.165       -2519.354          44.800          42.550



 129608629.369 7 100993734.39046  24663707.320                    24663705.840
      3307.376        2577.173          43.950          37.600



 131370037.655 6 102366284.74346  24998882.260                    24998889.780
      1241.724         967.577          38.550          37.800    98101036.195 7
  24998890.980         927.304          43.150


 130262633.300 7 101503333.98447  24788164.200                    24788164.200
     -3106.455       -2420.618          44.500          44.800



 23 11  9  8  8 30.0000000  0 11G03G04G06G07G09G11G17G19G20G26G31
 121496369.044 7  94672492.38647  23119994.600                    23119997.360
     -2999.444       -2337.233          44.250          44.500    90727813.532 7
  23120000.580       -2239.784          47.900


 109564516.588 8  85374962.10448  20849435.660                    20849435.460
     -1709.240       -1331.877          49.000          48.400    81817678.937 9
  20849440.380       -1276.342          54.800


 108412258.172 8  84477077.74548  20630170.820                    20630171.700
       674.154         525.314          52.400          52.400    80957208.957 9
  20630173.620         503.502          55.700


 125543317.435 7  97825993.16047  23890088.660                    23890090.440
      3264.303        2543.616          44.650          44.650



 106109167.730 8  82682479.81748  20191901.920                    20191901.600
       509.780         397.230          52.850          52.900    79237380.658 9
  20191903.480         380.687          56.600


 119962256.715 7  93477091.32647  22828063.440                    22828062.180
      2837.963        2211.398          47.200          42.750    89582226.628 8
  22828067.960        2119.215          50.350


 129909189.814 6 101227908.28046  24720913.480                    24720916.420
     -3217.156       -2506.882          40.350          40.800



 123217693.078 7  96013766.58146  23447556.740                    23447555.440
     -3241.320       -2525.710          45.050          41.000



 129509413.093 7 100916422.90646  24644827.120                    24644825.740
      3306.824        2576.740          43.800          38.600



 131333017.076 6 102337437.55046  24991837.120                    24991844.540
      1226.087         955.392          39.350          38.500    98073390.983 7
  24991846.340         915.665          43.550


 130356002.161 7 101576088.86147  24805931.760                    24805931.700
     -3117.986       -2429.604          44.500          44.300



 23 11  9  8  9  0.0000000  0 11G03G04G06G07G09G11G17G19G20G26G31
 121586432.485 7  94742671.54547  23137133.080                    23137136.060
     -3004.687       -2341.322          43.850          43.900    90795068.525 7
  23137139.100       -2243.698          47.200


 109615988.305 8  85415069.89648  20859230.360                    20859230.240
     -1721.985       -1341.809          49.250          48.300    81856115.557 9
  20859235.200       -1285.957          54.450


 108392314.504 8  84461537.20548  20626375.680                    20626376.600
       655.462         510.749          51.900          52.100    80942315.932 9
  20626378.560         489.496          55.550


 125445449.199 7  97749732.32847  23871464.900                    23871466.520
      3260.365        2540.549          44.300          44.350



 106094116.867 8  82670751.86948  20189037.840                    20189037.580
       493.904         384.860          52.800          52.850    79226141.378 9
  20189039.500         368.791          56.300


 119877283.025 7  93410878.04547  22811893.540                    22811892.240
      2827.013        2202.865          47.550          43.750    89518772.236 8
  22811898.160        2111.160          50.200


 130005705.046 6 101303114.72546  24739279.920                    24739282.860
     -3216.968       -2506.735          40.250          40.350



 123315052.749 7  96089631.09546  23466083.840                    23466082.440
     -3249.069       -2531.748          45.200          41.750



 129410210.039 7 100839121.70446  24625949.520                    24625948.200
      3306.956        2576.844          43.300          38.900



 131296464.462 6 102308955.02146  24984881.360                    24984888.400
      1210.762         943.449          39.950          40.750    98046095.242 7
  24984890.480         904.136          43.800


 130449713.041 7 101649110.21947  24823764.300                    24823764.340
     -3129.280       -2438.403          43.400          43.050



 23 11  9  8  9 30.0000000  0 11G03G04G06G07G09G11G17G19G20G26G31
 121676659.384 7  94812978.06847  23154302.760                    23154305.780
     -3010.248       -2345.652          44.000          44.350    90862445.603 7
  23154308.700       -2247.992          47.400


 109667853.182 8  85455484.03748  20869099.940                    20869099.740
     -1735.209       -1352.111          48.800          48.650    81894845.772 9
  20869104.760       -1295.827          54.750


 108372941.382 8  84446441.24548  20622689.120                    20622689.940
       636.334         495.844          52.000          52.000    80927848.967 9
  20622692.040         475.220          55.950


 125347705.096 7  97673568.21447  23852864.680                    23852866.220
      3256.061        2537.195          43.900          43.300



 106079552.721 8  82659403.17348  20186266.400                    20186266.100
       477.408         372.006          52.850          52.900    79215265.544 9
  20186268.020         356.536          56.650


 119792645.380 7  93344926.61647  22795787.580                    22795786.260
      2815.678        2194.033          47.700          43.700    89455568.781 8
  22795792.260        2102.640          50.550


 130102218.376 6 101378319.70046  24757645.900                    24757648.760
     -3216.810       -2506.611          39.750          39.550



 123412649.893 7  96165680.64346  23484656.060                    23484654.700
     -3256.878       -2537.834          44.650          41.350



 129311021.739 7 100761832.01746  24607074.700                    24607073.360
      3305.952        2576.063          43.400          38.200



 131260382.212 6 102280838.99246  24978015.320                    24978021.940
      1194.678         930.919          39.950          40.650    98019150.716 7
  24978024.560         892.373          44.400


 130543763.469 7 101722396.14247  24841661.480                    24841661.720
     -3140.495       -2447.144          43.600          43.250



 23 11  9  8 10  0.0000000  0 11G03G04G06G07G09G11G17G19G20G26G31
 121767044.620 7  94883407.98747  23171502.640                    23171505.620
     -3015.414       -2349.678          44.200          44.300    90929940.905 7
  23171508.560       -2251.611          47.200


 109720105.143 8  85496199.81048  20879043.200                    20879042.960
     -1747.963       -1362.051          48.750          48.450    81933865.032 9
  20879048.000       -1305.229          54.650


 108354135.651 8  84431787.41148  20619110.540                    20619111.300
       617.677         481.306          51.950          52.100    80913805.701 9
  20619113.460         461.266          56.000


 125250083.321 7  97597499.43647  23834287.740                    23834289.380
      3252.472        2534.398          44.200          44.500



 106065470.671 8  82648430.14348  20183586.660                    20183586.380
       461.648         359.727          52.250          52.250    79204749.722 9
  20183588.240         344.707          56.600


 119708341.983 8  93279235.63947  22779745.240                    22779743.860
      2804.788        2185.548          48.050          43.950    89392614.922 8
  22779749.980        2094.506          50.600


 130198722.431 6 101453517.47046  24776010.180                    24776013.120
     -3216.545       -2506.406          39.850          40.300



 123510477.037 7  96241909.43746  23503272.020                    23503270.760
     -3264.407       -2543.700          44.600          40.750



 129211844.758 7 100684551.13246  24588202.020                    24588200.680
      3305.876        2576.005          43.100          39.250



 131224767.898 6 102253087.60046  24971238.380                    24971244.820
      1179.594         919.166          39.500          39.250    97992555.633 7
  24971247.440         880.890          44.950


 130638146.718 7 101795941.42847  24859622.100                    24859622.460
     -3151.015       -2455.339          42.200          42.350



 23 11  9  8 10 30.0000000  0 11G03G04G06G07G09G11G17G19G20G26G31
 121857592.575 7  94953964.70047  23188733.580                    23188736.400
     -3020.851       -2353.913          44.700          44.200    90997557.742 7
  23188739.320       -2255.869          47.400


 109772747.566 8  85537219.83448  20889060.760                    20889060.600
     -1761.147       -1372.324          49.000          48.700    81973175.879 9
  20889065.480       -1315.130          54.650


 108335903.653 8  84417580.63848  20615641.100                    20615641.820
       598.186         466.118          52.250          52.150    80900190.869 9
  20615644.080         446.749          56.200


 125152591.246 7  97521531.69647  23815735.520                    23815737.080
      3247.583        2530.588          44.550          44.350



 106051875.644 8  82637836.60848  20180999.580                    20180999.360
       445.116         346.844          52.550          52.550    79194597.584 9
  20181001.160         332.434          56.750


 119624380.597 8  93213811.16447  22763767.980                    22763766.560
      2793.109        2176.447          48.750          43.400    89329916.455 8
  22763772.780        2085.754          50.750


 130295220.024 6 101528710.22246  24794373.140                    24794376.240
     -3216.283       -2506.200          40.400          39.700



 123608535.413 7  96318318.39347  23521932.040                    23521930.740
     -3272.389       -2549.918          44.700          42.000



 129112685.436 7 100607283.99546  24569332.800                    24569331.360
      3305.093        2575.394          43.200          39.150



 131189628.617 6 102225706.38646  24964551.760                    24964558.160
      1163.196         906.388          39.400          39.050    97966315.325 7
  24964560.780         868.864          45.050


 130732864.336 7 101869747.24247  24877646.220                    24877646.720
     -3162.754       -2464.486          42.300          42.800



 23 11  9  8 11  0.0000000  0 11G03G04G06G07G09G11G17G19G20G26G31
 121948296.547 7  95024642.98947  23205994.140                    23205996.820
     -3026.482       -2358.303          44.600          44.700    91065291.062 7
  23205999.800       -2259.981          47.600


 109825772.742 8  85578538.10248  20899151.220                    20899151.100
     -1774.216       -1382.508          49.050          48.550    82012772.545 9
  20899155.880       -1324.928          54.700


 108318240.546 8  84403817.15648  20612279.960                    20612280.600
       578.891         451.083          51.800          51.850    80887000.865 9
  20612282.920         432.293          56.300


 125055225.573 7  97445662.44747  23797207.460                    23797208.920
      3242.914        2526.949          44.400          44.600



 106038761.393 8  82627617.69748  20178504.000                    20178503.780
       428.779         334.113          52.650          52.700    79184804.462 9
  20178505.540         320.181          56.750


 119540757.816 8  93148650.52547  22747855.180                    22747853.660
      2781.341        2167.278          48.750          43.300    89267470.830 8
  22747859.820        2077.014          50.550


 130391702.318 6 101603891.06646  24812733.380                    24812736.260
     -3215.706       -2505.751          40.400          39.850



 123706815.799 7  96394900.34846  23540634.240                    23540633.020
     -3280.129       -2555.949          44.200          41.550



 129013538.798 7 100530026.74346  24550466.080                    24550464.500
      3304.381        2574.838          43.800          37.250



 131154960.220 6 102198692.10446  24957954.480                    24957961.300
      1147.499         894.156          38.450          38.350    97940426.650 7
  24957963.440         856.762          44.650


 130827907.743 7 101943806.91946  24895732.380                    24895732.980
     -3173.839       -2473.125          42.150          41.450



 23 11  9  8 11 30.0000000  0 11G03G04G06G07G09G11G17G19G20G26G31
 122039163.003 7  95095447.89447  23223285.660                    23223288.340
     -3031.302       -2362.058          44.750          44.850    91133145.747 7
  23223291.300       -2263.699          47.550


 109879186.176 8  85620158.90948  20909315.560                    20909315.460
     -1786.640       -1392.188          49.250          49.050    82052659.143 9
  20909320.260       -1334.266          54.350


 108301154.767 8  84390503.53848  20609028.660                    20609029.300
       560.061         436.410          52.100          52.000    80874241.977 9
  20609031.620         418.241          55.950


 124957996.124 7  97369899.32247  23778705.340                    23778706.660
      3238.565        2523.560          43.850          43.750



 106026134.936 8  82617778.89248  20176101.280                    20176101.040
       412.759         321.630          52.800          52.850    79175375.604 9
  20176102.780         308.284          56.600


 119457483.500 8  93083761.41747  22732008.680                    22732007.100
      2770.157        2158.563          49.000          44.050    89205285.432 8
  22732013.060        2068.598          50.300


 130488174.002 6 101679063.62446  24831091.460                    24831094.580
     -3215.463       -2505.561          40.300          40.150



 123805322.169 7  96471658.40346  23559379.500                    23559378.460
     -3287.083       -2561.367          43.750          40.700



 128914413.636 7 100452786.21846  24531603.340                    24531601.800
      3303.954        2574.505          44.250          38.250



 131120772.029 6 102172052.00846  24951448.560                    24951455.820
      1131.640         881.800          38.950          40.400    97914896.543 7
  24951457.300         845.031          43.850


 130923281.708 7 102018124.16947  24913881.560                    24913882.120
     -3184.528       -2481.455          42.950          43.350



 23 11  9  8 12  0.0000000  0 11G03G04G06G07G09G11G17G19G20G26G31
 122130184.434 7  95166373.54847  23240606.580                    23240609.260
     -3036.923       -2366.437          44.350          43.800    91201116.134 7
  23240612.420       -2267.773          47.800


 109932979.315 8  85662075.58548  20919552.220                    20919552.020
     -1799.645       -1402.322          49.200          48.950    82092829.277 9
  20919556.900       -1343.905          54.400


 108284640.603 8  84377635.34148  20605886.080                    20605886.780
       540.561         421.215          51.700          51.700    80861909.950 9
  20605889.080         403.716          56.050


 124860898.327 7  97294238.78847  23760228.160                    23760229.500
      3234.031        2520.027          44.400          44.600



 106013989.151 8  82608314.62848  20173790.020                    20173789.860
       396.639         309.069          52.650          52.700    79166305.684 9
  20173791.640         296.153          56.700


 119374553.465 8  93019140.58247  22716227.640                    22716226.040
      2758.187        2149.234          48.850          43.900    89143357.116 8
  22716231.860        2059.740          50.400


 130584625.280 6 101754220.28246  24849445.520                    24849449.000
     -3215.043       -2505.232          39.800          40.850



 123904044.321 7  96548584.57546  23578165.780                    23578164.880
     -3294.649       -2567.265          43.400          40.150



 128815303.888 7 100375557.70246  24512743.520                    24512741.940
      3303.139        2573.868          43.950          38.650



 131087059.029 6 102145782.17346  24945033.060                    24945040.620
      1115.583         869.286          38.850          38.800    97889721.294 7
  24945041.640         832.983          44.250


 131018976.653 7 102092691.54047  24932091.820                    24932092.200
     -3195.556       -2490.047          42.850          43.200



 23 11  9  8 12 30.0000000  0 11G03G04G06G07G09G11G17G19G20G26G31
 122221364.576 7  95237422.87647  23257957.660                    23257960.460
     -3041.497       -2370.002          43.550          43.350    91269205.052 7
  23257963.640       -2271.360          47.700


 109987154.908 8  85704290.28348  20929861.560                    20929861.280
     -1811.801       -1411.795          48.750          48.450    82133285.012 9
  20929866.260       -1353.021          54.150


 108268703.691 8  84365216.95248  20602853.360                    20602854.140
       521.911         406.684          51.750          51.700    80850008.987 9
  20602856.400         389.762          55.950


 124763939.470 7  97218686.50847  23741777.580                    23741778.800
      3230.109        2516.971          45.250          45.400



 106002328.298 8  82599228.24348  20171571.040                    20171570.860
       380.987         296.873          52.200          52.150    79157597.897 9
  20171572.640         284.480          56.550


 119291974.792 8  92954793.53747  22700513.420                    22700511.880
      2747.105        2140.602          48.500          44.300    89081691.184 8
  22700517.540        2051.387          50.550


 130681058.158 6 101829362.59846  24867796.180                    24867799.800
     -3213.794       -2504.260          40.300          40.500



 124002983.294 7  96625679.71746  23596993.340                    23596992.320
     -3300.995       -2572.209          42.600          41.150



 128716215.273 7 100298345.67346  24493887.640                    24493886.360
      3303.011        2573.771          43.700          39.200



 131053827.588 6 102119887.56946  24938709.260                    24938717.060
      1100.228         857.322          38.800          37.900    97864905.631 7
  24938717.700         821.462          44.650


 131114994.109 7 102167510.20847  24950363.500                    24950363.660
     -3205.421       -2497.735          43.500          43.150



 23 11  9  8 13  0.0000000  0 11G03G04G06G07G09G11G17G19G20G26G31
 122312698.613 7  95308592.11547  23275338.000                    23275340.800
     -3046.886       -2374.202          43.400          42.950    91337408.851 8
  23275344.060       -2275.205          48.050


 110041707.139 8  85746798.46048  20940242.580                    20940242.300
     -1824.479       -1421.673          49.250          48.750    82174022.008 9
  20940247.140       -1362.441          54.300


 108253341.010 8  84353246.01848  20599929.940                    20599930.800
       502.737         391.743          52.000          52.100    80838536.836 9
  20599932.980         375.384          56.200


 124667117.830 7  97143241.13247  23723353.080                    23723354.180
      3225.021        2513.004          45.800          46.000



 105991147.987 8  82590516.30248  20169443.520                    20169443.340
       364.879         284.321          52.550          52.550    79149248.951 9
  20169445.040         272.411          56.850


 119209746.036 8  92890719.14747  22684865.760                    22684864.300
      2735.268        2131.376          48.300          44.650    89020286.555 8
  22684869.900        2042.541          51.050


 130777466.111 6 101904485.49246  24886142.100                    24886145.760
     -3213.401       -2503.956          40.100          40.650



 124102131.856 7  96702938.16746  23615860.820                    23615859.840
     -3308.080       -2577.731          42.450          41.450



 128617145.011 7 100221147.93646  24475035.280                    24475033.900
      3302.249        2573.179          44.050          38.200



 131021075.482 6 102094366.45946  24932476.740                    24932484.540
      1083.962         844.646          39.850          40.400    97840447.874 7
  24932485.280         809.455          44.800


 131211327.341 7 102242574.97247  24968695.320                    24968695.160
     -3215.869       -2505.876          42.950          42.950



 23 11  9  8 13 30.0000000  0 11G03G04G06G07G09G11G17G19G20G26G31
 122404189.354 7  95379883.43747  23292748.100                    23292751.040
     -3052.412       -2378.508          42.900          43.500    91405729.675 7
  23292754.200       -2279.335          47.850


 110096637.741 8  85789601.48048  20950695.600                    20950695.240
     -1837.195       -1431.582          49.200          48.900    82215041.566 8
  20950700.060       -1372.002          53.950


 108238557.192 8  84341726.14148  20597116.700                    20597117.620
       483.061         376.410          51.800          51.750    80827496.946 9
  20597119.720         360.818          56.000


 124570439.458 7  97067907.40147  23704955.740                    23704956.900
      3220.235        2509.276          44.900          44.850



 105980451.399 8  82582181.29048  20167408.040                    20167407.880
       348.447         271.518          52.250          52.400    79141261.230 9
  20167409.640         260.246          56.800


 119127873.277 8  92826922.16747  22669285.880                    22669284.440
      2723.123        2121.912          48.050          44.550    88959147.771 8
  22669290.000        2033.487          51.050


 130873849.867 6 101979589.51746  24904483.500                    24904487.080
     -3212.372       -2503.154          39.850          39.300



 124201490.146 7  96780360.04546  23634768.200                    23634767.240
     -3315.196       -2583.274          42.300          40.950



 128518097.446 7 100143967.92246  24456187.220                    24456185.880
      3301.244        2572.395          43.300          38.500



 130988808.061 6 102069222.98246  24926336.700                    24926344.100
      1067.288         831.651          39.700          39.650    97816352.026 7
  24926345.140         797.130          45.200


 131307976.847 6 102317886.19646  24987087.060                    24987086.740
     -3227.149       -2514.665          41.700          41.650



 23 11  9  8 14  0.0000000  0 11G03G04G06G07G09G11G17G19G20G26G31
 122495834.179 7  95451294.84447  23310187.620                    23310190.600
     -3057.490       -2382.465          43.350          43.500    91474165.564 8
  23310193.760       -2282.973          48.250


 110151943.151 8  85832696.55347  20961219.960                    20961219.600
     -1849.531       -1441.195          50.150          47.800    82256341.003 9
  20961224.380       -1381.168          54.000


 108224351.426 8  84330656.69248  20594413.440                    20594414.420
       463.959         361.525          52.300          52.150    80816888.721 9
  20594416.460         346.544          56.100


 124473905.095 7  96992685.88347  23686585.820                    23686587.120
      3215.905        2505.902          45.650          45.850



 105970236.382 8  82574221.52748  20165464.180                    20165464.040
       332.709         259.253          52.800          52.850    79133633.123 9
  20165465.900         248.425          56.850


 119046357.298 8  92763403.20247  22653773.840                    22653772.600
      2711.438        2112.809          48.100          44.650    88898275.419 8
  22653778.040        2024.810          51.400


 130970205.110 6 102054671.32246  24922819.520                    24922822.880
     -3211.317       -2502.331          40.150          39.600



 124301053.047 7  96857941.35246  23653714.480                    23653713.600
     -3322.015       -2588.588          42.300          40.250



 128419072.269 7 100066805.36946  24437343.400                    24437341.980
      3300.469        2571.792          43.300          38.800



 130957025.263 6 102044457.12646  24920288.840                    24920295.760
      1051.377         819.252          40.400          40.150    97792618.096 7
  24920297.320         785.285          45.400


 131404938.048 7 102393440.25947  25005538.160                    25005537.900
     -3236.873       -2522.243          42.250          42.200



 23 11  9  8 14 30.0000000  0 11G03G04G06G07G09G11G17G19G20G26G31
 122587634.864 7  95522827.68147  23327656.860                    23327659.760
     -3062.548       -2386.406          43.750          43.700    91542717.835 8
  23327662.860       -2287.036          48.350


 110207624.085 8  85876084.24548  20971815.720                    20971815.420
     -1862.117       -1451.002          49.400          48.400    82297920.873 8
  20971820.140       -1390.697          53.950


 108210727.189 8  84320040.39048  20591820.860                    20591821.860
       444.569         346.417          51.700          51.800    80806714.770 9
  20591823.840         331.880          56.050


 124377519.515 7  96917580.29347  23668244.280                    23668245.620
      3210.438        2501.641          45.300          45.250



 105960505.084 8  82566638.68348  20163612.360                    20163612.300
       316.423         246.563          52.450          52.450    79126366.227 9
  20163614.120         236.225          56.800


 118965203.170 7  92700166.20347  22638330.720                    22638329.560
      2699.169        2103.248          47.700          45.450    88837673.301 8
  22638335.060        2015.523          51.650


 131066531.387 6 102129730.56646  24941149.960                    24941153.440
     -3210.410       -2501.626          39.900          40.350



 124400819.627 7  96935681.36946  23672699.560                    23672698.900
     -3328.684       -2593.788          42.100          40.650



 128320072.919 7  99989662.94146  24418504.400                    24418503.060
      3299.937        2571.375          43.700          40.750



 130925731.379 6 102020072.22446  24914333.820                    24914340.600
      1035.328         806.748          39.700          39.500    97769249.255 7
  24914342.540         772.805          45.550


 131502210.702 7 102469237.00547  25024048.640                    25024048.520
     -3247.495       -2530.520          43.100          42.550



 23 11  9  8 15  0.0000000  0 11G03G04G06G07G09G11G17G19G20G26G31
 122679586.182 7  95594477.90547  23345154.800                    23345157.740
     -3067.662       -2390.391          43.350          43.400    91611382.586 8
  23345160.700       -2290.863          48.400


 110263674.343 8  85919759.72048  20982481.700                    20982481.500
     -1874.741       -1460.840          48.950          48.650    82339776.520 8
  20982486.200       -1399.919          53.800


 108197681.141 8  84309874.61548  20589338.300                    20589339.280
       424.876         331.071          51.800          51.850    80796972.559 9
  20589341.300         317.328          55.900


 124281281.173 7  96842589.43147  23649930.620                    23649932.080
      3205.139        2497.514          45.300          45.100



 105951252.732 8  82559429.05248  20161851.680                    20161851.640
       300.125         233.863          52.600          52.650    79119456.993 9
  20161853.540         224.152          56.650


 118884409.047 7  92637209.72547  22622956.120                    22622954.980
      2686.737        2093.562          47.700          44.100    88777340.004 8
  22622960.480        2006.363          51.450


 131162821.348 6 102204761.51346  24959473.660                    24959476.920
     -3209.408       -2500.843          40.600          40.200



 124500782.071 7  97013574.01646  23691721.920                    23691721.300
     -3335.342       -2598.972          42.300          40.550



 128221096.181 7  99912538.15246  24399669.800                    24399668.280
      3298.647        2570.370          43.000          39.050



 130894923.802 6 101996066.25046  24908471.320                    24908478.000
      1018.592         793.705          40.600          40.750    97746243.509 7
  24908480.280         760.594          45.400


 131599787.538 7 102545270.81347  25042617.000                    25042616.920
     -3258.037       -2538.732          42.500          42.200



 23 11  9  8 15 30.0000000  0 11G03G04G06G07G09G11G17G19G20G26G31
 122771691.052 7  95666247.77247  23362681.940                    23362685.020
     -3073.168       -2394.682          43.500          43.700    91680162.011 8
  23362687.700       -2294.848          48.250


 110320095.770 8  85963724.41648  20993218.260                    20993218.200
     -1887.293       -1470.620          48.750          48.050    82381909.341 8
  20993222.860       -1409.293          53.600


 108185217.836 8  84300162.92948  20586966.620                    20586967.580
       405.328         315.840          51.650          51.700    80787665.525 9
  20586969.620         302.645          55.900


 124185196.021 7  96767717.97247  23631646.140                    23631647.660
      3199.918        2493.446          45.550          45.550



 105942482.572 8  82552595.14748  20160182.840                    20160182.720
       283.895         221.216          52.800          52.800    79112907.830 9
  20160184.640         212.029          56.400


 118803981.107 7  92574538.59547  22607651.180                    22607650.060
      2674.409        2083.955          47.650          44.400    88717280.167 8
  22607655.620        1997.125          51.550


 131259076.869 6 102279765.63846  24977790.600                    24977793.760
     -3208.554       -2500.178          40.700          41.100



 124600940.732 7  97091619.54246  23710781.600                    23710780.820
     -3342.474       -2604.532          42.600          39.850



 128122146.761 7  99835434.67446  24380840.340                    24380838.900
      3297.516        2569.491          43.050          40.000



 130864607.865 6 101972443.36546  24902702.420                    24902708.980
      1002.149         780.894          40.950          41.750    97723604.916 7
  24902711.520         748.216          45.100


 131697669.523 7 102621542.41947  25061243.320                    25061243.320
     -3268.223       -2546.669          42.100          42.450



 23 11  9  8 16  0.0000000  0 11G03G04G06G07G09G11G17G19G20G26G31
 122863945.136 7  95738133.92047  23380237.500                    23380240.640
     -3077.994       -2398.442          43.000          42.800    91749052.859 8
  23380243.240       -2298.408          48.600


 110376883.018 8  86007974.16948  21004024.460                    21004024.460
     -1899.402       -1480.055          48.650          48.050    82424315.346 8
  21004029.020       -1418.326          53.400


 108173334.679 8  84290903.30448  20584705.340                    20584706.240
       386.139         300.886          51.800          51.700    80778791.711 9
  20584708.400         288.354          56.000


 124089262.976 7  96692965.04047  23613390.540                    23613392.160
      3194.797        2489.456          45.750          45.950



 105934190.657 8  82546133.90248  20158605.020                    20158604.840
       268.174         208.966          52.750          52.700    79106715.800 9
  20158606.580         200.231          56.300


 118723918.361 7  92512152.02547  22592415.660                    22592414.600
      2662.379        2074.581          47.050          44.600    88657493.028 8
  22592420.220        1988.114          51.500


 131355291.453 6 102354737.86546  24996099.800                    24996102.880
     -3206.811       -2498.820          40.500          40.400



 124701288.682 7  97169812.58046  23729877.280                    23729876.580
     -3348.180       -2608.977          42.700          41.350



 128023222.098 7  99758350.47846  24362015.680                    24362014.200
      3296.646        2568.816          42.750          39.700



 130834781.768 6 101949202.19346  24897026.880                    24897033.380
       985.636         768.024          41.950          41.700    97701332.085 7
  24897036.040         736.135          44.350


 131795850.212 6 102698046.74846  25079926.500                    25079926.680
     -3278.128       -2554.389          41.750          41.800



 23 11  9  8 16 30.0000000  0 11G03G04G06G07G09G11G17G19G20G26G31
 122956350.316 7  95810137.79447  23397821.700                    23397825.080
     -3083.059       -2402.389          43.700          43.550    91818056.541 8
  23397827.520       -2302.098          48.100


 110434036.936 8  86052509.64248  21014900.460                    21014900.460
     -1911.313       -1489.337          48.400          48.200    82466995.169 8
  21014905.000       -1427.283          53.450


 108162035.244 8  84282098.52648  20582555.120                    20582555.980
       366.697         285.737          51.900          51.850    80770353.790 9
  20582558.260         273.866          56.100


 123993487.188 7  96618334.66447  23595164.900                    23595166.440
      3189.787        2485.552          46.200          45.850



 105926379.236 8  82540047.06848  20157118.620                    20157118.480
       252.266         196.570          53.000          53.050    79100882.586 9
  20157120.000         188.358          56.300


 118644226.048 7  92450054.09847  22577250.660                    22577249.720
      2650.153        2065.055          47.400          44.400    88597982.515 8
  22577255.280        1978.988          51.500


 131451464.900 6 102429678.02146  25014401.280                    25014404.400
     -3205.149       -2497.524          41.500          41.500



 124801825.228 7  97248152.53646  23749008.980                    23749008.140
     -3354.698       -2614.059          43.150          40.650



 127924326.432 7  99681288.87046  24343196.500                    24343195.140
      3295.773        2568.134          42.600          40.400



 130805449.921 7 101926346.13447  24891445.500                    24891451.840
       969.063         755.111          42.250          42.700    97679428.350 7
  24891454.460         723.842          44.050


 131894329.262 7 102774783.57147  25098666.600                    25098667.000
     -3287.833       -2561.950          42.200          42.400



 23 11  9  8 17  0.0000000  0 11G03G04G06G07G09G11G17G19G20G26G31
 123048906.436 7  95882259.29347  23415434.660                    23415438.280
     -3087.489       -2405.841          43.050          43.200    91887172.949 7
  23415440.460       -2305.354          47.950


 110491556.339 8  86097329.91648  21025846.000                    21025846.120
     -1922.874       -1498.345          48.350          48.000    82509947.919 8
  21025850.560       -1435.961          53.300


 108151321.015 8  84273749.75648  20580516.260                    20580517.100
       347.817         271.026          52.200          52.250    80762352.887 9
  20580519.480         259.744          56.100


 123897871.728 7  96543829.24047  23576969.740                    23576971.320
      3185.065        2481.874          45.250          45.050



 105919048.482 8  82534334.78248  20155723.680                    20155723.560
       236.756         184.485          52.900          52.950    79095408.306 9
  20155725.040         176.801          56.250


 118564907.313 7  92388247.28547  22562156.720                    22562155.920
      2638.106        2055.668          47.600          43.600    88538750.982 8
  22562161.420        1970.065          51.350


 131547595.229 6 102504584.59946  25032694.360                    25032697.640
     -3202.959       -2495.818          41.050          41.350



 124902547.281 7  97326637.10046  23768175.940                    23768174.980
     -3360.016       -2618.198          43.100          41.100



 127825461.345 7  99604251.12246  24324382.980                    24324381.780
      3295.391        2567.835          42.850          40.700



 130776614.548 7 101903876.94146  24885958.500                    24885964.840
       953.217         742.765          42.250          41.400    97657895.356 7
  24885967.320         711.885          43.950


 131993104.511 6 102851751.19946  25117463.160                    25117463.680
     -3297.011       -2569.104          40.950          40.900



 23 11  9  8 17 30.0000000  0 11G03G04G06G07G09G11G17G19G20G26G31
 123141610.750 7  95954496.25747  23433075.700                    23433079.680
     -3092.525       -2409.765          42.650          42.100    91956400.012 7
  23433081.760       -2309.307          47.850


 110549437.507 8  86142432.07348  21036860.400                    21036860.520
     -1935.176       -1507.931          48.450          48.050    82553170.814 8
  21036865.040       -1445.167          53.600


 108141190.949 8  84265856.17148  20578588.560                    20578589.380
       328.157         255.707          52.050          52.050    80754788.196 9
  20578591.840         244.969          56.300


 123802417.162 7  96469449.21647  23558805.240                    23558806.820
      3179.159        2477.271          45.700          45.600



 105912196.013 8  82528995.18648  20154419.720                    20154419.620
       220.604         171.899          53.150          53.150    79090291.185 9
  20154421.080         164.733          56.450


 118485962.770 7  92326732.04547  22547134.020                    22547133.320
      2625.447        2045.804          47.650          44.150    88479798.882 8
  22547138.820        1960.488          51.600


 131643678.111 6 102579454.20846  25050978.380                    25050982.000
     -3201.933       -2495.019          41.700          41.250



 125003449.879 7  97405262.30646  23787377.260                    23787376.080
     -3366.293       -2623.092          43.750          41.250



 127726626.162 7  99527236.67546  24305575.220                    24305574.140
      3294.159        2566.876          42.850          40.950



 130748275.369 6 101881794.41846  24880565.860                    24880572.340
       936.472         729.718          41.650          41.950    97636732.915 7
  24880574.440         699.372          43.600


 132092171.736 6 102928946.32946  25136315.200                    25136315.820
     -3307.025       -2576.907          41.050          40.550



 23 11  9  8 18  0.0000000  0 11G03G04G06G07G09G11G17G19G20G26G31
 123234461.163 6  96026847.06846  23450744.500                    23450748.820
     -3097.212       -2413.418          41.950          41.550    92025736.187 7
  23450750.740       -2313.053          47.650


 110607677.215 8  86187813.62547  21047943.080                    21047943.260
     -1947.312       -1517.388          48.600          47.900    82596661.448 8
  21047947.780       -1454.141          53.700


 108131644.662 8  84258417.48248  20576771.960                    20576772.780
       308.427         240.332          51.850          51.850    80747659.444 9
  20576775.280         230.380          56.550


 123707124.545 7  96395195.40147  23540671.620                    23540673.120
      3173.693        2473.014          45.950          45.950



 105905820.005 8  82524026.85748  20153206.400                    20153206.300
       204.475         159.331          52.750          52.700    79085529.865 9
  20153207.720         152.798          56.650


 118407393.584 7  92265509.28647  22532182.800                    22532182.140
      2612.724        2035.889          47.250          44.700    88421127.075 8
  22532187.640        1951.021          51.700


 131739709.549 6 102654283.71546  25069252.680                    25069256.520
     -3200.134       -2493.618          40.800          41.100



 125104528.345 7  97484024.57146  23806612.080                    23806610.660
     -3372.338       -2627.801          43.900          40.800



 127627820.360 7  99450245.12346  24286773.080                    24286772.200
      3293.143        2566.084          42.700          38.950



 130720432.633 6 101860098.74746  24875267.500                    24875274.180
       919.951         716.845          41.300          41.350    97615941.250 7
  24875276.120         686.824          44.200


 132191525.998 6 103006365.13246  25155221.880                    25155222.660
     -3316.503       -2584.290          41.900          41.850



 23 11  9  8 18 30.0000000  0 11G03G04G06G07G09G11G17G19G20G26G31
 123327460.905 6  96099314.23647  23468441.700                    23468446.380
     -3102.479       -2417.522          41.850          42.750    92095183.854 7
  23468448.020       -2316.915          47.350


 110666277.748 8  86233476.33048  21059094.460                    21059094.620
     -1959.436       -1526.834          48.650          48.050    82640421.535 8
  21059099.180       -1463.260          53.550


 108122686.737 8  84251437.25348  20575067.340                    20575068.200
       288.578         224.865          51.750          51.800    80740970.053 9
  20575070.620         215.523          56.350


 123612000.410 7  96321072.91147  23522569.880                    23522571.440
      3167.959        2468.547          45.400          45.700



 105899924.013 8  82519432.56348  20152084.420                    20152084.280
       188.384         146.792          52.550          52.350    79081127.002 9
  20152085.800         140.653          56.600


 118329206.341 7  92204584.14447  22517304.280                    22517303.760
      2599.605        2025.665          47.400          44.600    88362740.475 8
  22517309.080        1941.331          51.400


 131835690.799 6 102729074.10746  25087517.400                    25087521.260
     -3198.803       -2492.582          41.150          40.750



 125205783.409 7  97562924.44546  23825880.380                    23825878.960
     -3378.347       -2632.483          43.550          40.700



 127529049.414 7  99373280.73946  24267977.520                    24267976.820
      3291.827        2565.061          42.550          41.250



 130693092.055 6 101838794.41146  24870064.280                    24870071.440
       902.692         703.397          39.050          38.550    97595524.588 7
  24870073.560         674.250          43.950


 132291168.625 7 103084008.63947  25174183.440                    25174184.340
     -3326.226       -2591.867          42.950          43.000



 23 11  9  8 19  0.0000000  0 12G03G04G06G07G09G11G17G19G20G26G30G31
 123420605.930 6  96171894.61847  23486166.580                    23486171.520
     -3107.194       -2421.196          41.950          42.050    92164740.012 7
  23486172.920       -2320.335          46.800


 110725233.983 8  86279416.21147  21070313.540                    21070313.700
     -1971.063       -1535.896          48.550          47.700    82684447.244 8
  21070318.340       -1471.957          53.200


 108114314.890 8  84244913.71248  20573474.280                    20573475.140
       269.310         209.852          51.950          52.000    80734718.321 9
  20573477.520         201.045          56.000


 123517043.927 7  96247081.06647  23504500.040                    23504501.500
      3162.491        2464.285          45.950          46.000



 105894504.311 8  82515209.40348  20151053.020                    20151052.920
       172.857         134.693          52.300          52.400    79077079.806 9
  20151054.560         129.030          56.300


 118251400.281 7  92143956.03347  22502498.340                    22502497.880
      2587.097        2015.919          47.900          44.400    88304638.529 8
  22502503.080        1931.936          51.000


 131931616.035 6 102803820.88846  25105771.460                    25105775.220
     -3196.755       -2490.983          40.800          41.250



 125307208.387 7  97641956.70046  23845181.060                    23845179.700
     -3383.612       -2636.588          44.100          41.100



 127430311.105 6  99296341.75846  24249188.240                    24249187.600
      3291.105        2564.499          41.750          40.350



 130666251.927 6 101817880.06246  24864956.640                    24864963.920
       886.458         690.749          39.600          40.550    97575481.702 7
  24864966.100         661.858          43.550


                                  25850948.940
      3612.177                          37.550                   101444684.373 6
  25850959.820        2697.347          39.400


 132391093.574 7 103161872.14047  25193198.700                    25193199.500
     -3335.649       -2599.210          42.900          43.050



 23 11  9  8 19 30.0000000  0 12G03G04G06G07G09G11G17G19G20G26G30G31
 123513893.089 6  96244585.75647  23503918.620                    23503923.620
     -3112.295       -2425.170          41.500          42.100    92234402.320 7
  23503924.980       -2323.838          47.100


 110784541.753 8  86325630.02148  21081599.520                    21081599.680
     -1982.806       -1545.044          48.400          48.100    82728735.473 8
  21081604.400       -1480.737          53.350


 108106527.532 8  84238845.61648  20571992.460                    20571993.340
       249.708         194.576          51.650          51.650    80728903.053 9
  20571995.600         186.480          56.100


 123422255.123 7  96173219.87547  23486462.160                    23486463.580
      3156.585        2459.685          45.600          45.400



 105889558.064 8  82511355.17248  20150111.720                    20150111.660
       156.781         122.167          52.400          52.450    79073386.166 9
  20150113.380         117.135          56.500


 118173975.605 8  92083625.09447  22487764.980                    22487764.440
      2574.309        2005.953          48.050          44.850    88246821.383 8
  22487769.660        1922.362          51.100


 132027480.068 6 102878519.96546  25124013.840                    25124017.740
     -3194.757       -2489.426          38.100          38.300



 125408797.468 7  97721116.83446  23864513.020                    23864511.720
     -3389.271       -2640.995          44.200          41.700



 127331604.234 6  99219427.28746  24230404.920                    24230404.400
      3289.431        2563.191          41.900          40.800



 130639911.535 6 101797355.15746  24859944.120                    24859951.360
       869.547         677.571          40.800          40.800    97555812.017 7
  24859953.660         649.286          44.150


 135739238.789 5 105770872.45246  25830317.920                    25830327.360
      3615.177        2817.031          35.700          36.400   101363727.555 6
  25830331.020        2699.686          38.550


 132491295.797 6 103239951.68146  25212266.580                    25212267.560
     -3344.957       -2606.464          41.700          41.700



 23 11  9  8 20  0.0000000  0 12G03G04G06G07G09G11G17G19G20G26G30G31
 123607332.162 6  96317395.24846  23521699.480                    23521704.680
     -3116.798       -2428.680          41.600          41.450    92304178.053 7
  23521706.040       -2327.584          47.050


 110844209.783 8  86372124.55347  21092954.040                    21092954.200
     -1994.731       -1554.338          48.800          47.850    82773292.721 8
  21092959.000       -1489.559          53.350


 108099335.919 8  84233241.73948  20570624.020                    20570624.960
       229.940         179.174          52.250          52.350    80723532.665 9
  20570627.060         171.714          56.100


 123327647.346 7  96099499.75847  23468458.720                    23468460.220
      3150.900        2455.255          45.400          45.300



 105885095.254 8  82507877.64548  20149262.440                    20149262.420
       140.881         109.777          52.350          52.300    79070053.531 9
  20149264.160         105.209          56.550


 118096945.350 8  92023601.50047  22473106.640                    22473106.060
      2561.330        1995.842          48.000          44.350    88189298.775 8
  22473111.280        1912.615          50.850


 132123291.320 6 102953177.91446  25142246.100                    25142250.380
     -3192.576       -2487.726          40.600          40.750



 125510557.804 7  97800410.41946  23883877.520                    23883876.380
     -3394.687       -2645.218          44.300          41.650



 127232940.775 7  99142546.63446  24211629.860                    24211629.320
      3288.186        2562.220          42.000          39.600



 130614082.859 6 101777229.07246  24855029.060                    24855036.240
       852.904         664.605          41.200          41.100    97536524.533 7
  24855038.580         636.767          43.900


 135630749.940 6 105686335.79546  25809672.980                    25809682.100
      3617.494        2818.833          38.450          38.600   101282713.312 6
  25809686.380        2701.474          40.500


 132591782.940 6 103318253.21646  25231388.660                    25231389.860
     -3353.935       -2613.460          41.800          41.700



 23 11  9  8 20 30.0000000  0 12G03G04G06G07G09G11G17G19G20G26G30G31
 123700910.358 6  96390313.15446  23539506.900                    23539512.160
     -3121.980       -2432.719          41.500          41.550    92374057.670 7
  23539513.400       -2331.225          46.700


 110904224.282 8  86418889.06347  21104374.580                    21104374.640
     -2006.577       -1563.567          49.150          47.550    82818108.696 8
  21104379.500       -1498.335          53.150


 108092728.886 8  84228093.38148  20569366.800                    20569367.740
       210.217         163.805          52.150          52.000    80718598.812 9
  20569369.800         156.990          56.000


 123233210.414 7  96025912.79147  23450487.700                    23450489.240
      3144.950        2450.618          45.000          44.550



 105881103.419 8  82504767.10648  20148502.800                    20148502.820
       124.995          97.398          52.350          52.350    79067072.599 9
  20148504.560          93.322          56.350


 118020300.135 8  91963877.94247  22458521.620                    22458521.000
      2548.068        1985.508          48.150          44.800    88132063.684 8
  22458526.060        1902.826          50.750


 132219034.861 6 103027783.17846  25160465.540                    25160470.020
     -3190.393       -2486.024          40.850          41.250



 125612474.212 7  97879825.62046  23903271.660                    23903270.860
     -3399.919       -2649.292          44.500          41.850



 127134309.802 6  99065691.29846  24192861.040                    24192860.360
      3286.938        2561.250          41.500          40.150



 130588755.528 6 101757493.64146  24850209.360                    24850216.720
       835.275         650.868          41.400          40.800    97517611.428 7
  24850218.660         624.051          43.500


 135522174.168 6 105601731.40546  25789011.660                    25789020.440
      3620.108        2820.866          38.000          37.700   101201634.141 6
  25789024.960        2703.555          40.150


 132692540.110 6 103396765.19246  25250561.980                    25250563.600
     -3363.375       -2620.814          41.900          41.750



 23 11  9  8 21  0.0000000  0 12G03G04G06G07G09G11G17G19G20G26G30G31
 123794633.529 6  96463344.00546  23557341.840                    23557347.300
     -3126.584       -2436.306          41.150          41.150    92444045.543 7
  23557348.440       -2334.993          47.050


 110964590.004 8  86465927.25747  21115861.900                    21115861.820
     -2018.226       -1572.645          49.000          47.750    82863186.962 8
  21115866.820       -1507.125          53.300


 108086713.741 8  84223406.23148  20568222.240                    20568223.220
       190.335         148.313          52.150          52.100    80714106.952 9
  20568225.180         142.171          56.150


 123138953.544 7  95952466.11947  23432550.960                    23432552.440
      3138.586        2445.659          45.450          45.250



 105877588.657 8  82502028.31048  20147834.000                    20147834.040
       108.978          84.917          52.100          52.100    79064447.909 9
  20147835.740          81.352          56.600


 117944049.000 8  91904461.44647  22444011.560                    22444010.900
      2534.866        1975.219          48.050          44.550    88075122.876 8
  22444015.960        1892.927          50.900


 132314714.955 6 103102338.97046  25178673.020                    25178677.740
     -3188.289       -2484.385          40.100          40.600



 125714549.558 7  97959364.67046  23922696.100                    23922695.380
     -3405.320       -2653.502          44.050          40.600



 127035718.871 7  98988867.15746  24174099.900                    24174099.100
      3285.661        2560.255          42.350          39.800



 130563937.514 6 101738155.12546  24845486.660                    24845494.000
       818.792         638.027          40.250          40.900    97499078.737 7
  24845495.440         611.180          43.300


 135413520.581 6 105517066.42346  25768335.340                    25768344.620
      3622.912        2823.054          39.000          38.750   101120496.911 7
  25768348.840        2705.359          42.750


 132793571.441 6 103475490.82346  25269787.520                    25269789.440
     -3372.341       -2627.801          41.500          41.050



 23 11  9  8 21 30.0000000  0 12G03G04G06G07G09G11G17G19G20G26G30G31
 123888499.101 6  96536485.81947  23575203.860                    23575209.420
     -3131.180       -2439.887          41.550          42.250    92514139.744 7
  23575210.580       -2338.258          46.300


 111025303.400 8  86513236.36647  21127415.280                    21127415.140
     -2029.505       -1581.433          49.450          47.550    82908524.851 8
  21127420.260       -1515.577          52.950


 108081289.373 8  84219179.42848  20567190.060                    20567191.020
       170.987         133.236          52.550          52.550    80710056.260 9
  20567192.980         127.670          55.900


 123044877.610 7  95879160.40747  23414648.700                    23414650.060
      3133.013        2441.315          45.800          45.700



 105874548.582 8  82499659.40048  20147255.520                    20147255.560
        93.454          72.821          52.600          52.550    79062177.706 9
  20147257.220          69.769          56.250


 117868192.716 8  91845352.63347  22429576.620                    22429575.960
      2521.983        1965.181          48.250          44.850    88018476.932 8
  22429580.980        1883.266          50.600


 132410327.156 6 103176841.86646  25196867.440                    25196872.400
     -3185.786       -2482.437          40.800          41.000



 125816779.331 7  98039024.03546  23942149.840                    23942149.420
     -3410.086       -2657.216          43.700          41.000



 126937167.817 7  98912074.08546  24155346.420                    24155345.440
      3284.249        2559.153          43.400          39.050



 130539628.610 6 101719213.30346  24840860.780                    24840868.080
       801.884         624.853          40.300          39.900    97480926.185 7
  24840869.020         598.765          42.350


 135304789.165 6 105432340.81246  25747644.340                    25747653.720
      3625.580        2825.133          40.950          40.350   101039301.549 7
  25747657.880        2707.406          43.800


 132894871.638 6 103554425.94346  25289064.200                    25289066.440
     -3381.157       -2634.672          41.600          41.150



 23 11  9  8 22  0.0000000  0 12G03G04G06G07G09G11G17G19G20G26G30G31
 123982506.484 6  96609738.13046  23593093.200                    23593098.560
     -3135.800       -2443.486          41.150          40.800    92584339.840 7
  23593099.660       -2341.693          46.600


 111086362.800 8  86560815.08247  21139034.520                    21139034.320
     -2041.142       -1590.501          49.050          47.650    82954121.111 8
  21139039.520       -1524.157          53.100


 108076456.671 8  84215413.65648  20566270.460                    20566271.420
       151.298         117.894          52.150          52.250    80706447.391 9
  20566273.420         112.977          56.050


 122950985.400 7  95805997.85547  23396781.360                    23396782.620
      3126.535        2436.269          45.000          45.000



 105871982.866 8  82497660.12248  20146767.300                    20146767.360
        77.576          60.448          52.350          52.500    79060261.726 9
  20146769.020          57.987          56.500


 117792733.956 8  91786553.59547  22415217.320                    22415216.700
      2508.563        1954.725          48.050          45.250    87962127.844 8
  22415221.660        1873.333          50.750


 132505869.345 6 103251290.19846  25215048.700                    25215053.720
     -3183.474       -2480.633          40.950          41.350



 125919160.013 7  98118801.00347  23961632.320                    23961632.200
     -3415.104       -2661.127          43.500          42.550



 126838657.960 7  98835313.09246  24136600.740                    24136599.480
      3282.917        2558.116          43.650          39.300



 130515830.418 6 101700669.45746  24836331.860                    24836339.280
       784.722         611.478          40.600          40.350    97463155.046 7
  24836339.620         586.103          42.250


 135195982.090 6 105347556.26646  25726938.880                    25726948.300
      3628.203        2827.178          39.800          39.000   100958049.734 7
  25726952.440        2709.337          44.500


 132996438.412 6 103633568.78746  25308391.620                    25308394.080
     -3389.733       -2641.354          40.250          39.550



 23 11  9  8 22 30.0000000  0 12G03G04G06G07G09G11G17G19G20G26G30G31
 124076653.043 6  96683098.90046  23611008.960                    23611014.240
     -3140.258       -2446.961          41.650          41.400    92654643.881 7
  23611015.540       -2345.023          46.650


 111147764.531 8  86608660.54947  21150718.860                    21150718.600
     -2052.089       -1599.031          49.350          46.700    82999973.017 8
  21150723.880       -1532.505          53.150


 108072214.452 8  84212108.00248  20565463.160                    20565464.180
       131.732         102.647          52.050          52.050    80703279.465 9
  20565466.180          98.386          56.200


 122857277.072 7  95732978.57347  23378948.960                    23378950.300
      3120.929        2431.898          45.600          45.650



 105869889.134 8  82496028.62248  20146368.920                    20146368.960
        62.191          48.460          52.400          52.650    79058698.203 9
  20146370.700          46.412          56.650


 117717673.421 8  91728064.85847  22400933.800                    22400933.200
      2495.662        1944.671          48.250          44.850    87906076.140 8
  22400938.020        1863.618          50.850


 132601336.960 6 103325680.45446  25233215.820                    25233220.760
     -3180.830       -2478.571          40.850          40.200



 126021686.243 7  98198691.38446  23981142.620                    23981142.480
     -3419.629       -2664.653          43.900          41.200



 126740188.722 7  98758583.73746  24117862.820                    24117861.480
      3282.014        2557.412          43.700          39.100



 130492542.491 6 101682523.23446  24831900.000                    24831907.560
       768.104         598.527          40.400          40.250    97445764.969 6
  24831907.580         573.469          41.800


 135087099.728 6 105262713.07246  25706219.140                    25706228.500
      3630.606        2829.054          38.250          38.450   100876741.703 7
  25706232.700        2711.486          43.400


 133098267.218 6 103712915.77646  25327768.900                    25327771.620
     -3398.265       -2648.002          37.950          37.350



 23 11  9  8 23  0.0000000  0 13G03G04G06G07G09G11G16G17G19G20G26G30
                                G31
 124170939.065 7  96756568.34446  23628951.220                    23628956.360
     -3145.305       -2450.893          42.100          41.900    92725052.062 7
  23628957.920       -2348.737          46.100


 111209507.859 8  86656772.18547  21162468.220                    21162467.920
     -2063.968       -1608.289          48.900          47.200    83046079.990 8
  21162473.200       -1541.260          52.850


 108068564.417 8  84209263.79048  20564768.560                    20564769.580
       111.646          86.995          52.000          51.900    80700553.760 9
  20564771.640          83.381          55.900


 122763756.285 7  95660105.40247  23361152.380                    23361153.780
      3113.874        2426.401          45.550          45.800



 105868267.845 8  82494765.25648  20146060.440                    20146060.520
        45.953          35.807          52.350          52.550    79057487.471 9
  20146062.200          34.325          56.200


 117643014.682 8  91669889.21047  22386726.740                    22386726.120
      2481.712        1933.801          48.150          44.850    87850324.477 8
  22386730.960        1853.247          50.600


 134065063.474 5 104466309.90145  25511733.580                    25511742.920
      2458.239        1915.518          35.600          33.800



 132696728.702 7 103400011.55546  25251368.440                    25251373.320
     -3178.646       -2476.873          42.500          41.950



 126124355.952 7  98278693.56346  24000680.080                    24000680.140
     -3424.676       -2668.585          43.650          41.650



 126641762.341 7  98681887.78246  24099133.000                    24099131.720
      3280.031        2555.865          43.500          38.650



 130469767.344 6 101664776.57246  24827565.740                    24827573.560
       750.808         585.052          39.550          38.800    97428757.795 6
  24827573.160         560.347          41.900


 134978145.415 6 105177813.76946  25685485.740                    25685495.020
      3632.627        2830.625          37.850          37.300   100795379.916 7
  25685499.200        2712.785          44.700


 133200356.243 6 103792465.54346  25347195.840                    25347198.660
     -3406.931       -2654.755          38.700          39.200



 23 11  9  8 23 30.0000000  0 12G03G04G06G07G09G11G17G19G20G26G30G31
 124265364.306 6  96830146.28047  23646920.100                    23646924.940
     -3150.041       -2454.585          41.850          42.100    92795564.206 7
  23646926.760       -2352.181          46.350


 111271591.478 8  86705148.98047  21174282.340                    21174282.040
     -2075.118       -1616.977          49.300          46.750    83092441.085 8
  21174287.340       -1549.622          53.300


 108065507.702 8  84206881.91048  20564186.840                    20564187.900
        92.112          71.774          51.850          51.750    80698271.125 9
  20564189.980          68.686          56.250


 122670426.177 7  95587380.78447  23343392.100                    23343393.500
      3107.889        2421.735          45.650          45.600



 105867118.960 8  82493870.00648  20145841.840                    20145841.880
        30.459          23.734          52.550          52.850    79056629.518 9
  20145843.540          22.711          56.550


 117568760.753 8  91612028.99447  22372596.680                    22372596.020
      2468.437        1923.456          48.350          45.650    87794875.104 8
  22372600.880        1843.263          50.850


 132792042.310 6 103474281.76246  25269506.060                    25269510.880
     -3175.673       -2474.555          41.650          41.550



 126227166.517 7  98358805.50346  24020244.380                    24020244.500
     -3429.360       -2672.236          43.400          41.500



 126543380.722 7  98605226.72046  24080411.660                    24080410.480
      3278.506        2554.679          43.600          38.350



 130447506.958 6 101647430.99246  24823329.400                    24823337.380
       733.201         571.332          40.250          40.750    97412134.984 7
  24823337.200         547.620          42.700


 134869121.724 5 105092860.38145  25664739.220                    25664748.320
      3634.866        2832.367          35.500          35.900   100713966.260 7
  25664752.600        2714.593          44.750


 133302703.119 6 103872216.25946  25366672.000                    25366674.680
     -3415.964       -2661.795          39.000          39.450



 23 11  9  8 24  0.0000000  0 12G03G04G06G07G09G11G17G19G20G26G30G31
 124359929.815 7  96903833.49947  23664915.420                    23664920.220
     -3154.153       -2457.789          42.050          42.100    92866181.097 7
  23664922.360       -2355.436          46.200


 111334015.430 8  86753790.96947  21186161.320                    21186160.880
     -2086.288       -1625.681          49.250          47.350    83139056.309 8
  21186166.380       -1557.936          53.350


 108063046.798 8  84204964.29548  20563718.500                    20563719.580
        72.164          56.231          51.950          51.800    80696433.401 9
  20563721.660          53.969          56.150


 122577290.803 7  95514807.87847  23325668.920                    23325670.220
      3101.414        2416.689          45.600          45.750



 105866443.746 8  82493343.84348  20145713.340                    20145713.360
        14.729          11.477          52.250          52.400    79056125.276 9
  20145715.040          11.029          56.450


 117494915.993 8  91554487.61347  22358544.500                    22358543.720
      2454.777        1912.813          48.450          45.200    87739731.280 8
  22358548.680        1833.147          50.850


 132887277.370 6 103548490.73246  25287628.820                    25287633.480
     -3173.021       -2472.487          40.300          40.550



 126330116.322 7  98439025.92346  24039835.240                    24039835.360
     -3433.798       -2675.693          43.750          39.750



 126445046.828 7  98528602.85446  24061699.360                    24061698.360
      3277.209        2553.667          43.750          40.000



 130425764.493 6 101630488.98946  24819191.860                    24819199.780
       716.156         558.049          40.950          41.250    97395898.902 7
  24819199.920         534.888          42.950


 134760032.527 5 105007855.87745  25643980.180                    25643989.340
      3637.504        2834.421          34.850          34.300   100632503.622 7
  25643993.500        2716.220          44.500


 133405306.993 6 103952167.24646  25386197.000                    25386199.760
     -3424.166       -2668.185          38.850          38.650



 23 11  9  8 24 30.0000000  0 12G03G04G06G07G09G11G17G19G20G26G30G31
 124454629.790 7  96977625.50747  23682936.560                    23682941.140
     -3158.925       -2461.507          42.550          42.700    92936898.400 7
  23682943.320       -2358.911          46.100


 111396772.829 8  86802692.77947  21198103.740                    21198103.200
     -2097.489       -1634.409          49.600          46.400    83185920.528 8
  21198108.800       -1566.180          53.550


 108061177.162 8  84203507.41548  20563362.700                    20563363.780
        52.369          40.807          52.000          51.950    80695037.213 9
  20563365.900          39.181          56.350


 122484347.589 7  95442384.69747  23307982.400                    23307983.580
      3094.874        2411.593          46.200          46.250



 105866236.553 8  82493182.37148  20145673.880                    20145673.940
        -0.973          -0.759          52.450          52.600    79055970.524 9
  20145675.660          -0.628          56.650


 117421477.805 8  91497263.04947  22344569.660                    22344568.820
      2441.018        1902.092          48.900          44.400    87684891.065 8
  22344573.900        1822.946          51.050


 132982426.207 6 103622632.51346  25305735.120                    25305739.760
     -3170.213       -2470.294          40.050          40.100



 126433197.227 7  98519348.50446  24059450.900                    24059451.040
     -3438.216       -2679.136          43.200          41.550



 126346757.083 7  98452013.37846  24042995.480                    24042994.660
      3275.415        2552.270          43.200          39.700



 130404536.236 6 101613947.64046  24815152.300                    24815159.860
       698.941         544.636          40.850          41.050    97380046.813 7
  24815160.520         522.055          43.600


 134650874.933 6 104922797.95246  25623208.240                    25623217.160
      3639.785        2836.192          36.700          36.350   100550989.766 7
  25623221.560        2717.995          43.050


 133508159.906 6 104032312.26046  25405769.340                    25405772.180
     -3432.430       -2674.624          39.000          39.400



 23 11  9  8 25  0.0000000  0 12G03G04G06G07G09G11G17G19G20G26G30G31
 124549468.093 7  97051525.30947  23700983.960                    23700988.380
     -3163.200       -2464.837          42.350          42.450    93007719.009 7
  23700990.480       -2362.173          46.050


 111459866.514 8  86851856.62847  21210110.100                    21210109.560
     -2108.238       -1642.785          49.400          46.250    83233035.881 8
  21210115.240       -1574.473          53.350


 108059904.029 8  84202515.34248  20563120.460                    20563121.520
        32.788          25.548          52.050          51.950    80694086.473 9
  20563123.620          24.437          56.150


 122391603.972 7  95370117.02147  23290333.940                    23290334.940
      3088.492        2406.620          46.650          46.550



 105866501.394 8  82493388.72048  20145724.280                    20145724.360
       -16.286         -12.690          52.350          52.250    79056168.275 9
  20145726.040         -12.226          56.400


 117348453.362 8  91440360.87547  22330673.520                    22330672.700
      2427.492        1891.552          48.850          45.000    87630359.815 8
  22330677.860        1812.779          50.850


 133077491.401 6 103696709.06846  25323825.680                    25323830.080
     -3166.831       -2467.666          40.950          41.050



 126536410.194 7  98599773.97346  24079091.820                    24079091.920
     -3442.303       -2682.321          42.100          41.500



 126248517.122 7  98375462.70146  24024301.100                    24024300.320
      3274.086        2551.233          43.000          38.950



 130383828.225 6 101597811.64646  24811211.580                    24811218.820
       682.145         531.544          40.000          39.700    97364583.203 7
  24811220.120         509.194          43.300


 134541655.792 6 104837691.91746  25602424.640                    25602433.080
      3641.800        2837.758          38.250          38.250   100469429.810 6
  25602437.880        2719.646          40.650


 133611263.980 6 104112652.98846  25425389.580                    25425392.380
     -3440.362       -2680.807          37.550          37.300



 23 11  9  8 25 30.0000000  0 12G03G04G06G07G09G11G17G19G20G26G30G31
 124644442.998 7  97125531.54947  23719057.320                    23719061.540
     -3167.547       -2468.225          42.600          42.650    93078641.627 7
  23719063.840       -2365.548          46.150


 111523293.757 8  86901280.39047  21222179.940                    21222179.400
     -2119.335       -1651.433          49.350          46.500    83280400.300 8
  21222185.120       -1582.641          53.450


 108059226.986 8  84201987.75348  20562991.680                    20562992.640
        12.951          10.091          52.200          52.150    80693580.858 9
  20562994.840           9.683          56.300


 122299061.005 7  95298005.69647  23272723.700                    23272724.560
      3081.945        2401.519          46.200          46.100



 105867236.741 8  82493961.69848  20145864.240                    20145864.280
       -31.901         -24.859          52.600          52.700    79056717.377 9
  20145865.960         -23.886          56.500


 117275844.198 8  91383782.29447  22316856.360                    22316855.600
      2413.724        1880.823          48.850          44.950    87576138.676 8
  22316860.800        1802.495          51.100


 133172469.470 7 103770717.72647  25341899.580                    25341903.700
     -3163.905       -2465.387          44.200          43.700



 126639751.107 7  98680299.14346  24098757.080                    24098757.220
     -3446.483       -2685.581          42.050          40.700



 126150327.494 7  98298951.25346  24005616.220                    24005615.560
      3272.580        2550.060          42.850          39.600



 130363640.841 6 101582081.35046  24807369.880                    24807377.040
       664.550         517.835          39.800          38.750    97349508.344 7
  24807378.560         496.399          43.700


 134432376.557 6 104752539.01246  25581629.700                    25581637.680
      3643.999        2839.473          38.900          39.100   100387824.933 6
  25581642.720        2721.103          39.900


 133714615.102 6 104193186.20146  25445056.660                    25445059.440
     -3448.813       -2687.394          36.550          36.800



 23 11  9  8 26  0.0000000  0 12G03G04G06G07G09G11G17G19G20G26G30G31
 124739550.398 7  97199641.03147  23737155.880                    23737159.800
     -3172.938       -2472.426          42.650          42.600    93149663.160 7
  23737162.340       -2369.284          46.250


 111587049.310 8  86950959.98547  21234312.260                    21234311.820
     -2131.006       -1660.526          49.600          46.650    83328009.894 8
  21234317.420       -1591.275          53.250


 108059143.121 8  84201922.38148  20562975.800                    20562976.760
        -7.372          -5.745          52.650          52.900    80693518.202 9
  20562978.920          -5.505          56.300


 122206717.814 7  95226050.04747  23255151.280                    23255152.200
      3074.589        2395.786          45.850          45.400



 105868438.547 8  82494898.14948  20146092.960                    20146092.960
       -48.127         -37.502          52.550          52.400    79057614.802 9
  20146094.640         -35.961          56.350


 117203649.383 8  91327526.58647  22303118.100                    22303117.380
      2399.302        1869.586          49.350          44.550    87522226.958 8
  22303122.640        1791.609          51.150


 133267354.041 6 103844653.50946  25359955.740                    25359959.880
     -3161.427       -2463.464          38.300          38.750



 126743212.868 7  98760918.48846  24118445.460                    24118445.620
     -3451.145       -2689.211          42.300          41.000



 126052186.107 7  98222477.38846  23986940.460                    23986939.880
      3270.487        2548.431          42.850          41.050



 130343972.037 6 101566755.11946  24803626.800                    24803633.720
       646.451         503.733          39.250          39.500    97334820.730 7
  24803635.540         482.943          43.250


 134323036.248 6 104667338.63446  25560823.220                    25560830.960
      3645.283        2840.478          39.400          38.350   100306174.504 6
  25560835.900        2722.146          41.300


 133818206.922 6 104273906.97746  25464769.680                    25464772.220
     -3457.231       -2693.946          38.100          38.600



 23 11  9  8 26 30.0000000  0 12G03G04G06G07G09G11G17G19G20G26G30G31
 124834794.624 6  97273857.13147  23755280.500                    23755284.300
     -3177.459       -2475.948          41.850          42.050    93220786.888 7
  23755286.860       -2372.603          46.600


 111651136.628 8  87000898.09347  21246507.720                    21246507.420
     -2142.096       -1669.168          49.300          46.950    83375867.232 8
  21246512.760       -1599.520          52.900


 108059658.215 8  84202323.72648  20563073.940                    20563074.780
       -27.462         -21.400          52.350          52.600    80693902.816 9
  20563077.000         -20.452          56.050


 122114582.242 7  95154256.13747  23237618.500                    23237619.280
      3067.327        2390.127          46.600          46.600



 105870111.427 8  82496201.67448  20146411.300                    20146411.340
       -63.949         -49.831          52.100          52.250    79058864.003 9
  20146412.960         -47.660          56.100


 117131876.671 8  91271599.78947  22289460.200                    22289459.540
      2385.071        1858.497          49.250          44.800    87468630.434 8
  22289464.760        1781.105          50.900


 133362148.921 5 103918519.49045  25377994.760                    25377998.780
     -3158.550       -2461.210          32.900          32.650



 126846797.931 7  98841633.89246  24138157.260                    24138157.440
     -3455.190       -2692.362          42.350          41.000



 125954099.369 7  98146046.14446  23968275.120                    23968274.680
      3268.378        2546.787          42.700          39.450



 130324828.260 6 101551837.99346  24799983.800                    24799990.740
       628.915         490.065          40.250          40.200    97320525.190 7
  24799992.140         469.693          42.800


 134213642.374 6 104582096.66746  25540006.380                    25540014.160
      3647.057        2841.864          38.800          38.650   100224484.268 7
  25540018.960        2723.510          42.350


 133922042.195 6 104354817.44046  25484528.980                    25484531.160
     -3465.508       -2700.399          38.550          39.100



 23 11  9  8 27  0.0000000  0 12G03G04G06G07G09G11G17G19G20G26G30G31
 124930169.852 7  97348175.33146  23773429.880                    23773433.560
     -3181.775       -2479.310          42.300          41.900    93292008.450 7
  23773436.340       -2376.204          46.950


 111715548.725 8  87051089.27247  21258765.000                    21258764.780
     -2153.193       -1677.815          49.650          47.100    83423967.100 8
  21258769.920       -1607.859          53.200


 108060767.550 8  84203188.12148  20563285.120                    20563285.960
       -47.710         -37.178          52.600          52.650    80694731.181 9
  20563288.100         -35.464          56.400


 122022651.476 7  95082621.80747  23220124.840                    23220125.280
      3060.132        2384.520          46.800          46.600



 105872249.543 8  82497867.72048  20146818.160                    20146818.280
       -79.748         -62.142          52.300          52.400    79060460.625 9
  20146819.820         -59.495          56.400


 117060523.366 8  91215999.79647  22275882.160                    22275881.500
      2370.601        1847.220          49.150          45.000    87415347.102 8
  22275886.660        1770.434          51.250


 133456846.502 6 103992309.57046  25396015.380                    25396019.120
     -3155.666       -2458.956          37.800          38.750



 126950497.997 7  98922438.90746  24157891.040                    24157891.000
     -3459.187       -2695.479          42.400          40.000



 125856063.601 7  98069654.59046  23949619.480                    23949619.040
      3266.399        2545.245          43.200          38.850



 130306205.608 6 101537326.94646  24796440.080                    24796446.720
       611.325         476.362          39.600          39.700    97306618.797 7
  24796448.140         456.520          42.950


 134104192.027 6 104496810.81446  25519178.680                    25519186.640
      3648.789        2843.218          40.050          40.600   100142752.035 7
  25519191.180        2724.547          43.150


 134026113.107 6 104435911.56346  25504332.980                    25504335.140
     -3473.483       -2706.609          38.150          38.300



 23 11  9  8 27 30.0000000  0 12G03G04G06G07G09G11G17G19G20G26G30G31
 125025679.428 7  97422598.20947  23791604.760                    23791608.400
     -3186.096       -2482.678          42.150          42.300    93363330.324 7
  23791611.520       -2379.268          47.400


 111780287.953 8  87101535.35847  21271084.540                    21271084.460
     -2163.721       -1686.018          49.600          47.700    83472311.248 8
  21271089.280       -1615.670          53.050


 108062475.710 8  84204519.12248  20563610.200                    20563611.060
       -67.190         -52.357          52.150          52.300    80696006.719 9
  20563613.260         -50.133          56.350


 121930932.121 7  95011152.24147  23202671.220                    23202671.680
      3053.465        2379.326          46.150          46.250



 105874856.396 8  82499899.01348  20147314.260                    20147314.340
       -94.968         -74.001          52.200          52.100    79062407.273 9
  20147315.920         -70.845          56.350


 116989596.047 8  91160731.74347  22262385.140                    22262384.380
      2357.001        1836.624          49.300          44.800    87362381.895 8
  22262389.600        1759.979          51.150


 133551448.208 6 104066024.84246  25414017.680                    25414021.460
     -3152.102       -2456.198          38.000          39.250



 127054313.627 7  99003333.96046  24177646.760                    24177646.920
     -3462.673       -2698.196          43.050          40.200



 125758084.208 7  97993306.95446  23930974.600                    23930974.060
      3264.756        2543.964          43.150          41.200



 130288109.570 6 101523226.19446  24792996.420                    24793003.120
       594.284         463.083          39.600          39.750    97293105.599 7
  24793004.260         443.726          43.100


 133994691.629 6 104411485.99646  25498341.380                    25498349.320
      3650.697        2844.703          40.350          40.550   100060982.447 7
  25498353.900        2726.182          42.900


 134130420.981 6 104517190.28946  25524182.140                    25524184.220
     -3481.016       -2712.483          39.750          39.400



 23 11  9  8 28  0.0000000  0 12G03G04G06G07G09G11G17G19G20G26G30G31
 125121319.973 6  97497123.13146  23809804.640                    23809808.580
     -3190.054       -2485.762          41.200          41.300    93434750.009 7
  23809811.620       -2382.150          47.750


 111845349.872 8  87152232.89847  21283465.540                    21283465.540
     -2173.820       -1693.889          49.250          47.450    83520896.383 8
  21283470.140       -1623.381          53.200


 108064780.534 8  84206315.06048  20564048.820                    20564049.660
       -86.581         -67.467          51.800          51.800    80697727.819 9
  20564051.820         -64.670          56.400


 121839423.879 7  94939847.19147  23185257.680                    23185258.260
      3047.023        2374.306          46.700          46.750



 105877928.723 8  82502293.01648  20147898.920                    20147898.920
      -109.902         -85.639          51.950          51.850    79064701.522 9
  20147900.600         -82.114          56.550


 116919094.617 8  91105795.55047  22248969.240                    22248968.340
      2343.161        1825.839          49.350          44.350    87309734.708 8
  22248973.540        1749.736          51.150


 133645949.051 5 104139661.58645  25432000.920                    25432004.400
     -3148.325       -2453.245          35.400          34.300



 127158239.114 7  99084314.61846  24197423.360                    24197423.380
     -3465.596       -2700.472          43.350          39.850



 125660159.848 7  97917002.21046  23912340.360                    23912339.760
      3263.696        2543.138          43.050          38.850



 130270538.689 6 101509534.64846  24789652.800                    24789659.600
       577.255         449.811          40.350          40.200    97279984.545 7
  24789660.500         431.005          43.400


 133885140.729 6 104326121.84546  25477494.340                    25477502.360
      3652.501        2846.110          40.550          40.350    99979175.214 6
  25477506.860        2727.726          41.850


 134234960.558 6 104598649.63046  25544075.680                    25544077.320
     -3488.486       -2718.305          36.350          36.300



 23 11  9  8 28 30.0000000  0 11G03G04G06G07G09G11G19G20G26G30G31
 125217089.647 6  97571748.68147  23828029.100                    23828033.180
     -3194.294       -2489.066          41.850          42.350    93506266.088 7
  23828036.340       -2385.327          47.600


 111910731.659 8  87203179.68647  21295907.300                    21295907.440
     -2184.413       -1702.143          49.000          47.800    83569720.368 8
  21295911.980       -1631.268          53.050


 108067681.372 8  84208575.41848  20564600.800                    20564601.720
      -106.397         -82.908          51.850          51.650    80699893.986 9
  20564603.900         -79.497          56.350


 121748127.987 7  94868707.59947  23167884.780                    23167885.180
      3039.983        2368.823          47.500          47.100



 105881464.810 8  82505048.38248  20148571.820                    20148571.760
      -125.285         -97.625          52.100          52.350    79067342.077 9
  20148573.500         -93.612          56.350


 116849020.477 8  91051192.31047  22235634.640                    22235633.620
      2329.021        1814.820          49.300          44.700    87257406.602 8
  22235638.780        1739.071          50.900


 127262269.990 7  99165377.36246  24217220.020                    24217219.860
     -3469.059       -2703.172          42.750          36.950



 125562290.830 7  97840740.58146  23893716.580                    23893715.880
      3261.469        2541.401          43.100          40.300



 130253493.111 6 101496252.42546  24786409.440                    24786416.040
       559.730         436.154          41.400          41.100    97267255.746 7
  24786416.840         417.907          43.100


 133775540.553 6 104240719.42046  25456637.960                    25456646.260
      3654.252        2847.482          39.550          39.500    99897331.260 7
  25456650.280        2729.104          42.050


 134339727.562 6 104680286.17046  25564012.180                    25564013.760
     -3495.722       -2723.939          37.400          38.000



 23 11  9  8 29  0.0000000  0 11G03G04G06G07G09G11G19G20G26G30G31
 125312989.806 7  97646475.88547  23846278.480                    23846282.640
     -3198.561       -2492.392          42.250          42.200    93577879.622 7
  23846285.780       -2388.512          47.750


 111976433.636 8  87254375.96247  21308409.920                    21308410.240
     -2195.136       -1710.497          49.650          47.150    83618783.449 8
  21308414.740       -1639.175          52.900


 108071180.731 8  84211302.15548  20565266.660                    20565267.660
      -126.413         -98.505          52.250          52.150    80702507.099 9
  20565269.800         -94.354          56.150


 121657049.628 7  94797737.51647  23150553.080                    23150553.460
      3032.548        2363.027          47.250          47.400



 105885466.070 8  82508166.22948  20149333.280                    20149333.200
      -140.825        -109.734          52.600          52.650    79070330.007 9
  20149334.900        -105.186          56.300


 116779378.188 8  90996925.57447  22222382.220                    22222381.080
      2314.410        1803.437          49.600          44.550    87205400.973 8
  22222386.160        1728.335          50.800


 127366405.081 7  99246521.37046  24237036.540                    24237036.060
     -3472.558       -2705.896          43.650          37.350



 125464480.878 7  97764525.00046  23875104.140                    23875103.440
      3259.465        2539.843          43.250          38.700



 130236976.193 6 101483382.10346  24783266.620                    24783273.200
       541.765         422.154          40.800          40.600    97254921.662 7
  24783273.660         404.814          43.200


 133665895.515 6 104155282.17846  25435772.820                    25435781.400
      3655.489        2848.450          39.400          38.750    99815453.994 7
  25435785.140        2730.012          44.500


 134444721.794 5 104762099.78245  25583992.040                    25583993.500
     -3503.078       -2729.675          35.300          35.000



 23 11  9  8 29 30.0000000  0 12G03G04G06G07G09G11G16G19G20G26G30G31
 125409019.996 7  97721304.40347  23864552.540                    23864556.980
     -3203.356       -2496.128          42.550          42.250    93649590.254 7
  23864559.960       -2392.288          47.850


 112042454.347 8  87305820.61147  21320973.240                    21320973.640
     -2206.387       -1719.264          49.400          47.550    83668084.550 8
  21320978.200       -1647.658          52.900


 108075279.328 8  84214495.82848  20566046.560                    20566047.660
      -146.790        -114.383          52.050          51.650    80705567.692 9
  20566049.760        -109.791          56.300


 121566191.037 7  94726938.69047  23133263.220                    23133263.680
      3024.529        2356.779          47.750          47.750



 105889932.196 8  82511646.30048  20150183.180                    20150183.100
      -157.089        -122.408          52.800          52.400    79073665.072 9
  20150184.820        -117.258          56.500


 116710170.537 8  90942997.52147  22209212.420                    22209211.260
      2299.166        1791.558          49.750          44.250    87153719.918 8
  22209216.380        1716.952          50.850


                                  25334368.540
      2318.098                          36.400



 127470641.398 7  99327744.21446  24256872.200                    24256871.780
     -3476.500       -2708.969          43.350          38.350



 125366731.296 7  97688356.45746  23856503.060                    23856502.280
      3256.842        2537.799          43.500          38.650



 130220989.356 6 101470924.80546  24780224.640                    24780231.080
       523.630         408.022          40.550          40.900    97242983.440 7
  24780231.700         390.967          43.750


 133556208.119 6 104069811.96946  25414899.620                    25414908.520
      3656.431        2849.184          38.600          38.650    99733545.144 7
  25414911.940        2730.604          45.350


 134549940.902 5 104844088.61345  25604014.380                    25604016.080
     -3510.890       -2735.756          35.250          35.650



 23 11  9  8 30  0.0000000  0 12G03G04G06G07G09G11G16G19G20G26G30G31
 125505179.593 7  97796233.78246  23882851.280                    23882855.960
     -3207.047       -2499.004          42.500          41.950    93721397.514 7
  23882858.640       -2394.846          47.650


 112108792.070 8  87357512.28147  21333596.920                    21333597.420
     -2216.157       -1726.878          49.150          47.350    83717622.388 8
  21333601.920       -1654.899          52.850


 108079977.587 8  84218156.76248  20566940.640                    20566941.800
      -166.074        -129.409          51.850          51.750    80709076.097 9
  20566943.880        -124.175          56.400


 121475554.902 7  94656313.22647  23116015.780                    23116016.300
      3017.683        2351.445          47.550          47.300



 105894862.581 8  82515488.13248  20151121.460                    20151121.300
      -171.981        -134.013          52.350          52.600    79077346.809 9
  20151123.160        -128.254          56.650


 116641400.056 8  90889410.11047  22196125.840                    22196124.680
      2285.354        1780.795          49.200          44.350    87102365.312 8
  22196129.760        1706.619          50.900


 133063616.631 6                  25321166.120
      2307.380                          36.550



 127574976.038 7  99409043.68246  24276726.420                    24276726.080
     -3479.096       -2710.993          42.250          38.000



 125269043.894 7  97612236.37146  23837913.940                    23837913.120
      3255.708        2536.915          43.100          39.800



 130205533.879 6 101458881.54546  24777283.420                    24777290.220
       506.913         394.996          40.700          40.550    97231441.980 7
  24777290.720         378.394          44.100


 133446480.729 6 103984310.59846  25394018.740                    25394027.640
      3659.003        2851.188          37.300          37.200    99651606.471 7
  25394031.000        2732.248          44.700


 134655381.883 5 104926250.28545  25624079.220                    25624080.920
     -3517.739       -2741.103          34.350          34.100



 23 11  9  8 30 30.0000000  0 12G03G04G06G07G09G11G16G19G20G26G30G31
 125601465.543 7  97871261.59647  23901174.020                    23901178.960
     -3211.236       -2502.269          42.750          43.350    93793299.148 7
  23901181.360       -2398.179          47.600


 112175442.749 8  87409447.81447  21346280.100                    21346280.780
     -2226.734       -1735.119          49.450          47.100    83767393.932 8
  21346285.080       -1662.818          52.700


 108085273.591 8  84222283.47948  20567948.460                    20567949.600
      -186.254        -145.135          52.100          51.800    80713030.846 9
  20567951.660        -139.187          56.350


 121385141.483 7  94585861.31647  23098810.520                    23098811.120
      3010.274        2345.671          47.550          47.500



 105900254.168 8  82519689.34848  20152147.480                    20152147.320
      -187.281        -145.934          52.250          52.150    79081372.983 9
  20152149.260        -139.850          56.550


 116573066.930 8  90836163.49847  22183122.440                    22183121.300
      2270.626        1769.318          49.650          44.500    87051337.311 8
  22183126.420        1695.535          50.900


 132994581.537 5                  25308028.980
      2295.733                          33.650



 127679403.191 7  99490415.25245  24296598.360                    24296598.160
     -3482.247       -2713.446          42.850          35.800



 125171417.687 7  97536163.97346  23819336.360                    23819335.280
      3253.299        2535.038          43.400          39.750



 130190608.656 6 101447251.47146  24774443.020                    24774450.040
       488.964         381.009          40.150          39.950    97220296.496 7
  24774450.780         364.907          43.950


 133336713.407 5 103898778.14445  25373130.100                    25373139.080
      3659.333        2851.446          35.550          35.300    99569637.963 7
  25373142.260        2732.771          44.100


 134761040.138 6 105008581.29546  25644185.600                    25644187.280
     -3525.169       -2746.886          36.200          36.800



 23 11  9  8 31  0.0000000  0 12G03G04G06G07G09G11G16G19G20G26G30G31
 125697879.634 7  97946389.28147  23919521.240                    23919526.140
     -3215.620       -2505.684          43.350          44.050    93865296.475 7
  23919528.560       -2401.496          47.550


 112242407.172 8  87461627.82947  21359023.040                    21359023.620
     -2237.413       -1743.440          49.250          47.100    83817399.764 8
  21359028.160       -1670.783          52.850


 108091170.185 8  84226878.18448  20569070.620                    20569071.800
      -206.314        -160.766          52.350          52.350    80717434.104 9
  20569073.840        -154.249          56.400


 121294955.503 7  94515586.62647  23081648.560                    23081649.240
      3002.451        2339.576          47.250          47.550



 105906108.943 8  82524251.49248  20153261.620                    20153261.560
      -203.226        -158.357          52.750          52.650    79085745.022 9
  20153263.400        -151.531          56.600


 116505176.210 8  90783261.62847  22170203.300                    22170202.200
      2255.562        1757.580          49.600          44.500    87000639.673 8
  22170207.320        1684.356          51.000


 132925897.401 6 103578667.82644  25294958.800                    25294965.820
      2283.729        1779.536          37.250          28.550



 127783922.563 6  99571858.67546  24316487.740                    24316487.600
     -3485.494       -2715.979          41.600          37.350



 125073856.595 7  97460142.32946  23800771.080                    23800770.140
      3250.894        2533.162          43.950          38.350



 130176217.439 6 101436037.45046  24771704.380                    24771711.300
       470.900         366.933          39.350          39.300    97209549.704 7
  24771712.400         351.560          43.950


 133226910.804 5 103813218.20445  25352234.680                    25352243.960
      3660.645        2852.464          35.900          35.700    99487643.118 7
  25352246.860        2733.555          45.650


 134866915.361 5 105091081.40545  25664332.720                    25664335.280
     -3532.901       -2752.912          34.950          34.500



 23 11  9  8 31 30.0000000  0 12G03G04G06G07G09G11G16G19G20G26G30G31
 125794418.246 7  98021613.98347  23937892.040                    23937897.240
     -3220.086       -2509.165          42.800          42.450    93937386.770 7
  23937899.440       -2404.583          47.000


 112309680.631 8  87514048.64447  21371824.820                    21371825.260
     -2247.365       -1751.196          49.250          46.950    83867636.371 8
  21371830.140       -1678.356          52.600


 108097664.762 8  84231938.84948  20570306.600                    20570307.640
      -226.505        -176.499          52.500          52.250    80722283.891 9
  20570309.740        -169.079          56.250


 121204996.645 7  94445488.94047  23064529.780                    23064530.600
      2994.804        2333.617          47.900          47.950



 105912423.160 8  82529171.64048  20154463.180                    20154463.260
      -218.221        -170.043          52.650          52.400    79090460.170 9
  20154464.980        -162.894          56.500


 116437727.354 8  90730704.06647  22157368.260                    22157367.140
      2240.906        1746.160          49.800          44.250    86950272.006 8
  22157372.340        1673.390          50.800


 132857563.923 5 103525420.77844  25281955.520                    25281962.320
      2271.619        1770.079          35.600          26.550



 127888527.714 7  99653368.93346  24336393.620                    24336393.660
     -3488.274       -2718.146          42.500          36.400



 124976358.963 7  97384170.11946  23782217.880                    23782216.960
      3248.682        2531.438          43.850          38.100



 130162358.316 6 101425238.05946  24769066.920                    24769073.720
       453.007         352.989          39.850          40.250    97199200.257 7
  24769075.260         338.379          43.700


 133117072.381 6 103727630.29846  25331332.580                    25331342.060
      3662.161        2853.646          36.950          37.100    99405621.462 7
  25331344.660        2734.482          46.250


 134973002.264 5 105173746.40445  25684520.260                    25684523.020
     -3539.591       -2758.130          35.250          34.500



 23 11  9  8 32  0.0000000  0 12G03G04G06G07G09G11G16G19G20G26G30G31
 125891082.526 7  98096936.61347  23956286.840                    23956292.280
     -3224.002       -2512.216          42.800          43.000    94009570.923 7
  23956294.360       -2407.591          47.250


 112377263.335 8  87566710.44047  21384685.360                    21384685.800
     -2257.919       -1759.418          48.850          47.050    83918103.898 8
  21384690.800       -1686.047          52.750


 108104759.522 8  84237467.19948  20571656.780                    20571657.780
      -246.395        -191.997          52.350          52.250    80727581.880 9
  20571659.880        -184.022          56.600


 121115269.195 7  94375571.56547  23047455.160                    23047455.980
      2987.005        2327.540          47.600          47.300



 105919198.098 8  82534450.78748  20155752.400                    20155752.520
      -233.598        -182.025          52.200          52.200    79095519.346 9
  20155754.240        -174.261          56.750


 116370724.793 8  90678494.26347  22144618.140                    22144616.920
      2226.035        1734.572          49.850          44.750    86900237.608 8
  22144622.260        1662.306          51.200


 132789586.697 6 103472443.49755  25269019.880                    25269027.780
      2260.506        1761.452          37.650          34.050



 127993217.774 6  99734945.39046  24356315.540                    24356315.740
     -3490.855       -2720.153          41.150          38.250



 124878928.151 7  97308249.98846  23763677.320                    23763676.340
      3246.534        2529.766          43.550          39.650



 130149034.310 6 101414855.64946  24766531.440                    24766538.220
       435.055         339.001          39.650          39.850    97189250.428 7
  24766539.840         324.991          43.700


 133007202.317 6 103642017.62146  25310424.780                    25310433.980
      3663.372        2854.585          37.000          36.400    99323576.057 7
  25310436.560        2735.227          46.150


 135079300.278 5 105256575.95645  25704748.280                    25704751.120
     -3546.519       -2763.528          34.600          34.500



 23 11  9  8 32 30.0000000  0 12G03G04G06G07G09G11G16G19G20G26G30G31
 125987871.252 7  98172356.21847  23974705.420                    23974710.920
     -3228.465       -2515.693          42.900          42.600    94081847.996 7
  23974713.080       -2410.829          46.800


 112445152.941 8  87619611.36047  21397604.360                    21397604.720
     -2268.077       -1767.335          48.950          46.750    83968800.609 8
  21397609.820       -1693.742          52.300


 108112454.229 8  84243463.03548  20573121.120                    20573121.980
      -266.647        -207.778          52.400          52.550    80733327.880 9
  20573124.180        -199.072          56.150


 121025774.947 7  94305835.92147  23030424.860                    23030425.720
      2979.225        2321.479          47.350          47.500



 105926432.524 8  82540087.98148  20157129.080                    20157129.200
      -248.959        -193.994          52.450          52.400    79100921.653 9
  20157130.960        -185.866          56.300


 116304170.412 8  90626633.68647  22131953.300                    22131952.020
      2210.830        1722.725          50.100          44.850    86850537.882 8
  22131957.460        1650.989          50.850


 132721967.833 6 103419753.32645  25256152.760                    25256157.620
      2247.765        1751.511          37.800          34.300



 128097988.890 6  99816584.96946  24376252.920                    24376253.340
     -3493.783       -2722.436          41.650          37.400



 124781565.376 7  97232382.88046  23745149.740                    23745148.800
      3244.204        2527.950          43.150          37.800



 130136246.010 6 101404890.65246  24764097.840                    24764104.920
       417.037         324.962          38.950          38.800    97179700.608 7
  24764106.340         311.674          43.650


 132897302.352 6 103556381.51246  25289511.440                    25289520.300
      3663.740        2854.868          39.350          39.200    99241508.166 7
  25289522.860        2735.873          44.900


 135185805.971 5 105339567.37045  25725015.700                    25725018.620
     -3553.452       -2768.927          33.850          33.550



 23 11  9  8 33  0.0000000  0 12G03G04G06G07G09G11G16G19G20G26G30G31
 126084780.614 6  98247869.82947  23993146.840                    23993152.380
     -3231.879       -2518.354          41.700          42.250    94154215.175 7
  23993154.460       -2413.627          46.350


 112513344.741 8  87672747.75447  21410580.860                    21410581.160
     -2278.079       -1775.130          49.200          46.700    84019722.963 8
  21410586.320       -1701.061          52.550


 108120746.079 8  84249924.18648  20574699.020                    20574699.840
      -286.164        -222.986          52.450          52.350    80739519.812 9
  20574702.060        -213.740          56.300


 120936513.359 8  94236281.55848  23013438.780                    23013439.660
      2971.555        2315.501          48.200          48.100



 105934122.688 8  82546080.30048  20158592.480                    20158592.620
      -263.837        -205.588          52.750          52.750    79106664.290 9
  20158594.340        -197.040          56.550


 116238063.632 8  90575121.88947  22119373.640                    22119372.340
      2196.175        1711.305          50.200          44.800    86801172.406 8
  22119377.800        1639.964          51.050


 132654707.751 6 103367342.81145  25243353.740                    25243358.080
      2236.545        1742.760          36.600          34.650



 128202834.680 6  99898282.73346  24396204.620                    24396205.600
     -3495.816       -2724.022          41.850          39.050



 124684268.883 7  97156567.42146  23726634.860                    23726633.880
      3242.405        2526.551          43.550          38.300



 130123991.454 6 101395341.55146  24761765.840                    24761773.120
       399.809         311.534          39.400          39.900    97170549.372 7
  24761774.400         298.487          43.700


 132787371.881 6 103470721.47946  25268592.380                    25268601.060
      3664.881        2855.752          40.300          40.350    99159417.315 7
  25268603.460        2736.770          45.350


 135292513.915 6 105422716.31946  25745321.820                    25745324.700
     -3559.856       -2773.921          38.000          38.300



 23 11  9  8 33 30.0000000  0 11G03G04G06G07G09G11G16G19G20G26G30
 126181811.880 6  98323478.41646  24011611.360                    24011617.020
     -3236.453       -2521.918          40.850          40.950    94226673.360 7
  24011618.860       -2416.629          45.850


 112581838.868 8  87726119.72947  21423615.040                    21423615.240
     -2288.062       -1782.908          48.850          46.750    84070871.096 8
  21423620.460       -1708.549          52.300


 108129637.268 8  84256852.35348  20576390.960                    20576391.780
      -306.440        -238.786          51.900          51.950    80746159.285 9
  20576394.000        -228.738          56.100


 120847488.846 8  94166911.92448  22996497.920                    22996498.640
      2963.703        2309.383          48.050          48.000



 105942269.782 8  82552428.65748  20160142.860                    20160142.980
      -279.053        -217.444          52.300          52.050    79112748.128 9
  20160144.660        -208.395          56.250


 116172408.808 8  90523962.26647  22106879.980                    22106878.620
      2181.029        1699.503          50.000          45.100    86752144.424 8
  22106884.160        1628.726          51.000


 132587811.441 6 103315215.70644  25230623.780                    25230628.600
      2223.906        1732.912          37.150          29.350



 128307753.639 6  99980037.51846  24416170.240                    24416171.580
     -3497.974       -2725.707          40.600          38.050



 124587042.185 7  97080806.33746  23708133.260                    23708132.220
      3239.917        2524.612          43.000          37.600



 130112273.545 6 101386210.65846  24759536.020                    24759543.520
       381.708         297.431          39.700          40.350    97161798.895 7
  24759544.460         285.063          42.750


 132677415.104 6 103385040.86546  25247668.360                    25247676.660
      3665.850        2856.506          40.150          39.900    99077306.740 7
  25247679.320        2737.363          45.200


 23 11  9  8 34  0.0000000  0 12G03G04G06G07G09G11G16G19G20G26G30G31
 126278972.386 6  98399187.70046  24030100.360                    24030106.160
     -3240.562       -2525.119          40.750          40.500    94299228.060 7
  24030107.880       -2419.812          46.150


 112650641.746 8  87779732.29747  21436708.000                    21436707.980
     -2298.280       -1790.869          49.350          46.700    84122249.792 8
  21436713.460       -1716.214          52.750


 108139136.104 8  84264254.00948  20578198.540                    20578199.300
      -326.548        -254.453          52.250          52.000    80753252.529 9
  20578201.580        -243.823          56.350


 120758712.090 7  94097735.35447  22979604.160                    22979604.820
      2955.374        2302.894          47.600          47.500



 105950881.233 8  82559138.85548  20161781.640                    20161781.700
      -294.528        -229.504          52.850          52.900    79119178.733 9
  20161783.400        -219.957          56.600


 116107216.557 8  90473163.09247  22094474.380                    22094473.080
      2165.579        1687.464          50.400          45.550    86703461.879 8
  22094478.600        1617.173          51.600


 132521290.441 6 103263381.21945  25217965.420                    25217970.200
      2211.002        1722.848          36.950          32.950



 128412751.279 6 100061853.64646  24436150.780                    24436152.020
     -3500.878       -2727.963          40.600          36.400



 124489894.617 7  97005106.92346  23689646.760                    23689645.640
      3237.184        2522.479          43.950          39.800



 130101101.487 6 101377505.06346  24757410.140                    24757417.600
       363.385         283.155          39.200          39.300    97153455.991 7
  24757418.320         271.603          42.900


 132567442.638 6 103299347.85446  25226741.360                    25226749.180
      3666.523        2857.024          41.100          40.750    98995184.279 7
  25226752.380        2737.915          43.550


 135506615.214 5 105589563.28645  25786049.700                    25786053.060
     -3573.649       -2784.657          33.500          34.050



 23 11  9  8 34 30.0000000  0 11G03G04G06G07G09G11G16G19G20G26G30
 126376242.690 6  98474982.53246  24048610.340                    24048616.320
     -3244.581       -2528.253          40.600          40.650    94371864.732 7
  24048617.840       -2422.957          45.700


 112719732.887 8  87833569.48047  21449855.800                    21449855.660
     -2308.230       -1798.624          49.350          46.500    84173843.752 8
  21449861.200       -1723.765          52.400


 108149224.017 8  84272114.68548  20580118.160                    20580119.040
      -346.590        -270.071          52.150          52.050    80760785.670 9
  20580121.240        -258.808          56.200


 120670166.545 7  94028738.99747  22962754.260                    22962755.160
      2947.183        2296.511          47.900          47.850



 105959937.561 8  82566195.70648  20163505.100                    20163505.040
      -309.892        -241.475          52.900          53.050    79125941.537 9
  20163506.780        -231.348          56.500


 116042470.523 8  90422711.61547  22082153.680                    22082152.420
      2150.134        1675.429          50.400          45.250    86655112.543 8
  22082157.900        1605.659          51.550


 132455128.596 6 103211826.62545  25205375.080                    25205379.560
      2198.979        1713.489          38.200          32.000



 128517805.502 6 100143713.80746  24456142.220                    24456143.360
     -3503.288       -2729.841          41.900          36.650



 124392809.145 7  96929455.90446  23671172.020                    23671170.980
      3234.401        2520.313          44.150          38.750



 130090457.502 6 101369210.92246  24755384.800                    24755392.180
       345.414         269.149          39.600          40.050    97145507.423 7
  24755392.680         258.080          42.800


 132457438.160 6 103213629.87346  25205808.340                    25205815.980
      3666.742        2857.195          40.650          40.150    98913037.843 7
  25205819.340        2738.061          43.100


 23 11  9  8 35  0.0000000  0 11G03G04G06G07G09G11G16G19G20G26G30
 126473638.543 6  98550875.18946  24067144.180                    24067150.520
     -3248.291       -2531.144          40.750          40.800    94444595.150 7
  24067151.560       -2425.585          45.050


 112789127.034 8  87887642.76547  21463061.240                    21463061.020
     -2317.730       -1806.026          49.850          46.150    84225663.970 8
  21463066.540       -1730.802          52.400


 108159917.694 8  84280447.38348  20582153.060                    20582154.000
      -366.187        -285.342          52.150          52.100    80768771.160 9
  20582156.240        -273.402          56.350


 120581871.244 7  93959937.58747  22945952.100                    22945952.980
      2939.455        2290.488          47.800          47.850



 105969454.470 8  82573611.44648  20165316.120                    20165316.020
      -324.501        -252.859          52.750          52.600    79133048.286 9
  20165317.800        -242.343          56.650


 115978189.569 8  90372622.54147  22069921.480                    22069920.280
      2135.309        1663.877          50.400          44.950    86607110.507 8
  22069925.800        1594.519          51.850


 132389345.844 6 103160567.46045  25192856.980                    25192861.960
      2186.762        1703.976          38.850          32.550



 128622929.436 6 100225628.31346  24476147.040                    24476148.060
     -3504.744       -2730.979          41.250          38.750



 124295803.655 7  96853867.22346  23652712.540                    23652711.620
      3232.531        2518.856          43.900          38.850



 130080359.021 6 101361341.86246  24753463.420                    24753470.580
       327.931         255.525          39.950          40.050    97137966.228 7
  24753470.780         244.966          43.000


 132347420.574 6 103127901.70146  25184872.820                    25184880.640
      3668.131        2858.278          39.750          39.600    98830881.642 7
  25184883.920        2739.044          43.300


 23 11  9  8 35 30.0000000  0 11G03G04G06G07G09G11G16G19G20G26G30
 126571153.112 6  98626860.35246  24085700.720                    24085707.200
     -3251.811       -2533.885          40.650          40.800    94517414.259 7
  24085707.940       -2428.554          45.250


 112858816.366 8  87941946.06547  21476322.740                    21476322.520
     -2327.364       -1813.533          49.600          46.450    84277704.626 8
  21476327.960       -1738.094          52.150


 108171211.133 8  84289247.43148  20584302.140                    20584303.120
      -385.964        -300.752          52.000          51.850    80777204.531 9
  20584305.360        -288.339          56.300


 120493822.500 7  93891328.29647  22929196.840                    22929197.520
      2931.244        2284.090          47.500          47.350



 105979425.135 8  82581380.75548  20167213.520                    20167213.380
      -339.467        -264.521          52.750          52.600    79140493.867 9
  20167215.220        -253.531          56.650


 115914370.056 8  90322893.01847  22057777.040                    22057775.960
      2120.020        1651.962          50.150          45.450    86559453.049 8
  22057781.580        1583.080          52.000


 132323938.827 6 103109601.05245  25180410.300                    25180416.140
      2174.163        1694.154          39.750          32.650



 128728114.221 6 100307590.19946  24496163.280                    24496164.200
     -3506.700       -2732.506          40.950          38.500



 124198873.646 7  96778337.36446  23634267.320                    23634266.460
      3230.165        2517.014          43.700          38.150



 130070800.944 6 101353893.89746  24751644.660                    24751651.880
       310.150         241.673          39.400          39.450    97130828.594 7
  24751652.140         231.499          43.300


 132237386.435 6 103042160.68946  25163934.160                    25163942.080
      3668.800        2858.802          39.250          38.650    98748713.167 7
  25163945.380        2739.365          42.650


 23 11  9  8 36  0.0000000  0 11G03G04G06G07G09G11G16G19G20G26G30
 126668787.485 6  98702938.87846  24104280.060                    24104286.440
     -3256.466       -2537.512          41.400          41.300    94590322.776 7
  24104287.280       -2431.828          45.400


 112928800.953 8  87996479.42747  21489640.480                    21489640.200
     -2337.795       -1821.661          49.550          46.100    84329965.740 8
  21489645.500       -1745.669          52.350


 108183106.223 8  84298516.29648  20586565.740                    20586566.760
      -406.412        -316.686          52.500          52.650    80786087.190 9
  20586569.020        -303.557          56.550


 120406024.426 7  93822914.32747  22912489.280                    22912490.040
      2922.494        2277.272          47.550          47.300



 105989850.545 8  82589504.41448  20169197.420                    20169197.320
      -355.076        -276.684          52.750          52.900    79148279.027 9
  20169199.160        -265.140          56.750


 115851016.147 8  90273526.31147  22045721.160                    22045720.220
      2104.034        1639.507          50.200          45.400    86512143.277 8
  22045725.840        1571.171          52.250


 132258912.687 6 103058931.43345  25168036.060                    25168042.300
      2161.657        1684.405          38.650          32.950



 128833358.440 6 100389598.43146  24516190.820                    24516191.640
     -3509.047       -2734.332          41.550          36.600



 124102022.105 7  96702868.65746  23615837.000                    23615836.320
      3226.854        2514.434          44.300          37.750



 130061786.023 6 101346869.23046  24749929.160                    24749936.640
       291.600         227.219          40.350          39.550    97124096.611 7
  24749937.060         217.705          44.250


 132127339.904 6 102956410.15146  25142993.260                    25143001.340
      3668.138        2858.290          38.750          40.000    98666535.530 7
  25143004.340        2739.307          43.800


 23 11  9  8 36 30.0000000  0 11G03G04G06G07G09G11G16G19G20G26G30
 126766538.000 6  98779107.89346  24122881.560                    24122887.820
     -3260.872       -2540.947          41.350          41.450    94663318.035 7
  24122888.580       -2434.995          44.850


 112999076.103 8  88051239.19747  21503013.460                    21503013.400
     -2347.820       -1829.473          49.450          46.150    84382443.846 8
  21503018.540       -1753.207          52.250


 108195600.202 8  84308251.82448  20588943.320                    20588944.320
      -426.964        -332.700          52.000          51.850    80795417.056 9
  20588946.680        -318.802          56.400


 120318476.969 7  93754695.65947  22895829.460                    22895830.300
      2913.547        2270.300          47.550          47.550



 106000727.041 8  82597979.56748  20171267.060                    20171267.100
      -370.484        -288.690          51.900          51.950    79156401.047 9
  20171268.960        -276.668          56.700


 115788127.345 8  90224522.02647  22033753.740                    22033752.920
      2087.951        1626.975          49.550          45.350    86465180.829 8
  22033758.660        1559.297          52.300


 132194267.408 6 103008558.67145  25155734.460                    25155740.680
      2148.063        1673.825          38.250          35.300



 128938655.979 6 100471648.20246  24536228.600                    24536229.360
     -3511.182       -2735.993          41.600          36.250



 124005248.054 7  96627460.30646  23597421.360                    23597420.800
      3223.999        2512.206          43.500          37.700



 130053312.276 6 101340266.29746  24748316.860                    24748324.280
       272.439         212.290          40.750          41.150    97117768.766 7
  24748324.940         203.888          44.300


 132017280.502 6 102870649.70546  25122049.760                    25122057.960
      3668.360        2858.468          39.650          39.800    98584348.437 7
  25122060.900        2739.423          45.100


 23 11  9  8 37  0.0000000  0 11G03G04G06G07G09G11G16G19G20G26G30
 126864404.100 6  98855366.96446  24141505.100                    24141511.180
     -3264.396       -2543.693          41.700          41.500    94736399.625 7
  24141511.960       -2437.720          44.950


 113069640.323 8  88106224.21947  21516441.400                    21516441.300
     -2357.224       -1836.801          49.300          46.000    84435137.808 8
  21516446.500       -1760.273          51.950


 108208693.257 8  84318454.17048  20591434.900                    20591435.900
      -446.663        -348.051          52.350          52.350    80805194.301 9
  20591438.280        -333.608          56.200


 120231182.138 8  93686673.83047  22879217.760                    22879218.400
      2905.206        2263.801          48.050          47.900



 106012054.021 8  82606805.74848  20173422.420                    20173422.600
      -385.401        -300.314          52.000          51.900    79164859.458 9
  20173424.520        -287.782          56.550


 115725706.161 8  90175882.12147  22021875.280                    22021874.580
      2072.546        1614.970          49.200          45.850    86418567.587 8
  22021880.360        1547.678          52.150


 132130006.698 6 102958485.48845  25143506.100                    25143512.760
      2135.039        1663.670          37.500          33.800



 129044003.846 6 100553737.19746  24556275.960                    24556276.740
     -3512.996       -2737.407          41.100          38.250



 123908553.003 7  96552113.52746  23579020.820                    23579020.140
      3221.593        2510.332          43.750          37.700



 130045380.806 6 101334085.94246  24746807.760                    24746815.020
       254.968         198.678          41.000          41.100    97111845.958 7
  24746815.920         190.382          44.400


 131907210.770 6 102784881.27746  25101104.340                    25101112.360
      3668.853        2858.855          40.100          40.100    98502153.737 7
  25101115.380        2739.773          44.800


 23 11  9  8 37 30.0000000  0 11G03G04G06G07G09G11G16G19G20G26G30
 126962386.687 6  98931716.81246  24160150.860                    24160156.680
     -3268.066       -2546.552          41.850          41.700    94809568.178 7
  24160157.740       -2440.396          45.650


 113140493.517 8  88161434.41847  21529924.360                    21529924.180
     -2366.501       -1844.029          49.200          46.200    84488047.566 8
  21529929.500       -1767.183          51.950


 108222387.106 8  84329124.66448  20594040.820                    20594041.820
      -466.380        -363.415          52.150          52.350    80815420.183 9
  20594044.220        -348.286          56.200


 120144144.055 7  93618852.05347  22862654.860                    22862655.440
      2896.982        2257.393          46.950          46.750



 106023832.355 8  82615983.63048  20175663.740                    20175664.020
      -400.123        -311.786          51.900          52.000    79173654.918 9
  20175665.940        -298.780          56.450


 115663756.618 8  90127609.72847  22010086.560                    22010085.960
      2057.271        1603.066          49.050          45.750    86372306.539 8
  22010091.780        1536.222          52.200


 132066134.543 6 102908715.03745  25131351.720                    25131358.160
      2122.792        1654.130          38.400          31.700



 129149400.580 6 100635864.24346  24576332.500                    24576333.400
     -3513.636       -2737.908          41.050          36.150



 123811940.064 7  96476830.70346  23560636.060                    23560635.120
      3219.142        2508.421          43.350          38.150



 130037994.099 6 101328330.14846  24745402.440                    24745409.320
       237.257         184.879          41.000          41.500    97106329.992 7
  24745410.240         177.210          44.250


 131797134.732 6 102699108.02846  25080157.540                    25080165.540
      3669.429        2859.305          41.150          41.100    98419954.422 7
  25080168.500        2740.078          45.550


 23 11  9  8 38  0.0000000  0 11G03G04G06G07G09G11G16G19G20G26G30
 127060485.690 6  99008157.37646  24178818.620                    24178824.200
     -3271.576       -2549.288          41.600          41.850    94882823.664 7
  24178825.760       -2443.110          45.900


 113211634.589 8  88216868.95047  21543462.100                    21543461.940
     -2376.007       -1851.437          49.250          46.300    84541172.299 8
  21543467.280       -1774.213          52.100


 108236682.419 8  84340263.83548  20596761.180                    20596762.120
      -486.319        -378.950          52.250          52.300    80826095.211 9
  20596764.580        -363.137          56.350


 120057365.962 7  93551232.87548  22846141.400                    22846142.060
      2888.409        2250.712          47.950          48.250



 106036061.973 8  82625513.16648  20177990.980                    20177991.340
      -414.918        -323.313          52.000          51.900    79182787.377 9
  20177993.140        -309.794          56.600


 115602281.744 8  90079707.21047  21998388.200                    21998387.680
      2041.541        1590.811          48.950          46.100    86326399.956 8
  21998393.440        1524.488          52.450


 132002654.747 6 102859250.27245  25119272.200                    25119278.020
      2109.909        1644.082          38.150          35.900



 129254843.888 6 100718027.59446  24596397.760                    24596398.940
     -3515.092       -2739.044          39.300          36.950



 123715411.279 7  96401613.45846  23542267.300                    23542266.260
      3216.579        2506.427          43.900          38.350



 130031153.612 6 101323000.00946  24744100.980                    24744107.660
       218.793         170.493          40.500          40.550    97101221.955 7
  24744108.620         163.643          43.650


 131687055.342 6 102613332.18346  25059210.100                    25059217.840
      3669.688        2859.508          41.750          41.800    98337752.672 7
  25059220.820        2740.309          45.550


 23 11  9  8 38 30.0000000  0 11G03G04G06G07G09G11G16G19G20G26G30
 127158697.994 6  99084686.22547  24197508.100                    24197513.480
     -3275.751       -2552.540          41.900          42.200    94956163.767 7
  24197515.520       -2446.134          45.850


 113283059.408 8  88272524.57747  21557053.720                    21557053.680
     -2385.603       -1858.914          49.200          45.850    84594508.928 8
  21557059.060       -1781.385          52.150


 108251576.763 8  84351869.78148  20599595.540                    20599596.500
      -506.436        -394.626          52.300          52.350    80837217.570 9
  20599598.880        -378.188          56.250


 119970847.660 8  93483816.12048  22829677.520                    22829678.080
      2879.632        2243.873          48.350          48.400



 106048739.392 8  82635391.62648  20180403.440                    20180403.840
      -429.977        -335.048          51.850          52.000    79192254.229 9
  20180405.540        -321.059          56.550


 115541281.450 8  90032174.49747  21986780.200                    21986779.660
      2025.398        1578.232          49.150          45.550    86280847.771 8
  21986785.440        1512.496          52.450


 131939568.288 6 102810091.96345  25107267.440                    25107272.780
      2096.367        1633.525          39.350          31.350



 129360327.981 6 100800222.74046  24616470.700                    24616472.260
     -3517.135       -2740.632          39.900          36.550



 123618966.065 7  96326461.32946  23523914.440                    23523913.200
      3213.333        2503.896          44.100          39.250



 130024857.641 6 101318094.22346  24742902.700                    24742909.600
       200.808         156.479          40.200          40.300    97096520.624 7
  24742910.180         149.833          43.750


 131576972.512 7 102527553.66147  25038261.820                    25038269.480
      3669.641        2859.470          42.350          42.300    98255548.321 7
  25038272.280        2740.201          44.850


 23 11  9  8 39  0.0000000  0 11G03G04G06G07G09G11G16G19G20G26G30
 127257023.100 7  99161302.94847  24216218.940                    24216224.280
     -3279.248       -2555.267          42.750          43.200    95029588.100 7
  24216226.840       -2448.884          46.050


 113354766.537 8  88328400.17847  21570699.060                    21570699.300
     -2394.976       -1866.218          49.200          46.200    84648056.357 8
  21570704.600       -1788.345          51.850


 108267070.374 8  84363942.69348  20602543.900                    20602544.860
      -526.396        -410.181          52.750          52.750    80848787.432 9
  20602547.200        -393.100          56.000


 119884592.083 8  93416604.09148  22813263.520                    22813264.100
      2870.823        2237.009          48.600          48.600



 106061864.240 8  82645618.74448  20182901.100                    20182901.420
      -444.936        -346.705          52.700          52.650    79202055.203 9
  20182903.160        -332.230          56.300


 115480758.397 8  89985013.65247  21975263.060                    21975262.480
      2009.575        1565.902          49.850          45.250    86235651.961 8
  21975268.260        1500.583          52.200


 131876878.138 6 102761242.50545  25095337.960                    25095343.080
      2083.232        1623.298          39.550          31.200



 129465850.034 6 100882447.48346  24636550.980                    24636552.680
     -3517.889       -2741.217          39.750          37.250



 123522606.263 7  96251375.75346  23505577.880                    23505576.500
      3210.687        2501.833          45.000          38.300



 130019107.336 6 101313613.66946  24741808.180                    24741815.320
       182.592         142.286          39.900          39.300    97092226.793 7
  24741815.880         136.322          43.800


 131466888.857 7 102441774.47446  25017313.220                    25017320.980
      3669.514        2859.370          42.550          41.850    98173343.338 7
  25017323.660        2740.252          44.600


 23 11  9  8 39 30.0000000  0 11G03G04G06G07G09G11G16G19G20G26G30
 127355463.398 6  99238009.45846  24234951.640                    24234956.880
     -3283.127       -2558.288          41.500          41.150    95103098.434 7
  24234960.040       -2451.633          46.750


 113426757.325 8  88384496.80847  21584398.380                    21584398.880
     -2404.229       -1873.428          49.000          45.800    84701815.620 8
  21584404.100       -1795.411          51.750


 108283166.326 8  84376484.95648  20605606.880                    20605607.920
      -546.473        -425.823          52.250          52.350    80860807.088 9
  20605610.100        -408.029          56.000


 119798604.569 8  93349600.92148  22796900.600                    22796901.000
      2861.778        2229.960          48.800          48.950



 106075438.782 8  82656196.27048  20185484.320                    20185484.600
      -459.832        -358.312          52.350          52.250    79212191.985 9
  20185486.320        -343.349          56.300


 115420717.965 8  89938228.88947  21963837.760                    21963837.160
      1993.426        1553.319          49.600          45.200    86190816.557 8
  21963842.900        1488.602          52.300


 131814590.665 6 102712706.81845  25083484.920                    25083490.020
      2069.304        1612.439          39.400          33.850



 129571410.347 6 100964702.02846  24656638.480                    24656640.340
     -3518.950       -2742.046          39.400          37.750



 123426336.520 7  96176360.35246  23487258.460                    23487257.120
      3207.669        2499.481          44.650          37.900



 130013906.507 6 101309561.28846  24740818.000                    24740825.320
       164.356         128.077          40.000          40.350    97088343.290 7
  24740826.020         122.755          43.800


 131356809.874 7 102355998.87346  24996365.680                    24996373.440
      3669.271        2859.180          42.350          41.950    98091141.774 7
  24996375.840        2740.053          43.650


 23 11  9  8 40  0.0000000  0 11G03G04G06G07G09G11G16G19G20G26G30
 127454011.268 6  99314799.77246  24253704.800                    24253710.020
     -3286.988       -2561.297          41.400          41.600    95176689.111 7
  24253713.660       -2454.626          46.900


 113499023.306 8  88440807.87147  21598150.100                    21598150.700
     -2413.729       -1880.831          48.450          46.200    84755780.358 8
  21598155.860       -1802.378          51.700


 108299857.699 8  84389491.18748  20608783.120                    20608784.220
      -566.592        -441.502          51.950          51.900    80873271.387 9
  20608786.300        -423.092          56.050


 119712880.384 8  93282802.93548  22780587.860                    22780588.080
      2852.833        2222.989          48.350          48.400



 106089455.344 8  82667118.21948  20188151.640                    20188151.920
      -474.946        -370.089          52.100          52.000    79222658.851 9
  20188153.560        -354.619          56.450


 115361155.651 8  89891816.68447  21952503.460                    21952502.880
      1977.214        1540.687          49.350          45.350    86146338.194 8
  21952508.580        1476.463          52.400


 131752701.915 6 102664481.83344  25071707.660                    25071712.880
      2056.048        1602.112          39.000          27.300



 129676999.046 6 101046978.71346  24676731.340                    24676733.480
     -3519.734       -2742.656          38.900          37.500



 123330151.554 7  96101410.98946  23468955.180                    23468953.880
      3204.396        2496.931          44.400          40.250



 130009249.074 6 101305932.34046  24739931.360                    24739938.600
       146.046         113.809          40.050          39.850    97084865.622 7
  24739939.360         108.983          43.800


 131246731.104 6 102270223.42346  24975418.100                    24975426.020
      3669.133        2859.071          40.750          40.650    98008940.352 7
  24975428.160        2739.738          44.100


 23 11  9  8 40 30.0000000  0 11G03G04G06G07G09G11G16G19G20G26G30
 127552672.838 7  99391678.67247  24272479.720                    24272484.820
     -3290.443       -2563.990          42.250          42.450    95250364.658 7
  24272488.820       -2457.006          46.850


 113571569.526 8  88497337.30247  21611955.260                    21611955.880
     -2422.581       -1887.729          48.800          45.200    84809954.381 8
  21611960.980       -1809.039          51.700


 108317151.235 8  84402966.63548  20612074.020                    20612075.160
      -586.282        -456.844          52.150          52.000    80886185.347 9
  20612077.100        -437.739          56.150


 119627429.185 8  93216217.67748  22764327.020                    22764327.360
      2844.044        2216.142          48.300          48.400



 106103919.873 8  82678389.24548  20190904.180                    20190904.400
      -489.436        -381.380          52.150          52.200    79233460.234 9
  20190906.180        -365.409          56.700


 115302080.604 8  89845784.18047  21941261.880                    21941261.320
      1961.242        1528.241          49.300          45.900    86102223.706 8
  21941266.920        1464.650          52.600


 131691222.049 6 102616575.44645  25060008.280                    25060013.280
      2042.413        1591.493          38.900          32.100



 129782619.965 6 101129280.51146  24696830.540                    24696832.840
     -3521.366       -2743.927          39.200          37.850



 123234059.605 7  96026534.10446  23450669.520                    23450668.380
      3201.653        2494.793          43.900          39.950



 130005142.484 6 101302732.61546  24739149.660                    24739156.740
       128.159          99.871          39.750          39.800    97081799.291 7
  24739157.600          95.569          44.100


 131136661.895 6 102184455.39846  24954472.360                    24954480.420
      3668.968        2858.944          40.700          40.500    97926746.015 7
  24954482.440        2739.891          44.100


 23 11  9  8 41  0.0000000  0 11G03G04G06G07G09G11G16G19G20G26G30
 127651443.455 7  99468642.53947  24291275.380                    24291280.400
     -3294.310       -2567.002          42.050          42.850    95324121.663 7
  24291284.640       -2460.104          46.950


 113644390.394 8  88554080.74447  21625812.720                    21625813.280
     -2432.206       -1895.229          48.750          45.950    84864333.493 8
  21625818.160       -1816.241          51.250


 108335042.875 8  84416908.14448  20615478.740                    20615479.880
      -606.633        -472.702          52.150          52.150    80899545.956 9
  20615481.800        -453.015          56.000


 119542249.020 8  93149843.60648  22748117.740                    22748118.060
      2834.533        2208.729          48.550          48.400



 106118827.639 8  82690005.65348  20193741.060                    20193741.220
      -504.616        -393.208          52.200          52.350    79244592.622 9
  20193743.200        -376.841          56.600


 115243491.187 8  89800130.07647  21930112.740                    21930112.160
      1944.636        1515.300          49.450          45.950    86058471.858 8
  21930117.720        1452.160          52.350


 131630149.855 6 102568986.74845  25048386.460                    25048391.920
      2028.745        1580.845          40.050          34.350



 129888265.729 6 101211601.72246  24716934.560                    24716936.900
     -3522.264       -2744.628          39.450          36.800



 123138058.404 7  95951727.93546  23432401.100                    23432400.180
      3198.195        2492.101          43.750          40.800



 130001583.596 6 101299959.68346  24738472.360                    24738479.260
       108.948          84.901          41.000          41.000    97079141.919 7
  24738480.060          81.546          43.950


 131026600.724 6 102098693.63146  24933528.240                    24933536.360
      3668.282        2858.407          41.600          41.800    97844557.702 7
  24933538.340        2739.354          43.900


 23 11  9  8 41 30.0000000  0 11G03G04G06G07G09G11G16G19G20G26G30
 127750322.751 7  99545691.10647  24310091.600                    24310096.820
     -3297.610       -2569.573          42.100          42.550    95397959.812 7
  24310101.140       -2462.614          47.300


 113717484.566 8  88611037.16847  21639722.200                    21639722.660
     -2441.062       -1902.129          49.100          45.650    84918916.706 8
  21639727.440       -1822.812          51.300


 108353532.862 8  84431315.89148  20618997.280                    20618998.400
      -626.339        -488.058          52.100          52.000    80913353.366 9
  20619000.400        -467.682          56.050


 119457342.642 8  93083682.84148  22731960.620                    22731960.580
      2825.575        2201.748          48.500          48.400



 106134178.155 8  82701967.05948  20196662.180                    20196662.340
      -518.958        -404.385          51.900          51.900    79256055.632 9
  20196664.400        -387.593          56.450


 115185390.022 8  89754856.43547  21919056.440                    21919055.960
      1928.603        1502.808          49.400          46.050    86015084.619 8
  21919061.460        1440.123          52.300


 131569488.498 6 102521718.18945  25036842.980                    25036849.200
      2015.229        1570.314          39.600          33.950



 129993933.882 6 101293940.38346  24737042.800                    24737044.740
     -3522.688       -2744.957          39.400          36.050



 123042149.769 7  95876993.88446  23414150.280                    23414149.420
      3195.373        2489.901          43.500          40.600



 129998573.304 6 101297614.19346  24737899.560                    24737906.240
        91.240          71.102          41.700          41.550    97076894.225 7
  24737906.840          68.136          43.900


 130916550.515 6 102012940.46146  24912586.160                    24912594.280
      3667.908        2858.119          41.450          41.200    97762377.635 7
  24912596.360        2739.067          43.900


 23 11  9  8 42  0.0000000  0 11G03G04G06G07G09G11G16G19G20G26G30
 127849309.095 7  99622823.08146  24328928.360                    24328933.500
     -3301.696       -2572.760          42.200          41.900    95471877.880 7
  24328938.120       -2465.442          47.400


 113790849.491 8  88668204.55447  21653683.240                    21653683.640
     -2450.351       -1909.367          48.950          45.200    84973702.089 8
  21653688.360       -1829.691          51.200


 108372620.136 8  84446189.05748  20622629.540                    20622630.580
      -646.487        -503.758          52.100          52.100    80927606.807 9
  20622632.720        -482.729          56.150


 119372711.712 8  93017736.73248  22715855.760                    22715855.860
      2816.104        2194.369          48.850          48.900



 106149969.662 8  82714272.09748  20199667.180                    20199667.400
      -534.089        -416.174          52.250          52.300    79267847.958 9
  20199669.340        -398.809          56.400


 115127778.540 8  89709964.36347  21908093.380                    21908092.900
      1911.947        1489.829          49.400          47.000    85972063.036 8
  21908098.340        1427.768          52.350


 131509240.604 6 102474771.82946  25025378.340                    25025384.580
      2000.859        1559.111          41.000          36.800



 130099620.499 6 101376293.47446  24757154.420                    24757156.400
     -3523.257       -2745.396          39.800          36.300



 122946334.586 7  95802332.64846  23395917.260                    23395916.320
      3192.078        2487.332          43.250          39.300



 129996111.425 6 101295696.02446  24737431.180                    24737437.620
        72.504          56.503          41.700          41.300    97075055.995 7
  24737438.240          54.305          44.350


 130806512.789 7 101927197.04947  24891646.560                    24891654.540
      3667.502        2857.804          42.100          42.850    97680206.928 7
  24891656.600        2738.623          43.900


 23 11  9  8 42 30.0000000  0 11G03G04G06G07G09G11G16G19G20G26G30
 127948405.748 6  99700040.97546  24347785.960                    24347791.160
     -3305.047       -2575.370          41.350          41.200    95545878.315 7
  24347796.000       -2468.062          46.650


 113864487.462 8  88725584.69547  21667696.160                    21667696.540
     -2459.141       -1916.217          48.350          45.700    85028691.374 8
  21667701.300       -1836.394          50.900


 108392308.576 8  84461530.66648  20626376.100                    20626377.140
      -666.342        -519.229          51.600          51.700    80942309.170 9
  20626379.460        -497.603          56.050


 119288362.354 8  92952010.03148  22699804.500                    22699804.780
      2806.789        2187.110          48.150          48.000



 106166205.336 8  82726923.24548  20202756.740                    20202757.020
      -548.708        -427.565          51.900          51.950    79279971.963 9
  20202758.800        -409.700          56.200


 115070663.020 8  89665458.75347  21897224.720                    21897224.180
      1895.457        1476.979          49.550          46.900    85929411.821 8
  21897229.560        1415.477          52.250


 131449412.572 6 102428152.69846  25013993.500                    25013999.720
      1987.488        1548.700          39.850          37.300



 130205326.423 6 101458661.63046  24777269.720                    24777271.740
     -3523.767       -2745.793          39.550          38.700



 122850618.566 7  95727748.68946  23377703.100                    23377702.220
      3188.684        2484.688          43.050          41.800



 129994202.622 6 101294208.76646  24737067.900                    24737074.280
        54.170          42.215          40.800          40.000    97073630.760 7
  24737074.860          40.461          44.350


 130696494.018 7 101841468.46647  24870710.420                    24870718.440
      3666.886        2857.323          42.700          42.700    97598050.429 7
  24870720.400        2738.206          44.300


 23 11  9  8 43  0.0000000  0 11G03G04G06G07G09G11G16G19G20G26G30
 128047606.193 6  99777339.73746  24366663.180                    24366668.540
     -3308.604       -2578.143          41.350          41.500    95619956.240 7
  24366673.300       -2470.781          46.600


 113938390.986 8  88783171.76847  21681759.660                    21681759.980
     -2468.204       -1923.278          48.950          45.150    85083878.960 8
  21681764.700       -1843.095          50.700


 108412592.085 8  84477335.95948  20630235.860                    20630236.980
      -686.453        -534.899          51.550          51.550    80957455.904 9
  20630239.380        -512.540          56.050


 119204291.390 8  92886500.22248  22683806.300                    22683806.400
      2797.333        2179.740          48.200          48.150



 106182878.444 8  82739915.25048  20205929.540                    20205929.880
      -563.471        -439.069          51.850          52.000    79292422.633 9
  20205931.600        -420.695          56.150


 115014039.903 8  89621336.83647  21886449.720                    21886449.200
      1878.940        1464.109          49.350          47.150    85887128.308 8
  21886454.560        1403.115          52.150


 131390001.655 6 102381858.53445  25002687.820                    25002694.320
      1973.294        1537.628          38.900          34.550



 130311042.868 6 101541038.00346  24797386.980                    24797388.860
     -3524.041       -2746.006          38.500          37.800



 122754997.399 7  95653238.65046  23359506.920                    23359506.160
      3185.528        2482.227          43.950          41.100



 129992841.626 6 101293148.38146  24736808.900                    24736815.120
        35.878          27.960          41.000          40.600    97072614.570 7
  24736815.980          26.738          44.250


 130586490.697 6 101755751.89546  24849777.300                    24849785.220
      3666.195        2856.786          41.700          41.800    97515905.439 7
  24849787.180        2737.712          44.600


 23 11  9  8 43 30.0000000  0 11G03G04G06G07G09G11G16G19G20G26G30
 128146912.456 6  99854720.97246  24385560.620                    24385566.220
     -3312.174       -2580.925          41.650          41.400    95694113.170 7
  24385570.660       -2473.242          47.050


 114012561.172 8  88840966.62847  21695873.900                    21695874.140
     -2476.887       -1930.045          48.750          45.200    85139265.683 8
  21695878.900       -1849.628          51.000


 108433473.255 8  84493606.96548  20634209.340                    20634210.560
      -706.075        -550.189          51.600          51.650    80973048.942 9
  20634213.000        -527.319          56.350


 119120503.901 7  92821211.31947  22667861.980                    22667861.960
      2788.160        2172.594          47.550          47.300



 106199990.916 8  82753249.61348  20209185.960                    20209186.360
      -577.831        -450.259          52.150          52.150    79305201.387 9
  20209187.980        -431.483          56.550


 114957914.245 8  89577602.54547  21875769.400                    21875768.820
      1862.369        1451.197          49.800          46.400    85845216.275 8
  21875774.200        1390.736          52.500


 131331013.656 6 102335894.00545  24991462.460                    24991468.800
      1959.356        1526.779          38.800          33.900



 130416769.712 6 101623422.45646  24817506.100                    24817508.340
     -3524.570       -2746.416          38.600          36.750



 122659475.477 7  95578805.95046  23341329.700                    23341328.940
      3182.374        2479.771          44.150          39.550



 129992031.804 6 101292517.42646  24736654.560                    24736660.900
        17.688          13.786          40.400          40.100    97072009.916 7
  24736661.800          13.166          44.750


 130476507.980 6 101670051.32947  24828848.080                    24828855.840
      3665.612        2856.328          41.900          42.300    97433775.777 7
  24828857.860        2737.248          45.500


 23 11  9  8 44  0.0000000  0 11G03G04G06G07G09G11G16G19G20G26G30
 128246326.873 6  99932186.47746  24404478.680                    24404484.680
     -3315.341       -2583.393          41.400          41.150    95768350.877 7
  24404488.720       -2475.604          46.950


 114086999.390 8  88898970.33847  21710039.120                    21710039.300
     -2485.277       -1936.584          49.200          45.000    85194852.553 8
  21710044.160       -1855.929          51.050


 108454954.902 8  84510345.86648  20638297.100                    20638298.460
      -725.662        -565.452          51.900          52.000    80989090.380 9
  20638300.840        -541.915          56.450


 119037005.082 8  92756147.33948  22651972.540                    22651972.640
      2779.036        2165.483          48.400          48.750



 106217544.873 8  82766927.99648  20212526.460                    20212526.840
      -592.072        -461.355          52.750          52.800    79318309.840 9
  20212528.380        -442.152          56.750


 114902291.303 8  89534259.97447  21865184.740                    21865184.120
      1846.161        1438.566          50.150          46.450    85803679.645 8
  21865189.460        1378.591          52.750


 131272454.783 6 102290263.76246  24980318.800                    24980324.960
      1945.295        1515.817          40.550          36.250



 130522507.143 6 101705815.17946  24837627.100                    24837629.500
     -3524.054       -2746.019          38.200          37.950



 122564057.538 7  95504454.28346  23323172.300                    23323171.640
      3179.350        2477.416          44.700          39.550



 129991776.811 6 101292318.76646  24736605.820                    24736612.300
        -0.136          -0.104          40.900          40.250    97071819.554 7
  24736613.420          -0.285          44.950


 130366551.395 7 101584371.11147  24807923.800                    24807931.500
      3665.168        2855.982          43.400          43.200    97351665.618 7
  24807933.660        2736.920          45.750


 23 11  9  8 44 30.0000000  0 11G03G04G06G07G09G11G16G19G20G26G30
 128345840.828 6 100009729.52646  24423415.640                    24423421.960
     -3318.897       -2586.164          40.750          40.800    95842662.915 7
  24423425.900       -2478.372          46.550


 114161696.101 8  88957175.48247  21724253.500                    21724253.560
     -2494.150       -1943.496          49.100          44.350    85250632.466 8
  21724258.560       -1862.675          50.750


 108477028.857 8  84527546.31048  20642497.640                    20642499.060
      -745.655        -581.031          51.700          51.650    81005574.129 9
  20642501.320        -556.936          56.200


 118953789.654 8  92691304.18548  22636137.140                    22636137.220
      2769.016        2157.676          48.300          48.350



 106235531.603 8  82780943.60448  20215949.280                    20215949.620
      -606.951        -472.950          52.550          52.450    79331741.450 9
  20215951.180        -453.239          56.600


 114847165.461 8  89491304.74947  21854694.660                    21854694.000
      1829.107        1425.278          49.600          46.600    85762514.220 8
  21854699.320        1365.848          52.600


 131214319.855 6 102244963.95345  24969255.880                    24969262.040
      1930.519        1504.306          39.650          35.100



 130628243.829 6 101788207.31346  24857748.120                    24857750.640
     -3524.762       -2746.571          39.100          38.300



 122468737.456 7  95430178.87646  23305033.440                    23305032.780
      3175.351        2474.299          44.250          40.850



 129992069.364 6 101292546.75846  24736661.360                    24736667.700
       -18.990         -14.799          41.050          41.750    97072038.040 7
  24736669.100         -14.170          44.400


 130256615.654 7 101498707.15947  24787003.480                    24787011.040
      3663.910        2855.004          42.450          42.600    97269571.054 7
  24787013.360        2736.079          45.650


 23 11  9  8 45  0.0000000  0 11G03G04G06G07G09G11G16G19G20G26G30
 128445460.088 6 100087354.61446  24442372.880                    24442379.100
     -3322.486       -2588.960          41.550          41.300    95917053.564 7
  24442383.020       -2480.939          45.800


 114236656.090 8  89015585.78047  21738517.980                    21738517.960
     -2502.974       -1950.371          49.050          44.600    85306608.969 8
  21738523.060       -1869.023          50.550


 108499701.301 8  84545213.10548  20646812.140                    20646813.620
      -765.485        -596.484          51.850          51.950    81022504.797 9
  20646815.720        -571.677          56.150


 118870866.369 7  92626688.66447  22620357.360                    22620357.340
      2759.439        2150.213          47.650          47.700



 106253956.667 8  82795300.76848  20219455.480                    20219455.780
      -621.249        -484.091          52.800          52.750    79345500.397 9
  20219457.420        -463.977          56.600


 114792545.381 8  89448743.63047  21844300.780                    21844300.200
      1812.351        1412.221          49.700          46.550    85721726.475 8
  21844305.440        1353.354          52.600


 131156618.089 6 102200001.67145  24958275.560                    24958281.220
      1916.319        1493.240          40.650          35.200



 130733983.412 6 101870601.71146  24877869.840                    24877872.360
     -3524.451       -2746.328          38.600          37.750



 122373523.274 7  95355986.01346  23286914.860                    23286914.060
      3172.167        2471.819          44.150          39.950



 129992916.418 6 101293206.81446  24736822.500                    24736828.640
       -37.400         -29.142          41.000          40.750    97072670.596 7
  24736830.120         -28.033          44.050


 130146709.811 6 101413066.59446  24766088.800                    24766096.340
      3663.273        2854.514          40.800          41.050    97187498.933 7
  24766098.740        2735.431          44.950


 23 11  9  8 45 30.0000000  0 11G03G04G06G07G09G11G16G19G20G26G30
 128545180.238 6 100165058.34946  24461349.360                    24461355.580
     -3325.413       -2591.241          41.100          40.850    95991519.576 7
  24461359.060       -2483.303          45.750


 114311874.074 8  89074197.11147  21752831.580                    21752831.420
     -2511.300       -1956.859          48.950          44.050    85362778.147 8
  21752836.800       -1875.367          50.550


 108522968.304 8  84563343.19348  20651239.840                    20651241.240
      -785.284        -611.911          52.150          52.200    81039879.456 9
  20651243.260        -586.377          56.050


 118788233.632 8  92562299.53947  22604632.820                    22604632.740
      2749.698        2142.623          48.200          47.900



 106272815.528 8  82809995.95848  20223044.280                    20223044.480
      -635.673        -495.330          52.900          52.750    79359583.274 9
  20223046.200        -474.682          56.600


 114738429.649 8  89406575.51747  21834002.880                    21834002.340
      1795.532        1399.116          49.400          46.950    85681315.354 8
  21834007.580        1340.905          52.650


 131099348.702 6 102155376.27345  24947377.680                    24947382.560
      1901.727        1481.869          39.950          35.150



 130839719.295 6 101952993.23646  24897990.660                    24897993.300
     -3523.722       -2745.758          38.850          37.600



 122278413.083 7  95281874.19646  23268816.000                    23268815.300
      3168.896        2469.271          44.650          40.150



 129994314.894 6 101294296.49646  24737088.520                    24737094.460
       -55.657         -43.372          41.250          41.650    97073714.871 7
  24737095.940         -41.491          43.600


 130036832.755 6 101327448.54546  24745179.600                    24745187.060
      3662.220        2853.694          41.200          40.800    97105448.415 7
  24745189.560        2734.714          45.550


 23 11  9  8 46  0.0000000  0 11G03G04G06G07G09G11G16G19G20G26G30
 128645003.454 6 100242842.38246  24480345.360                    24480351.700
     -3329.079       -2594.097          41.150          40.950    96066062.551 7
  24480354.880       -2486.204          45.600


 114387351.231 8  89133010.39047  21767194.360                    21767194.120
     -2520.376       -1963.933          48.300          44.700    85419140.849 8
  21767199.960       -1882.108          50.500


 108546832.366 8  84581938.52548  20655781.160                    20655782.520
      -805.627        -627.763          51.850          51.900    81057699.971 9
  20655784.500        -601.570          56.150


 118705896.958 8  92498141.12148  22588964.680                    22588964.720
      2739.386        2134.587          48.300          48.550



 106292110.085 8  82825030.64248  20226715.940                    20226716.140
      -650.603        -506.965          52.700          52.600    79373991.507 9
  20226717.940        -485.856          56.650


 114684823.308 8  89364804.31747  21823801.920                    21823801.440
      1778.215        1385.621          49.700          47.000    85641284.623 8
  21823806.680        1327.881          52.750


 131042517.517 6 102111092.39446  24936563.040                    24936567.640
      1886.943        1470.350          39.850          36.600



 130945451.757 6 102035382.09245  24918110.900                    24918113.400
     -3524.775       -2746.582          39.600          35.500



 122183411.338 7  95207846.86946  23250737.760                    23250736.860
      3165.006        2466.240          44.850          40.500



 129996267.985 6 101295818.39046  24737460.200                    24737465.900
       -74.800         -58.287          40.050          39.900    97075173.331 7
  24737467.340         -55.742          43.300


 129926989.660 6 101241857.08847  24724276.740                    24724284.140
      3660.769        2852.563          41.750          42.500    97023423.361 7
  24724286.640        2733.511          44.650


 23 11  9  8 46 30.0000000  0 11G03G04G06G07G09G11G16G19G20G26G30
 128744925.807 6 100320703.66346  24499360.360                    24499366.540
     -3333.287       -2597.376          41.200          40.600    96140679.508 7
  24499369.680       -2488.867          44.600


 114463082.675 8  89192021.81047  21781605.540                    21781605.480
     -2529.192       -1970.803          48.600          44.750    85475693.454 8
  21781611.240       -1888.591          50.150


 108571289.874 8  84600996.29048  20660435.360                    20660436.680
      -825.623        -643.345          52.250          52.200    81075963.651 9
  20660438.720        -616.510          55.800


 118623855.140 8  92434212.46848  22573352.660                    22573352.840
      2729.173        2126.630          48.150          48.000



 106311836.224 8  82840401.62748  20230469.720                    20230469.900
      -665.238        -518.368          52.800          52.950    79388722.026 9
  20230471.760        -496.700          56.200


 114631725.308 8  89323429.22447  21813697.740                    21813697.260
      1760.891        1372.121          49.700          46.950    85601633.488 8
  21813702.500        1314.994          52.550


 130986124.341 6 102067149.79946  24925831.860                    24925836.560
      1871.930        1458.654          40.900          36.150



 131051174.163 6 102117763.09345  24938229.320                    24938231.800
     -3524.325       -2746.227          38.900          35.250



 122088516.456 7  95133902.83046  23232679.860                    23232679.080
      3160.958        2463.085          45.000          39.850



 129998773.016 6 101297770.32146  24737936.840                    24737942.460
       -93.336         -72.729          40.400          39.950    97077043.928 7
  24737943.800         -69.570          43.700


 129817179.771 7 101156291.52547  24703380.140                    24703387.440
      3659.300        2851.423          42.250          42.100    96941423.155 7
  24703390.000        2732.559          44.850


 23 11  9  8 47  0.0000000  0 11G03G04G06G07G09G11G16G19G20G26G30
 128844948.760 6 100398643.33146  24518394.500                    24518400.640
     -3335.814       -2599.346          41.400          41.600    96215371.647 7
  24518403.520       -2491.095          44.300


 114539069.106 8  89251231.93247  21796065.280                    21796065.400
     -2537.189       -1977.034          48.350          44.500    85532436.470 8
  21796071.300       -1894.687          50.650


 108596342.798 8  84620518.00348  20665202.820                    20665204.080
      -845.150        -658.561          51.850          51.850    81094671.953 9
  20665206.200        -631.165          56.050


 118542112.790 8  92370517.16148  22557797.620                    22557797.740
      2719.582        2119.155          48.350          48.250



 106331995.370 8  82856110.01848  20234305.920                    20234306.080
      -679.294        -529.321          52.650          52.650    79403775.899 9
  20234308.000        -507.275          56.400


 114579140.128 8  89282453.73247  21803691.180                    21803690.640
      1744.181        1359.100          49.900          46.900    85562365.303 8
  21803696.060        1302.397          52.900


 130930174.483 6 102023552.64646  24915185.000                    24915189.280
      1857.585        1447.473          41.250          36.300



 131156885.781 6 102200135.65646  24958345.720                    24958348.260
     -3523.722       -2745.760          38.700          36.650



 121993732.391 7  95060045.14346  23214643.160                    23214642.000
      3157.291        2460.228          45.250          39.850



 130001832.779 6 101300154.49846  24738519.060                    24738524.760
      -111.489         -86.876          39.500          39.250    97079328.761 7
  24738526.300         -83.201          44.550


 129707407.764 6 101070755.46946  24682490.700                    24682497.840
      3658.324        2850.661          41.700          41.100    96859451.217 7
  24682500.400        2731.790          45.650


 23 11  9  8 47 30.0000000  0 11G03G04G06G07G09G11G16G19G20G26G30
 128945069.046 6 100476658.85246  24537447.060                    24537453.380
     -3339.126       -2601.927          41.700          41.700    96290136.462 7
  24537455.820       -2493.587          43.900


 114615306.254 8  89310637.40647  21810572.740                    21810572.900
     -2545.367       -1983.406          48.700          44.650    85589366.702 8
  21810578.960       -1900.845          50.550


 108621988.096 8  84640501.31348  20670082.960                    20670084.260
      -864.735        -673.821          52.050          52.150    81113822.613 9
  20670086.500        -645.758          56.150


 118460669.893 8  92307055.19448  22542299.660                    22542299.660
      2709.564        2111.351          48.750          48.900



 106352583.929 8  82872153.02048  20238223.860                    20238223.920
      -693.402        -540.314          53.050          53.050    79419150.435 9
  20238225.920        -517.846          56.550


 114527067.340 8  89241877.49947  21793782.100                    21793781.600
      1727.224        1345.888          50.150          46.500    85523479.740 8
  21793787.040        1289.765          53.050


 130874668.103 6 101980301.07946  24904622.500                    24904626.760
      1842.813        1435.964          41.100          37.900



 131262581.195 6 102282495.59646  24978458.900                    24978461.300
     -3522.799       -2745.041          39.700          37.800



 121899058.284 7  94986273.13646  23196627.360                    23196626.000
      3154.136        2457.768          45.550          38.600



 130005444.967 6 101302969.16246  24739206.400                    24739212.460
      -129.591        -100.982          40.600          40.350    97082026.131 7
  24739214.240         -96.817          44.950


 129597673.461 6 100985248.78346  24661608.560                    24661615.640
      3656.952        2849.594          41.500          41.800    96777507.419 7
  24661618.020        2730.910          45.650


 23 11  9  8 48  0.0000000  0 11G03G04G06G07G09G11G16G19G20G26G30
 129045288.169 6 100554751.37446  24556518.440                    24556524.820
     -3341.819       -2604.024          41.600          41.150    96364975.063 7
  24556526.940       -2495.540          44.050


 114691794.662 8  89370238.67947  21825128.140                    21825128.240
     -2553.517       -1989.756          48.750          43.800    85646484.573 8
  21825134.440       -1906.862          50.700


 108648227.587 8  84660947.62448  20675076.140                    20675077.440
      -884.152        -688.951          51.400          51.350    81133416.979 9
  20675079.720        -660.325          56.250


 118379530.923 8  92243830.08248  22526859.400                    22526859.620
      2699.908        2103.827          48.600          48.300



 106373603.215 8  82888531.64948  20242223.740                    20242223.780
      -707.505        -551.304          52.700          52.800    79434846.619 9
  20242225.800        -528.374          56.700


 114475511.312 8  89201703.94047  21783971.400                    21783970.840
      1710.219        1332.638          49.750          46.900    85484980.071 8
  21783976.340        1277.037          53.350


 130819609.890 6 101937398.70046  24894145.260                    24894149.600
      1828.463        1424.775          40.400          36.350



 131368259.824 6 102364842.45946  24998569.040                    24998571.360
     -3522.034       -2744.444          39.150          36.350



 121804498.054 7  94912589.85846  23178633.160                    23178631.800
      3150.516        2454.947          44.900          40.300



 130009612.302 6 101306216.38546  24739999.500                    24740005.780
      -147.914        -115.260          39.750          39.500    97085138.029 7
  24740007.900        -110.450          45.700


 129487981.482 6 100899774.99746  24640734.460                    24640741.320
      3655.737        2848.644          41.550          41.750    96695595.165 7
  24640743.780        2729.980          46.950


 23 11  9  8 48 30.0000000  0 11G03G04G06G07G09G11G16G19G20G26G30
 129145605.109 6 100632920.11446  24575608.440                    24575614.800
     -3345.150       -2606.620          41.750          40.850    96439886.704 7
  24575616.800       -2498.150          43.900


 114768532.447 8  89430034.25947  21839730.880                    21839731.160
     -2561.742       -1996.166          48.550          44.600    85703788.653 8
  21839737.520       -1913.086          50.600


 108675060.520 8  84681856.35648  20680182.240                    20680183.640
      -903.997        -704.415          51.650          51.550    81153454.504 9
  20680185.900        -675.150          56.200


 118298697.489 8  92180843.04248  22511477.340                    22511477.480
      2689.740        2095.902          49.200          49.450



 106395051.999 8  82905244.94748  20246305.300                    20246305.420
      -721.900        -562.521          52.700          52.650    79450863.516 9
  20246307.400        -539.057          56.600


 114424473.869 8  89161934.47747  21774259.280                    21774258.780
      1692.707        1318.992          50.050          46.900    85446867.666 8
  21774264.280        1264.093          53.300


 130765002.525 6 101894847.67545  24883753.500                    24883758.140
      1812.873        1412.631          40.500          34.200



 131473918.487 6 102447173.74545  25018675.420                    25018677.460
     -3521.078       -2743.704          39.950          35.150



 121710053.214 7  94838996.49946  23160660.880                    23160659.540
      3146.416        2451.754          45.200          39.850



 130014334.779 6 101309896.19446  24740898.060                    24740904.440
      -166.552        -129.783          40.600          40.350    97088664.517 7
  24740906.940        -124.354          45.050


 129378333.964 6 100814335.81246  24619868.760                    24619875.560
      3654.690        2847.822          41.200          40.600    96613716.040 7
  24619877.880        2728.918          46.650


 23 11  9  8 49  0.0000000  0 11G03G04G06G07G09G11G16G19G20G26G30
 129246016.648 6 100711162.57647  24594716.440                    24594723.100
     -3348.742       -2609.419          41.900          42.200    96514869.010 7
  24594724.780       -2500.677          43.700


 114845515.556 8  89490021.00147  21854380.280                    21854380.800
     -2570.299       -2002.834          48.550          44.400    85761275.920 8
  21854387.100       -1919.344          50.550


 108702483.973 8  84703225.23348  20685400.740                    20685402.220
      -924.024        -720.021          51.450          51.450    81173932.998 9
  20685404.400        -690.025          56.250


 118218170.093 8  92118094.45048  22496153.500                    22496153.460
      2679.025        2087.555          48.850          48.950



 106416926.899 8  82922290.29548  20250467.980                    20250468.140
      -736.377        -573.802          52.800          52.800    79467198.635 9
  20250470.040        -549.873          56.650


 114373954.727 8  89122568.88847  21764645.820                    21764645.340
      1675.148        1305.310          49.750          46.750    85409142.301 8
  21764650.860        1250.977          53.400


 130710846.355 6 101852648.23045  24873447.540                    24873452.720
      1797.427        1400.596          39.600          33.150



 131579551.941 6 102529485.37845  25038777.040                    25038779.120
     -3520.554       -2743.297          40.100          34.550



 121615722.910 7  94765492.36846  23142710.360                    23142709.040
      3142.150        2448.429          45.200          39.350



 130019610.364 6 101314007.01146  24741902.080                    24741908.280
      -184.888        -144.070          39.950          39.500    97092604.040 7
  24741911.000        -138.246          45.550


 129268731.026 6 100728931.31746  24599011.580                    24599018.400
      3652.782        2846.335          40.750          39.400    96531870.117 7
  24599020.780        2727.542          46.850


 23 11  9  8 49 30.0000000  0 11G03G04G06G07G09G11G16G19G20G26G30
 129346524.940 6 100789480.44146  24613842.800                    24613849.800
     -3351.980       -2611.942          41.850          41.150    96589923.563 7
  24613851.260       -2502.908          43.300


 114922745.125 8  89550199.79047  21869076.640                    21869077.200
     -2578.251       -2009.030          48.550          44.650    85818947.244 8
  21869083.380       -1925.297          49.950


 108730500.288 8  84725056.07548  20690732.080                    20690733.620
      -943.530        -735.221          51.300          51.400    81194854.209 9
  20690735.720        -704.571          55.900


 118137953.004 8  92055587.70448  22480888.580                    22480888.740
      2668.830        2079.609          49.000          49.000



 106439229.782 8  82939669.12848  20254712.040                    20254712.300
      -750.397        -584.727          52.250          52.250    79483853.344 9
  20254714.140        -560.384          56.350


 114323958.769 8  89083610.97247  21755131.920                    21755131.400
      1657.949        1291.907          49.800          47.200    85371807.626 8
  21755136.820        1238.082          53.000


 130657146.905 6 101810804.69345  24863228.400                    24863234.220
      1782.537        1388.996          38.550          35.000



 131685159.822 6 102611777.15545  25058873.720                    25058875.560
     -3519.502       -2742.472          40.000          35.050



 121521511.674 7  94692081.01846  23124782.480                    23124781.320
      3138.713        2445.750          45.000          39.900



 130025442.169 6 101318551.22546  24743011.920                    24743017.880
      -203.436        -158.522          40.550          41.150    97096958.894 7
  24743020.680        -151.958          44.650


 129159177.873 6 100643565.49646  24578163.960                    24578170.560
      3650.810        2844.796          40.750          40.400    96450061.271 7
  24578173.100        2726.385          47.250


 23 11  9  8 50  0.0000000  0 12G03G04G06G07G09G11G16G19G20G26G29G30
 129447124.585 6 100867869.46446  24632986.500                    24632993.460
     -3355.547       -2614.723          41.650          41.850    96665046.324 7
  24632995.120       -2505.460          43.000


 115000214.956 8  89610565.79747  21883818.740                    21883819.460
     -2586.669       -2015.590          48.750          44.500    85876797.983 8
  21883825.420       -1931.541          50.150


 108759104.297 8  84747344.86048  20696175.320                    20696176.880
      -963.701        -750.937          51.700          51.700    81216214.287 9
  20696178.940        -719.571          55.850


 118058044.178 8  91993321.15548  22465682.420                    22465682.540
      2658.107        2071.255          49.800          50.050



 106461955.020 8  82957377.06448  20259036.500                    20259036.840
      -764.850        -595.988          52.900          52.950    79500823.440 9
  20259038.680        -571.161          56.400


 114274483.446 8  89045058.74747  21745717.100                    21745716.580
      1640.118        1278.014          49.950          46.750    85334861.736 8
  21745721.940        1224.791          53.050


 130603902.502 6 101769315.74046  24853095.860                    24853102.020
      1766.841        1376.766          38.050          37.550



 131790734.824 6 102694043.21946  25078964.220                    25078966.200
     -3518.991       -2742.075          40.100          38.900



 121427416.735 7  94618760.28246  23106876.660                    23106875.780
      3134.204        2442.236          45.600          39.700



 130031825.820 6 101323525.45646  24744226.720                    24744232.640
      -222.396        -173.295          40.250          39.800    97101725.869 7
  24744235.180        -166.015          44.650


 136075806.430 6 106033086.41345  25894363.500                    25894361.980
      2085.057        1624.713          36.000          35.050



 129049672.369 6 100558236.73246  24557325.540                    24557331.860
      3649.060        2843.428          41.500          41.100    96368287.920 7
  24557334.560        2724.918          46.650


 23 11  9  8 50 30.0000000  0 12G03G04G06G07G09G11G16G19G20G26G29G30
 129547821.780 6 100946334.51446  24652148.540                    24652155.620
     -3358.012       -2616.642          41.500          41.150    96740241.959 7
  24652157.420       -2507.728          43.150


 115077930.364 8  89671123.16047  21898607.680                    21898608.600
     -2594.633       -2021.795          49.050          43.850    85934832.105 8
  21898614.360       -1937.501          50.150


 108788302.417 8  84770096.58948  20701731.560                    20701733.120
      -983.165        -766.104          51.400          51.450    81238018.017 9
  20701735.140        -734.198          55.900


 117978452.948 8  91931302.09148  22450536.680                    22450536.660
      2647.852        2063.263          49.150          49.150



 106485108.651 8  82975418.81248  20263442.540                    20263442.940
      -778.825        -606.878          52.750          52.700    79518113.442 9
  20263444.740        -581.649          56.400


 114225537.838 8  89006919.29047  21736403.120                    21736402.520
      1622.797        1264.517          49.850          46.650    85298311.421 8
  21736407.840        1211.742          53.000


 130551122.844 6 101728188.91646  24843052.020                    24843058.100
      1751.245        1364.616          39.050          36.350



 131896280.874 6 102776286.74745  25099049.120                    25099051.120
     -3517.601       -2740.993          39.800          35.650



 121333446.859 7  94545537.00646  23088994.720                    23088993.920
      3130.346        2439.230          45.200          39.400



 130038768.589 6 101328935.37546  24745547.940                    24745553.820
      -240.846        -187.673          40.350          40.500    97106910.352 7
  24745556.240        -179.778          44.550


 136013462.179 5 105984520.98145  25882501.140                    25882501.920
      2069.721        1612.771          34.400          34.300



 128940224.040 6 100472952.45946  24536498.140                    24536504.200
      3647.504        2842.215          41.250          41.550    96286557.188 7
  24536507.120        2723.648          46.200


 23 11  9  8 51  0.0000000  0 12G03G04G06G07G09G11G16G19G20G26G29G30
 129648609.314 6 101024869.96246  24671327.920                    24671335.400
     -3360.827       -2618.836          41.750          41.350    96815505.042 7
  24671336.820       -2509.878          43.550


 115155883.208 8  89731865.54247  21913441.800                    21913442.740
     -2602.339       -2027.800          48.900          44.550    85993043.529 8
  21913448.380       -1943.244          50.300


 108818087.559 8  84793305.73348  20707399.520                    20707401.080
     -1002.507        -781.177          51.250          51.150    81260260.108 9
  20707403.180        -748.650          56.250


 117899175.230 8  91869527.31448  22435450.540                    22435450.540
      2637.452        2055.160          49.300          49.600



 106508683.179 8  82993788.53948  20267928.660                    20267929.100
      -792.734        -617.716          52.450          52.450    79535717.752 9
  20267930.880        -591.954          56.750


 114177117.468 8  88969189.10747  21727189.060                    21727188.480
      1605.347        1250.919          49.850          47.300    85262153.315 8
  21727193.700        1198.812          53.350


 130498804.050 6 101687421.17245  24833095.880                    24833102.260
      1736.286        1352.952          39.800          33.500



 132001788.710 6 102858500.50845  25119126.780                    25119128.680
     -3516.092       -2739.816          39.800          35.350



 121239597.401 7  94472407.54646  23071135.720                    23071134.980
      3126.298        2436.077          45.000          40.150



 130046264.125 6 101334776.00946  24746974.200                    24746980.340
      -258.825        -201.684          39.950          39.300    97112507.636 7
  24746982.440        -193.405          44.550


 135951570.912 5 105936293.92045  25870723.340                    25870723.500
      2056.029        1602.102          32.800          32.200



 128830828.837 6 100387709.49346  24515680.940                    24515686.620
      3645.400        2840.573          41.100          40.800    96204866.032 7
  24515689.840        2722.450          47.450


 23 11  9  8 51 30.0000000  0 12G03G04G06G07G09G11G16G19G20G26G29G30
 129749486.393 6 101103475.19646  24690524.340                    24690532.100
     -3364.431       -2621.643          41.050          41.000    96890834.983 7
  24690533.520       -2512.493          44.000


 115234071.811 8  89792791.62847  21928320.700                    21928321.560
     -2610.416       -2034.094          48.650          44.750    86051431.012 8
  21928327.280       -1949.353          50.500


 108848459.102 8  84816971.81748  20713179.020                    20713180.580
     -1022.446        -796.713          51.250          51.250    81282940.091 9
  20713182.780        -763.496          56.300


 117820212.928 8  91807998.31948  22420424.500                    22420424.480
      2626.734        2046.808          49.550          49.700



 106532677.552 8  83012485.41348  20272494.660                    20272495.080
      -807.046        -628.868          52.600          52.750    79553635.582 9
  20272496.940        -602.670          56.850


 114129224.333 8  88931869.75747  21718075.280                    21718074.760
      1587.385        1236.922          50.050          47.150    85226388.928 8
  21718079.980        1185.413          53.650


 130446948.656 6 101647014.50846  24823228.220                    24823234.160
      1720.722        1340.825          40.100          36.600



 132107255.043 6 102940681.91746  25139196.580                    25139198.480
     -3515.123       -2739.064          41.100          36.450



 121145869.689 7  94399372.95546  23053299.960                    23053299.180
      3122.049        2432.765          45.550          40.050



 130054312.611 6 101341047.52846  24748505.920                    24748512.080
      -277.475        -216.215          40.900          41.000    97118517.834 7
  24748513.740        -207.436          44.600


 135890123.976 5 105888413.07845  25859030.840                    25859030.340
      2041.025        1590.415          34.100          34.150



 128721489.248 6 100302509.84847  24494874.120                    24494879.740
      3643.391        2839.007          41.750          42.100    96123216.387 7
  24494883.180        2720.724          47.300


 23 11  9  8 52  0.0000000  0 12G03G04G06G07G09G11G16G19G20G26G29G30
 129850457.113 6 101182153.37346  24709738.460                    24709745.960
     -3367.369       -2623.934          40.550          40.900    96966234.862 7
  24709748.380       -2514.504          43.400


 115312499.490 8  89853904.00147  21943245.100                    21943245.940
     -2618.305       -2040.241          48.900          44.200    86109997.010 8
  21943251.740       -1955.192          50.250


 108879421.311 8  84841098.15948  20719071.000                    20719072.520
     -1042.072        -812.006          51.350          51.300    81306061.151 9
  20719074.800        -778.121          55.950


 117741573.346 8  91746720.79248  22405459.760                    22405459.800
      2615.894        2038.360          49.150          49.150



 106557095.679 8  83031512.48548  20277141.280                    20277141.760
      -821.080        -639.804          52.800          52.700    79571869.852 9
  20277143.600        -613.121          56.550


 114081865.339 8  88894966.61147  21709063.180                    21709062.720
      1569.533        1223.012          49.850          47.500    85191023.410 8
  21709067.960        1172.093          53.450


 130395564.462 6 101606974.97745  24813450.300                    24813455.220
      1704.885        1328.481          40.800          35.100



 132212682.253 6 103022832.83045  25159258.840                    25159260.780
     -3513.726       -2737.975          41.250          34.950



 121052270.403 7  94326438.43246  23035488.620                    23035487.720
      3117.729        2429.398          45.750          39.950



 130062919.237 6 101347753.94546  24750143.860                    24750149.840
      -296.133        -230.754          39.900          39.750    97124944.797 7
  24750151.320        -221.183          43.750


 135829128.328 6 105840883.81346  25847423.920                    25847423.440
      2024.955        1577.886          38.800          39.050



 128612212.708 7 100217359.35146  24474079.520                    24474085.180
      3641.214        2837.312          42.050          41.750    96041613.816 7
  24474088.600        2719.242          46.650


 23 11  9  8 52 30.0000000  0 12G03G04G06G07G09G11G16G19G20G26G29G30
 129951517.548 6 101260901.45146  24728969.620                    24728977.260
     -3370.437       -2626.324          41.700          41.300    97041701.712 7
  24728980.040       -2516.706          43.250


 115391161.393 8  89915198.89047  21958214.160                    21958214.980
     -2626.186       -2046.382          48.900          44.000    86168737.926 8
  21958220.680       -1961.044          50.300


 108910970.308 8  84865681.73748  20725074.620                    20725076.120
     -1061.602        -827.224          51.200          51.300    81329620.402 9
  20725078.500        -792.718          56.050


 117663255.174 8  91685693.70048  22390556.160                    22390556.140
      2605.059        2029.918          49.600          49.600



 106581933.328 8  83050866.44948  20281867.740                    20281868.300
      -835.208        -650.813          52.650          52.550    79590417.386 9
  20281870.080        -623.591          56.600


 114035039.252 8  88858478.72347  21700152.460                    21700152.100
      1551.853        1209.234          50.000          47.250    85156055.842 8
  21700157.360        1158.868          53.800


 130344650.916 6 101567302.19545  24803761.780                    24803766.020
      1688.982        1316.096          40.500          32.800



 132318064.409 6 103104948.65645  25179312.500                    25179314.440
     -3512.153       -2736.747          40.800          35.050



 120958798.285 7  94253602.99946  23017701.520                    23017700.540
      3113.426        2426.045          45.850          40.500



 130072080.766 6 101354892.76046  24751887.400                    24751893.140
      -314.619        -245.159          40.500          40.650    97131786.159 7
  24751894.620        -235.029          43.850


 135768582.734 6 105793705.34845  25835902.700                    25835902.320
      2010.751        1566.817          36.800          34.700



 128502998.520 6 100132257.44646  24453296.780                    24453302.460
      3639.200        2835.744          41.600          40.900    95960057.823 7
  24453305.980        2717.734          47.200


 23 11  9  8 53  0.0000000  0 12G03G04G06G07G09G11G16G19G20G26G29G30
 130052667.223 6 101339719.10946  24748217.980                    24748226.020
     -3373.275       -2628.534          41.600          40.850    97117235.255 7
  24748228.360       -2519.140          43.300


 115470056.202 8  89976675.27447  21973227.440                    21973228.380
     -2634.156       -2052.592          48.850          44.300    86227652.773 8
  21973233.880       -1966.936          50.400


 108943105.736 8  84890722.27948  20731189.820                    20731191.340
     -1081.312        -842.583          50.950          51.100    81353617.580 9
  20731193.660        -807.477          56.050


 117585261.125 8  91624919.17848  22375714.360                    22375714.280
      2593.949        2021.261          49.450          49.350



 106607189.801 8  83070546.77248  20286673.900                    20286674.400
      -849.227        -661.737          52.650          52.800    79609277.694 9
  20286676.220        -634.160          56.650


 113988748.412 8  88822407.90447  21691343.580                    21691343.300
      1533.729        1195.112          50.050          47.800    85121487.970 9
  21691348.680        1145.358          54.000


 130294210.700 6 101527998.16145  24794163.300                    24794167.220
      1672.962        1303.604          40.500          30.250



 132423398.989 6 103187027.42745  25199357.060                    25199359.280
     -3510.644       -2735.567          41.750          34.200



 120865455.022 7  94180867.98046  22999938.900                    22999937.780
      3108.803        2422.442          46.150          41.550



 130081797.758 6 101362464.38646  24753736.640                    24753742.180
      -333.763        -260.077          40.850          40.550    97139042.270 7
  24753743.700        -249.022          43.750


 135708490.037 6 105746879.76346  25824467.760                    25824467.520
      1995.030        1554.573          36.100          36.850



 128393849.494 6 100047206.35547  24432526.540                    24432532.040
      3636.466        2833.615          41.750          42.300    95878550.542 7
  24432535.600        2715.824          47.900


 23 11  9  8 53 30.0000000  0 12G03G04G06G07G09G11G16G19G20G26G29G30
 130153903.804 6 101418604.51646  24767482.820                    24767490.940
     -3375.950       -2630.617          40.950          41.250    97192833.685 7
  24767493.500       -2520.704          43.300


 115549180.714 8  90038330.63447  21988284.300                    21988285.540
     -2640.961       -2057.896          48.000          44.350    86286739.148 8
  21988290.760       -1972.248          50.050


 108975825.250 8  84916217.95748  20737416.120                    20737417.740
     -1100.184        -857.288          50.800          50.900    81378050.926 9
  20737420.060        -821.542          55.750


 117507591.538 8  91564397.49848  22360934.140                    22360934.320
      2583.746        2013.312          48.950          49.000



 106632862.418 8  83090551.36948  20291559.300                    20291559.660
      -862.403        -672.004          52.650          52.700    79628448.757 9
  20291561.580        -644.041          56.400


 113942993.136 8  88786754.41547  21682636.620                    21682636.380
      1516.479        1181.670          50.050          47.900    85087320.038 8
  21682641.840        1132.431          53.900


 130244245.229 6 101489064.13245  24784655.020                    24784658.520
      1657.790        1291.788          39.600          35.650



 132528681.407 6 103269065.50045  25219391.680                    25219394.020
     -3508.187       -2733.660          39.350          35.100



 120772241.000 7  94108233.67846  22982200.900                    22982199.820
      3104.821        2419.341          46.050          41.650



 130092068.546 6 101370467.51246  24755691.240                    24755696.680
      -351.474        -273.879          40.650          40.950    97146711.951 7
  24755698.400        -262.404          43.650


 135648850.676 6 105700407.44246  25813119.200                    25813118.860
      1980.813        1543.487          37.950          37.950



 128284766.514 7  99962206.76146  24411768.720                    24411773.980
      3635.257        2832.673          42.000          41.550    95797092.653 7
  24411777.760        2714.585          47.550


 23 11  9  8 54  0.0000000  0 12G03G04G06G07G09G11G16G19G20G26G29G30
 130255227.967 6 101497558.16146  24786764.180                    24786772.440
     -3379.409       -2633.314          40.200          40.100    97268497.542 7
  24786775.440       -2523.458          43.650


 115628534.761 8  90100164.86047  22003384.900                    22003386.000
     -2649.311       -2064.400          48.650          43.550    86345996.924 8
  22003391.200       -1978.388          50.200


 109009129.636 8  84942169.37448  20743753.740                    20743755.440
     -1120.179        -872.868          51.050          51.100    81402921.028 9
  20743757.640        -836.522          55.750


 117430250.202 8  91504131.57448  22346216.500                    22346216.600
      2572.343        2004.424          49.750          49.950



 106658951.685 8  83110880.63048  20296523.980                    20296524.340
      -876.967        -683.352          53.050          52.950    79647930.951 9
  20296526.280        -654.890          56.600


 113897776.869 8  88751520.93447  21674032.280                    21674032.080
      1497.789        1167.107          50.200          47.700    85053554.606 9
  21674037.520        1118.520          54.150


 130194758.557 6 101450503.14946  24775237.980                    24775241.440
      1641.299        1278.934          40.600          36.950



 132633910.265 6 103351061.88746  25239416.160                    25239418.480
     -3507.041       -2732.763          40.500          36.000



 120679159.792 7  94035702.84846  22964488.180                    22964487.120
      3100.402        2415.896          46.550          41.150



 130102894.791 6 101378903.45146  24757751.380                    24757757.000
      -370.493        -288.700          41.700          40.950    97154796.364 7
  24757758.820        -276.607          44.050


 135589668.248 6 105654291.19145  25801857.500                    25801857.040
      1964.629        1530.878          37.250          35.900



 128175753.562 7  99877261.79447  24391024.260                    24391029.300
      3632.413        2830.457          42.750          42.600    95715687.122 7
  24391033.240        2712.383          47.350


 23 11  9  8 54 30.0000000  0 12G03G04G06G07G09G11G16G19G20G26G29G30
 130356639.203 6 101576579.63746  24806062.180                    24806070.740
     -3381.957       -2635.301          40.250          40.000    97344226.419 7
  24806073.660       -2525.469          43.600


 115708116.992 8  90162176.91047  22018528.920                    22018529.800
     -2656.673       -2070.137          48.000          43.600    86405425.111 8
  22018535.160       -1983.869          50.300


 109043018.393 8  84968576.14448  20750202.540                    20750204.380
     -1139.531        -887.948          50.900          51.000    81428227.505 9
  20750206.440        -850.929          55.800


 117353239.649 8  91444123.40248  22331561.820                    22331561.900
      2561.298        1995.819          49.600          49.200



 106685456.812 8  83131533.92448  20301567.820                    20301568.160
      -890.558        -693.942          52.950          52.700    79667723.684 9
  20301570.100        -665.048          56.650


 113853101.779 8  88716709.14247  21665530.960                    21665530.680
      1480.029        1153.269          50.300          47.900    85020193.310 9
  21665536.180        1105.174          54.250


 130145753.150 6 101412317.21745  24765912.600                    24765916.220
      1625.356        1266.514          40.350          35.950



 132739083.121 6 103433014.59545  25259429.860                    25259432.500
     -3504.809       -2731.024          38.350          34.600



 120586213.333 7  93963277.04847  22946801.080                    22946800.120
      3095.843        2412.346          46.600          42.000



 130114276.749 6 101387772.40846  24759917.320                    24759923.200
      -388.792        -302.957          40.800          40.700    97163295.763 7
  24759924.760        -290.437          43.350


 135530945.085 6 105608532.78346  25790683.000                    25790682.500
      1949.911        1519.408          39.250          38.750



 128066813.403 7  99792373.59247  24370293.620                    24370298.500
      3629.727        2828.366          43.100          42.900    95634335.954 7
  24370302.540        2710.628          47.500


 23 11  9  8 55  0.0000000  0 12G03G04G06G07G09G11G16G19G20G26G29G30
 130458135.273 6 101655667.23446  24825376.420                    24825385.180
     -3384.078       -2636.953          40.900          41.050    97420018.649 7
  24825387.920       -2527.392          43.100


 115787924.414 7  90224364.40947  22033715.760                    22033716.800
     -2663.919       -2075.784          47.800          43.450    86465021.445 8
  22033722.040       -1989.197          50.400


 109077489.324 8  84995436.56648  20756762.180                    20756764.020
     -1158.731        -902.909          50.850          50.700    81453968.725 9
  20756766.080        -865.161          55.750


 117276560.436 8  91384373.42048  22316970.140                    22316970.320
      2550.494        1987.400          49.600          49.400



 106712375.311 8  83152509.32948  20306690.320                    20306690.580
      -903.954        -704.382          52.950          52.950    79687825.101 9
  20306692.580        -675.029          56.700


 113808968.370 8  88682319.44447  21657132.740                    21657132.340
      1462.223        1139.393          50.200          47.700    84987236.506 9
  21657137.820        1091.941          54.250


 130097230.310 6 101374507.28146  24756679.020                    24756683.040
      1609.421        1254.099          40.300          37.100



 132844195.696 6 103514920.31646  25279431.980                    25279434.980
     -3502.691       -2729.377          39.750          36.600



 120493401.829 7  93890956.38146  22929139.680                    22929138.760
      3091.394        2408.878          46.700          40.700



 130126213.105 6 101397073.30946  24762188.780                    24762194.900
      -407.151        -317.267          41.150          41.650    97172209.092 7
  24762196.120        -303.951          43.600


 135472681.863 5 105563132.78245  25779596.120                    25779595.700
      1934.464        1507.370          35.600          35.250



 127957946.932 7  99707542.82447  24349576.820                    24349581.520
      3627.742        2826.822          42.950          42.750    95553039.864 7
  24349585.740        2708.998          47.700


 23 11  9  8 55 30.0000000  0 12G03G04G06G07G09G11G16G19G20G26G29G30
 130559717.925 6 101734822.31446  24844707.240                    24844715.920
     -3387.714       -2639.785          40.850          40.950    97495875.528 7
  24844718.540       -2529.715          42.700


 115867957.835 7  90286728.01947  22048945.620                    22048946.640
     -2671.667       -2081.821          47.650          43.850    86524786.552 8
  22048952.080       -1995.029          50.700


 109112544.044 8  85022751.88848  20763432.980                    20763434.820
     -1178.235        -918.106          51.400          51.550    81480145.910 9
  20763436.740        -879.854          55.700


 117200217.451 8  91324885.40248  22302442.580                    22302442.740
      2539.085        1978.508          50.300          50.150



 106739708.572 8  83173807.92848  20311891.760                    20311891.940
      -918.105        -715.408          52.950          52.950    79708236.251 9
  20311894.040        -685.577          56.700


 113765380.951 8  88648355.19147  21648838.380                    21648837.960
      1443.716        1124.973          50.550          47.400    84954687.430 9
  21648843.360        1078.120          54.200


 130049195.502 6 101337077.65945  24747538.340                    24747542.620
      1592.977        1241.283          39.900          34.350



 132949247.460 6 103596778.64346  25299422.520                    25299425.740
     -3500.964       -2728.033          38.200          38.250



 120400729.428 7  93818744.11346  22911504.740                    22911503.840
      3086.580        2405.127          46.350          40.800



 130138706.210 6 101406808.06246  24764566.240                    24764572.560
      -425.619        -331.655          41.500          41.550    97181538.192 7
  24764573.560        -318.012          43.600


 135414883.480 6 105518095.00246  25768597.300                    25768597.200
      1918.316        1494.789          37.500          37.600



 127849159.140 7  99622773.36547  24328874.960                    24328879.480
      3624.646        2824.409          42.750          42.250    95471802.511 7
  24328883.880        2706.888          47.350


 23 11  9  8 56  0.0000000  0 12G03G04G06G07G09G11G16G19G20G26G29G30
 130661383.612 6 101814042.10546  24864053.860                    24864062.600
     -3390.469       -2641.932          40.300          40.350    97571794.471 6
  24864064.820       -2531.844          41.700


 115948212.978 7  90349264.40947  22064217.640                    22064218.640
     -2679.080       -2087.598          47.250          44.150    86584717.233 8
  22064224.320       -2000.561          50.550


 109148179.083 8  85050519.41448  20770214.220                    20770216.000
     -1197.754        -933.316          50.750          50.650    81506756.439 9
  20770217.980        -894.380          55.700


 117124209.840 8  91265658.74348  22287978.820                    22287978.900
      2527.753        1969.680          49.450          49.700



 106767452.865 8  83195426.81348  20317171.320                    20317171.620
      -931.914        -726.168          52.450          52.400    79728954.340 9
  20317173.740        -695.859          56.700


 113722338.766 8  88614815.79647  21640647.740                    21640647.320
      1425.379        1110.684          50.200          47.300    84922545.505 9
  21640652.660        1064.451          54.050


 130001648.188 6 101300027.93145  24738490.060                    24738495.120
      1576.731        1228.627          38.100          33.850



 133054233.019 6 103678585.36145  25319400.560                    25319403.720
     -3498.516       -2726.117          36.650          35.250



 120308195.348 7  93746639.63046  22893896.120                    22893895.200
      3081.661        2401.296          46.250          41.250



 130151753.478 6 101416974.57646  24767049.180                    24767055.540
      -444.083        -346.044          41.050          40.650    97191281.084 7
  24767056.620        -331.872          43.750


 135357548.718 6 105473418.45346  25757686.740                    25757686.760
      1903.219        1483.022          39.050          38.950



 127740449.756 7  99538065.01247  24308187.980                    24308192.420
      3622.292        2822.574          42.400          42.350    95390623.755 7
  24308196.860        2704.864          46.950


 23 11  9  8 56 30.0000000  0 12G03G04G06G07G09G11G16G19G20G26G29G30
 130763132.516 6 101893326.74746  24883416.360                    24883424.940
     -3393.011       -2643.911          40.650          40.250    97647775.520 6
  24883426.920       -2533.687          41.350


 116028689.127 7  90411973.00447  22079531.680                    22079532.940
     -2686.336       -2093.253          47.300          44.400    86644812.956 8
  22079538.480       -2005.986          50.800


 109184394.489 8  85078739.16848  20777105.900                    20777107.600
     -1216.861        -948.205          51.250          51.250    81533800.359 9
  20777109.620        -908.696          55.800


 117048540.787 8  91206695.88248  22273579.440                    22273579.460
      2516.613        1960.999          49.850          49.800



 106795608.018 8  83217365.84948  20322529.100                    20322529.500
      -945.416        -736.689          52.800          52.800    79749979.243 9
  20322531.580        -705.992          56.800


 113679844.555 8  88581703.39547  21632561.440                    21632560.980
      1407.344        1096.631          50.400          47.550    84890812.784 9
  21632566.220        1050.870          54.150


 129954591.747 6 101263360.72445  24729535.160                    24729540.420
      1560.303        1215.824          38.450          34.800



 133159150.435 6 103760338.98945  25339365.700                    25339369.200
     -3495.921       -2724.100          37.800          35.750



 120215802.260 7  93674645.00946  22876314.260                    22876313.440
      3077.266        2397.868          46.850          40.900



 130165355.712 6 101427573.57846  24769637.780                    24769644.080
      -462.786        -360.616          41.350          41.000    97201438.401 7
  24769645.500        -345.470          44.350


 135300680.876 6 105429105.75747  25746865.040                    25746864.940
      1887.528        1470.798          41.700          42.050



 127631822.172 7  99453420.39147  24287516.580                    24287521.060
      3619.446        2820.355          42.850          42.900    95309506.052 7
  24287525.440        2702.872          47.250


 23 11  9  8 57  0.0000000  0 12G03G04G06G07G09G11G16G19G20G26G29G30
 130864962.633 6 101972674.69246  24902794.280                    24902802.620
     -3395.992       -2646.235          41.250          41.550    97723817.245 6
  24902804.520       -2535.835          41.550


 116109383.513 7  90474851.64647  22094887.320                    22094888.580
     -2693.489       -2098.826          47.200          43.750    86705071.621 8
  22094894.320       -2011.322          50.700


 109221188.140 8  85107409.50648  20784107.560                    20784109.260
     -1236.009        -963.125          50.900          50.950    81561276.092 9
  20784111.320        -923.019          55.550


 116973211.159 8  91147997.50948  22259244.760                    22259244.700
      2505.378        1952.243          50.100          50.150



 106824171.750 8  83239623.26748  20327964.620                    20327965.080
      -958.771        -747.096          52.900          52.700    79771309.257 9
  20327967.060        -716.019          56.400


 113637898.946 8  88549018.47047  21624579.500                    21624579.020
      1389.079        1082.397          50.600          47.350    84859489.721 8
  21624584.240        1037.310          53.800


 129908027.687 6 101227077.14145  24720674.340                    24720679.840
      1543.921        1203.057          39.850          33.500



 133263996.055 6 103842036.67445  25359317.440                    25359320.260
     -3493.604       -2722.289          36.300          31.650



 120123550.667 7  93602760.65246  22858759.360                    22858758.580
      3072.310        2394.007          46.700          41.850



 130179511.632 6 101438604.00346  24772331.700                    24772337.960
      -480.951        -374.771          40.050          39.800    97212009.196 7
  24772339.880        -359.258          44.150


 135244280.714 6 105385157.51146  25736132.540                    25736131.780
      1872.217        1458.869          38.650          38.250



 127523277.580 7  99368840.41747  24266861.060                    24266865.520
      3616.938        2818.400          43.100          43.300    95228450.295 7
  24266869.860        2700.827          47.200


 23 11  9  8 57 30.0000000  0 12G03G04G06G07G09G11G16G19G20G26G29G30
 130966873.433 6 102052085.51346  24922187.640                    24922195.580
     -3398.312       -2648.042          41.600          41.100    97799919.247 6
  24922197.680       -2537.820          41.550


 116190294.768 7  90537899.29447  22110284.280                    22110285.420
     -2700.622       -2104.383          47.500          43.150    86765492.252 8
  22110291.500       -2016.789          50.750


 109258559.435 8  85136529.95148  20791219.060                    20791220.800
     -1255.293        -978.152          50.750          50.950    81589183.177 9
  20791222.960        -937.455          55.600


 116898223.219 8  91089565.38948  22244974.980                    22244974.880
      2493.873        1943.279          49.950          50.000



 106853143.273 8  83262198.43948  20333477.700                    20333478.180
      -972.454        -757.758          52.400          52.350    79792943.793 9
  20333480.180        -726.256          56.600


 113596504.009 8  88516762.64447  21616702.380                    21616701.820
      1370.611        1068.008          50.700          47.200    84828577.875 8
  21616707.080        1023.476          53.950


 129861958.612 6 101191179.25745  24711907.820                    24711912.860
      1527.308        1190.108          40.050          34.200



 133368767.930 6 103923676.86745  25379255.120                    25379257.580
     -3491.311       -2720.513          36.100          34.900



 120031442.205 7  93530987.82747  22841231.580                    22841231.080
      3067.700        2390.416          46.050          42.150



 130194221.480 6 101450066.07746  24775130.980                    24775137.280
      -499.829        -389.482          41.000          40.800    97222993.654 7
  24775139.520        -373.055          44.400


 135188351.043 6 105341575.84746  25725489.580                    25725488.460
      1856.107        1446.315          41.600          41.750



 127414818.735 7  99284327.22047  24246221.900                    24246226.280
      3613.873        2816.011          42.600          42.750    95147458.528 7
  24246230.600        2698.593          47.350


 23 11  9  8 58  0.0000000  0 12G03G04G06G07G09G11G16G19G20G26G29G30
 131068866.391 6 102131560.36546  24941596.680                    24941604.040
     -3401.118       -2650.228          41.600          41.950    97876082.574 6
  24941606.360       -2539.692          41.100


 116271423.569 7  90601116.44147  22125722.660                    22125723.800
     -2707.980       -2110.118          47.400          43.900    86826075.328 8
  22125729.820       -2022.139          50.500


 109296509.724 8  85166101.55048  20798440.680                    20798442.560
     -1274.655        -993.240          50.350          50.550    81617522.613 9
  20798444.680        -951.806          55.550


 116823581.344 8  91031402.91048  22230771.060                    22230770.900
      2482.361        1934.309          49.550          49.450



 106882523.722 8  83285092.25848  20339068.660                    20339069.140
      -986.169        -768.444          52.550          52.550    79814883.687 9
  20339071.180        -736.381          56.700


 113555663.808 8  88484939.08047  21608930.800                    21608930.160
      1352.105        1053.587          50.400          47.250    84798080.286 8
  21608935.500        1009.696          53.900


 129816389.317 6 101155670.79345  24703236.360                    24703241.300
      1510.857        1177.292          39.700          35.850



 133473464.724 5 104005258.55545  25399178.500                    25399181.380
     -3488.430       -2718.267          35.900          35.000



 119939481.807 7  93459330.39846  22823732.080                    22823731.760
      3062.766        2386.571          46.600          41.750



 130209487.308 6 101461961.41046  24778035.980                    24778042.380
      -518.243        -403.830          40.400          40.550    97234393.345 7
  24778045.020        -386.947          44.750


 135132895.999 6 105298364.07546  25714936.880                    25714935.840
      1840.446        1434.111          41.750          41.750



 127306450.355 7  99199884.49247  24225599.860                    24225604.300
      3610.761        2813.585          42.450          42.700    95066534.275 7
  24225608.500        2696.370          47.550


 23 11  9  8 58 30.0000000  0 12G03G04G06G07G09G11G16G19G20G26G29G30
 131170935.336 6 102211094.40946  24961019.960                    24961027.180
     -3403.649       -2652.200          41.600          41.600    97952302.656 6
  24961029.580       -2541.611          41.400


 116352763.021 7  90664497.72347  22141201.240                    22141202.380
     -2714.732       -2115.380          47.500          44.550    86886815.704 8
  22141208.280       -2027.284          50.550


 109335032.671 8  85196119.38148  20805771.300                    20805773.260
     -1293.637       -1008.030          50.650          50.600    81646289.701 9
  20805775.400        -966.016          55.450


 116749282.298 8  90973507.58648  22216632.360                    22216632.280
      2470.757        1925.266          50.100          50.000



 106912306.646 8  83308299.69748  20344736.200                    20344736.720
      -999.464        -778.805          53.000          52.900    79837124.135 9
  20344738.800        -746.375          56.650


 113515374.785 8  88453545.00847  21601264.040                    21601263.400
      1333.713        1039.256          50.750          46.800    84767994.293 8
  21601268.820         995.997          53.950


 129771316.941 6 101120549.52545  24694659.440                    24694664.400
      1494.192        1164.308          39.700          35.700



 133578078.765 6 104086775.71346  25419086.260                    25419089.260
     -3486.056       -2716.415          39.100          38.350



 119847665.738 7  93387785.41746  22806260.060                    22806259.820
      3057.906        2382.783          47.150          41.950



 130225303.730 6 101474285.79746  24781045.720                    24781052.080
      -536.296        -417.897          41.000          40.700    97246204.196 7
  24781055.180        -400.577          44.550


 135077911.851 7 105255519.19447  25704473.900                    25704472.880
      1824.782        1421.905          42.050          42.250



 127198169.530 7  99115509.97047  24204994.400                    24204999.060
      3607.930        2811.379          42.800          42.950    94985675.401 7
  24205003.180        2694.182          47.300


 23 11  9  8 59  0.0000000  0 12G03G04G06G07G09G11G16G19G20G26G29G30
 131273084.610 6 102290691.04546  24980458.560                    24980465.840
     -3406.311       -2654.273          41.900          41.950    98028582.735 6
  24980468.200       -2543.598          41.400


 116434316.631 7  90728045.88447  22156720.540                    22156721.800
     -2721.842       -2120.919          47.500          44.050    86947715.992 8
  22156727.560       -2032.492          50.300


 109374132.439 8  85226586.68248  20813211.740                    20813213.720
     -1312.799       -1022.962          50.800          50.650    81675487.517 9
  20813215.820        -980.268          55.350


 116675333.263 8  90915884.98648  22202560.260                    22202560.100
      2459.234        1916.287          49.550          49.700



 106942496.063 8  83331823.87948  20350481.080                    20350481.600
     -1012.935        -789.301          52.650          52.550    79859668.133 9
  20350483.620        -756.339          56.450


 113475643.809 8  88422585.77847  21593703.480                    21593702.820
      1315.275        1024.889          50.700          47.050    84738325.019 8
  21593708.300         982.206          53.900


 129726748.675 6 101085821.07746  24686178.320                    24686183.180
      1477.517        1151.317          39.000          36.300



 133682612.395 5 104168230.27145  25438978.600                    25438981.580
     -3483.312       -2714.274          35.250          34.000



 119756000.759 7  93316358.17546  22788816.800                    22788816.640
      3053.281        2379.182          46.750          41.650



 130241675.593 6 101487043.03346  24784161.300                    24784167.680
      -554.659        -432.204          40.500          40.300    97258429.855 7
  24784170.460        -414.189          43.550


 135023405.446 6 105213046.64046  25694101.760                    25694101.180
      1809.239        1409.795          38.850          38.850



 127089983.896 7  99031209.60647  24184407.300                    24184412.080
      3604.584        2808.771          42.950          42.900    94904887.569 7
  24184415.980        2691.932          47.200


 23 11  9  8 59 30.0000000  0 12G03G04G06G07G09G11G16G19G20G26G29G30
 131375312.339 6 102370348.81746  24999911.940                    24999919.300
     -3408.796       -2656.211          41.550          41.200    98104921.388 6
  24999921.460       -2545.481          41.250


 116516081.783 7  90791758.88547  22172280.100                    22172281.380
     -2728.809       -2126.349          47.400          44.750    87008774.270 8
  22172287.000       -2037.798          49.950


 109413807.014 8  85257501.89248  20820761.660                    20820763.580
     -1331.788       -1037.759          50.850          50.850    81705114.595 9
  20820765.600        -994.633          55.350


 116601735.280 8  90858535.93748  22188554.960                    22188554.760
      2447.701        1907.300          49.650          49.650



 106973089.886 8  83355663.18548  20356302.920                    20356303.380
     -1026.322        -799.733          52.450          52.600    79882514.137 9
  20356305.360        -766.475          56.350


 113436471.613 8  88392061.96947  21586249.240                    21586248.580
      1296.609        1010.344          50.450          47.100    84709073.033 8
  21586254.060         968.158          53.850


 129682686.167 6 101051486.70746  24677793.280                    24677798.680
      1460.425        1137.993          38.950          37.100



 133787061.738 5 104249619.11145  25458855.020                    25458857.540
     -3479.467       -2711.286          35.050          32.600



 119664487.726 7  93245049.32946  22771402.440                    22771402.300
      3048.175        2375.201          46.300          41.650



 130258601.715 6 101500232.18746  24787382.200                    24787388.580
      -573.276        -446.709          39.600          39.850    97271069.488 7
  24787391.000        -428.236          43.000


 134969378.274 6 105170947.47146  25683820.740                    25683820.680
      1793.225        1397.318          38.550          38.950



 126981894.958 7  98946984.55747  24163838.680                    24163843.460
      3601.370        2806.266          43.200          43.100    94824171.933 7
  24163847.140        2689.411          47.100


                            4  1
RINEX FILE SPLICE; other post-header comments skipped       COMMENT
 23 11  9  9  0  0.0000000  0 12G03G04G06G07G09G11G16G19G20G26G29G30
 131477617.446 6 102450066.88246  25019380.000                    25019387.080
     -3411.950       -2658.667          41.000          40.600    98181317.813 7
  25019389.700       -2547.730          42.300


 116598056.618 7  90855635.27447  22187879.500                    22187880.720
     -2736.333       -2132.211          47.400          44.750    87069989.119 8
  22187886.260       -2043.326          49.600


 109454055.081 8  85288863.97948  20828420.720                    20828422.560
     -1351.525       -1053.138          51.050          51.400    81735169.909 9
  20828424.580       -1009.264          55.400


 116528490.112 8  90801461.81048  22174616.800                    22174616.620
      2435.207        1897.565          49.600          49.550



 107004086.650 8  83379816.47848  20362201.380                    20362201.880
     -1040.364        -810.675          52.450          52.400    79905661.033 9
  20362203.840        -776.905          56.450


 113397859.635 8  88361974.68347  21578901.600                    21578900.940
      1277.298         995.296          50.250          47.200    84680239.371 8
  21578906.460         953.839          53.850


 129639131.169 6 101017547.76846  24669504.940                    24669510.620
      1442.729        1124.207          40.750          36.550



 133891423.931 5 104330940.11244  25478714.860                    25478717.560
     -3477.899       -2710.065          33.700          27.700



 119573127.792 7  93173859.78447  22754017.180                    22754017.060
      3042.246        2370.582          46.400          42.100



 130276081.613 6 101513852.91146  24790708.500                    24790715.120
      -592.161        -461.424          40.400          40.600    97284122.657 7
  24790717.020        -442.315          43.150


 134915831.937 6 105129222.96946  25673631.120                    25673631.340
      1776.679        1384.421          36.900          36.700



 126873904.867 7  98862836.54547  24143288.680                    24143293.660
      3597.447        2803.211          42.700          42.100    94743530.104 7
  24143297.100        2686.516          47.150


 23 11  9  9  0 30.0000000  0 12G03G04G06G07G09G11G16G19G20G26G29G30
 131579995.781 6 102529841.98547  25038862.020                    25038868.880
     -3414.388       -2660.571          41.650          42.250    98257768.932 7
  25038872.320       -2549.446          43.000


 116680236.211 7  90919671.20747  22203517.840                    22203519.080
     -2742.729       -2137.195          47.500          44.500    87131356.879 8
  22203524.500       -2048.213          49.650


 109494872.271 8  85320669.53648  20836188.080                    20836189.840
     -1370.237       -1067.719          51.250          51.250    81765650.229 9
  20836191.820       -1023.210          55.400


 116455596.474 8  90744661.59448  22160745.620                    22160745.320
      2423.753        1888.639          49.600          49.500



 107035481.895 8  83404280.27348  20368175.620                    20368176.220
     -1053.237        -820.706          52.300          52.350    79929105.495 9
  20368178.180        -786.521          56.500


 113359806.208 8  88332322.62747  21571660.260                    21571659.660
      1259.020         981.053          50.100          47.300    84651822.821 8
  21571665.060         940.116          53.800


 129596082.969 6 100984003.63445  24661313.400                    24661318.780
      1426.663        1111.679          41.700          35.700



 133995693.223 5 104412337.64545  25498556.860                    25498559.760
     -3473.836       -2706.892          32.350          33.000



 119481919.683 7  93102788.53546  22736660.940                    22736660.700
      3037.476        2366.863          47.200          41.300



 130294111.706 6 101527902.39946  24794139.580                    24794146.440
      -610.119        -475.415          40.800          41.050    97297586.756 7
  24794147.900        -455.875          42.800


 134862765.076 6 105087872.09446  25663533.080                    25663533.260
      1760.954        1372.168          39.950          40.200



 126766012.717 7  98778764.86547  24122757.360                    24122762.360
      3594.403        2800.841          42.100          42.000    94662961.444 7
  24122765.780        2684.230          47.300


 23 11  9  9  1  0.0000000  0 11G03G04G06G07G09G11G16G20G26G29G30
 131682450.909 6 102609676.92846  25058358.780                    25058365.720
     -3416.473       -2662.193          41.300          41.350    98334277.360 7
  25058369.440       -2550.915          43.750


 116762623.369 7  90983868.88147  22219195.740                    22219197.040
     -2749.104       -2142.163          47.400          44.950    87192879.632 8
  22219202.320       -2053.019          49.750


 109536261.881 8  85352921.13048  20844064.360                    20844066.060
     -1388.720       -1082.121          51.150          51.300    81796557.996 9
  20844068.080       -1037.091          55.400


 116383060.797 8  90688140.31348  22146942.520                    22146942.100
      2412.271        1879.692          49.350          49.250



 107067278.900 8  83429057.13248  20374226.380                    20374226.960
     -1066.036        -830.679          52.200          52.100    79952849.975 9
  20374228.920        -796.134          56.350


 113322317.431 8  88303110.56247  21564526.340                    21564525.780
      1240.562         966.670          50.150          46.750    84623827.918 8
  21564531.120         926.425          53.700


 129553549.114 7 100950860.24646  24653219.780                    24653224.580
      1409.363        1098.200          42.500          36.250



 119390870.240 7  93031840.93146  22719334.880                    22719334.600
      3032.770        2363.197          47.250          40.800



 130312696.120 6 101542383.86246  24797676.360                    24797683.120
      -627.870        -489.246          40.750          40.550    97311464.843 7
  24797684.160        -469.144          43.000


 134810183.898 6 105046899.66246  25653527.480                    25653527.580
      1745.106        1359.820          38.800          38.500



 126658225.395 7  98694774.86847  24102246.020                    24102251.000
      3591.887        2798.877          42.300          43.250    94582471.066 7
  24102254.400        2681.954          47.650


 23 11  9  9  1 30.0000000  0 12G03G04G06G07G09G11G16G19G20G26G29G30
 131784977.168 6 102689567.28246  25077868.820                    25077875.960
     -3419.360       -2664.445          39.950          39.850    98410838.921 7
  25077879.880       -2553.440          44.000


 116845211.804 7  91048223.39047  22234911.960                    22234913.380
     -2757.068       -2148.369          47.500          44.400    87254552.662 8
  22234918.720       -2058.735          49.900


 109578218.082 8  85385614.22448  20852048.440                    20852050.060
     -1408.725       -1097.710          51.300          51.200    81827888.864 9
  20852052.140       -1051.931          55.300


 116310880.273 8  90631895.77648  22133207.000                    22133206.560
      2399.304        1869.588          49.450          49.500



 107099471.760 8  83454142.45048  20380352.440                    20380353.060
     -1080.448        -841.908          52.250          52.150    79976890.066 9
  20380354.940        -806.758          56.200


 113285390.179 8  88274336.05147  21557499.300                    21557498.780
      1220.905         951.354          50.100          47.050    84596252.343 8
  21557504.100         911.697          53.650


 129511525.531 6 100918114.40845  24645223.260                    24645227.360
      1391.604        1084.363          41.900          33.750



 134204077.158 5                  25538188.120
     -3468.742                          34.550



 119299976.217 7  92961014.43846  22702038.360                    22702037.880
      3026.383        2358.221          47.200          41.500



 130331829.752 6 101557293.32046  24801317.360                    24801324.180
      -647.799        -504.772          40.700          40.500    97325753.084 7
  24801325.200        -483.604          43.700


 134758085.560 6 105006303.48746  25643613.480                    25643613.720
      1728.077        1346.554          38.000          36.850



 126550540.687 7  98610864.84847  24081754.260                    24081759.220
      3586.627        2794.778          42.650          42.250    94502057.300 7
  24081762.540        2678.699          47.750


 23 11  9  9  2  0.0000000  0 11G03G04G06G07G09G11G16G20G26G29G30
 131887576.991 6 102769514.92146  25097392.900                    25097400.040
     -3421.596       -2666.188          40.400          39.550    98487455.345 7
  25097404.660       -2554.964          45.100


 116928003.056 7  91112735.93147  22250666.780                    22250668.140
     -2763.340       -2153.256          47.500          44.100    87316377.165 8
  22250673.620       -2063.466          50.000


 109620742.896 8  85418750.39348  20860140.720                    20860142.320
     -1427.169       -1112.082          51.850          51.950    81859644.346 9
  20860144.420       -1065.776          55.650


 116239060.089 8  90575932.02948  22119540.120                    22119539.740
      2387.797        1860.622          49.700          49.600



 107132062.505 8  83479537.80748  20386554.240                    20386554.920
     -1093.173        -851.824          52.300          52.300    80001227.272 9
  20386556.720        -816.322          56.450


 113249029.277 8  88246002.84647  21550580.040                    21550579.600
      1202.268         936.831          50.250          46.700    84569099.686 8
  21550584.860         897.828          53.850


 129470018.481 6 100885771.04545  24637324.880                    24637328.220
      1374.647        1071.146          41.400          33.750



 119209242.391 7  92890312.77646  22684772.220                    22684771.720
      3021.449        2354.377          47.500          41.000



 130351515.354 6 101572632.91246  24805063.280                    24805070.060
      -665.646        -518.682          41.400          41.450    97340453.558 7
  24805071.280        -496.979          43.600


 134706474.961 6 104966087.40146  25633792.220                    25633792.660
      1711.725        1333.808          36.850          37.550



 126442964.120 7  98527039.11147  24061282.960                    24061288.040
      3583.788        2792.568          43.050          42.950    94421724.354 8
  24061291.300        2676.162          48.350


 23 11  9  9  2 30.0000000  0 11G03G04G06G07G09G11G16G20G26G29G30
 131990249.358 6 102849519.04346  25116930.960                    25116938.200
     -3423.593       -2667.746          39.100          38.950    98564125.914 7
  25116943.420       -2556.655          45.050


 117010995.445 7  91177405.20947  22266459.940                    22266461.220
     -2769.676       -2158.192          47.200          44.700    87378351.866 8
  22266466.680       -2068.324          49.700


 109663835.061 8  85452328.64748  20868340.980                    20868342.460
     -1445.905       -1126.681          51.100          51.150    81891823.494 9
  20868344.660       -1079.771          55.500


 116167601.991 8  90520250.42948  22105942.120                    22105941.660
      2375.794        1851.270          49.750          49.600



 107165049.847 8  83505242.19148  20392831.580                    20392832.300
     -1106.263        -862.024          52.550          52.550    80025860.629 9
  20392834.020        -826.076          56.200


 113213236.206 8  88218112.11747  21543768.860                    21543768.440
      1183.619         922.300          49.950          47.300    84542371.068 8
  21543773.760         883.823          53.800


 129429030.066 6 100853831.81845  24629524.920                    24629527.880
      1357.645        1057.896          40.150          34.900



 119118670.512 7  92819737.29646  22667536.940                    22667536.340
      3016.400        2350.441          46.550          41.850



 130371752.393 6 101588402.23846  24808914.040                    24808920.840
      -683.979        -532.963          40.550          40.950    97355565.879 7
  24808921.880        -510.770          43.250


 134655354.065 6 104926252.89846  25624064.200                    25624064.800
      1695.900        1321.479          37.950          37.350



 126335498.054 7  98443299.48747  24040832.800                    24040837.880
      3580.398        2789.929          43.850          43.800    94341473.922 8
  24040841.080        2673.594          48.300


 23 11  9  9  3  0.0000000  0 11G03G04G06G07G09G11G16G20G26G29G30
 132092993.297 6 102929578.91746  25136482.520                    25136490.360
     -3426.027       -2669.644          38.150          38.450    98640849.880 7
  25136495.400       -2558.316          45.100


 117094187.257 7  91242229.87347  22282290.900                    22282292.420
     -2776.397       -2163.432          47.250          45.050    87440475.480 8
  22282297.640       -2073.221          49.600


 109707493.247 8  85486347.96548  20876648.960                    20876650.360
     -1464.799       -1141.403          51.600          51.500    81924425.324 9
  20876652.620       -1093.788          55.700


 116096507.838 8  90464852.43348  22092413.320                    22092412.840
      2363.709        1841.853          49.800          49.700



 107198432.455 8  83531254.58248  20399184.260                    20399184.860
     -1119.418        -872.274          52.650          52.750    80050789.165 9
  20399186.480        -835.853          56.200


 113178012.407 8  88190664.97047  21537066.000                    21537065.640
      1164.526         907.422          49.800          47.750    84516067.551 9
  21537071.040         869.719          54.000


 129388563.418 6 100822299.27945  24621823.960                    24621827.600
      1340.394        1044.461          38.900          33.400



 119028262.201 7  92749289.26347  22650332.780                    22650332.040
      3010.744        2346.034          46.850          42.250



 130392540.425 6 101604600.88546  24812869.700                    24812876.520
      -702.205        -547.166          40.500          40.550    97371089.626 7
  24812877.400        -524.379          44.150


 134604724.581 6 104886801.29246  25614430.020                    25614430.120
      1679.027        1308.328          37.300          37.700



 126228144.810 7  98359647.77947  24020404.160                    24020409.100
      3576.379        2786.795          43.400          43.000    94261307.748 8
  24020412.300        2670.804          48.350


 23 11  9  9  3 30.0000000  0 11G03G04G06G07G09G11G16G20G26G29G30
 132195810.542 6 103009695.86946  25156048.080                    25156056.340
     -3428.078       -2671.241          38.650          38.100    98717628.543 7
  25156061.140       -2559.852          45.250


 117177579.538 8  91307210.76047  22298160.080                    22298161.520
     -2782.732       -2168.365          48.000          43.750    87502748.802 8
  22298166.780       -2077.972          49.250


 109751718.869 8  85520809.43148  20885064.820                    20885066.240
     -1483.202       -1155.743          51.350          51.350    81957450.885 9
  20885068.580       -1107.613          55.650


 116025782.110 8  90409741.51548  22078954.700                    22078954.300
      2351.672        1832.473          50.150          50.050



 107232211.770 8  83557576.10048  20405612.420                    20405612.920
     -1132.248        -882.271          53.050          53.000    80076013.947 9
  20405614.360        -845.484          56.000


 113143362.022 8  88163664.65047  21530472.280                    21530471.980
      1145.841         892.862          50.250          47.400    84490192.248 8
  21530477.400         855.666          53.950


 129348622.114 6 100791176.15945  24614222.980                    24614227.560
      1322.746        1030.714          40.100          35.000



 118938022.080 7  92678972.28846  22633160.620                    22633159.880
      3005.644        2342.062          47.300          41.800



 130413881.508 6 101621230.47246  24816930.540                    24816937.520
      -720.218        -561.202          40.900          39.950    97387026.333 7
  24816938.120        -537.760          44.300


 134554590.807 5 104847735.96345  25604890.120                    25604889.880
      1663.543        1296.268          35.250          33.500



 126120909.374 7  98276087.91247  23999997.700                    24000002.860
      3572.773        2783.987          43.200          43.350    94181229.586 8
  24000005.860        2668.119          48.250


 23 11  9  9  4  0.0000000  0 11G03G04G06G07G09G11G16G20G26G29G30
 132298693.250 6 103089863.80046  25175626.260                    25175635.020
     -3430.458       -2673.098          38.350          38.650    98794456.085 7
  25175639.680       -2561.729          45.250


 117261163.755 7  91372341.20047  22314065.780                    22314067.200
     -2789.337       -2173.514          47.650          44.200    87565165.451 8
  22314072.240       -2082.930          49.150


 109796503.750 8  85555706.68648  20893587.060                    20893588.520
     -1502.099       -1170.468          51.150          51.100    81990894.068 9
  20893590.980       -1121.668          55.750


 115955419.991 8  90354913.92548  22065565.180                    22065564.720
      2339.348        1822.869          50.000          49.950



 107266379.648 8  83584200.38548  20412114.460                    20412114.880
     -1145.395        -892.517          52.850          52.800    80101528.877 9
  20412116.300        -855.300          56.200


 113109279.662 8  88137106.95747  21523986.720                    21523986.380
      1126.674         877.928          50.350          47.350    84464741.123 9
  21523991.880         841.351          54.000


 129309201.381 6 100760458.76046  24606721.540                    24606726.700
      1305.387        1017.190          40.650          38.200



 118847944.816 7  92608782.20247  22616019.460                    22616018.660
      2999.858        2337.552          47.200          42.200



 130435768.252 6 101638285.19746  24821095.220                    24821102.740
      -738.811        -575.691          40.650          41.000    97403370.486 7
  24821102.580        -551.560          44.200


 134504947.850 5 104809053.07445  25595443.260                    25595442.980
      1646.576        1283.042          34.650          34.000



 126013787.200 7  98192616.32347  23979612.760                    23979618.060
      3568.810        2780.898          43.250          43.050    94101236.011 8
  23979620.880        2665.053          48.200


 23 11  9  9  4 30.0000000  0 11G03G04G06G07G09G11G16G20G26G29G30
 132401646.045 6 103170086.32346  25195217.920                    25195226.940
     -3432.616       -2674.781          38.550          37.800    98871335.891 7
  25195231.480       -2563.428          44.650


 117344943.721 7  91437624.16847  22330008.580                    22330010.200
     -2795.722       -2178.488          47.750          43.850    87627728.274 8
  22330014.940       -2087.756          49.300


 109841852.042 8  85591042.95248  20902216.500                    20902218.100
     -1520.927       -1185.140          50.900          50.900    82024757.976 9
  20902220.640       -1135.745          56.000


 115885428.613 8  90300375.22348  22052246.260                    22052245.840
      2326.914        1813.183          49.850          49.900



 107300940.324 8  83611130.74748  20418691.220                    20418691.580
     -1158.429        -902.673          52.950          52.850    80127337.133 9
  20418693.140        -865.046          56.400


 113075772.263 8  88110997.27547  21517610.600                    21517610.260
      1107.442         862.941          50.250          47.750    84439719.343 9
  21517615.740         827.004          54.200


 129270309.439 7 100730153.44745  24599320.920                    24599325.860
      1287.795        1003.483          42.150          34.600



 118758037.993 7  92538724.93947  22598910.820                    22598909.940
      2994.221        2333.159          47.550          42.000



 130458205.590 6 101655768.94346  24825364.700                    24825372.360
      -757.098        -589.942          40.750          41.500    97420125.776 7
  24825371.840        -565.279          43.800


 134455802.706 5 104770758.16446  25586090.920                    25586091.120
      1629.592        1269.813          35.650          36.050



 125906786.180 7  98109239.11247  23959251.060                    23959256.240
      3564.786        2777.762          44.150          44.500    94021332.894 8
  23959258.920        2662.013          48.650


 23 11  9  9  5  0.0000000  0 11G03G04G06G07G09G11G16G20G26G29G30
 132504662.760 6 103250358.59046  25214821.760                    25214831.120
     -3434.982       -2676.626          38.600          38.450    98948263.398 7
  25214835.040       -2565.251          43.950


 117428912.595 7  91503054.34347  22345987.360                    22345988.920
     -2802.463       -2183.741          47.400          44.400    87690432.154 8
  22345993.800       -2092.591          49.550


 109887757.157 8  85626813.11848  20910951.900                    20910953.580
     -1539.842       -1199.879          50.900          50.850    82059037.697 9
  20910956.240       -1149.751          56.000


 115815804.874 8  90246123.00448  22038997.260                    22038996.940
      2314.354        1803.396          50.100          50.100



 107335887.282 8  83638362.11148  20425341.420                    20425341.760
     -1171.703        -913.017          52.700          52.700    80153433.839 9
  20425343.520        -874.894          56.400


 113042836.000 8  88085332.64047  21511343.140                    21511342.740
      1087.990         847.784          50.700          47.700    84415124.065 9
  21511348.200         812.515          54.100


 129231943.124 7 100700257.79746  24592020.520                    24592025.280
      1269.698         989.382          42.400          36.550



 118668298.262 7  92468797.87847  22581833.940                    22581833.000
      2988.128        2328.411          47.500          42.600



 130481187.737 6 101673677.15646  24829737.900                    24829745.420
      -775.576        -604.344          40.700          41.050    97437287.841 7
  24829745.080        -578.955          44.100


 134407151.753 6 104732848.21246  25576832.880                    25576833.160
      1613.358        1257.159          36.350          36.950



 125799903.465 7  98025954.07847  23938911.840                    23938916.840
      3560.240        2774.219          43.650          43.750    93941518.106 8
  23938919.500        2658.866          49.000


 23 11  9  9  5 30.0000000  0 11G03G04G06G07G09G11G16G20G26G29G30
 132607750.084 6 103330685.88846  25234439.200                    25234448.580
     -3437.240       -2678.385          39.300          40.100    99025243.586 7
  25234452.240       -2566.591          43.600


 117513076.384 7  91568636.39947  22362003.240                    22362004.840
     -2808.312       -2188.298          47.600          43.950    87753281.617 8
  22362009.820       -2097.188          49.500


 109934225.365 8  85663022.05448  20919794.480                    20919796.300
     -1557.869       -1213.926          50.700          50.800    82093737.922 9
  20919799.040       -1163.459          55.950


 115746557.839 8  90192164.31548  22025820.020                    22025819.680
      2302.287        1793.991          50.000          49.950



 107371226.870 8  83665899.41348  20432066.280                    20432066.620
     -1184.098        -922.675          52.450          52.650    80179823.761 9
  20432068.580        -884.330          56.400


 113010479.914 8  88060120.08848  21505186.020                    21505185.680
      1069.253         833.184          50.150          48.450    84390962.041 9
  21505191.060         798.334          54.050


 129194112.226 6 100670779.42546  24584821.780                    24584826.400
      1252.470         975.961          41.550          36.400



 118578734.654 7  92399008.05447  22564790.560                    22564789.600
      2982.751        2324.222          47.350          42.200



 130504721.654 6 101692015.30046  24834216.320                    24834223.460
      -793.683        -618.454          41.200          41.350    97454861.899 7
  24834223.600        -592.554          44.200


 134359004.141 6 104695330.53346  25567670.500                    25567671.080
      1596.939        1244.365          36.500          37.000



 125693148.943 7  97942768.93947  23918596.980                    23918601.840
      3556.833        2771.564          43.200          42.850    93861799.084 8
  23918604.540        2655.839          48.900


 23 11  9  9  6  0.0000000  0 11G03G04G06G07G09G11G16G20G26G29G30
 132710900.637 6 103411062.39346  25254068.700                    25254078.060
     -3439.197       -2679.912          39.200          39.850    99102270.958 7
  25254081.220       -2568.238          42.950


 117597426.971 7  91634364.02347  22378054.640                    22378056.320
     -2814.634       -2193.225          47.200          43.700    87816270.555 8
  22378061.220       -2101.868          49.400


 109981248.802 8  85699663.63448  20928742.820                    20928744.580
     -1576.596       -1228.518          50.900          50.950    82128852.755 9
  20928747.380       -1177.322          55.900


 115677683.016 8  90138495.65648  22012713.580                    22012713.180
      2289.650        1784.145          49.950          50.000



 107406951.342 8  83693736.62748  20438864.380                    20438864.780
     -1197.048        -932.766          52.400          52.400    80206501.084 9
  20438866.880        -893.983          56.450


 112978698.925 8  88035355.66648  21499138.360                    21499137.980
      1049.858         818.071          50.200          48.050    84367229.457 9
  21499143.340         783.967          54.000


 129156811.556 6 100641714.21146  24577723.580                    24577727.860
      1234.796         962.187          40.200          36.400



 118489342.654 7  92329351.95247  22547779.760                    22547778.860
      2976.829        2319.606          47.150          42.100



 130528800.239 6 101710777.79546  24838798.320                    24838805.240
      -811.327        -632.204          41.000          40.600    97472842.636 7
  24838806.040        -606.142          44.350


 134311355.008 5 104658201.25246  25558603.120                    25558603.620
      1580.379        1231.461          35.850          36.350



 125586518.514 7  97859680.49846  23898305.600                    23898310.540
      3552.261        2768.003          42.350          41.800    93782172.714 8
  23898313.200        2652.729          48.800


 23 11  9  9  6 30.0000000  0 11G03G04G06G07G09G11G16G20G26G29G30
 132814117.833 6 103491490.81946  25273710.840                    25273720.420
     -3441.874       -2681.998          39.200          39.900    99179348.046 7
  25273722.660       -2569.985          42.400


 117681967.092 7  91700239.33547  22394142.120                    22394143.640
     -2820.910       -2198.115          46.900          43.700    87879401.032 8
  22394148.820       -2106.542          49.350


 110028830.402 8  85736740.15348  20937797.400                    20937799.120
     -1595.119       -1242.952          50.800          50.800    82164384.405 9
  20937801.980       -1191.124          55.900


 115609186.462 8  90085121.75248  21999679.060                    21999678.800
      2277.073        1774.345          49.800          49.750



 107443063.799 8  83721876.15748  20445736.320                    20445736.800
     -1209.944        -942.815          52.100          52.250    80233468.123 9
  20445739.060        -903.535          56.650


 112947498.724 8  88011043.80048  21493201.140                    21493200.820
      1030.530         803.010          49.700          48.600    84343930.574 9
  21493206.060         769.560          54.050


 129120047.767 6 100613067.36745  24570727.320                    24570731.900
      1216.474         947.908          39.050          34.000



 118400128.534 7  92259834.45247  22530802.860                    22530801.920
      2971.116        2315.156          46.850          43.300



 130553427.298 6 101729967.65046  24843484.660                    24843491.520
      -829.749        -646.561          40.400          40.000    97491232.888 7
  24843492.780        -619.633          44.400


 134264210.558 6 104621465.23246  25549631.720                    25549632.360
      1563.436        1218.258          36.800          37.100



 125480018.912 7  97776694.00347  23878039.300                    23878044.200
      3547.840        2764.558          43.350          43.350    93702644.015 8
  23878046.720        2649.472          48.750


 23 11  9  9  7  0.0000000  0 11G03G04G06G07G09G11G16G20G26G29G30
 132917398.829 6 103571968.90346  25293365.140                    25293374.760
     -3443.831       -2683.525          39.350          38.900    99256472.745 7
  25293376.640       -2571.718          42.250


 117766693.177 7  91766259.55047  22410264.980                    22410266.500
     -2827.564       -2203.302          46.850          44.100    87942670.378 8
  22410271.700       -2111.497          49.050


 110076966.830 8  85774248.99548  20946957.500                    20946959.240
     -1614.189       -1257.812          50.850          50.800    82200330.364 9
  20946962.040       -1205.278          55.450


 115541068.164 8  90032042.59248  21986716.600                    21986716.340
      2263.944        1764.113          50.400          50.400



 107479560.969 8  83750315.46148  20452681.500                    20452682.080
     -1223.323        -953.240          52.400          52.350    80260722.446 9
  20452684.400        -913.449          56.200


 112916878.738 8  87987184.03848  21487374.320                    21487374.020
      1010.622         787.496          50.000          48.100    84321064.961 8
  21487379.240         754.727          53.800


 129083820.861 6 100584838.92645  24563833.100                    24563837.920
      1198.639         934.012          40.500          33.500



 118311092.071 7  92190455.37647  22513859.760                    22513858.880
      2964.666        2310.128          47.200          42.650



 130578600.198 6 101749582.81046  24848274.860                    24848281.460
      -848.496        -661.169          40.900          41.250    97510030.701 7
  24848283.180        -633.579          44.500


 134217570.460 6 104585122.20246  25540756.320                    25540757.220
      1546.228        1204.849          38.250          38.850



 125373650.543 7  97693809.73447  23857797.940                    23857802.820
      3542.932        2760.731          43.850          43.300    93623213.275 8
  23857805.260        2645.815          48.300


 23 11  9  9  7 30.0000000  0 11G03G04G06G07G09G11G16G20G26G29G30
 133020739.133 6 103652493.23346  25313030.780                    25313040.220
     -3445.767       -2685.031          39.000          39.050    99333641.744 6
  25313042.140       -2572.981          41.900


 117851600.052 7  91832420.63547  22426422.300                    22426423.840
     -2833.071       -2207.592          46.850          42.950    88006074.725 8
  22426428.900       -2115.612          49.250


 110125653.028 8  85812186.23548  20956222.240                    20956223.940
     -1631.806       -1271.538          50.850          50.950    82236686.875 9
  20956226.760       -1218.530          55.600


 115473326.217 8  89979256.69048  21973825.700                    21973825.380
      2252.004        1754.810          49.950          49.900



 107516438.033 8  83779050.78248  20459698.960                    20459699.600
     -1235.380        -962.635          52.250          52.300    80288260.457 9
  20459701.880        -922.516          56.200


 112886836.699 8  87963774.64247  21481657.460                    21481657.180
       991.935         772.935          49.800          47.750    84298630.943 8
  21481662.380         740.786          53.900


 129048129.766 6 100557027.96846  24557041.000                    24557046.040
      1180.952         920.234          41.700          36.000



 118222231.518 7  92121213.38647  22496950.200                    22496949.240
      2959.313        2305.958          47.400          42.050



 130604314.673 6 101769619.94546  24853168.300                    24853174.760
      -865.521        -674.436          41.650          40.900    97529232.951 7
  24853176.520        -646.615          44.450


 134171432.797 6 104549170.67946  25531976.840                    25531977.860
      1529.879        1192.109          38.550          38.700



 125267412.200 7  97611026.77247  23837581.380                    23837586.080
      3539.242        2757.856          43.950          44.100    93543879.632 8
  23837588.640        2642.960          48.750


 23 11  9  9  8  0.0000000  0 12G03G04G05G06G07G09G11G16G20G26G29G30
 133124145.002 6 103733068.62346  25332708.900                    25332718.140
     -3447.917       -2686.710          39.150          39.400    99410859.710 6
  25332720.060       -2575.011          41.400


 117936693.280 7  91898726.93247  22442615.080                    22442616.520
     -2839.715       -2212.769          46.600          43.200    88069618.233 8
  22442621.900       -2120.538          49.200


                                  25621490.200
      3555.252                          38.500



 110174894.726 8  85850556.33448  20965592.700                    20965594.420
     -1650.764       -1286.312          50.650          50.650    82273458.210 9
  20965597.100       -1232.703          55.300


 115405969.587 8  89926771.03948  21961008.140                    21961007.860
      2238.619        1744.380          50.050          50.200



 107553700.859 8  83808086.69948  20466789.840                    20466790.500
     -1248.679        -972.998          52.350          52.550    80316086.534 9
  20466792.660        -932.458          56.000


 112857381.116 8  87940822.21448  21476052.220                    21476051.960
       971.954         757.367          49.750          48.050    84276634.860 8
  21476057.120         725.769          53.700


 129012982.894 7 100529641.09645  24550352.640                    24550357.580
      1162.389         905.769          42.200          34.600



 118133555.829 7  92052115.45347  22480075.840                    22480074.900
      2952.609        2300.733          47.650          42.050



 130630577.267 6 101790084.15546  24858165.960                    24858172.200
      -884.865        -689.511          40.500          40.550    97548844.425 7
  24858174.140        -660.647          44.250


 134125806.133 6 104513617.35546  25523294.580                    25523295.580
      1512.252        1178.375          39.650          40.000



 125161313.397 7  97528352.52147  23817391.280                    23817395.740
      3534.268        2753.979          43.600          43.450    93464650.202 8
  23817398.600        2639.178          48.800


 23 11  9  9  8 30.0000000  0 12G03G04G05G06G07G09G11G16G20G26G29G30
 133227612.220 6 103813691.82546  25352398.380                    25352407.880
     -3450.004       -2688.334          38.500          37.850    99488123.467 6
  25352409.920       -2576.477          40.900


 118021967.960 7  91965174.62447  22458842.320                    22458843.720
     -2845.783       -2217.496          46.500          43.600    88133297.231 8
  22458849.380       -2125.117          48.800


 134535155.305 6 104832590.46645  25601188.940                    25601189.480
      3556.283        2771.120          37.850          35.900



 110224687.085 8  85889355.51448  20975067.920                    20975069.620
     -1669.251       -1300.717          51.100          51.150    82310640.744 9
  20975072.260       -1246.577          55.300


 115338996.687 8  89874584.40348  21948263.560                    21948263.300
      2225.689        1734.305          50.050          50.050



 107591344.819 8  83837419.60048  20473953.280                    20473954.040
     -1261.479        -982.971          52.800          52.650    80344197.217 9
  20473956.020        -942.043          56.050


 112828509.907 8  87918325.14547  21470558.140                    21470557.900
       952.293         742.046          50.000          47.750    84255075.167 8
  21470563.100         711.044          53.650


 128978379.108 6 100502677.37746  24543767.600                    24543772.440
      1143.786         891.273          41.750          37.450



 118045063.263 7  91983160.21146  22463236.280                    22463235.360
      2946.320        2295.835          47.800          41.700



 130657383.913 6 101810972.29446  24863267.120                    24863273.240
      -903.038        -703.673          41.100          41.150    97568862.184 7
  24863275.400        -674.294          44.900


 134080688.905 6 104478460.97146  25514709.180                    25514710.140
      1494.902        1164.855          40.100          39.750



 125055353.176 7  97445786.25647  23797227.600                    23797231.860
      3529.102        2749.954          44.250          44.550    93385524.237 8
  23797234.940        2635.530          48.700


