     2.11           OBSERVATION DATA    G (GPS)             RINEX VERSION / TYPE
teqc  2019Feb25                         20231109 19:42:08UTCPGM / RUN BY / DATE
VITY                                                        MARKER NAME
18328M001                                                   MARKER NUMBER
Automatic           TERIA                                   OBSERVER / AGENCY
3611625             SEPT POLARX5        4.14.0              REC # / TYPE / VERS
762-12035           TPSCR.G5        TPSH                    ANT # / TYPE
  4207852.8050   174564.2590  4774137.6750                  APPROX POSITION XYZ
        0.0000        0.0000        0.0000                  ANTENNA: DELTA H/E/N
     1     1                                                WAVELENGTH FACT L1/2
     9    C1    L1    D1    P2    L2    D2    P1    S1    S2# / TYPES OF OBSERV
    30.0000                                                 INTERVAL
    18                                                      LEAP SECONDS
Linux 2.6.32-573.12.1.x86_64|x86_64|gcc|Linux 64|=+         COMMENT
teqc  2019Feb25                         20231109 19:42:08UTCCOMMENT
     2.11           OBSERVATION DATA    M (MIXED)           COMMENT
teqc  2019Feb25     IGN-RGP             20231109 09:08:25UTCCOMMENT
teqc  2019Feb25     Administrateur RGP  20231109 09:08:25UTCCOMMENT
teqc  2019Feb25     IGN-RGP             20231109 09:08:24UTCCOMMENT
teqc_2019 edited: GLONASS # 25 - 30 excluded                COMMENT
GN-RINEX 1.3        IGN-RGP             09-NOV-23 07:59     COMMENT
Forced Modulo Decimation to 30 seconds                      COMMENT
teqc_2019 edited: GLONASS # 25 - 30 excluded                COMMENT
teqc_2019 edited: all GLONASS satellites excluded           COMMENT
teqc_2019 edited: all SBAS satellites excluded              COMMENT
teqc_2019 edited: all Galileo satellites excluded           COMMENT
  2023    11     9     8     0    0.0000000     GPS         TIME OF FIRST OBS
                                                            END OF HEADER
 23 11  9  8  0  0.0000000  0 11G09G04G06G03G11G19G07G17G31G20G26
  20222027.721   106267482.516 9       484.607    20222029.401    82805840.993 9
       377.611                          51.000          59.000
  20672753.883   108636061.243 8     -1777.841    20672755.170    84651463.242 7
     -1385.336                          48.000          44.000
  20675122.601   108648492.483 8       701.854    20675125.585    84661160.998 9
       546.896                          50.000          58.000
  22816667.876   119902378.834 7     -3193.923    22816672.218    93430422.285 8
     -2488.771                          43.000          45.000
  23076285.321   121266687.246 8      2724.260    23076285.481    94493510.952 6
      2122.795                          45.000          33.000
  23094613.631   121362992.398 7     -3377.245    23094614.292    94568544.626 5
     -2631.622                          43.000          30.000
  24175586.273   127043606.247 7      3026.986    24175590.937    98995048.847 6
      2358.683                          41.000          38.000
  24364542.900   128036460.824 6     -3495.418    24364547.081    99768651.739 4
     -2723.708                          33.000          25.000
  24497950.613   128737556.888 7     -3199.364    24497953.401   100314967.935 6
     -2493.010                          40.000          37.000
  24924113.570   130977085.320 6      3014.707    24924112.766   102060054.182 3
      2349.107                          36.000          16.000
  25110683.931   131957536.516 6      1192.348    25110692.526   102824086.799 4
       929.099                          33.000          23.000
 23 11  9  8  0 30.0000000  0 11G09G06G04G03G11G19G07G17G31G20G26
  20219307.502   106253188.803 8       468.260    20219309.253    82794703.023 9
       364.883                          50.000          59.000
  20671167.454   108627707.943 8       683.610    20671170.491    84644965.227 9
       532.691                          50.000          58.000
  20682943.265   108689606.696 8     -1791.954    20682944.677    84693186.939 7
     -1396.318                          48.000          43.000
  22834918.224   119998284.687 7     -3199.797    22834922.691    93505154.013 7
     -2493.336                          43.000          44.000
  23060759.874   121185102.382 8      2714.620    23060760.177    94429938.287 6
      2115.290                          45.000          33.000
  23113922.075   121464456.507 7     -3387.135    23113922.379    94647607.440 5
     -2639.318                          42.000          30.000
  24158313.414   126952834.628 7      3024.269    24158317.649    98924317.800 6
      2356.580                          41.000          38.000
  24384502.277   128141347.360 5     -3496.959    24384505.904    99850381.281 4
     -2724.897                          32.000          23.000
  24516251.495   128833731.522 7     -3212.386    24516254.782   100389909.055 6
     -2503.151                          40.000          36.000
  24906903.807   130886646.967 6      3014.525    24906903.681   101989582.580 3
      2348.998                          38.000          16.000
  25103917.862   131921981.063 6      1177.916    25103925.956   102796381.347 4
       917.861                          34.000          26.000
 23 11  9  8  1  0.0000000  0 11G09G06G04G03G11G19G07G17G31G20G26
  20216675.395   106239356.596 9       453.151    20216677.164    82783924.683 9
       353.106                          51.000          59.000
  20667311.050   108607441.935 8       666.702    20667313.945    84629173.512 9
       519.509                          50.000          58.000
  20693207.518   108743545.940 8     -1804.713    20693208.858    84735217.491 7
     -1406.269                          48.000          43.000
  22853196.537   120094337.350 7     -3204.315    22853200.969    93580000.144 7
     -2496.861                          43.000          44.000
  23045284.728   121103780.614 8      2706.167    23045285.496    94366570.640 6
      2108.702                          45.000          34.000
  23133280.821   121566188.578 7     -3395.725    23133281.214    94726879.054 5
     -2646.010                          43.000          30.000
  24141049.973   126862116.663 7      3022.768    24141054.583    98853628.529 6
      2355.403                          41.000          38.000
  24404464.709   128246251.960 5     -3497.497    24404468.944    99932124.896 4
     -2725.332                          32.000          21.000
  24534621.869   128930264.581 7     -3223.825    24534624.638   100465129.476 6
     -2512.067                          39.000          36.000
  24889688.147   130796178.468 6      3016.042    24889688.218   101919087.455 3
      2350.162                          38.000          17.000
  25097228.289   131886831.245 6      1164.713    25097238.099   102768991.993 4
       907.560                          35.000          26.000
 23 11  9  8  1 30.0000000  0 11G09G06G04G03G11G19G07G17G31G20G26
  20214131.543   106225989.485 9       437.135    20214133.598    82773508.755 9
       340.624                          51.000          60.000
  20663553.910   108587699.547 8       648.632    20663557.162    84613789.815 9
       505.430                          50.000          58.000
  20703547.178   108797880.915 8     -1818.459    20703548.375    84777556.405 7
     -1416.979                          48.000          43.000
  22871503.155   120190539.638 7     -3209.861    22871507.872    93654962.847 7
     -2501.186                          43.000          44.000
  23029861.063   121022728.109 8      2696.556    23029861.581    94303412.802 6
      2101.215                          46.000          34.000
  23152691.101   121668188.908 7     -3405.143    23152691.297    94806359.700 5
     -2653.356                          42.000          30.000
  24123798.324   126771458.780 7      3020.210    24123802.953    98782986.069 6
      2353.411                          41.000          38.000
  24424432.413   128351174.889 5     -3498.417    24424435.594   100013882.807 4
     -2726.019                          32.000          21.000
  24553059.913   129027157.300 7     -3236.368    24553062.397   100540630.153 6
     -2521.840                          40.000          36.000
  24872467.930   130705684.336 6      3016.257    24872468.037   101848572.390 3
      2350.351                          38.000          18.000
  25090617.930   131852092.799 6      1150.558    25090627.597   102741923.188 5
       896.527                          35.000          28.000
 23 11  9  8  2  0.0000000  0 11G09G06G04G03G11G19G07G17G31G20G26
  20211681.557   106213112.284 8       420.666    20211683.254    82763474.562 9
       327.800                          50.000          59.000
  20659902.035   108568507.119 8       630.191    20659905.020    84598834.656 9
       491.059                          50.000          58.000
  20713966.480   108852634.747 8     -1832.501    20713967.713    84820221.706 7
     -1427.923                          48.000          43.000
  22889842.776   120286915.681 7     -3215.901    22889847.779    93730060.956 7
     -2505.891                          44.000          44.000
  23014493.864   120941972.300 8      2686.497    23014494.865    94240486.159 6
      2093.381                          45.000          34.000
  23172156.095   121770478.615 7     -3414.803    23172156.381    94886065.837 5
     -2660.877                          43.000          30.000
  24106563.384   126680887.790 7      3017.051    24106567.512    98712411.306 6
      2350.950                          41.000          38.000
  24444405.389   128456138.058 5     -3499.687    24444409.642   100095672.070 3
     -2727.003                          31.000          19.000
  24571570.452   129124431.454 7     -3249.200    24571572.846   100616428.067 6
     -2531.834                          40.000          35.000
  24855247.392   130615190.237 6      3016.309    24855247.749   101778057.412 3
      2350.366                          38.000          20.000
  25084090.412   131817792.835 6      1135.736    25084099.811   102715196.042 4
       884.994                          34.000          26.000
 23 11  9  8  2 30.0000000  0 11G09G06G04G03G11G19G07G17G31G20G26
  20209318.128   106200693.592 9       405.312    20209320.076    82753797.657 9
       315.824                          51.000          59.000
  20656348.780   108549834.748 8       612.747    20656351.889    84584284.731 9
       477.462                          50.000          58.000
  20724459.527   108907774.435 8     -1845.374    20724460.617    84863187.667 7
     -1437.955                          48.000          43.000
  22908209.809   120383433.290 7     -3220.583    22908214.884    93805269.362 7
     -2509.546                          43.000          44.000
  22999177.842   120861484.405 7      2677.354    22999178.753    94177768.280 6
      2086.252                          44.000          34.000
  23191669.855   121873022.739 7     -3423.352    23191670.284    94965970.212 5
     -2667.541                          42.000          30.000
  24089339.593   126590375.086 7      3015.164    24089343.471    98641881.960 7
      2349.474                          41.000          39.000
  24464381.134   128561107.462 5     -3500.033    24464385.154   100177466.174 3
     -2727.274                          31.000          19.000
  24590147.249   129222052.618 6     -3260.753    24590149.286   100692496.369 6
     -2540.844                          38.000          34.000
  24838021.493   130524666.001 6      3016.911    24838021.528   101707518.959 3
      2350.830                          38.000          19.000
  25077641.696   131783902.265 6      1121.860    25077650.809   102688787.904 4
       874.169                          35.000          26.000
 23 11  9  8  3  0.0000000  0 11G09G06G04G03G11G19G07G17G31G20G26
  20207048.244   106188765.948 9       390.265    20207050.228    82744503.385 9
       304.103                          51.000          60.000
  20652900.970   108531716.545 8       595.562    20652904.169    84570166.628 9
       464.076                          50.000          58.000
  20735031.038   108963330.924 8     -1857.959    20735032.718    84906478.410 7
     -1447.754                          48.000          43.000
  22926609.863   120480124.445 7     -3224.966    22926614.063    93880613.026 7
     -2512.956                          44.000          44.000
  22983919.322   120781299.625 7      2668.662    22983920.269    94115286.604 6
      2079.477                          44.000          34.000
  23211237.471   121975850.971 7     -3431.311    23211237.846    95046095.967 5
     -2673.744                          42.000          29.000
  24072133.350   126499955.909 7      3013.311    24072137.424    98571425.512 7
      2348.035                          42.000          39.000
  24484362.079   128666113.369 5     -3500.006    24484367.690   100259288.674 3
     -2727.242                          31.000          18.000
  24608795.701   129320051.000 7     -3271.955    24608798.506   100768858.612 6
     -2549.574                          41.000          37.000
  24820794.968   130434145.190 6      3018.072    24820796.309   101636983.230 3
      2351.740                          38.000          19.000
  25071276.088   131750455.842 6      1108.365    25071286.059   102662725.807 5
       863.662                          36.000          28.000
 23 11  9  8  3 30.0000000  0 11G09G06G04G03G11G19G07G17G31G20G26
  20204874.227   106177341.328 9       372.971    20204876.121    82735601.072 9
       290.624                          51.000          59.000
  20649561.142   108514165.949 8       576.092    20649564.341    84556490.816 9
       448.903                          50.000          58.000
  20745684.782   109019314.504 8     -1872.678    20745685.908    84950101.945 7
     -1459.224                          48.000          43.000
  22945044.280   120577000.386 7     -3231.687    22945049.623    93956100.650 8
     -2518.190                          43.000          45.000
  22968720.610   120701432.605 8      2657.420    22968721.933    94053052.532 6
      2070.719                          45.000          34.000
  23230860.803   122078972.210 7     -3441.695    23230861.375    95126450.038 5
     -2681.836                          42.000          29.000
  24054947.692   126409645.043 7      3008.933    24054951.963    98501053.481 7
      2344.624                          42.000          39.000
  24504354.531   128771164.979 5     -3501.925    24504359.195   100341146.809 3
     -2728.796                          30.000          16.000
  24627517.576   129418435.869 7     -3285.129    24627521.168   100845522.002 6
     -2559.837                          41.000          37.000
  24803573.144   130343640.932 6      3017.159    24803573.840   101566460.370 3
      2351.061                          38.000          18.000
  25064998.790   131717467.788 6      1092.399    25065008.457   102637020.889 5
       851.221                          35.000          30.000
 23 11  9  8  4  0.0000000  0 11G09G06G04G11G03G19G07G17G31G20G26
  20202792.897   106166403.098 9       355.814    20202794.648    82727077.767 9
       277.262                          51.000          60.000
  20646326.688   108497167.852 9       556.580    20646329.601    84543245.525 9
       433.702                          51.000          58.000
  20756416.095   109075706.961 8     -1887.300    20756417.185    84994044.092 7
     -1470.623                          48.000          43.000
  22953580.509   120621869.390 8      2646.260    22953581.313    93991055.188 6
      2062.028                          45.000          34.000
  22963511.451   120674043.807 7     -3238.255    22963515.936    94031718.782 7
     -2523.312                          44.000          44.000
  23250536.259   122182366.364 7     -3451.743    23250536.510    95207016.772 5
     -2689.661                          41.000          29.000
  24037779.707   126319428.135 7      3004.887    24037784.246    98430754.672 7
      2341.467                          42.000          40.000
  24524351.469   128876242.606 5     -3503.661    24524354.989   100423025.212 3
     -2730.113                          29.000          15.000
  24646309.677   129517188.090 7     -3298.609    24646312.822   100922471.654 6
     -2570.336                          41.000          36.000
  24786351.051   130253137.525 6      3015.943    24786351.515   101495938.193 3
      2350.086                          38.000          18.000
  25058806.369   131684923.704 6      1076.638    25058815.983   102611661.970 5
       838.935                          36.000          29.000
 23 11  9  8  4 30.0000000  0 11G09G06G04G11G03G19G07G17G31G20G26
  20200805.576   106155959.604 9       339.361    20200807.309    82718939.968 9
       264.436                          51.000          60.000
  20643198.948   108480732.076 9       537.951    20643202.040    84530438.400 9
       419.184                          51.000          59.000
  20767225.889   109132515.004 8     -1900.978    20767227.729    85038310.067 7
     -1481.278                          48.000          43.000
  22938500.340   120542620.949 8      2635.917    22938500.644    93929303.119 6
      2053.960                          45.000          34.000
  22982012.179   120771262.406 7     -3244.065    22982016.647    94107473.427 7
     -2527.835                          43.000          44.000
  23270264.251   122286037.534 7     -3460.713    23270264.572    95287799.355 5
     -2696.654                          42.000          29.000
  24020631.967   126229315.899 7      3001.398    24020636.399    98360537.493 7
      2338.747                          42.000          40.000
  24544351.730   128981351.978 5     -3504.621    24544356.215   100504928.369 2
     -2730.885                          32.000          14.000
  24665172.414   129616313.230 7     -3310.885    24665175.809   100999711.918 6
     -2579.909                          40.000          36.000
  24769131.048   130162644.326 7      3015.696    24769130.941   101425423.932 3
      2349.891                          39.000          19.000
  25052700.024   131652834.088 6      1061.666    25052709.566   102586657.115 5
       827.270                          35.000          29.000
 23 11  9  8  5  0.0000000  0 11G09G06G04G11G03G19G07G17G31G20G26
  20198909.744   106145997.718 9       324.462    20198911.584    82711177.444 9
       252.826                          51.000          60.000
  20640176.421   108464847.021 9       520.740    20640179.298    84518060.412 9
       405.778                          51.000          59.000
  20778112.573   109189723.931 8     -1913.228    20778114.485    85082888.420 7
     -1490.816                          48.000          43.000
  22923477.227   120463676.935 8      2626.764    22923478.406    93867788.278 6
      2046.829                          45.000          34.000
  23000542.535   120868642.408 7     -3248.226    23000547.610    94183353.815 7
     -2531.076                          43.000          44.000
  23290042.525   122389970.532 7     -3468.354    23290042.757    95368785.963 5
     -2702.614                          42.000          29.000
  24003501.846   126139298.295 7      2999.337    24003506.367    98290394.041 7
      2337.145                          42.000          40.000
  24564355.637   129086477.782 5     -3503.841    24564360.515   100586844.247 2
     -2730.234                          31.000          14.000
  24684103.876   129715795.415 7     -3321.588    24684106.467   101077230.396 6
     -2588.246                          40.000          35.000
  24751910.421   130072149.561 6      3016.806    24751910.457   101354908.471 3
      2350.727                          38.000          19.000
  25046678.717   131621188.080 6      1047.851    25046686.919   102561997.939 5
       816.507                          34.000          29.000
 23 11  9  8  5 30.0000000  0 11G09G06G04G11G03G19G07G17G31G20G26
  20197105.241   106136514.435 9       308.219    20197107.063    82703787.854 9
       240.175                          51.000          59.000
  20637257.873   108449511.165 9       502.163    20637261.072    84506110.371 9
       391.294                          51.000          58.000
  20789074.325   109247329.116 8     -1926.616    20789076.237    85127775.547 7
     -1501.262                          48.000          43.000
  22908512.707   120385037.031 8      2616.315    22908513.886    93806510.409 6
      2038.686                          45.000          34.000
  23019103.411   120966180.220 7     -3253.789    23019108.110    94259357.202 7
     -2535.419                          43.000          43.000
  23309869.546   122494159.115 7     -3477.028    23309869.564    95449971.721 5
     -2709.366                          42.000          30.000
  23986389.898   126049374.758 7      2995.967    23986394.061    98220323.911 7
      2334.513                          43.000          40.000
  24584363.314   129191614.345 5     -3504.659    24584366.227   100668867.534 2
     -2730.925                          29.000          11.000
  24703101.131   129815629.060 7     -3333.410    24703104.383   101155022.718 6
     -2597.459                          40.000          34.000
  24734689.079   129981651.257 6      3016.794    24734689.186   101284390.248 3
      2350.737                          38.000          18.000
  25040739.787   131589984.887 6      1033.184    25040749.096   102537683.786 5
       805.078                          35.000          28.000
 23 11  9  8  6  0.0000000  0 11G09G06G04G11G03G19G07G17G20G31G26
  20195392.888   106127516.125 9       292.122    20195394.943    82696776.170 9
       227.628                          51.000          60.000
  20634445.629   108434732.391 9       483.628    20634448.649    84494594.418 9
       376.860                          51.000          59.000
  20800112.718   109305335.388 8     -1939.929    20800114.255    85172975.208 7
     -1511.626                          48.000          43.000
  22893608.012   120306710.305 8      2605.945    22893608.762    93745476.579 6
      2030.608                          45.000          35.000
  23037695.486   121063881.559 7     -3259.197    23037700.221    94335487.983 7
     -2539.627                          44.000          44.000
  23329745.046   122598606.091 7     -3485.539    23329745.385    95531358.808 5
     -2715.999                          42.000          30.000
  23969297.659   125959554.212 7      2992.539    23969301.501    98150334.032 7
      2331.850                          43.000          41.000
  24604373.189   129296765.389 5     -3505.224    24604375.959   100750803.125 2
     -2731.370                          30.000          11.000
  24717468.898   129891156.855 6      3016.677    24717468.469   101213875.064 3
      2350.653                          37.000          18.000
  24722167.164   129915818.236 7     -3345.329    24722169.594   101233092.085 6
     -2606.748                          40.000          35.000
  25034887.592   131559233.215 6      1017.743    25034897.295   102513721.503 5
       793.046                          34.000          28.000
 23 11  9  8  6 30.0000000  0 11G09G06G04G11G03G19G07G17G20G31G26
  20193774.562   106119012.102 9       276.428    20193776.528    82690149.645 9
       215.397                          51.000          59.000
  20631741.367   108420521.488 9       465.372    20631744.404    84483520.960 9
       362.634                          51.000          59.000
  20811228.840   109363750.458 8     -1952.769    20811230.163    85218493.408 7
     -1521.633                          48.000          42.000
  22878764.661   120228708.863 8      2595.796    22878765.572    93684696.214 6
      2022.698                          46.000          35.000
  23056320.351   121161755.153 7     -3264.133    23056324.943    94411752.995 7
     -2543.470                          42.000          43.000
  23349670.400   122703317.531 7     -3493.461    23349671.508    95612951.976 5
     -2722.172                          42.000          29.000
  23952227.364   125869848.576 7      2989.369    23952231.241    98080433.705 7
      2329.374                          43.000          41.000
  24624387.996   129401937.458 4     -3505.901    24624390.426   100832755.066 2
     -2731.878                          26.000          10.000
  24700251.236   129800676.985 6      3016.933    24700250.790   101143371.148 3
      2350.881                          37.000          18.000
  24741300.974   130016369.057 7     -3356.536    24741303.905   101311443.276 6
     -2615.476                          40.000          35.000
  25029124.475   131528944.522 6      1003.221    25029133.195   102490119.981 5
       781.730                          35.000          28.000
 23 11  9  8  7  0.0000000  0 10G09G06G04G11G03G19G07G20G31G26
  20192250.585   106111003.500 8       259.603    20192252.407    82683909.157 9
       202.293                          50.000          59.000
  20629145.891   108406881.033 8       446.132    20629148.964    84472892.013 9
       347.639                          50.000          59.000
  20822422.300   109422573.898 8     -1966.615    20822424.016    85264329.817 7
     -1532.422                          48.000          43.000
  22863984.316   120151036.575 8      2584.477    22863985.067    93624172.323 6
      2013.885                          45.000          35.000
  23074978.523   121259801.581 7     -3270.262    23074983.419    94488152.676 8
     -2548.245                          43.000          45.000
  23369646.413   122808291.126 7     -3502.578    23369647.503    95694749.420 5
     -2729.272                          42.000          29.000
  23935179.369   125780261.881 7      2985.283    23935183.514    98010626.061 7
      2326.196                          42.000          40.000
  24683037.738   129710213.810 6      3016.014    24683036.041   101072880.224 3
      2350.136                          35.000          17.000
  24760504.224   130117280.465 7     -3368.781    24760507.261   101390075.414 6
     -2625.019                          39.000          35.000
  25023449.184   131499122.230 6       986.950    25023458.261   102466881.850 5
       769.051                          34.000          29.000
 23 11  9  8  7 30.0000000  0 10G09G06G04G11G03G19G07G20G31G26
  20190818.847   106103480.175 9       242.649    20190820.938    82678046.815 9
       189.074                          51.000          60.000
  20626657.022   108393802.381 9       426.549    20626660.256    84462700.838 9
       332.375                          51.000          59.000
  20833691.828   109481794.039 8     -1980.644    20833693.312    85310475.341 7
     -1543.358                          48.000          42.000
  22849264.977   120073686.061 8      2572.918    22849265.745    93563899.173 6
      2004.868                          45.000          34.000
  23093666.698   121358010.092 7     -3276.401    23093671.898    94564678.650 7
     -2553.034                          43.000          43.000
  23389670.173   122913514.082 7     -3511.644    23389670.512    95776741.184 5
     -2736.346                          42.000          29.000
  23918152.656   125690786.470 7      2980.634    23918156.730    97940905.126 7
      2322.567                          42.000          40.000
  24665824.348   129619758.489 6      3014.879    24665823.258   101002395.429 3
      2349.248                          34.000          16.000
  24779773.463   130218539.638 7     -3381.132    24779776.304   101468978.559 6
     -2634.649                          40.000          35.000
  25017861.487   131469758.279 6       971.343    25017870.332   102444000.844 5
       756.889                          34.000          28.000
 23 11  9  8  8  0.0000000  0 10G09G06G04G11G03G19G07G20G31G26
  20189481.208   106096449.985 9       226.126    20189483.191    82672568.733 9
       176.199                          51.000          59.000
  20624276.707   108381294.896 9       407.328    20624279.942    84452954.721 9
       317.406                          51.000          58.000
  20845037.747   109541417.169 8     -1994.151    20845039.015    85356934.879 7
     -1553.875                          48.000          42.000
  22834608.625   119996667.973 8      2561.686    22834609.608    93503885.058 6
      1996.124                          45.000          34.000
  23112387.233   121456388.051 7     -3282.199    23112392.165    94641336.676 7
     -2557.547                          43.000          42.000
  23409741.356   123018990.970 7     -3520.187    23409742.267    95858930.805 5
     -2743.001                          43.000          29.000
  23901148.797   125601433.179 7      2976.254    23901152.818    97871279.342 7
      2319.159                          42.000          40.000
  24648614.138   129529320.203 6      3014.049    24648613.763   100931923.914 3
      2348.638                          33.000          16.000
  24799109.640   130320151.764 7     -3392.926    24799112.213   101548156.719 6
     -2643.835                          40.000          34.000
  25012363.296   131440862.836 6       955.248    25012371.569   102421484.951 5
       744.351                          35.000          28.000
 23 11  9  8  8 30.0000000  0 10G09G06G04G11G03G19G07G20G31G26
  20188238.078   106089917.589 9       210.007    20188240.132    82667478.545 9
       163.641                          51.000          60.000
  20622006.787   108369364.665 9       388.570    20622009.539    84443658.413 9
       302.778                          51.000          58.000
  20856461.020   109601446.411 8     -2007.204    20856462.092    85403710.867 7
     -1564.059                          48.000          42.000
  22820017.407   119919989.768 8      2550.770    22820018.068    93444135.786 6
      1987.611                          45.000          34.000
  23131141.345   121554939.532 7     -3287.479    23131146.044    94718129.896 7
     -2561.673                          43.000          43.000
  23429862.180   123124723.114 7     -3528.134    23429862.537    95941319.333 5
     -2749.185                          42.000          30.000
  23884170.867   125512209.402 7      2972.424    23884173.404    97801754.461 7
      2316.166                          43.000          40.000
  24631408.627   129438904.897 6      3013.768    24631409.110   100861470.307 3
      2348.409                          33.000          15.000
  24818513.791   130422118.964 7     -3404.353    24818515.632   101627611.573 5
     -2652.737                          39.000          32.000
  25006954.718   131412442.779 6       939.962    25006963.313   102399339.478 5
       732.439                          34.000          27.000
 23 11  9  8  9  0.0000000  0 10G09G06G04G11G03G19G07G20G31G26
  20187086.705   106083867.106 9       193.934    20187088.921    82662763.876 9
       151.119                          51.000          59.000
  20619843.635   108357997.254 9       369.782    20619846.601    84434800.673 9
       288.142                          51.000          58.000
  20867958.003   109661864.354 8     -2020.114    20867959.611    85450789.742 7
     -1574.114                          48.000          42.000
  22805488.229   119843638.369 8      2539.806    22805489.033    93384641.176 6
      1979.070                          45.000          34.000
  23149925.351   121653648.076 7     -3292.429    23149929.658    94795045.508 7
     -2565.527                          43.000          43.000
  23450027.354   123230691.534 7     -3536.021    23450028.283    96023891.963 5
     -2755.334                          42.000          30.000
  23867213.271   125423101.343 7      2968.531    23867216.809    97732319.759 7
      2313.132                          43.000          40.000
  24614204.368   129348497.907 5      3013.771    24614205.565   100791023.167 2
      2348.398                          32.000          14.000
  24837981.520   130524422.815 6     -3415.382    24837983.646   101707328.761 5
     -2661.334                          38.000          32.000
  25001634.145   131384484.423 6       924.406    25001643.490   102377553.752 5
       720.311                          34.000          28.000
 23 11  9  8  9 30.0000000  0 10G09G06G04G11G03G19G07G20G31G26
  20186026.214   106078293.004 9       177.842    20186028.198    82658420.413 9
       138.579                          51.000          60.000
  20617786.732   108347188.577 9       350.947    20617789.787    84426378.313 9
       273.471                          51.000          58.000
  20879528.070   109722663.951 8     -2033.031    20879529.804    85498166.001 7
     -1584.170                          48.000          42.000
  22791020.753   119767611.065 8      2528.811    22791021.611    93325399.117 6
      1970.508                          45.000          35.000
  23168737.197   121752507.719 7     -3297.873    23168742.326    94872078.870 7
     -2569.759                          43.000          42.000
  23470235.879   123336887.728 7     -3543.749    23470237.112    96106642.087 5
     -2761.356                          42.000          30.000
  23850278.137   125334106.756 7      2964.544    23850281.854    97662973.469 7
      2310.038                          43.000          41.000
  24597001.574   129258095.090 5      3013.420    24597002.824   100720579.374 2
      2348.110                          31.000          13.000
  24857511.844   130627055.204 7     -3426.490    24857514.024   101787301.958 5
     -2669.987                          39.000          32.000
  24996402.113   131356984.415 6       908.832    24996410.261   102356125.219 5
       708.185                          35.000          28.000
 23 11  9  8 10  0.0000000  0 10G09G06G04G11G03G19G07G20G31G26
  20185056.373   106073196.586 9       162.796    20185058.267    82654449.169 9
       126.852                          51.000          60.000
  20615836.792   108336941.448 9       332.998    20615839.651    84418393.521 9
       259.481                          51.000          58.000
  20891170.453   109783845.032 8     -2044.902    20891171.811    85545839.522 7
     -1593.429                          48.000          42.000
  22776615.784   119691912.018 8      2518.617    22776616.427    93266412.835 6
      1962.556                          45.000          35.000
  23187579.010   121851519.248 7     -3302.055    23187584.156    94949230.558 7
     -2573.025                          43.000          43.000
  23490487.557   123443310.213 7     -3550.252    23490488.594    96189568.534 5
     -2766.428                          42.000          30.000
  23833365.589   125245229.743 7      2961.380    23833369.288    97593718.798 7
      2307.567                          43.000          41.000
  24579798.976   129167699.013 6      3013.902    24579800.995   100650140.793 3
      2348.514                          34.000          16.000
  24877104.119   130730015.327 7     -3436.546    24877106.907   101867530.534 5
     -2677.826                          40.000          32.000
  24991256.531   131329946.278 6       894.312    24991264.804   102335056.570 5
       696.862                          36.000          29.000
 23 11  9  8 10 30.0000000  0 10G09G06G04G11G03G19G07G20G31G26
  20184182.935   106068607.214 9       143.648    20184184.811    82650873.024 9
       111.934                          51.000          60.000
  20613999.589   108327286.626 9       310.968    20614002.484    84410870.267 9
       242.313                          51.000          58.000
  20902890.370   109845435.404 8     -2060.766    20902891.764    85593831.972 7
     -1605.796                          48.000          42.000
  22762279.306   119616573.409 8      2504.341    22762279.895    93207707.411 6
      1951.434                          45.000          35.000
  23206455.042   121950711.513 7     -3310.362    23206459.670    95026523.090 7
     -2579.496                          41.000          42.000
  23510786.803   123549984.650 7     -3560.879    23510787.804    96272691.309 5
     -2774.710                          42.000          29.000
  23816481.435   125156502.126 7      2954.061    23816484.991    97524580.530 7
      2301.861                          43.000          41.000
  24562604.598   129077340.383 6      3010.564    24562606.438   100579731.370 3
      2345.899                          33.000          16.000
  24896764.083   130833329.128 7     -3450.547    24896766.710   101948034.702 6
     -2688.731                          40.000          33.000
  24986204.368   131303401.519 6       875.585    24986214.500   102314372.397 5
       682.268                          36.000          29.000
 23 11  9  8 11  0.0000000  0 10G09G06G04G11G03G19G07G20G31G26
  20183401.112   106064498.326 9       127.793    20183402.845    82647671.288 9
        99.571                          51.000          59.000
  20612270.261   108318198.988 9       292.271    20612273.209    84403788.977 9
       227.744                          51.000          58.000
  20914683.497   109907407.075 8     -2073.259    20914684.890    85642121.533 7
     -1615.522                          48.000          42.000
  22748006.513   119541571.533 8      2493.250    22748007.460    93149264.373 6
      1942.787                          46.000          35.000
  23225360.164   122050057.496 7     -3315.279    23225364.506    95103935.400 7
     -2583.330                          42.000          41.000
  23531129.328   123656881.485 7     -3568.067    23531130.096    96355987.377 5
     -2780.307                          42.000          29.000
  23799620.994   125067900.277 7      2950.141    23799624.282    97455540.258 7
      2298.807                          42.000          41.000
  24545412.650   128986993.907 6      3010.039    24545413.865   100509331.416 3
      2345.498                          36.000          16.000
  24916486.678   130936967.860 7     -3461.128    24916488.733   102028792.053 6
     -2696.981                          39.000          33.000
  24981243.302   131277325.820 6       860.166    24981252.165   102294053.682 5
       670.258                          35.000          28.000
 23 11  9  8 11 30.0000000  0 10G09G06G04G11G03G19G07G20G31G26
  20182712.779   106060880.770 8       113.176    20182714.673    82644852.402 9
        88.184                          50.000          60.000
  20610651.238   108309690.804 8       274.717    20610654.222    84397159.210 9
       214.065                          50.000          58.000
  20926550.815   109969769.371 8     -2084.453    20926552.388    85690715.485 7
     -1624.245                          48.000          42.000
  22733800.943   119466920.119 8      2483.291    22733802.266    93091094.422 6
      1935.029                          46.000          36.000
  23244295.771   122149567.544 7     -3318.993    23244300.274    95181475.569 7
     -2586.221                          42.000          41.000
  23551515.078   123764008.601 7     -3573.913    23551515.953    96439462.888 5
     -2784.870                          41.000          29.000
  23782786.444   124979437.875 7      2947.162    23782790.072    97386608.622 7
      2296.490                          42.000          41.000
  24528224.401   128896672.189 6      3011.074    24528225.974   100438950.703 3
      2346.325                          36.000          18.000
  24936271.742   131040940.065 7     -3470.573    24936274.351   102109809.239 6
     -2704.339                          39.000          33.000
  24976373.100   131251732.189 6       845.965    24976381.641   102274110.613 5
       659.193                          36.000          30.000
 23 11  9  8 12  0.0000000  0 10G09G06G04G11G03G19G07G20G31G26
  20182116.043   106057745.837 9        96.640    20182118.277    82642409.586 9
        75.306                          51.000          60.000
  20609141.180   108301754.812 8       255.197    20609144.146    84390975.310 9
       198.864                          50.000          58.000
  20938490.825   110032512.136 8     -2097.519    20938492.022    85739605.901 7
     -1634.420                          48.000          42.000
  22719661.132   119392613.347 8      2471.333    22719662.061    93033193.018 6
      1925.715                          46.000          36.000
  23263261.595   122249232.523 7     -3324.535    23263267.116    95259136.436 7
     -2590.531                          42.000          43.000
  23571942.033   123871354.146 7     -3581.546    23571943.034    96523108.605 5
     -2790.806                          42.000          29.000
  23765978.073   124891108.803 7      2942.298    23765981.575    97317780.872 7
      2292.706                          43.000          41.000
  24511041.388   128806367.614 6      3010.065    24511041.727   100368583.372 3
      2345.517                          36.000          18.000
  24956118.723   131145234.547 6     -3481.523    24956121.314   102191077.545 6
     -2712.871                          38.000          33.000
  24971592.243   131226614.050 6       829.502    24971602.196   102254538.051 5
       646.361                          36.000          29.000
 23 11  9  8 12 30.0000000  0 10G09G06G04G11G03G19G07G20G26G31
  20181613.280   106055102.278 9        79.533    20181615.174    82640349.661 9
        61.971                          51.000          60.000
  20607741.696   108294401.145 9       234.949    20607744.752    84385245.169 9
       183.077                          51.000          59.000
  20950503.633   110095642.633 8     -2111.281    20950505.170    85788798.450 7
     -1645.151                          48.000          42.000
  22705588.687   119318662.844 8      2458.545    22705589.669    92975569.222 6
      1915.747                          46.000          36.000
  23282258.707   122349060.729 7     -3330.763    23282264.300    95336924.475 7
     -2595.397                          41.000          42.000
  23592412.107   123978923.724 7     -3589.713    23592412.875    96606928.888 5
     -2797.174                          41.000          28.000
  23749197.238   124802924.817 7      2936.576    23749200.704    97249066.150 7
      2288.234                          43.000          41.000
  24493862.985   128716090.382 6      3008.214    24493862.520   100298237.342 3
      2344.048                          37.000          18.000
  24966905.287   131201982.336 6       812.452    24966914.276   102235344.508 5
       633.073                          36.000          29.000
  24976027.888   131249857.405 6     -3493.343    24976029.872   102272601.731 5
     -2722.083                          38.000          32.000
 23 11  9  8 13  0.0000000  0 10G09G06G04G11G03G19G07G20G26G31
  20181201.810   106052940.907 9        63.667    20181203.740    82638665.462 9
        49.612                          51.000          60.000
  20606451.714   108287622.030 8       216.125    20606454.590    84379962.732 9
       168.407                          50.000          59.000
  20962588.811   110159150.262 8     -2123.528    20962590.169    85838284.871 7
     -1654.694                          48.000          42.000
  22691583.125   119245062.358 8      2447.128    22691583.965    92918218.167 6
      1906.856                          45.000          36.000
  23301284.463   122449042.572 7     -3335.589    23301289.360    95414832.251 7
     -2599.159                          41.000          41.000
  23612922.225   124086705.287 7     -3596.518    23612923.208    96690914.355 5
     -2802.479                          41.000          29.000
  23732442.991   124714879.421 7      2932.225    23732445.922    97180459.408 7
      2284.846                          43.000          41.000
  24476686.762   128625832.958 6      3007.942    24476687.566   100227906.735 3
      2343.823                          38.000          20.000
  24962309.643   131177830.010 6       796.812    24962318.005   102216524.513 5
       620.892                          35.000          28.000
  24995996.432   131354797.098 7     -3503.536    24995999.791   102354372.806 6
     -2730.028                          39.000          33.000
 23 11  9  8 13 30.0000000  0 10G09G06G04G11G03G19G07G20G26G31
  20180882.669   106051263.500 9        48.841    20180884.492    82637358.378 9
        38.059                          51.000          60.000
  20605271.590   108281420.666 8       198.028    20605274.520    84375130.485 9
       154.309                          50.000          59.000
  20974745.607   110223035.344 8     -2134.836    20974747.251    85888065.408 7
     -1663.507                          48.000          42.000
  22677645.126   119171816.565 8      2436.478    22677645.805    92861143.493 6
      1898.557                          45.000          36.000
  23320339.686   122549179.419 7     -3339.524    23320344.778    95492860.816 7
     -2602.220                          43.000          42.000
  23633472.781   124194697.537 7     -3602.234    23633473.549    96775063.989 5
     -2806.935                          41.000          28.000
  23715715.585   124626977.276 7      2928.567    23715718.497    97111964.262 7
      2281.996                          43.000          41.000
  24459515.989   128535598.232 6      3008.226    24459517.579   100157593.829 3
      2344.063                          38.000          20.000
  24957805.291   131154161.030 6       781.851    24957813.814   102198081.135 5
       609.239                          36.000          27.000
  25016026.874   131460052.711 6     -3512.904    25016029.858   102436390.071 5
     -2737.322                          38.000          32.000
 23 11  9  8 14  0.0000000  0 10G09G06G04G11G03G19G07G20G26G31
  20180656.358   106050073.986 9        30.260    20180658.199    82636431.477 9
        23.579                          51.000          60.000
  20604202.647   108275802.344 9       176.362    20604205.524    84370752.563 9
       137.430                          51.000          58.000
  20986975.006   110287300.389 8     -2149.702    20986976.721    85938142.025 7
     -1675.088                          48.000          42.000
  22663775.620   119098932.361 8      2422.196    22663776.209    92804350.579 6
      1887.430                          46.000          36.000
  23339425.393   122649474.793 7     -3347.008    23339431.200    95571012.884 7
     -2608.047                          42.000          42.000
  23654063.560   124302901.517 7     -3611.420    23654064.364    96859378.606 5
     -2814.078                          41.000          28.000
  23699016.607   124539225.222 7      2921.349    23699019.913    97043586.072 7
      2276.380                          43.000          41.000
  24442350.916   128445391.985 7      3005.273    24442351.613   100087303.167 4
      2341.781                          39.000          21.000
  24953394.215   131130981.473 6       763.290    24953402.596   102180019.098 5
       594.770                          36.000          28.000
  25036116.266   131565625.720 7     -3525.535    25036118.536   102518654.678 5
     -2747.170                          39.000          31.000
 23 11  9  8 14 30.0000000  0 10G09G06G04G11G03G19G07G20G26G31
  20180522.644   106049371.963 9        14.429    20180524.592    82635884.435 9
        11.242                          51.000          60.000
  20603244.599   108270768.049 9       157.253    20603247.655    84366829.714 9
       122.535                          51.000          58.000
  20999276.255   110351943.570 8     -2161.923    20999278.007    85988513.297 7
     -1684.612                          48.000          42.000
  22649975.623   119026412.249 8      2410.405    22649976.177    92747841.371 6
      1878.237                          46.000          36.000
  23358541.548   122749927.908 7     -3351.900    23358546.873    95649287.872 7
     -2611.864                          41.000          42.000
  23674693.561   124411313.731 7     -3617.961    23674694.812    96943855.485 5
     -2819.180                          41.000          27.000
  23682346.953   124451625.484 7      2916.555    23682350.313    96975326.570 7
      2272.636                          44.000          42.000
  24425189.935   128355215.193 7      3004.474    24425191.257   100017035.439 4
      2341.157                          40.000          22.000
  24949077.006   131108293.078 6       747.260    24949085.529   102162339.763 5
       582.286                          36.000          28.000
  25056265.716   131671513.428 6     -3535.712    25056267.985   102601164.477 5
     -2755.097                          37.000          31.000
 23 11  9  8 15  0.0000000  0 10G09G06G04G11G03G07G19G20G26G31
  20180476.203   106049126.062 9        -0.441    20180477.865    82635692.817 9
        -0.346                          51.000          60.000
  20602391.943   108266287.803 9       139.016    20602395.034    84363338.598 9
       108.328                          51.000          59.000
  21011643.263   110416932.095 8     -2173.047    21011644.800    86039153.669 7
     -1693.276                          48.000          42.000
  22636239.134   118954227.825 8      2399.466    22636240.456    92691593.750 6
      1869.712                          46.000          36.000
  23377681.148   122850506.979 7     -3355.792    23377686.419    95727661.025 7
     -2614.895                          41.000          41.000
  23665700.815   124364149.946 7      2912.643    23665704.085    96907163.825 7
      2269.596                          44.000          42.000
  23695357.139   124519899.784 7     -3623.470    23695358.300    97028467.815 5
     -2823.476                          41.000          27.000
  24408030.062   128265037.935 7      3004.795    24408031.063    99946767.377 4
      2341.411                          40.000          22.000
  24944847.497   131086066.644 6       732.104    24944856.182   102145020.364 5
       570.474                          36.000          29.000
  25076469.488   131777682.009 6     -3544.757    25076471.882   102683893.135 5
     -2762.145                          35.000          29.000
 23 11  9  8 15 30.0000000  0 10G09G06G04G11G03G07G19G20G26G31
  20180521.411   106049366.024 8       -16.170    20180523.627    82635879.786 9
       -12.593                          50.000          59.000
  20601650.897   108262392.710 9       120.010    20601653.738    84360303.438 9
        93.519                          51.000          58.000
  21024081.443   110482294.308 8     -2185.053    21024082.891    86090085.222 7
     -1702.635                          48.000          42.000
  22622573.191   118882411.766 8      2387.635    22622574.066    92635633.160 6
      1860.499                          46.000          36.000
  23396850.268   122951241.449 7     -3360.505    23396855.700    95806155.262 7
     -2618.567                          42.000          41.000
  23649084.696   124276831.135 7      2907.862    23649087.752    96839123.241 7
      2265.870                          44.000          42.000
  23716058.187   124628686.507 7     -3629.677    23716059.849    97113236.510 5
     -2828.310                          41.000          27.000
  24390876.354   128174891.554 7      3004.201    24390877.355    99876523.395 4
      2340.936                          40.000          22.000
  24940711.962   131064334.087 6       716.235    24940720.325   102128085.819 5
       558.115                          37.000          29.000
  25096731.369   131884158.902 6     -3554.435    25096734.246   102766862.039 5
     -2769.686                          37.000          29.000
 23 11  9  8 16  0.0000000  0 10G09G06G04G11G03G07G19G20G26G31
  20180656.984   106050077.845 9       -31.507    20180658.931    82636434.445 9
       -24.547                          51.000          60.000
  20601018.494   108259070.143 9       101.309    20601021.514    84357714.402 9
        78.948                          51.000          59.000
  21036587.329   110548014.813 8     -2196.502    21036589.223    86141295.971 7
     -1711.557                          48.000          43.000
  22608974.757   118810953.053 8      2376.068    22608975.919    92579951.017 6
      1851.490                          46.000          37.000
  23416045.994   123052116.925 7     -3364.788    23416051.944    95884759.374 7
     -2621.901                          41.000          41.000
  23632495.774   124189657.901 7      2903.440    23632499.509    96771196.114 7
      2262.425                          44.000          43.000
  23736795.046   124737656.970 7     -3635.213    23736796.475    97198148.381 5
     -2832.628                          41.000          27.000
  24373725.416   128084763.316 7      3004.060    24373726.041    99806293.540 4
      2340.834                          39.000          21.000
  24936668.131   131043083.445 6       700.399    24936676.494   102111526.815 5
       545.766                          37.000          29.000
  25117048.306   131990927.499 7     -3563.612    25117051.504   102850058.268 5
     -2776.837                          39.000          31.000
 23 11  9  8 16 30.0000000  0 10G09G06G04G11G03G07G19G20G26G31
  20180886.404   106051282.483 9       -49.285    20180888.048    82637373.112 9
       -38.401                          51.000          60.000
  20600499.506   108256342.377 8        80.068    20600502.437    84355588.846 9
        62.395                          50.000          59.000
  21049165.746   110614113.199 8     -2210.473    21049167.390    86192801.166 7
     -1722.442                          48.000          43.000
  22595449.336   118739875.647 8      2361.943    22595450.301    92524565.999 6
      1840.480                          46.000          37.000
  23435273.635   123153154.037 7     -3371.534    23435278.870    95963489.440 7
     -2627.166                          41.000          41.000
  23615939.481   124102654.096 7      2896.433    23615943.430    96703401.056 7
      2256.960                          43.000          42.000
  23757569.947   124846829.183 7     -3643.356    23757571.269    97283217.457 5
     -2838.964                          41.000          27.000
  24356582.214   127994676.260 7      3001.358    24356582.679    99736095.779 4
      2338.726                          40.000          22.000
  24932720.649   131022337.907 6       682.224    24932729.637   102095361.406 5
       531.607                          36.000          30.000
  25137424.871   132098006.343 6     -3575.340    25137427.801   102933496.235 5
     -2785.968                          38.000          32.000
 23 11  9  8 17  0.0000000  0 10G09G06G04G11G03G07G19G20G26G31
  20181211.049   106052989.035 9       -64.179    20181212.996    82638702.879 9
       -50.013                          51.000          60.000
  20600095.720   108254219.867 9        61.767    20600098.579    84353934.917 9
        48.132                          51.000          59.000
  21061816.960   110680597.160 8     -2221.465    21061818.819    86244606.815 7
     -1731.007                          48.000          42.000
  22581998.483   118669191.616 8      2350.583    22581999.644    92469487.510 6
      1831.621                          46.000          37.000
  23454532.260   123254361.552 7     -3375.322    23454538.282    96042352.281 7
     -2630.117                          41.000          41.000
  23599418.122   124015831.790 7      2892.048    23599421.428    96635747.464 7
      2253.540                          43.000          42.000
  23778384.535   124956208.987 7     -3648.261    23778385.715    97368448.283 5
     -2842.803                          41.000          27.000
  24339449.020   127904640.876 7      3001.393    24339450.253    99665938.301 4
      2338.742                          40.000          21.000
  24928871.412   131002108.615 6       666.700    24928879.899   102079598.280 5
       519.502                          37.000          30.000
  25157862.119   132205402.123 6     -3583.922    25157864.924   103017181.153 5
     -2792.667                          37.000          31.000
 23 11  9  8 17 30.0000000  0 10G09G06G04G11G03G07G19G20G26G31
  20181624.556   106055162.170 9       -80.355    20181626.557    82640396.220 9
       -62.616                          51.000          60.000
  20599800.524   108252668.617 9        42.033    20599803.383    84352726.122 9
        32.754                          51.000          59.000
  21074534.880   110747430.039 8     -2233.661    21074536.667    86296684.344 7
     -1740.515                          48.000          43.000
  22568616.461   118598868.636 8      2337.946    22568617.962    92414690.369 6
      1821.778                          46.000          37.000
  23473817.617   123355703.752 7     -3380.439    23473822.978    96121320.076 7
     -2634.104                          42.000          42.000
  23582924.299   123929158.525 7      2886.464    23582927.676    96568210.031 7
      2249.187                          43.000          42.000
  23799230.716   125065758.467 7     -3654.478    23799232.396    97453811.336 5
     -2847.638                          42.000          27.000
  24322319.238   127814623.528 7      3000.089    24322320.114    99595794.860 3
      2337.725                          39.000          20.000
  24925113.878   130982362.383 6       650.039    24925122.187   102064211.579 5
       506.527                          37.000          30.000
  25178352.188   132313077.623 6     -3593.955    25178355.583   103101084.060 6
     -2800.478                          38.000          33.000
 23 11  9  8 18  0.0000000  0 10G09G06G04G11G03G07G19G20G26G31
  20182130.088   106057818.705 9       -97.780    20182132.125    82642466.234 9
       -76.184                          51.000          60.000
  20599617.420   108251706.905 9        21.087    20599620.458    84351976.710 9
        16.435                          51.000          59.000
  21087322.400   110814627.258 8     -2247.140    21087323.775    86349045.773 7
     -1751.017                          48.000          42.000
  22555307.023   118528926.510 8      2323.856    22555308.202    92360190.002 6
      1810.801                          46.000          37.000
  23493130.851   123457197.238 7     -3386.856    23493136.783    96200405.761 7
     -2639.102                          41.000          41.000
  23566462.748   123842654.055 7      2879.502    23566466.411    96500804.161 7
      2243.761                          43.000          43.000
  23820112.242   125175491.620 7     -3661.976    23820114.261    97539317.517 4
     -2853.477                          41.000          26.000
  24305196.122   127724642.268 7      2997.589    24305197.194    99525679.540 3
      2335.780                          40.000          20.000
  24921451.407   130963118.191 6       631.864    24921460.145   102049216.095 5
       492.369                          37.000          30.000
  25198898.151   132421046.644 6     -3604.993    25198901.028   103185215.678 5
     -2809.067                          37.000          32.000
 23 11  9  8 18 30.0000000  0 10G09G06G04G11G03G07G19G20G26G31
  20182728.665   106060963.994 8      -112.012    20182730.702    82644917.097 9
       -87.289                          50.000          60.000
  20599547.927   108251341.129 8         3.306    20599550.804    84351691.651 9
         2.571                          50.000          59.000
  21100180.127   110882192.901 8     -2257.302    21100181.127    86401694.280 7
     -1758.941                          47.000          42.000
  22542071.652   118459373.636 8      2312.898    22542072.599    92305992.941 6
      1802.252                          46.000          37.000
  23512474.461   123558847.036 7     -3389.897    23512480.697    96279613.222 7
     -2641.482                          41.000          41.000
  23550034.969   123756326.746 7      2875.621    23550039.096    96433536.350 7
      2240.728                          44.000          44.000
  23841029.828   125285410.969 7     -3665.907    23841031.811    97624968.776 4
     -2856.549                          41.000          26.000
  24288081.458   127634704.488 7      2998.259    24288082.601    99455598.102 3
      2336.292                          39.000          20.000
  24917887.073   130944383.446 6       616.976    24917895.632   102034617.617 5
       480.758                          35.000          29.000
  25219500.277   132529312.367 6     -3612.700    25219503.083   103269578.476 5
     -2815.091                          37.000          31.000
 23 11  9  8 19  0.0000000  0 10G09G06G04G11G03G07G19G20G26G31
  20183416.479   106064578.759 9      -128.990    20183418.391    82647733.783 9
      -100.508                          51.000          60.000
  20599588.275   108251553.500 9       -17.417    20599591.277    84351857.111 9
       -13.567                          51.000          59.000
  21113103.147   110950106.308 8     -2270.261    21113104.970    86454613.781 7
     -1769.034                          48.000          42.000
  22528907.114   118390193.741 8      2299.010    22528907.739    92252086.512 6
      1791.445                          47.000          37.000
  23531844.125   123660633.579 7     -3395.891    23531850.611    96358927.251 7
     -2646.140                          42.000          42.000
  23533637.978   123670160.216 7      2868.635    23533641.730    96366393.849 7
      2235.296                          44.000          43.000
  23861977.701   125395494.284 7     -3672.735    23861979.720    97710747.803 4
     -2861.863                          40.000          25.000
  24270972.047   127544792.425 7      2995.987    24270972.833    99385536.713 3
      2334.510                          39.000          19.000
  24914414.550   130926140.939 6       599.139    24914424.110   102020402.737 5
       466.865                          35.000          29.000
  25240154.849   132637853.151 6     -3623.446    25240158.262   103354155.617 5
     -2823.453                          38.000          31.000
 23 11  9  8 19 30.0000000  0 10G09G06G04G11G07G03G19G20G26G31
  20184192.352   106068655.618 9      -144.567    20184194.228    82650910.540 9
      -112.649                          51.000          60.000
  20599737.732   108252337.887 9       -36.652    20599740.823    84352468.289 9
       -28.568                          51.000          59.000
  21126090.942   111018358.776 8     -2281.638    21126092.837    86507797.484 7
     -1777.908                          48.000          42.000
  22515813.141   118321382.478 8      2286.592    22515813.462    92198467.323 6
      1781.756                          46.000          37.000
  23517270.596   123584149.893 7      2863.378    23517273.920    96299373.066 7
      2231.188                          44.000          43.000
  23551237.840   123762549.218 7     -3400.273    23551244.451    96438341.877 7
     -2649.565                          41.000          40.000
  23882955.970   125505731.253 7     -3678.017    23882957.060    97796646.557 4
     -2865.985                          40.000          25.000
  24253866.550   127454900.289 6      2995.132    24253866.818    99315490.843 3
      2333.864                          38.000          19.000
  24911035.393   130908385.364 6       582.809    24911044.577   102006567.356 5
       454.126                          35.000          29.000
  25260859.828   132746659.400 6     -3632.170    25260864.117   103438939.601 5
     -2830.258                          36.000          30.000
 23 11  9  8 20  0.0000000  0 10G09G06G04G11G07G03G19G20G26G31
  20185059.625   106073212.285 9      -160.664    20185061.591    82654461.176 9
      -125.193                          51.000          60.000
  20599999.406   108253713.278 9       -56.473    20600002.622    84353539.992 9
       -44.002                          51.000          59.000
  21139147.105   111086966.738 8     -2293.542    21139148.356    86561258.192 7
     -1787.173                          48.000          42.000
  22502792.573   118252960.616 8      2273.431    22502793.520    92145151.570 6
      1771.504                          46.000          37.000
  23500936.612   123498316.892 7      2857.324    23500939.935    96232490.472 7
      2226.482                          44.000          43.000
  23570659.574   123864611.441 7     -3405.363    23570666.346    96517870.703 7
     -2653.524                          42.000          41.000
  23903965.259   125616136.740 7     -3683.725    23903966.814    97882676.622 4
     -2870.429                          40.000          25.000
  24236767.949   127365047.840 6      2993.539    24236768.486    99245475.911 3
      2332.657                          38.000          20.000
  24907753.907   130891136.562 6       565.696    24907762.324   101993126.877 5
       440.796                          33.000          28.000
  25281619.327   132855746.493 6     -3641.659    25281623.472   103523942.419 5
     -2837.655                          36.000          30.000
 23 11  9  8 20 30.0000000  0 10G09G06G04G11G07G03G19G20G26G31
  20186017.798   106078247.951 9      -174.397    20186019.799    82658385.063 9
      -135.889                          51.000          60.000
  20600373.726   108255680.195 9       -73.992    20600376.710    84355072.632 9
       -57.653                          51.000          59.000
  21152269.651   111155928.077 8     -2303.146    21152271.241    86614994.266 7
     -1794.652                          48.000          42.000
  22489846.931   118184930.415 8      2262.548    22489847.735    92092141.015 6
      1763.028                          46.000          37.000
  23484636.936   123412662.784 7      2853.596    23484640.259    96165747.272 7
      2223.577                          44.000          44.000
  23590109.523   123966819.142 7     -3407.891    23590116.009    96597512.885 7
     -2655.492                          42.000          42.000
  23925006.445   125726707.232 7     -3686.930    23925007.713    97968835.268 4
     -2872.920                          40.000          24.000
  24219677.373   127275235.721 6      2994.548    24219677.909    99175492.433 3
      2333.439                          37.000          19.000
  24904567.307   130874395.674 6       551.039    24904576.742   101980082.204 5
       429.382                          36.000          30.000
  25302430.788   132965111.211 6     -3648.659    25302435.112   103609161.561 5
     -2843.102                          37.000          30.000
 23 11  9  8 21  0.0000000  0 10G09G06G04G11G07G03G19G20G26G31
  20187061.027   106083730.023 9      -191.245    20187062.975    82662656.791 9
      -149.027                          51.000          60.000
  20600854.510   108258207.283 9       -94.684    20600857.459    84357041.766 9
       -73.781                          51.000          59.000
  21165453.416   111225208.911 8     -2315.753    21165455.221    86668979.286 7
     -1804.482                          48.000          42.000
  22476970.102   118117262.296 8      2248.439    22476971.156    92039412.603 6
      1752.027                          46.000          37.000
  23468365.779   123327158.004 7      2846.567    23468368.834    96099120.417 7
      2218.094                          44.000          44.000
  23609580.450   124069139.508 7     -3413.648    23609586.293    96677242.885 7
     -2659.984                          42.000          40.000
  23946071.807   125837406.943 7     -3693.294    23946073.487    98055094.616 4
     -2877.889                          40.000          24.000
  24202588.726   127185432.872 6      2992.121    24202588.869    99105516.152 3
      2331.516                          37.000          20.000
  24901473.232   130858132.195 6       533.092    24901481.809   101967409.555 5
       415.384                          36.000          31.000
  25323288.191   133074719.089 6     -3658.731    25323292.640   103694570.201 5
     -2850.958                          37.000          29.000
 23 11  9  8 21 30.0000000  0 10G09G06G04G11G07G03G19G20G26G31
  20188194.191   106089686.716 9      -205.435    20188196.461    82667298.349 9
      -160.079                          51.000          60.000
  20601447.654   108261324.022 9      -112.649    20601450.746    84359470.362 9
       -87.780                          51.000          59.000
  21178703.279   111294836.215 8     -2325.610    21178704.923    86723234.277 7
     -1812.162                          48.000          42.000
  22464168.108   118049987.601 8      2236.962    22464169.198    91986990.747 6
      1743.086                          46.000          38.000
  23452128.966   123241834.089 7      2842.177    23452131.843    96032634.469 7
      2214.674                          44.000          43.000
  23629077.913   124171600.576 7     -3416.690    23629084.274    96757082.506 7
     -2662.353                          41.000          41.000
  23967166.439   125948261.888 7     -3696.621    23967169.065    98141474.897 4
     -2880.477                          40.000          24.000
  24185507.566   127095669.706 6      2992.414    24185507.691    99035570.810 3
      2331.765                          37.000          20.000
  24898475.185   130842376.340 6       517.876    24898483.262   101955132.494 5
       403.536                          36.000          31.000
  25344197.467   133184595.414 6     -3666.023    25344201.613   103780188.011 5
     -2856.645                          35.000          28.000
 23 11  9  8 22  0.0000000  0 10G09G06G04G11G07G03G19G20G26G31
  20189420.524   106096129.001 8      -223.490    20189422.436    82672318.289 9
      -174.155                          50.000          60.000
  20602155.464   108265042.620 9      -134.609    20602158.448    84362367.944 9
      -104.895                          51.000          59.000
  21192020.668   111364819.617 8     -2339.322    21192022.098    86777766.760 7
     -1822.855                          48.000          41.000
  22451443.809   117983120.319 8      2221.478    22451444.560    91934886.358 6
      1731.018                          46.000          37.000
  23435929.749   123156705.101 7      2833.685    23435932.340    95966300.408 7
      2208.053                          44.000          44.000
  23648605.020   124274213.052 7     -3423.554    23648611.775    96837040.074 7
     -2667.704                          41.000          42.000
  23988292.860   126059279.924 7     -3703.914    23988294.932    98227982.270 4
     -2886.159                          40.000          24.000
  24168435.287   127005958.858 6      2988.794    24168436.323    98965666.226 3
      2328.932                          37.000          20.000
  24895575.150   130827141.145 6       498.527    24895583.655   101943261.085 5
       388.450                          36.000          31.000
  25365158.921   133294749.167 6     -3677.174    25365163.281   103866021.981 4
     -2865.333                          33.000          26.000
 23 11  9  8 22 30.0000000  0 10G09G06G04G11G07G03G19G20G26G31
  20190734.541   106103032.889 9      -237.646    20190736.310    82677697.931 9
      -185.179                          51.000          60.000
  20602973.347   108269340.319 9      -152.734    20602976.332    84365716.773 9
      -119.011                          51.000          59.000
  21205401.171   111435133.928 8     -2349.089    21205402.637    86832557.084 7
     -1830.453                          48.000          42.000
  22438792.827   117916639.571 8      2209.768    22438793.953    91883083.177 6
      1721.894                          46.000          38.000
  23419762.822   123071749.703 8      2829.092    23419765.771    95900101.579 7
      2204.482                          45.000          44.000
  23668155.608   124376952.760 7     -3426.488    23668162.541    96917096.807 7
     -2669.983                          42.000          42.000
  24009445.101   126170434.105 7     -3707.133    24009447.084    98314595.729 4
     -2888.658                          39.000          24.000
  24151369.601   126916278.188 6      2989.190    24151370.441    98895785.159 3
      2329.237                          38.000          20.000
  24892771.429   130812404.559 6       483.112    24892780.345   101931778.239 5
       376.446                          36.000          32.000
  25386168.532   133405154.136 5     -3683.916    25386172.284   103952051.726 4
     -2870.589                          31.000          22.000
 23 11  9  8 23  0.0000000  0 10G09G06G04G11G07G03G19G20G26G31
  20192137.902   106110409.095 9      -253.118    20192139.797    82683445.603 9
      -197.233                          51.000          60.000
  20603903.644   108274229.099 9      -172.275    20603906.646    84369526.184 9
      -134.238                          51.000          59.000
  21218845.931   111505788.582 8     -2360.218    21218847.736    86887612.611 7
     -1839.127                          48.000          42.000
  22426218.110   117850559.173 8      2196.583    22426219.235    91831591.949 6
      1711.623                          46.000          38.000
  23403632.062   122986981.719 7      2823.068    23403634.885    95834048.762 8
      2199.790                          44.000          45.000
  23687732.909   124479830.231 7     -3430.998    23687738.985    96997260.899 7
     -2673.501                          41.000          40.000
  24030624.932   126281732.580 7     -3711.740    24030626.487    98401321.633 4
     -2892.274                          39.000          23.000
  24134311.886   126826640.129 6      2987.791    24134312.815    98825937.284 4
      2328.139                          38.000          21.000
  24890063.628   130798179.363 6       466.126    24890072.384   101920693.830 5
       363.208                          36.000          31.000
  25407227.319   133515818.941 6     -3692.629    25407230.678   104038283.914 4
     -2877.369                          33.000          23.000
 23 11  9  8 23 30.0000000  0 10G09G06G04G11G07G03G19G20G26G31
  20193634.898   106118276.821 9      -269.813    20193637.006    82689576.277 9
      -210.246                          51.000          60.000
  20604950.251   108279729.332 9      -192.887    20604953.307    84373812.050 9
      -150.302                          51.000          59.000
  21232359.434   111576801.574 8     -2372.403    21232361.346    86942947.357 7
     -1848.625                          48.000          41.000
  22413723.999   117784901.377 8      2182.207    22413724.964    91780430.025 6
      1700.421                          47.000          38.000
  23387541.078   122902423.592 8      2815.716    23387543.687    95768159.441 7
      2194.060                          45.000          44.000
  23707339.712   124582864.473 7     -3436.504    23707345.305    97077547.170 7
     -2677.791                          41.000          40.000
  24051835.606   126393191.961 6     -3717.271    24051836.713    98488172.888 4
     -2896.556                          38.000          22.000
  24117267.089   126737065.827 6      2985.390    24117267.893    98756139.079 4
      2326.288                          38.000          22.000
  24887458.432   130784486.681 6       448.171    24887466.813   101910024.384 5
       349.222                          37.000          32.000
  25428339.712   133626760.232 5     -3701.856    25428342.089   104124731.564 4
     -2884.560                          32.000          22.000
 23 11  9  8 24  0.0000000  0 11G09G06G04G11G07G03G19G20G26G31G30
  20195219.773   106126604.762 8      -285.668    20195221.846    82696065.564 9
      -222.603                          50.000          60.000
  20606107.592   108285810.953 9      -212.761    20606110.415    84378550.950 9
      -165.793                          51.000          59.000
  21245934.870   111648140.362 8     -2383.703    21245937.104    86998535.964 7
     -1857.430                          48.000          41.000
  22401304.725   117719638.006 8      2168.492    22401305.886    91729575.450 6
      1689.729                          47.000          38.000
  23371484.743   122818046.806 8      2809.089    23371487.316    95702411.406 8
      2188.894                          45.000          45.000
  23726970.317   124686024.015 7     -3441.148    23726977.072    97157931.036 7
     -2681.408                          40.000          40.000
  24073069.169   126504778.144 7     -3721.970    24073071.796    98575122.949 4
     -2900.237                          39.000          22.000
  24100228.493   126647525.717 6      2983.726    24100229.423    98686367.500 4
      2324.972                          38.000          22.000
  24884948.227   130771297.247 6       430.968    24884957.287   101899747.059 5
       335.811                          36.000          31.000
  25449496.474   133737944.808 5     -3710.539    25449500.566   104211368.767 4
     -2891.327                          32.000          22.000
  25683811.829   134969343.145 6      3347.479    25683822.050   105170957.764 4
      2608.430                          34.000          23.000
 23 11  9  8 24 30.0000000  0 11G09G06G04G11G07G03G20G19G26G31G30
  20196896.030   106135412.523 9      -301.987    20196897.835    82702928.736 9
      -235.309                          51.000          60.000
  20607379.455   108292494.749 9      -233.292    20607382.171    84383759.078 9
      -181.781                          51.000          59.000
  21259575.975   111719823.344 8     -2395.692    21259577.708    87054392.776 7
     -1866.768                          48.000          41.000
  22388964.663   117654791.755 8      2154.093    22388965.700    91679045.900 6
      1678.521                          47.000          38.000
  23355467.165   122733874.063 8      2801.821    23355469.935    95636822.351 8
      2183.237                          45.000          45.000
  23746628.780   124789328.285 7     -3446.310    23746635.695    97238427.664 7
     -2685.429                          42.000          40.000
  24083199.994   126558041.394 7      2981.440    24083201.620    98616639.408 4
      2323.215                          40.000          23.000
  24094331.180   126616508.236 6     -3727.318    24094333.610    98662185.143 4
     -2904.395                          38.000          21.000
  24882537.625   130758632.649 6       412.945    24882546.774   101889878.701 5
       321.775                          37.000          32.000
  25470704.575   133849390.035 5     -3719.600    25470708.077   104298209.078 4
     -2898.377                          31.000          22.000
  25664696.013   134868888.527 6      3348.963    25664705.591   105092681.393 4
      2609.597                          35.000          23.000
 23 11  9  8 25  0.0000000  0 11G09G06G04G11G07G03G20G19G26G31G30
  20198662.812   106144697.549 9      -317.148    20198664.813    82710163.804 9
      -247.133                          51.000          60.000
  20608765.681   108299779.356 9      -252.609    20608768.700    84389435.365 9
      -196.838                          51.000          59.000
  21273281.462   111791846.746 8     -2406.119    21273283.142    87110514.843 7
     -1874.893                          47.000          41.000
  22376704.548   117590363.190 8      2140.898    22376705.084    91628841.814 6
      1668.227                          46.000          38.000
  23339488.470   122649906.242 7      2795.754    23339491.133    95571392.951 8
      2178.507                          44.000          45.000
  23766314.243   124892774.605 7     -3450.281    23766320.139    97319035.022 7
     -2688.525                          41.000          39.000
  24066182.090   126468612.054 7      2980.346    24066183.841    98546954.128 4
      2322.343                          39.000          23.000
  24115618.922   126728376.597 6     -3730.979    24115621.192    98749355.065 3
     -2907.267                          37.000          20.000
  24880227.517   130746492.290 6       396.084    24880235.987   101880418.832 5
       308.628                          37.000          32.000
  25491959.956   133961091.496 5     -3727.337    25491963.744   104385249.045 3
     -2904.416                          30.000          20.000
  25645569.439   134768377.638 6      3351.424    25645578.624   105014361.122 4
      2611.514                          34.000          23.000
 23 11  9  8 25 30.0000000  0 11G09G06G04G11G07G03G20G19G26G31G30
  20200516.133   106154437.019 9      -333.452    20200518.153    82717752.973 9
      -259.832                          51.000          60.000
  20610262.068   108307643.096 9      -273.074    20610265.267    84395562.930 9
      -212.789                          51.000          59.000
  21287047.221   111864186.574 8     -2417.782    21287049.115    87166883.476 7
     -1883.992                          48.000          41.000
  22364520.215   117526332.604 8      2126.426    22364520.823    91578947.839 6
      1656.956                          47.000          38.000
  23323545.138   122566123.159 8      2788.364    23323547.336    95506107.478 8
      2172.745                          45.000          45.000
  23786022.256   124996339.978 7     -3455.468    23786028.046    97399735.141 6
     -2692.574                          40.000          38.000
  24049171.316   126379216.894 7      2977.989    24049172.317    98477295.498 4
      2320.503                          39.000          23.000
  24136928.590   126840357.845 6     -3735.778    24136930.448    98836612.973 3
     -2911.011                          38.000          20.000
  24878012.509   130734855.280 6       378.332    24878020.872   101871351.153 5
       294.801                          38.000          31.000
  25513260.939   134073023.536 5     -3736.183    25513263.155   104472468.661 3
     -2911.315                          29.000          18.000
  25626428.321   134667790.557 6      3352.933    25626437.773   104935981.438 4
      2612.680                          35.000          25.000
 23 11  9  8 26  0.0000000  0 11G09G06G04G11G07G03G20G19G26G31G30
  20202462.517   106164664.481 8      -349.876    20202464.304    82725722.408 9
      -272.634                          50.000          60.000
  20611875.302   108316120.703 9      -293.649    20611878.446    84402168.839 9
      -228.816                          51.000          59.000
  21300879.632   111936875.209 8     -2429.557    21300881.311    87223523.914 7
     -1893.152                          48.000          41.000
  22352418.008   117462736.666 8      2111.751    22352419.027    91529392.556 7
      1645.517                          47.000          39.000
  23307643.584   122482561.521 7      2780.865    23307646.032    95440994.561 8
      2166.907                          44.000          45.000
  23805759.485   125100057.867 7     -3460.624    23805765.900    97480554.095 7
     -2696.578                          41.000          40.000
  24032173.337   126289891.468 7      2975.484    24032174.052    98407691.222 4
      2318.550                          39.000          23.000
  24158266.008   126952482.541 6     -3740.712    24158267.563    98923982.637 3
     -2914.846                          35.000          18.000
  24875900.819   130723757.194 6       360.192    24875908.860   101862703.419 5
       280.661                          35.000          31.000
  25534611.295   134185217.717 5     -3745.153    25534613.367   104559892.586 3
     -2918.300                          31.000          20.000
  25607280.126   134567163.778 6      3354.085    25607289.400   104857570.895 4
      2613.558                          35.000          26.000
 23 11  9  8 26 30.0000000  0 11G09G06G04G11G07G03G20G19G26G31G30
  20204497.352   106175358.327 9      -363.277    20204499.389    82734055.253 9
      -283.072                          51.000          60.000
  20613601.664   108325191.726 9      -311.313    20613604.523    84409237.141 9
      -242.575                          51.000          59.000
  21314773.780   112009889.859 8     -2438.271    21314775.656    87280418.382 7
     -1899.947                          48.000          41.000
  22340395.283   117399556.896 8      2099.995    22340396.337    91480161.560 6
      1636.364                          47.000          38.000
  23291781.145   122399202.953 8      2776.153    23291783.736    95376039.874 8
      2163.242                          45.000          45.000
  23825520.874   125203906.477 7     -3462.754    23825528.200    97561474.908 7
     -2698.243                          41.000          40.000
  24015184.542   126200615.937 7      2975.910    24015185.453    98338125.820 4
      2318.903                          40.000          23.000
  24179624.708   127064726.866 6     -3742.481    24179627.353    99011445.523 3
     -2916.196                          36.000          18.000
  24873888.124   130713178.343 6       344.762    24873896.040   101854460.250 5
       268.647                          37.000          30.000
  25556004.571   134297650.310 5     -3750.833    25556009.235   104647502.326 4
     -2922.708                          31.000          21.000
  25588120.245   134466478.794 6      3358.111    25588129.590   104779115.125 4
      2616.696                          35.000          26.000
 23 11  9  8 27  0.0000000  0 11G09G06G04G11G07G03G20G19G26G30G31
  20206620.549   106186515.491 9      -379.252    20206622.586    82742749.121 9
      -295.520                          51.000          60.000
  20615440.261   108334854.222 9      -331.590    20615443.209    84416766.334 9
      -258.378                          51.000          59.000
  21328729.237   112083226.311 8     -2449.541    21328731.202    87337563.605 7
     -1908.731                          48.000          41.000
  22328451.699   117336793.385 8      2085.530    22328452.772    91431254.912 6
      1625.086                          47.000          38.000
  23275957.178   122316047.428 8      2768.772    23275959.716    95311243.393 8
      2157.486                          45.000          45.000
  23845306.975   125307882.741 7     -3467.754    23845314.140    97642495.193 7
     -2702.136                          40.000          39.000
  23998205.253   126111389.390 7      2973.837    23998206.147    98268598.579 4
      2317.272                          39.000          23.000
  24201005.655   127177085.288 6     -3746.619    24201008.657    99098997.305 3
     -2919.427                          35.000          17.000
  24871973.333   130703117.525 6       327.126    24871981.517   101846620.743 5
       254.903                          36.000          29.000
  25568948.999   134365735.268 6      3359.554    25568958.827   104700613.813 4
      2617.836                          36.000          26.000
  25577445.862   134410316.456 5     -3759.040    25577449.543   104735294.025 4
     -2929.126                          31.000          22.000
 23 11  9  8 27 30.0000000  0 11G09G06G04G11G07G03G20G19G26G30G31
  20208832.466   106198138.715 9      -395.718    20208834.503    82751806.156 9
      -308.350                          51.000          60.000
  20617392.219   108345112.065 9      -352.334    20617395.150    84424759.431 9
      -274.539                          51.000          59.000
  21342746.234   112156886.166 8     -2461.180    21342748.200    87394960.824 7
     -1917.791                          48.000          41.000
  22316588.795   117274452.005 8      2070.463    22316589.563    91382677.197 6
      1613.353                          47.000          38.000
  23260173.131   122233100.871 8      2760.843    23260175.668    95246609.744 8
      2151.314                          45.000          46.000
  23865117.932   125411989.250 7     -3472.930    23865124.650    97723616.947 7
     -2706.164                          40.000          39.000
  23981236.204   126022216.479 7      2970.999    23981236.954    98199113.162 4
      2315.087                          40.000          24.000
  24222409.939   127289557.684 6     -3751.408    24222411.440    99186637.916 3
     -2923.169                          34.000          16.000
  24870158.377   130693579.455 6       308.711    24870166.418   101839188.548 5
       240.554                          36.000          30.000
  25549767.210   134264938.998 6      3360.284    25549777.860   104622071.465 4
      2618.414                          36.000          26.000
  25598930.146   134523216.425 5     -3767.771    25598932.987   104823267.937 3
     -2935.926                          31.000          19.000
 23 11  9  8 28  0.0000000  0 11G09G06G04G11G07G03G20G19G26G30G31
  20211134.175   106210232.841 9      -410.254    20211135.890    82761230.130 9
      -319.678                          51.000          60.000
  20619458.647   108355971.191 9      -371.256    20619461.559    84433221.062 9
      -289.286                          51.000          59.000
  21356825.631   112230873.089 8     -2470.953    21356827.543    87452612.913 7
     -1925.415                          48.000          41.000
  22304807.122   117212540.731 8      2057.241    22304808.320    91334434.634 7
      1603.046                          47.000          39.000
  23244430.450   122150371.034 8      2754.694    23244432.702    95182144.985 8
      2146.515                          45.000          46.000
  23884954.995   125516230.744 7     -3476.301    23884961.571    97804843.912 7
     -2708.798                          40.000          39.000
  23964278.912   125933104.033 7      2970.076    23964279.680    98129674.854 4
      2314.350                          41.000          24.000
  24243834.344   127402146.419 6     -3754.060    24243836.667    99274369.153 3
     -2925.220                          35.000          15.000
  24868443.862   130684570.869 6       292.042    24868452.171   101832168.923 5
       227.564                          37.000          30.000
  25530577.952   134164097.623 6      3362.811    25530588.513   104543494.040 4
      2620.356                          35.000          26.000
  25620458.620   134636353.473 5     -3774.599    25620461.729   104911426.583 3
     -2941.257                          31.000          19.000
 23 11  9  8 28 30.0000000  0 11G09G06G04G11G07G03G20G19G26G30G31
  20213522.227   106222782.849 9      -426.384    20213524.049    82771009.338 9
      -332.248                          51.000          60.000
  20621636.952   108367417.693 9      -391.819    20621639.883    84442140.385 9
      -305.308                          51.000          59.000
  21370963.923   112305170.976 8     -2482.286    21370966.032    87510507.303 7
     -1934.241                          48.000          41.000
  22293105.914   117151047.683 8      2042.304    22293106.683    91286517.962 7
      1591.406                          47.000          39.000
  23228726.027   122067845.873 8      2746.972    23228728.457    95117839.726 8
      2140.493                          45.000          46.000
  23904814.145   125620592.081 7     -3480.990    23904820.971    97886164.247 7
     -2712.447                          40.000          39.000
  23947330.340   125844038.957 7      2967.615    23947331.216    98060273.450 4
      2312.440                          41.000          25.000
  24265279.083   127514833.731 6     -3758.305    24265280.638    99362177.181 3
     -2928.509                          33.000          15.000
  24866828.145   130676078.581 6       274.063    24866836.579   101825551.590 5
       213.560                          36.000          30.000
  25511378.295   134063199.106 6      3363.751    25511388.087   104464872.168 5
      2621.095                          35.000          27.000
  25642029.818   134749710.060 5     -3782.415    25642033.124   104999756.299 3
     -2947.334                          29.000          17.000
 23 11  9  8 29  0.0000000  0 11G09G06G04G11G07G03G20G19G26G30G31
  20215997.372   106235791.051 9      -442.466    20215999.517    82781145.579 9
      -344.773                          51.000          61.000
  20623927.439   108379454.962 9      -412.361    20623930.691    84451520.048 9
      -321.310                          51.000          59.000
  21385161.934   112379781.000 8     -2493.436    21385163.936    87568644.925 7
     -1942.929                          47.000          41.000
  22281484.438   117089978.331 8      2027.330    22281485.617    91238931.445 7
      1579.744                          47.000          39.000
  23213062.149   121985531.484 8      2739.045    23213064.454    95053698.712 8
      2134.327                          45.000          46.000
  23924697.025   125725075.582 7     -3486.131    23924703.172    97967579.788 7
     -2716.452                          42.000          39.000
  23930391.900   125755025.939 7      2964.896    23930392.704    97990912.620 4
      2310.325                          41.000          26.000
  24286741.102   127627619.359 6     -3762.252    24286743.372    99450061.866 3
     -2931.605                          33.000          15.000
  24865310.511   130668106.870 6       255.902    24865320.196   101819339.851 5
       199.411                          36.000          30.000
  25492166.879   133962248.751 6      3364.535    25492178.101   104386209.995 5
      2621.710                          36.000          28.000
  25663642.419   134863286.656 5     -3790.951    25663646.333   105088257.470 3
     -2953.955                          28.000          15.000
 23 11  9  8 29 30.0000000  0 11G09G06G04G11G07G20G03G19G26G30G31
  20218563.203   106249274.847 9      -457.540    20218565.330    82791652.413 9
      -356.524                          51.000          60.000
  20626334.200   108392101.475 9      -431.850    20626337.166    84461374.444 9
      -336.505                          51.000          59.000
  21399422.469   112454719.491 8     -2503.585    21399424.184    87627038.490 7
     -1950.841                          48.000          41.000
  22269948.268   117029353.216 8      2013.278    22269949.072    91191691.085 7
      1568.787                          47.000          39.000
  23197441.746   121903447.870 8      2732.092    23197444.176    94989737.530 8
      2128.905                          45.000          46.000
  23913466.594   125666083.993 7      2963.287    23913467.309    97921607.171 4
      2309.060                          41.000          26.000
  23944606.190   125829698.510 7     -3489.928    23944612.569    98049103.960 7
     -2719.417                          40.000          39.000
  24308225.493   127740518.030 5     -3765.079    24308227.709    99538034.614 2
     -2933.815                          32.000          14.000
  24863896.106   130660674.960 6       238.692    24863905.058   101813548.720 5
       186.004                          36.000          30.000
  25472950.586   133861266.845 6      3366.398    25472961.611   104307523.271 5
      2623.148                          36.000          29.000
  25685299.425   134977098.481 4     -3797.501    25685304.250   105176941.972 2
     -2959.098                          24.000          13.000
 23 11  9  8 30  0.0000000  0 10G09G06G04G11G07G20G03G19G26G30
  20221215.395   106263210.170 8      -472.291    20221217.057    82802511.085 9
      -368.017                          50.000          60.000
  20628852.285   108405334.230 9      -451.164    20628855.341    84471685.649 9
      -351.548                          51.000          59.000
  21413740.077   112529961.251 8     -2513.385    21413742.221    87685668.376 7
     -1958.471                          48.000          41.000
  22258491.937   116969151.428 8      1999.354    22258493.027    91144780.580 7
      1557.943                          47.000          39.000
  23181861.584   121821574.253 8      2725.281    23181864.085    94925939.997 8
      2123.599                          45.000          46.000
  23896551.151   125577191.457 7      2962.044    23896552.223    97852340.223 4
      2308.098                          41.000          26.000
  23964537.244   125934436.833 7     -3493.500    23964543.820    98130718.041 6
     -2722.195                          40.000          37.000
  24329724.948   127853503.426 5     -3767.870    24329728.128    99626074.970 2
     -2935.999                          32.000          13.000
  24862581.250   130653760.648 6       221.465    24862589.541   101808160.897 5
       172.567                          36.000          30.000
  25453723.767   133760232.272 6      3368.341    25453734.757   104228795.545 5
      2624.673                          36.000          30.000
 23 11  9  8 30 30.0000000  0 10G09G06G04G11G07G20G03G19G26G30
  20223960.131   106277635.106 9      -487.742    20223962.293    82813751.272 9
      -380.060                          51.000          60.000
  20631489.324   108419192.391 9      -471.107    20631492.665    84482484.182 9
      -367.105                          51.000          59.000
  21428123.336   112605543.344 8     -2523.818    21428124.998    87744563.449 7
     -1966.620                          47.000          40.000
  22247124.237   116909414.257 8      1984.704    22247125.380    91098232.121 7
      1546.518                          47.000          39.000
  23166329.275   121739952.018 8      2717.781    23166331.937    94862338.361 8
      2117.739                          46.000          45.000
  23879652.166   125488388.489 7      2959.858    23879653.506    97783143.064 4
      2306.379                          41.000          25.000
  23984497.926   126039328.589 7     -3497.641    23984504.073    98212451.710 6
     -2725.436                          41.000          38.000
  24351249.669   127966610.831 5     -3771.142    24351251.635    99714210.336 2
     -2938.556                          32.000          10.000
  24861371.106   130647403.928 6       203.877    24861379.290   101803207.529 5
       158.865                          36.000          29.000
  25434495.305   133659186.160 6      3369.516    25434505.901   104150058.816 5
      2625.568                          37.000          30.000
 23 11  9  8 31  0.0000000  0 10G09G06G04G11G07G20G03G19G26G30
  20226792.710   106292519.230 8      -503.881    20226794.872    82825349.270 9
      -392.635                          50.000          60.000
  20634240.063   108433646.530 9      -491.810    20634243.155    84493747.109 9
      -383.231                          51.000          59.000
  21442564.669   112681434.186 8     -2534.895    21442566.313    87803699.111 7
     -1975.244                          48.000          40.000
  22235839.752   116850114.401 8      1969.262    22235840.967    91052024.427 7
      1534.486                          48.000          39.000
  23150839.655   121658553.556 8      2709.427    23150841.943    94798911.093 8
      2111.237                          46.000          45.000
  23862765.546   125399646.652 7      2956.909    23862766.476    97713993.542 4
      2304.082                          40.000          26.000
  24004481.319   126144343.266 7     -3502.286    24004488.377    98294281.155 7
     -2729.047                          41.000          39.000
  24372789.525   128079807.552 5     -3774.593    24372792.420    99802415.357 2
     -2941.265                          32.000           9.000
  24860262.798   130641576.143 6       185.233    24860270.070   101798666.326 5
       144.336                          36.000          30.000
  25415258.944   133558101.032 6      3370.060    25415269.433   104071291.636 5
      2626.004                          37.000          31.000
 23 11  9  8 31 30.0000000  0 10G09G06G04G11G07G20G03G19G26G30
  20229715.207   106307877.569 9      -519.441    20229717.441    82837316.780 9
      -404.755                          51.000          60.000
  20637107.130   108448712.728 9      -511.920    20637109.918    84505486.969 9
      -398.887                          51.000          59.000
  21457068.044   112757647.845 8     -2545.435    21457069.724    87863086.318 7
     -1983.444                          48.000          40.000
  22224642.325   116791270.092 8      1954.320    22224643.272    91006171.701 7
      1522.854                          47.000          39.000
  23135395.745   121577397.309 8      2701.575    23135398.854    94735672.592 8
      2105.127                          46.000          46.000
  23845893.436   125310983.053 7      2954.438    23845894.365    97644904.996 4
      2302.160                          41.000          26.000
  24024491.354   126249495.968 7     -3507.156    24024498.877    98376218.133 7
     -2732.834                          40.000          39.000
  24394350.146   128193106.039 5     -3777.813    24394352.540    99890699.651 2
     -2943.636                          30.000           9.000
  24859257.183   130636294.221 6       167.454    24859265.474   101794550.463 5
       130.490                          36.000          31.000
  25396018.045   133456994.873 6      3370.923    25396029.088   103992508.014 5
      2626.685                          37.000          30.000
 23 11  9  8 32  0.0000000  0 10G09G06G04G11G07G20G03G19G26G30
  20232721.974   106323678.256 9      -534.494    20232723.868    82849628.974 9
      -416.489                          51.000          60.000
  20640084.824   108464360.105 9      -531.773    20640087.630    84517679.686 9
      -414.362                          51.000          59.000
  21471626.312   112834151.339 8     -2555.431    21471628.046    87922699.374 7
     -1991.233                          47.000          40.000
  22213525.935   116732852.595 8      1939.642    22213526.864    90960651.564 7
      1511.412                          47.000          39.000
  23119992.861   121496454.390 8      2694.018    23119995.881    94672600.323 8
      2099.236                          46.000          47.000
  23829030.368   125222367.943 7      2952.501    23829031.297    97575854.226 4
      2300.654                          42.000          26.000
  24044521.779   126354754.704 7     -3510.856    24044528.819    98458237.721 6
     -2735.720                          40.000          38.000
  24415922.845   128306472.136 5     -3780.361    24415925.704    99979036.622 1
     -2945.708                          29.000           8.000
  24858351.187   130631528.105 6       149.787    24858358.013   101790836.508 5
       116.722                          36.000          30.000
  25376769.319   133355838.843 6      3372.086    25376779.022   103913685.444 5
      2627.602                          36.000          30.000
 23 11  9  8 32 30.0000000  0 10G09G06G04G11G07G20G03G19G26G30
  20235813.351   106339924.070 9      -550.882    20235815.334    82862288.017 9
      -429.253                          51.000          60.000
  20643173.539   108480592.447 9      -552.804    20643176.916    84530328.221 9
      -430.747                          51.000          59.000
  21486239.635   112910946.421 8     -2566.566    21486241.619    87982539.631 7
     -1999.913                          48.000          40.000
  22202491.777   116674867.862 8      1923.643    22202492.528    90915468.632 7
      1498.950                          47.000          39.000
  23104631.684   121415730.669 8      2685.185    23104634.615    94609698.868 8
      2092.356                          45.000          47.000
  23812177.699   125133806.462 7      2949.227    23812178.628    97506845.253 5
      2298.116                          42.000          27.000
  24064572.895   126460122.248 7     -3515.922    24064579.274    98540342.127 6
     -2739.667                          40.000          38.000
  24437510.197   128419906.142 5     -3784.503    24437512.056   100067426.546 1
     -2948.774                          28.000           7.000
  24857542.453   130627282.357 6       130.897    24857550.459   101787528.055 5
       102.005                          36.000          31.000
  25357511.194   133254638.685 6      3372.094    25357520.896   103834828.402 5
      2627.613                          36.000          30.000
 23 11  9  8 33  0.0000000  0 10G09G06G04G11G07G20G03G19G26G30
  20238998.843   106356661.999 9      -565.087    20239000.755    82875330.530 9
      -440.326                          51.000          60.000
  20646382.994   108497457.713 9      -571.722    20646386.300    84543469.948 9
      -445.489                          51.000          59.000
  21500917.751   112988079.029 8     -2575.728    21500919.270    88042642.895 7
     -2007.047                          48.000          40.000
  22191549.663   116617366.039 8      1909.634    22191550.521    90870661.988 7
      1488.033                          47.000          39.000
  23089321.952   121335276.325 8      2678.267    23089324.418    94547007.302 8
      2086.966                          45.000          46.000
  23795344.901   125045347.662 7      2947.924    23795345.598    97437916.295 5
      2297.093                          42.000          27.000
  24084653.460   126565645.618 7     -3518.996    24084660.286    98622567.958 6
     -2742.056                          40.000          38.000
  24459117.652   128533452.282 5     -3785.593    24459119.260   100155903.790 1
     -2949.831                          28.000           5.000
  24856842.524   130623605.792 6       114.013    24856851.208   101784663.092 5
        88.849                          37.000          31.000
  25338254.516   133153444.607 6      3373.917    25338263.718   103755975.958 5
      2629.035                          36.000          31.000
 23 11  9  8 33 30.0000000  0 10G09G06G04G11G07G20G03G19G26G30
  20242271.769   106373861.826 9      -580.852    20242273.878    82888732.965 9
      -452.607                          51.000          60.000
  20649707.222   108514926.711 9      -592.223    20649710.438    84557082.113 9
      -461.468                          51.000          59.000
  21515654.048   113065517.990 8     -2586.292    21515655.621    88102984.881 7
     -2015.294                          47.000          40.000
  22180694.250   116560320.113 8      1894.050    22180695.357    90826210.593 7
      1475.887                          47.000          39.000
  23074058.072   121255064.395 8      2669.847    23074060.556    94484504.643 8
      2080.399                          45.000          47.000
  23778525.683   124956963.630 7      2945.052    23778526.719    97369045.603 4
      2294.845                          42.000          26.000
  24104757.665   126671294.655 7     -3523.524    24104765.367    98704891.671 6
     -2745.596                          39.000          37.000
  24480738.920   128647077.775 5     -3788.723    24480741.654   100244442.932 1
     -2952.262                          30.000           6.000
  24856245.752   130620469.909 6        95.620    24856254.615   101782219.434 5
        74.517                          38.000          31.000
  25318994.515   133052229.371 6      3374.406    25319002.913   103677106.916 5
      2629.415                          35.000          30.000
 23 11  9  8 34  0.0000000  0 10G09G06G04G11G07G20G03G19G26G30
  20245633.898   106391530.228 9      -596.845    20245636.006    82902500.523 9
      -465.075                          51.000          60.000
  20653147.974   108533007.024 9      -612.943    20653151.118    84571170.628 9
      -477.616                          51.000          59.000
  21530449.224   113143268.918 8     -2597.040    21530451.601    88163569.949 7
     -2023.661                          48.000          40.000
  22169927.377   116503739.944 8      1878.101    22169928.431    90782122.134 7
      1463.454                          47.000          39.000
  23058842.170   121175104.825 8      2660.932    23058844.582    94422198.633 8
      2073.450                          45.000          47.000
  23761722.994   124868662.940 7      2941.856    23761723.476    97300239.843 4
      2292.361                          42.000          26.000
  24124887.888   126777075.969 7     -3528.324    24124895.107    98787318.454 6
     -2749.330                          39.000          37.000
  24502378.057   128760787.349 5     -3791.756    24502379.986   100333047.539 1
     -2954.568                          29.000           7.000
  24855753.710   130617883.145 6        77.026    24855763.145   101780203.665 5
        60.021                          36.000          31.000
  25299731.833   132951002.823 6      3374.250    25299740.106   103598228.968 5
      2629.294                          36.000          30.000
 23 11  9  8 34 30.0000000  0 10G09G06G04G11G07G20G03G19G26G30
  20249077.866   106409628.691 9      -611.261    20249080.082    82916603.192 9
      -476.308                          51.000          60.000
  20656697.798   108551661.069 9      -632.212    20656700.979    84585706.208 9
      -492.637                          51.000          59.000
  21545296.667   113221292.327 8     -2606.162    21545298.954    88224367.340 7
     -2030.782                          48.000          40.000
  22159242.255   116447590.154 8      1863.642    22159243.435    90738369.031 7
      1452.186                          47.000          39.000
  23043667.349   121095362.063 8      2653.618    23043669.672    94360061.577 8
      2067.743                          45.000          47.000
  23744928.775   124780409.557 7      2940.195    23744929.400    97231470.954 4
      2291.059                          42.000          26.000
  24145035.444   126882951.112 7     -3531.498    24145042.020    98869818.373 6
     -2751.818                          41.000          38.000
  24524022.214   128874539.848 5     -3793.475    24524026.735   100421685.582 1
     -2955.867                          30.000           6.000
  24855359.180   130615808.746 6        59.801    24855367.686   101778587.112 5
        46.605                          37.000          31.000
  25280459.681   132849729.676 6      3375.847    25280468.776   103519314.612 5
      2630.534                          37.000          31.000
 23 11  9  8 35  0.0000000  0 10G09G06G04G11G07G20G03G19G26G30
  20252606.158   106428168.885 8      -626.130    20252608.249    82931050.069 9
      -487.892                          50.000          60.000
  20660359.089   108570901.493 8      -651.938    20660362.073    84600698.710 9
      -508.008                          50.000          59.000
  21560198.145   113299598.902 8     -2615.738    21560199.878    88285385.381 7
     -2038.237                          47.000          40.000
  22148642.172   116391885.599 8      1848.593    22148643.316    90694962.870 7
      1440.461                          47.000          39.000
  23028536.611   121015851.073 8      2645.725    23028539.077    94298105.108 8
      2061.594                          46.000          47.000
  23728146.331   124692217.356 7      2937.946    23728146.957    97162749.759 4
      2289.296                          41.000          26.000
  24165202.530   126988931.806 7     -3535.247    24165209.356    98952400.522 6
     -2754.738                          39.000          37.000
  24545680.024   128988344.487 5     -3795.321    24545683.509   100510364.204 1
     -2957.384                          28.000           5.000
  24855064.663   130614260.170 6        42.036    24855072.633   101777380.322 5
        32.758                          37.000          30.000
  25261182.239   132748424.834 6      3376.438    25261191.781   103440375.544 5
      2631.004                          36.000          30.000
 23 11  9  8 35 30.0000000  0 10G09G06G04G11G07G20G03G19G26G30
  20256221.544   106447167.449 9      -640.282    20256223.509    82945854.115 9
      -498.918                          51.000          60.000
  20664135.278   108590745.810 9      -670.919    20664138.227    84616161.775 9
      -522.790                          51.000          59.000
  21575156.304   113378204.336 8     -2624.545    21575157.966    88346636.296 7
     -2045.095                          47.000          40.000
  22138130.451   116336646.122 8      1834.164    22138131.452    90651919.099 7
      1429.224                          47.000          40.000
  23013454.065   120936591.701 8      2638.344    23013456.514    94236344.704 8
      2055.851                          45.000          47.000
  23711379.094   124604105.307 7      2936.341    23711379.827    97094091.020 4
      2288.069                          41.000          26.000
  24185393.418   127095034.800 6     -3538.227    24185400.459    99035077.946 6
     -2757.045                          38.000          36.000
  24567349.788   129102215.731 5     -3796.220    24567352.826   100599094.762 1
     -2958.033                          29.000           5.000
  24854873.875   130613255.787 6        25.162    24854882.435   101776597.616 5
        19.604                          36.000          30.000
  25241903.011   132647108.255 6      3378.202    25241912.535   103361427.390 5
      2632.369                          36.000          31.000
 23 11  9  8 36  0.0000000  0 10G09G06G04G11G07G20G03G19G26G30
  20259920.896   106466609.147 9      -654.988    20259923.040    82961003.456 9
      -510.386                          51.000          60.000
  20668023.774   108611179.709 9      -690.448    20668026.776    84632084.257 9
      -538.016                          51.000          59.000
  21590167.999   113457092.410 8     -2633.870    21590170.501    88408107.435 7
     -2052.365                          47.000          40.000
  22127704.734   116281859.662 8      1819.106    22127705.717    90609228.323 7
      1417.480                          48.000          39.000
  22998416.925   120857571.823 8      2630.428    22998419.373    94174770.899 8
      2049.673                          46.000          47.000
  23694624.330   124516060.152 7      2934.094    23694625.492    97025484.407 4
      2286.306                          41.000          26.000
  24205605.124   127201244.828 7     -3541.788    24205612.039    99117838.792 6
     -2759.833                          39.000          37.000
  24589027.272   129216135.996 5     -3797.388    24589031.257   100687863.678 1
     -2959.055                          30.000           5.000
  24854783.905   130612782.129 6         7.388    24854792.554   101776228.516 5
         5.755                          37.000          31.000
  25222618.118   132545767.947 6      3378.813    25222628.553   103282460.844 5
      2632.840                          36.000          31.000
 23 11  9  8 36 30.0000000  0 10G09G06G04G11G07G20G03G19G26G30
  20263705.091   106486495.502 9      -670.159    20263707.271    82976499.280 9
      -522.202                          51.000          60.000
  20672024.863   108632205.578 9      -710.594    20672028.008    84648468.012 9
      -553.704                          51.000          59.000
  21605234.194   113536263.681 8     -2643.655    21605236.231    88469799.250 7
     -2059.981                          47.000          40.000
  22117366.343   116227530.911 8      1803.457    22117367.379    90566894.206 7
      1405.290                          48.000          39.000
  22983426.316   120778796.582 8      2621.819    22983428.871    94113387.724 8
      2042.973                          46.000          47.000
  23677883.950   124428086.137 7      2931.330    23677884.754    96956933.231 4
      2284.161                          42.000          26.000
  24225837.021   127307563.480 7     -3545.610    24225844.366    99200684.291 6
     -2762.802                          39.000          37.000
  24610714.172   129330104.444 5     -3799.456    24610719.176   100776669.880 1
     -2960.585                          29.000           5.000
  24854794.805   130612842.394 6       -10.688    24854803.275   101776275.519 5
        -8.326                          36.000          31.000
  25203330.402   132444408.701 6      3379.026    25203340.766   103203479.667 5
      2633.002                          37.000          32.000
 23 11  9  8 37  0.0000000  0 10G09G06G04G11G07G20G03G19G26G30
  20267574.753   106506829.806 8      -685.771    20267577.076    82992344.159 9
      -534.366                          50.000          60.000
  20676139.527   108653827.600 9      -731.157    20676142.458    84665316.303 9
      -569.730                          51.000          59.000
  21620354.461   113615720.548 8     -2653.758    21620356.445    88531713.612 7
     -2067.857                          47.000          40.000
  22107116.510   116173666.299 8      1787.233    22107117.386    90524921.761 7
      1392.653                          47.000          40.000
  22968483.542   120700271.916 8      2612.764    22968485.972    94052199.794 8
      2035.921                          46.000          48.000
  23661157.634   124340188.646 7      2928.078    23661158.330    96888441.678 4
      2281.611                          41.000          26.000
  24246089.844   127413994.196 7     -3550.012    24246097.885    99283617.083 6
     -2766.232                          40.000          37.000
  24632410.704   129444121.859 4     -3801.872    24632416.583   100865514.456 1
     -2962.390                          26.000           4.000
  24854909.203   130613441.602 6       -29.483    24854916.850   101776742.512 5
       -22.974                          37.000          31.000
  25184039.612   132343036.941 6      3378.641    25184050.316   103124488.894 5
      2632.710                          36.000          32.000
 23 11  9  8 37 30.0000000  0 10G09G06G04G11G07G20G03G26G30G16
  20271530.561   106527617.832 9      -700.782    20271533.045    83008542.586 9
      -546.061                          51.000          60.000
  20680368.500   108676052.358 9      -751.082    20680371.680    84682634.262 9
      -585.250                          51.000          58.000
  21635529.765   113695467.823 8     -2663.307    21635531.998    88593854.272 7
     -2075.299                          47.000          40.000
  22096956.148   116120274.785 8      1771.571    22096957.292    90483317.963 7
      1380.450                          48.000          40.000
  22953589.962   120622006.819 8      2604.248    22953592.017    93991214.117 8
      2029.287                          46.000          47.000
  23644447.202   124252375.720 7      2925.400    23644448.096    96820016.028 4
      2279.529                          42.000          26.000
  24266365.538   127520542.665 7     -3553.746    24266372.721    99366641.629 6
     -2769.141                          40.000          36.000
  24855126.883   130614587.088 6       -47.515    24855135.478   101777635.242 5
       -37.028                          36.000          29.000
  25164747.697   132241661.591 6      3379.010    25164758.722   103045495.441 5
      2632.984                          36.000          32.000
  25242196.099   132648636.430 6      1833.487    25242204.247   103362605.934 2
      1428.657                          34.000          12.000
 23 11  9  8 38  0.0000000  0 10G09G06G04G11G07G20G03G26G30G16
  20275573.678   106548863.107 9      -715.331    20275575.840    83025097.307 9
      -557.402                          51.000          60.000
  20684713.424   108698884.154 9      -770.780    20684716.587    84700425.232 9
      -600.612                          51.000          58.000
  21650761.320   113775508.002 8     -2672.467    21650763.071    88656223.152 7
     -2082.444                          47.000          40.000
  22086887.740   116067362.979 8      1756.156    22086888.580    90442087.960 7
      1368.428                          47.000          39.000
  22938747.451   120544008.215 8      2595.947    22938749.184    93930436.086 8
      2022.807                          46.000          47.000
  23627753.961   124164652.964 7      2923.090    23627754.783    96751660.627 5
      2277.724                          42.000          27.000
  24286664.141   127627212.556 7     -3557.212    24286670.913    99449760.803 6
     -2771.852                          39.000          36.000
  24855450.330   130616283.962 6       -65.212    24855457.656   101778957.651 5
       -50.821                          36.000          29.000
  25145457.282   132140289.245 6      3379.470    25145467.718   102966504.383 5
      2633.334                          37.000          32.000
  25231765.932   132593819.819 6      1820.964    25231772.990   103319891.710 2
      1418.946                          34.000          13.000
 23 11  9  8 38 30.0000000  0 10G09G06G04G11G07G20G03G26G30G16
  20279699.689   106570544.839 9      -730.654    20279701.637    83041992.124 9
      -569.337                          51.000          59.000
  20689169.923   108722303.262 9      -791.112    20689173.175    84718673.856 9
      -616.450                          51.000          58.000
  21666043.784   113855819.680 8     -2682.238    21666046.053    88718803.593 7
     -2090.050                          47.000          39.000
  22076906.997   116014913.520 8      1739.897    22076908.016    90401218.226 7
      1355.770                          47.000          39.000
  22923952.204   120466258.540 8      2586.747    22923953.848    93869852.022 8
      2015.644                          46.000          47.000
  23611074.836   124077002.498 7      2919.866    23611075.640    96683361.576 5
      2275.229                          42.000          27.000
  24306982.810   127733983.377 7     -3561.406    24306989.600    99532958.619 6
     -2775.111                          39.000          37.000
  24855873.486   130618513.286 6       -83.792    24855881.688   101780695.017 5
       -65.294                          37.000          30.000
  25126163.741   132038902.502 6      3379.144    25126173.694   102887502.133 5
      2633.095                          37.000          31.000
  25221407.492   132539384.002 6      1807.605    25221414.371   103277474.178 2
      1408.564                          33.000          13.000
 23 11  9  8 39  0.0000000  0 10G09G06G04G11G07G20G03G26G30G16
  20283906.521   106592653.942 9      -745.510    20283908.666    83059219.962 9
      -580.916                          51.000          60.000
  20693736.619   108746301.267 8      -810.979    20693739.907    84737373.565 9
      -631.935                          50.000          58.000
  21681376.621   113936392.702 8     -2691.561    21681378.533    88781587.693 7
     -2097.321                          47.000          39.000
  22067012.776   115962920.361 8      1724.057    22067013.920    90360704.060 7
      1343.421                          48.000          40.000
  22909202.987   120388752.092 8      2578.040    22909204.667    93809457.475 8
      2008.857                          46.000          48.000
  23594407.737   123989417.502 7      2916.951    23594409.006    96615113.539 5
      2272.947                          42.000          27.000
  24327317.830   127840845.985 6     -3565.023    24327325.442    99616227.948 6
     -2777.932                          38.000          36.000
  24856397.781   130621267.433 6      -101.951    24856406.216   101782841.332 5
       -79.450                          35.000          30.000
  25106865.821   131937495.260 6      3379.033    25106875.721   102808483.885 5
      2633.001                          38.000          32.000
  25211120.045   132485323.383 6      1794.235    25211127.264   103235349.033 2
      1398.123                          34.000          13.000
 23 11  9  8 39 30.0000000  0 10G09G06G04G11G07G20G03G26G30G16
  20288201.216   106615222.236 9      -760.256    20288203.360    83076805.605 9
      -592.406                          51.000          60.000
  20698419.787   108770910.766 9      -830.846    20698423.021    84756549.764 9
      -647.406                          51.000          59.000
  21696764.566   114017257.967 8     -2700.692    21696767.085    88844599.498 7
     -2104.430                          47.000          40.000
  22057212.314   115911418.458 8      1708.164    22057213.297    90320572.687 7
      1331.038                          48.000          40.000
  22894506.877   120311523.722 8      2569.290    22894508.664    93749279.604 8
      2002.046                          47.000          48.000
  23577760.026   123901932.143 7      2914.175    23577761.099    96546943.131 5
      2270.794                          42.000          27.000
  24347677.026   127947832.307 6     -3568.625    24347683.477    99699593.684 6
     -2780.740                          37.000          34.000
  24857027.986   130624579.777 6      -119.703    24857036.831   101785422.590 5
       -93.282                          35.000          30.000
  25087571.351   131836102.593 6      3378.980    25087580.893   102729476.936 5
      2632.965                          37.000          32.000
  25200910.775   132431673.875 6      1781.061    25200918.209   103193544.182 3
      1387.841                          38.000          17.000
 23 11  9  8 40  0.0000000  0 10G09G06G04G11G07G20G03G26G30G16
  20292579.966   106638231.639 9      -774.897    20292582.182    83094734.976 9
      -603.817                          51.000          60.000
  20703215.797   108796114.485 9      -850.528    20703219.174    84776188.996 9
      -662.754                          51.000          58.000
  21712204.795   114098396.595 8     -2709.639    21712207.047    88907824.312 7
     -2111.412                          47.000          39.000
  22047502.573   115860392.890 8      1692.444    22047503.770    90280812.490 7
      1318.788                          48.000          40.000
  22879860.925   120234558.357 8      2560.583    22879862.677    93689306.672 8
      1995.254                          47.000          48.000
  23561127.844   123814530.712 7      2911.500    23561129.309    96478838.122 5
      2268.685                          42.000          27.000
  24368055.682   128054924.386 7     -3572.055    24368062.722    99783041.829 6
     -2783.416                          39.000          35.000
  24857761.152   130628433.861 6      -138.049    24857769.283   101788426.010 5
      -107.576                          35.000          29.000
  25068276.344   131734709.562 6      3379.251    25068286.083   102650469.645 5
      2633.175                          37.000          32.000
  25190776.931   132378421.137 6      1767.858    25190784.328   103152048.528 2
      1377.561                          36.000          14.000
 23 11  9  8 40 30.0000000  0 10G09G06G04G11G07G20G03G26G30G16
  20297045.953   106661700.249 9      -789.072    20297048.259    83113022.169 9
      -614.860                          51.000          60.000
  20708128.581   108821931.310 9      -869.922    20708131.833    84796305.971 9
      -677.863                          51.000          58.000
  21727700.365   114179825.819 8     -2718.322    21727702.241    88971275.566 7
     -2118.173                          47.000          39.000
  22037887.270   115809865.001 8      1676.765    22037888.681    90241440.104 7
      1306.567                          47.000          40.000
  22865269.153   120157877.795 8      2552.069    22865271.011    93629555.647 8
      1988.621                          46.000          48.000
  23544515.674   123727233.671 7      2909.018    23544517.354    96410814.436 5
      2266.766                          42.000          27.000
  24388458.675   128162140.419 7     -3575.064    24388466.537    99866586.531 6
     -2785.759                          39.000          37.000
  24858601.747   130632849.299 6      -155.694    24858609.770   101791866.801 5
      -121.323                          35.000          31.000
  25048986.126   131633337.668 6      3379.447    25048995.597   102571478.774 6
      2633.326                          37.000          33.000
  25180723.229   132325587.429 6      1754.789    25180730.734   103110879.448 3
      1367.367                          38.000          17.000
 23 11  9  8 41  0.0000000  0 10G09G06G04G11G07G20G03G26G30G16
  20301597.426   106685619.398 9      -803.856    20301599.910    83131660.434 9
      -626.383                          51.000          60.000
  20713156.495   108848353.292 9      -889.837    20713159.836    84816894.501 9
      -693.391                          51.000          58.000
  21743249.739   114261536.096 8     -2727.356    21743251.561    89034945.825 7
     -2125.221                          47.000          39.000
  22028365.725   115759829.222 8      1660.622    22028367.137    90202451.177 7
      1293.987                          48.000          40.000
  22850730.237   120081476.165 8      2542.983    22850732.184    93570021.968 8
      1981.526                          46.000          48.000
  23527922.499   123640034.796 7      2905.889    23527923.643    96342867.238 5
      2264.317                          42.000          27.000
  24408882.968   128269471.904 7     -3578.625    24408891.635    99950221.197 6
     -2788.547                          39.000          36.000
  24859547.143   130637819.031 6      -173.817    24859555.863   101795739.530 5
      -135.455                          36.000          30.000
  25029699.089   131531981.473 7      3379.303    25029708.041   102492500.083 6
      2633.200                          39.000          33.000
  25170747.382   132273167.704 6      1741.145    25170755.334   103070032.928 3
      1356.728                          37.000          16.000
 23 11  9  8 41 30.0000000  0 10G09G06G04G11G07G20G03G26G30G16
  20306231.989   106709972.565 9      -819.710    20306234.026    83150636.895 9
      -638.732                          51.000          60.000
  20718296.930   108875364.641 8      -910.888    20718300.165    84837942.271 9
      -709.775                          50.000          58.000
  21758848.663   114343510.068 8     -2737.564    21758851.058    89098821.563 7
     -2133.160                          47.000          39.000
  22018935.259   115710272.181 8      1643.170    22018936.492    90163835.289 7
      1280.396                          48.000          40.000
  22836242.140   120005340.184 8      2532.725    22836243.713    93510695.280 8
      1973.554                          47.000          48.000
  23511345.264   123552919.837 7      2901.678    23511346.175    96274985.415 5
      2261.057                          43.000          28.000
  24429326.900   128376902.475 6     -3583.383    24429334.601   100033933.073 6
     -2792.233                          38.000          35.000
  24860594.983   130643327.994 6      -193.314    24860603.149   101800032.411 5
      -150.631                          36.000          29.000
  25010411.284   131430627.835 7      3377.688    25010421.040   102413523.368 6
      2631.960                          39.000          34.000
  25160848.390   132221149.066 6      1726.661    25160856.181   103029499.015 2
      1345.426                          35.000          14.000
 23 11  9  8 42  0.0000000  0 10G09G06G04G11G07G20G03G26G30G16
  20310952.038   106734778.919 9      -833.541    20310954.558    83169966.487 9
      -649.510                          51.000          60.000
  20723552.817   108902985.263 9      -929.963    20723556.302    84859464.803 9
      -724.643                          51.000          58.000
  21774501.266   114425766.117 8     -2745.641    21774504.125    89162917.101 7
     -2139.458                          47.000          39.000
  22009600.499   115661216.226 8      1627.680    22009601.553    90125609.854 7
      1268.327                          48.000          40.000
  22821808.562   119929492.527 8      2524.304    22821810.456    93451593.256 8
      1966.991                          47.000          49.000
  23494787.791   123465910.631 7      2899.440    23494788.792    96207185.981 5
      2259.312                          43.000          28.000
  24449792.971   128484451.406 7     -3585.962    24449800.190   100117737.207 6
     -2794.243                          39.000          35.000
  24861749.607   130649396.915 6      -210.798    24861758.256   101804761.587 5
      -164.264                          35.000          30.000
  24991129.053   131329299.332 7      3378.141    24991138.756   102334566.265 6
      2632.313                          39.000          34.000
  25151031.167   132169555.083 6      1713.685    25151038.350   102989295.967 2
      1335.314                          35.000          14.000
 23 11  9  8 42 30.0000000  0 10G09G06G04G11G07G20G03G26G30G16
  20315757.304   106760029.754 9      -848.688    20315759.717    83189642.432 9
      -661.312                          51.000          60.000
  20728923.388   108931207.135 8      -950.358    20728926.783    84881455.841 9
      -740.532                          50.000          58.000
  21790205.868   114508294.627 8     -2755.126    21790208.691    89227224.955 7
     -2146.844                          48.000          39.000
  22000359.712   115612655.750 8      1610.817    22000361.017    90087770.512 7
      1255.185                          48.000          41.000
  22807429.127   119853927.378 8      2514.446    22807430.789    93392711.370 8
      1959.310                          47.000          49.000
  23478249.993   123379000.975 7      2895.619    23478250.636    96139464.116 5
      2256.329                          43.000          29.000
  24470279.698   128592110.165 7     -3590.159    24470288.061   100201626.879 6
     -2797.512                          39.000          36.000
  24863010.231   130656018.568 6      -229.658    24863018.237   101809921.417 5
      -178.949                          36.000          30.000
  24971850.182   131227990.626 7      3377.036    24971860.171   102255624.647 6
      2631.453                          39.000          34.000
  25141292.585   132118380.327 6      1699.164    25141300.126   102949419.630 2
      1324.039                          35.000          13.000
 23 11  9  8 43  0.0000000  0 10G09G06G04G11G07G20G03G26G30G16
  20320645.054   106785714.708 9      -863.988    20320647.305    83209656.650 9
      -673.238                          51.000          60.000
  20734406.265   108960020.611 9      -970.929    20734409.571    84903907.861 9
      -756.564                          51.000          58.000
  21805960.414   114591084.522 8     -2764.663    21805962.987    89291736.470 7
     -2154.271                          47.000          39.000
  21991212.006   115564583.622 8      1593.588    21991213.328    90050311.704 7
      1241.755                          48.000          40.000
  22793102.066   119778637.983 8      2504.371    22793103.638    93334044.340 8
      1951.463                          46.000          49.000
  23461728.848   123292183.006 7      2891.661    23461729.670    96071813.693 5
      2253.248                          43.000          29.000
  24490785.760   128699868.522 6     -3594.268    24490794.784   100285594.128 6
     -2800.708                          38.000          35.000
  24864373.638   130663184.098 6      -248.550    24864381.000   101815504.999 5
      -193.679                          35.000          29.000
  24952574.528   131126694.652 7      3375.668    24952584.159   102176692.984 6
      2630.385                          39.000          35.000
  25131633.002   132067618.419 6      1684.584    25131640.436   102909864.974 2
      1312.644                          35.000          14.000
 23 11  9  8 43 30.0000000  0 10G09G06G04G11G07G20G03G26G30G16
  20325615.662   106811834.154 9      -878.494    20325617.699    83230009.436 9
      -684.539                          51.000          59.000
  20740002.004   108989426.715 9      -990.685    20740005.363    84926821.674 9
      -771.962                          51.000          58.000
  21821764.778   114674135.343 8     -2773.332    21821766.905    89356451.313 6
     -2161.038                          47.000          38.000
  21982157.754   115517003.331 8      1577.112    21982158.826    90013236.144 7
      1228.919                          48.000          40.000
  22778827.933   119703627.876 8      2495.000    22778829.773    93275594.955 8
      1944.155                          47.000          49.000
  23445225.894   123205459.526 7      2888.530    23445226.895    96004236.901 5
      2250.799                          44.000          29.000
  24511311.085   128807727.041 7     -3597.487    24511319.269   100369639.453 6
     -2803.229                          40.000          35.000
  24865841.310   130670895.429 6      -266.659    24865848.654   101821513.872 5
      -207.786                          35.000          29.000
  24933301.446   131025414.985 7      3374.930    24933311.095   102097774.028 6
      2629.806                          40.000          35.000
  25122052.811   132017273.622 6      1670.461    25122059.995   102870635.335 3
      1301.661                          36.000          15.000
 23 11  9  8 44  0.0000000  0 10G09G06G04G11G07G20G03G26G30G16
  20330672.346   106838407.844 9      -893.590    20330674.704    83250716.173 9
      -696.304                          51.000          60.000
  20745714.837   109019445.906 8     -1011.122    20745718.000    84950213.215 9
      -787.886                          50.000          58.000
  21837622.196   114757466.078 8     -2782.570    21837624.340    89421384.267 7
     -2168.231                          47.000          39.000
  21973201.299   115469937.789 8      1560.036    21973202.318    89976561.684 7
      1215.611                          48.000          41.000
  22764611.249   119628919.860 8      2484.935    22764613.411    93217380.948 8
      1936.312                          47.000          49.000
  23428745.366   123118852.885 7      2884.723    23428746.527    95936751.161 5
      2247.841                          43.000          30.000
  24531858.764   128915705.693 7     -3601.567    24531866.519   100453778.406 6
     -2806.403                          40.000          36.000
  24867416.375   130679173.781 6      -285.820    24867424.327   101827964.539 5
      -222.716                          36.000          30.000
  24914036.030   130924174.733 7      3373.759    24914045.447   102018885.756 6
      2628.896                          40.000          36.000
  25112555.837   131967369.732 6      1655.828    25112563.645   102831749.272 3
      1290.265                          37.000          16.000
 23 11  9  8 44 30.0000000  0 10G09G06G04G11G07G20G03G26G30G16
  20335811.244   106865413.379 9      -906.743    20335813.853    83271759.420 9
      -706.554                          51.000          59.000
  20751539.710   109050056.352 8     -1029.519    20751543.016    84974065.474 9
      -802.215                          50.000          58.000
  21853528.557   114841053.551 8     -2789.849    21853530.630    89486517.278 6
     -2173.900                          47.000          38.000
  21964339.407   115423367.699 8      1544.705    21964340.426    89940273.293 7
      1203.668                          48.000          40.000
  22750448.851   119554495.032 8      2476.711    22750450.513    93159387.598 8
      1929.911                          47.000          49.000
  23412282.992   123032343.303 7      2882.698    23412284.225    95869341.053 5
      2246.268                          43.000          30.000
  24552425.348   129023782.203 7     -3603.503    24552433.496   100537993.574 6
     -2807.908                          39.000          36.000
  24869095.152   130687998.169 6      -302.586    24869102.871   101834840.690 5
      -235.778                          37.000          31.000
  24894774.242   130822954.934 7      3374.223    24894783.641   101940013.416 6
      2629.260                          39.000          36.000
  25103139.326   131917887.904 6      1642.985    25103148.171   102793192.133 2
      1280.247                          36.000          14.000
 23 11  9  8 45  0.0000000  0 10G09G06G04G11G07G20G03G26G30G16
  20341035.539   106892865.725 8      -922.008    20341038.023    83293150.831 9
      -718.446                          50.000          59.000
  20757479.981   109081273.677 8     -1050.094    20757483.555    84998390.626 9
      -818.254                          50.000          58.000
  21869486.238   114924911.917 8     -2799.199    21869488.471    89551861.375 7
     -2181.191                          47.000          39.000
  21955575.384   115377311.135 8      1527.187    21955576.224    89904385.045 7
      1190.019                          48.000          40.000
  22736343.598   119480371.543 8      2466.271    22736345.492    93101629.058 8
      1921.769                          47.000          49.000
  23395842.705   122945948.273 7      2878.482    23395844.117    95802020.233 5
      2242.974                          43.000          30.000
  24573012.750   129131971.728 7     -3607.639    24573021.863   100622296.797 6
     -2811.138                          39.000          36.000
  24870881.429   130697384.992 6      -321.798    24870889.291   101842155.092 5
      -250.747                          35.000          31.000
  24875520.477   130721774.020 7      3372.617    24875529.394   101861171.452 6
      2627.997                          39.000          36.000
  25093806.979   131868846.812 6      1627.929    25093815.538   102754978.417 2
      1268.493                          35.000          13.000
 23 11  9  8 45 30.0000000  0 10G09G06G04G11G07G20G03G30G26G16
  20346340.548   106920744.437 9      -936.386    20346343.086    83314874.480 9
      -729.650                          51.000          59.000
  20763532.344   109113078.048 9     -1069.970    20763535.560    85023173.211 9
      -833.740                          51.000          58.000
  21885491.522   115009020.011 8     -2807.713    21885493.684    89617400.062 6
     -2187.823                          47.000          38.000
  21946905.406   115331750.816 8      1510.378    21946906.406    89868883.484 7
      1176.916                          48.000          41.000
  22722292.274   119406531.891 8      2456.530    22722294.311    93044091.695 8
      1914.179                          47.000          49.000
  23379420.983   122859649.957 7      2875.000    23379421.966    95734774.780 5
      2240.261                          43.000          30.000
  24593618.646   129240254.016 6     -3610.862    24593626.901   100706672.302 6
     -2813.650                          38.000          34.000
  24856270.000   130620615.041 7      3371.618    24856279.346   101782346.687 6
      2627.217                          39.000          36.000
  24872771.185   130707315.224 6      -339.869    24872779.351   101849892.903 5
      -264.834                          36.000          31.000
  25084555.471   131820229.768 6      1613.427    25084563.923   102717095.127 3
      1257.213                          36.000          17.000
 23 11  9  8 46  0.0000000  0 10G09G06G04G11G07G20G03G30G26G16
  20351728.309   106949057.041 9      -950.655    20351730.471    83336936.219 9
      -740.771                          51.000          60.000
  20769697.657   109145477.592 9     -1089.595    20769701.267    85048419.564 9
      -849.027                          51.000          59.000
  21901545.659   115093384.622 8     -2816.106    21901547.822    89683138.627 7
     -2194.360                          47.000          39.000
  21938332.063   115286697.393 8      1493.669    21938333.207    89833776.902 7
      1163.901                          49.000          41.000
  22708297.005   119332987.242 8      2446.895    22708299.078    92986784.203 8
      1906.678                          47.000          49.000
  23363019.150   122773458.413 7      2871.575    23363020.187    95667612.539 5
      2237.601                          43.000          30.000
  24614244.037   129348636.844 6     -3614.145    24614251.631   100791126.178 6
     -2816.208                          37.000          34.000
  24837025.866   130519488.874 7      3370.602    24837035.283   101703547.585 6
      2626.433                          40.000          37.000
  24874766.369   130717797.851 6      -358.414    24874774.392   101858061.159 5
      -279.280                          36.000          32.000
  25075388.037   131772048.191 6      1598.982    25075394.916   102679551.165 3
      1245.954                          35.000          16.000
 23 11  9  8 46 30.0000000  0 10G09G06G04G11G07G20G03G30G26G16
  20357199.839   106977809.330 9      -965.328    20357201.698    83359340.570 9
      -752.204                          51.000          60.000
  20775977.743   109178478.669 9     -1109.683    20775981.460    85074134.641 9
      -864.689                          51.000          59.000
  21917649.670   115178010.796 8     -2824.859    21917651.653    89749081.013 6
     -2201.187                          47.000          38.000
  21929856.571   115242159.755 8      1476.328    21929858.143    89799072.229 7
      1150.386                          48.000          41.000
  22694359.721   119259746.318 8      2436.638    22694361.794    92929713.383 8
      1898.677                          47.000          49.000
  23346638.760   122687382.003 7      2867.705    23346640.297    95600540.013 5
      2234.568                          44.000          30.000
  24634888.780   129457126.158 6     -3617.693    24634897.268   100875663.028 6
     -2818.972                          38.000          34.000
  24817790.221   130418404.641 7      3369.233    24817798.923   101624781.215 6
      2625.353                          40.000          37.000
  24876867.462   130728840.007 6      -376.983    24876875.432   101866665.416 5
      -293.751                          35.000          31.000
  25066303.121   131724311.820 6      1584.154    25066310.573   102642354.157 3
      1234.400                          36.000          16.000
 23 11  9  8 47  0.0000000  0 10G09G06G11G04G07G20G03G30G26G16
  20362753.103   107006992.874 9      -980.298    20362755.283    83382080.967 9
      -763.867                          51.000          60.000
  20782370.422   109212073.388 9     -1130.010    20782374.264    85100312.302 9
      -880.526                          51.000          59.000
  21921478.733   115198132.573 8      1458.735    21921480.073    89764765.304 7
      1136.676                          48.000          41.000
  21933801.622   115262889.411 8     -2833.831    21933803.713    89815220.102 6
     -2208.179                          47.000          38.000
  22680479.493   119186803.903 8      2425.983    22680481.441    92872875.170 8
      1890.376                          47.000          49.000
  23330280.062   122601414.816 7      2863.488    23330281.438    95533552.615 5
      2231.286                          43.000          30.000
  24655552.376   129565713.740 7     -3621.640    24655561.578   100960276.434 6
     -2822.052                          39.000          35.000
  24798560.811   130317357.218 7      3367.238    24798569.549   101546043.548 6
      2623.801                          40.000          36.000
  24879073.411   130740434.665 6      -395.831    24879081.845   101875700.155 5
      -308.442                          36.000          31.000
  25057303.352   131677016.117 6      1568.828    25057310.071   102605500.498 3
      1222.468                          35.000          16.000
 23 11  9  8 47 30.0000000  0 10G09G06G11G04G07G20G03G30G26G16
  20368387.456   107036601.432 9      -994.424    20368389.886    83405152.545 9
      -774.876                          51.000          60.000
  20788875.461   109246256.100 9     -1149.633    20788878.874    85126948.136 9
      -895.815                          51.000          59.000
  21913197.156   115154612.760 8      1441.760    21913198.496    89730853.732 7
      1123.450                          49.000          41.000
  21949999.731   115348013.517 8     -2841.980    21950002.304    89881550.483 6
     -2214.525                          47.000          38.000
  22666655.105   119114157.304 8      2416.136    22666657.303    92816267.474 8
      1882.701                          47.000          50.000
  23313941.110   122515553.404 7      2859.816    23313942.629    95466647.646 5
      2228.433                          43.000          30.000
  24676234.001   129674393.552 7     -3624.496    24676243.382   101044961.702 6
     -2824.268                          39.000          35.000
  24779337.727   130216343.755 7      3365.967    24779346.680   101467332.331 6
      2622.812                          39.000          36.000
  24881383.804   130752576.946 6      -414.374    24881391.774   101885161.617 5
      -322.887                          37.000          31.000
  25048386.138   131630158.548 6      1554.237    25048393.286   102568988.287 3
      1211.095                          34.000          15.000
 23 11  9  8 48  0.0000000  0 10G09G06G11G04G07G20G03G30G26G16
  20374102.756   107066635.729 9     -1007.723    20374105.472    83428555.857 9
      -785.239                          51.000          60.000
  20795492.271   109281028.043 9     -1168.388    20795495.755    85154043.109 9
      -910.436                          51.000          59.000
  21905012.982   115111604.111 8      1425.527    21905014.269    89697340.476 7
      1110.799                          49.000          41.000
  21966245.478   115433383.115 8     -2849.281    21966247.855    89948072.143 6
     -2220.227                          47.000          38.000
  22652887.935   119041810.476 8      2407.002    22652890.007    92759893.363 8
      1875.579                          47.000          50.000
  23297623.226   122429801.051 7      2857.055    23297624.334    95399827.649 5
      2226.270                          43.000          30.000
  24696933.155   129783166.606 7     -3626.801    24696942.322   101129719.643 6
     -2826.079                          40.000          35.000
  24760122.345   130115368.302 7      3365.717    24760131.208   101388650.701 6
      2622.615                          39.000          35.000
  24883799.249   130765268.975 6      -431.691    24883807.112   101895051.469 5
      -336.382                          37.000          31.000
  25039553.176   131583743.430 6      1540.081    25039560.914   102532820.795 3
      1200.051                          36.000          17.000
 23 11  9  8 48 30.0000000  0 10G09G06G11G04G07G20G03G30G26G16
  20379897.465   107097086.591 9     -1021.889    20379899.913    83452283.770 9
      -796.277                          51.000          60.000
  20802219.708   109316380.555 9     -1188.007    20802223.192    85181590.466 9
      -925.731                          51.000          59.000
  21896924.909   115069100.545 8      1408.369    21896926.231    89664220.791 7
      1097.423                          49.000          41.000
  21982535.451   115518988.362 8     -2857.370    21982537.971    90014777.433 6
     -2226.528                          47.000          38.000
  22639176.372   118969757.076 8      2396.904    22639178.624    92703747.914 8
      1867.704                          47.000          50.000
  23281324.586   122344151.344 7      2853.374    23281325.640    95333087.646 5
      2223.393                          43.000          31.000
  24717648.374   129892023.926 7     -3630.010    24717657.041   101214543.238 6
     -2828.582                          40.000          36.000
  24740913.377   130014425.193 6      3364.199    24740921.633   101309994.241 6
      2621.428                          38.000          35.000
  24886317.477   130778502.809 6      -450.177    24886325.840   101905363.493 5
      -350.783                          37.000          32.000
  25030804.270   131537765.353 6      1525.333    25030811.757   102496993.914 3
      1188.571                          35.000          16.000
 23 11  9  8 49  0.0000000  0 10G09G06G11G04G07G20G30G03G26G16
  20385777.857   107127987.598 9     -1037.078    20385780.055    83476362.437 9
      -808.113                          51.000          60.000
  20809063.901   109352347.676 9     -1208.726    20809067.654    85209616.745 9
      -941.855                          51.000          59.000
  21888939.904   115027138.719 8      1390.148    21888940.994    89631523.244 7
      1083.235                          48.000          41.000
  21998877.191   115604862.154 8     -2866.446    21998879.550    90081691.983 6
     -2233.584                          46.000          38.000
  22625528.012   118898034.544 8      2385.682    22625529.853    92647860.270 8
      1858.978                          48.000          50.000
  23265052.357   122258640.414 7      2848.472    23265053.215    95266455.775 5
      2219.591                          44.000          31.000
  24721717.383   129913551.298 6      3361.691    24721725.460   101231391.631 6
      2619.496                          38.000          35.000
  24738385.500   130000999.293 7     -3634.022    24738394.381   101299458.809 6
     -2831.682                          39.000          35.000
  24888945.814   130792313.336 6      -469.458    24888954.248   101916124.906 5
      -365.810                          37.000          32.000
  25022145.120   131492261.636 6      1509.493    25022153.001   102461536.646 3
      1176.222                          35.000          15.000
 23 11  9  8 49 30.0000000  0 10G09G06G11G04G07G20G30G03G26G16
  20391741.947   107159329.602 9     -1052.214    20391744.270    83500784.732 9
      -819.903                          51.000          60.000
  20816023.778   109388920.772 8     -1229.291    20816027.388    85238115.204 9
      -957.887                          50.000          59.000
  21881056.877   114985712.541 8      1371.793    21881057.681    89599243.074 7
      1068.935                          49.000          42.000
  22015267.588   115690994.677 8     -2875.520    22015270.465    90148808.125 6
     -2240.665                          46.000          38.000
  22611941.408   118826636.206 8      2374.412    22611943.088    92592225.257 8
      1850.188                          47.000          50.000
  23248804.966   122173261.798 7      2843.615    23248806.127    95199927.008 5
      2215.809                          44.000          30.000
  24702533.271   129812740.981 7      3359.235    24702541.563   101152838.478 6
      2617.578                          39.000          36.000
  24759143.587   130110083.851 6     -3638.097    24759152.682   101384459.452 6
     -2834.867                          38.000          34.000
  24891681.061   130806692.743 6      -488.818    24891690.049   101927329.614 5
      -380.895                          37.000          32.000
  25013574.708   131447226.897 6      1493.275    25013583.071   102426444.838 3
      1163.586                          35.000          16.000
 23 11  9  8 50  0.0000000  0 10G09G06G11G04G07G20G30G03G26G16
  20397785.715   107191089.513 8     -1066.190    20397788.163    83525532.676 9
      -830.794                          50.000          60.000
  20823094.461   109426077.221 9     -1248.909    20823097.928    85267068.229 9
      -973.172                          51.000          59.000
  21873271.808   114944802.013 8      1354.444    21873272.416    89567364.701 7
      1055.415                          49.000          42.000
  22031702.926   115777362.235 8     -2883.467    22031705.624    90216107.422 6
     -2246.856                          46.000          38.000
  22598412.735   118755542.553 8      2364.101    22598414.647    92536827.673 8
      1842.156                          47.000          50.000
  23232579.571   122087995.228 7      2839.671    23232580.393    95133485.534 5
      2212.736                          43.000          30.000
  24683358.219   129711974.602 7      3357.555    24683366.386   101074319.496 6
      2616.272                          39.000          37.000
  24779918.542   130219254.766 7     -3641.248    24779927.494   101469527.403 6
     -2837.327                          39.000          33.000
  24894522.128   130821619.211 6      -507.317    24894530.652   101938960.598 5
      -395.309                          36.000          32.000
  25005090.300   131402641.935 6      1478.055    25005098.430   102391703.499 3
      1151.712                          35.000          15.000
 23 11  9  8 50 30.0000000  0 10G09G06G11G04G07G20G30G03G26G16
  20403906.982   107223256.916 9     -1080.020    20403909.519    83550598.148 9
      -841.572                          51.000          60.000
  20830274.128   109463807.032 9     -1268.282    20830277.755    85296468.028 9
      -988.266                          51.000          59.000
  21865583.750   114904399.782 8      1337.237    21865584.394    89535882.409 7
      1042.008                          48.000          42.000
  22048180.381   115863953.696 8     -2891.071    22048183.669    90283581.183 6
     -2252.781                          46.000          38.000
  22584940.653   118684746.473 8      2353.912    22584942.422    92481661.988 8
      1834.218                          47.000          50.000
  23216373.672   122002833.013 7      2835.989    23216374.744    95067125.369 5
      2209.861                          44.000          30.000
  24664189.886   129611245.211 7      3355.946    24664198.017   100995829.240 6
      2615.022                          40.000          37.000
  24800707.756   130328501.795 7     -3643.811    24800716.548   101554654.688 6
     -2839.326                          39.000          33.000
  24897465.442   130837083.511 6      -525.411    24897473.519   101951010.661 6
      -409.409                          36.000          33.000
  24996690.733   131358499.982 6      1463.011    24996698.006   102357307.316 3
      1140.006                          33.000          16.000
 23 11  9  8 51  0.0000000  0 10G09G06G11G04G07G20G30G03G26G16
  20410111.642   107255862.743 9     -1092.805    20410114.144    83576005.245 9
      -851.536                          51.000          60.000
  20837569.031   109502141.546 9     -1286.677    20837572.516    85326339.024 9
     -1002.605                          51.000          59.000
  21857998.422   114864539.776 8      1320.888    21857999.619    89504822.634 7
      1029.267                          48.000          42.000
  22064706.707   115950799.343 8     -2897.809    22064709.334    90351253.024 6
     -2258.030                          47.000          37.000
  22571532.185   118614282.337 8      2344.532    22571533.579    92426754.943 8
      1826.906                          47.000          50.000
  23200194.147   121917808.902 7      2833.073    23200195.040    95000872.824 5
      2207.591                          44.000          30.000
  24645034.847   129510587.201 7      3355.363    24645043.192   100917394.532 6
      2614.563                          40.000          37.000
  24821516.913   130437856.199 6     -3645.695    24821526.365   101639865.633 6
     -2840.794                          38.000          34.000
  24900517.382   130853117.807 6      -542.738    24900525.173   101963504.878 5
      -422.913                          35.000          31.000
  24988382.799   131314835.659 5      1448.825    24988388.642   102323283.328 2
      1128.969                          30.000          14.000
 23 11  9  8 51 30.0000000  0 10G09G06G11G04G07G20G30G03G26G16
  20416400.020   107288907.728 9     -1108.272    20416402.450    83601754.541 9
      -863.592                          51.000          59.000
  20844979.386   109541081.949 8     -1307.631    20844982.603    85356682.150 9
     -1018.932                          50.000          58.000
  21850517.412   114825225.843 8      1301.816    21850518.538    89474188.369 7
      1014.397                          49.000          42.000
  22081281.477   116037899.336 8     -2907.125    22081284.229    90419123.050 6
     -2265.286                          47.000          38.000
  22558186.884   118544153.830 8      2332.460    22558188.456    92372109.425 8
      1817.497                          47.000          50.000
  23184041.283   121832926.102 7      2827.487    23184042.284    94934730.371 5
      2203.236                          44.000          30.000
  24625894.586   129410004.856 7      3351.862    24625902.931   100839018.731 6
      2611.840                          41.000          37.000
  24842347.655   130547318.878 7     -3650.101    24842357.036   101725160.936 6
     -2844.231                          39.000          34.000
  24903676.697   130869724.056 6      -562.598    24903684.559   101976444.771 5
      -438.390                          35.000          31.000
  24980163.030   131271653.270 6      1432.042    24980170.750   102289634.862 3
      1115.888                          34.000          15.000
 23 11  9  8 52  0.0000000  0 10G09G06G11G04G07G20G30G03G26G16
  20422770.737   107322386.316 8     -1122.532    20422773.382    83627841.713 9
      -874.698                          50.000          60.000
  20852503.567   109580623.061 8     -1327.342    20852507.302    85387493.355 9
     -1034.290                          50.000          59.000
  21843139.632   114786455.418 8      1283.951    21843140.740    89443977.611 7
      1000.486                          49.000          42.000
  22097903.332   116125247.477 8     -2915.065    22097906.262    90487186.425 6
     -2271.478                          46.000          38.000
  22544905.214   118474358.825 8      2321.609    22544906.966    92317723.776 8
      1809.043                          47.000          50.000
  23167915.097   121748181.796 7      2823.153    23167916.277    94868695.856 5
      2199.861                          44.000          31.000
  24606768.871   129309496.185 7      3349.637    24606776.519   100760700.303 6
      2610.105                          40.000          37.000
  24863197.731   130656884.597 6     -3653.123    24863206.755   101810536.545 6
     -2846.576                          38.000          34.000
  24906945.066   130886897.939 6      -581.104    24906953.000   101989826.981 6
      -452.805                          37.000          33.000
  24972037.968   131228951.162 6      1416.105    24972044.508   102256360.572 3
      1103.462                          34.000          16.000
 23 11  9  8 52 30.0000000  0 10G09G06G11G04G07G20G30G03G26G16
  20429223.742   107356298.005 9     -1137.641    20429226.511    83654266.358 9
      -886.469                          51.000          59.000
  20860142.360   109620764.769 9     -1348.139    20860146.095    85418772.558 9
     -1050.492                          51.000          59.000
  21835865.635   114748231.049 8      1264.960    21835866.636    89414192.343 7
       985.689                          49.000          42.000
  22114572.199   116212842.700 8     -2923.990    22114574.558    90555442.351 6
     -2278.427                          46.000          37.000
  22531687.587   118404899.747 8      2309.590    22531689.249    92263599.897 8
      1799.681                          47.000          50.000
  23151815.447   121663578.461 7      2817.631    23151816.787    94802771.175 5
      2195.556                          44.000          31.000
  24587657.075   129209064.207 7      3346.368    24587664.902   100682441.634 6
      2607.563                          40.000          37.000
  24884067.285   130766553.125 6     -3657.290    24884076.416   101895992.252 6
     -2849.826                          37.000          34.000
  24910321.221   130904640.057 6      -600.965    24910329.799   102003651.956 5
      -468.278                          35.000          32.000
  24964003.823   131186732.630 6      1399.071    24964010.130   102223463.104 2
      1090.185                          33.000          14.000
 23 11  9  8 53  0.0000000  0 10G09G06G11G04G07G20G30G03G26G16
  20435759.569   107390642.749 9     -1153.128    20435762.053    83681028.452 9
      -898.540                          51.000          59.000
  20867895.426   109661507.358 8     -1369.168    20867899.160    85450519.982 9
     -1066.876                          50.000          59.000
  21828696.297   114710555.683 8      1245.587    21828697.316    89384834.876 7
       970.592                          49.000          42.000
  22131287.902   116300684.316 8     -2933.192    22131290.993    90623890.265 6
     -2285.592                          46.000          38.000
  22518534.396   118335779.950 8      2297.229    22518536.237    92209740.388 9
      1790.052                          47.000          51.000
  23135743.172   121579118.430 7      2811.871    23135744.405    94736958.173 5
      2191.072                          44.000          31.000
  24568561.076   129108712.430 7      3342.659    24568568.491   100604245.478 6
      2604.668                          40.000          37.000
  24904956.119   130876324.739 6     -3661.845    24904965.804   101981528.294 6
     -2853.376                          37.000          33.000
  24913805.395   130922951.537 6      -620.922    24913814.776   102017920.555 5
      -483.830                          34.000          32.000
  24956062.722   131145000.874 5      1381.948    24956068.529   102190944.949 2
      1076.847                          31.000          13.000
 23 11  9  8 53 30.0000000  0 10G09G06G11G04G07G20G30G26G03G16
  20442380.686   107425436.659 8     -1165.950    20442383.134    83708140.547 9
      -908.531                          50.000          59.000
  20875766.230   109702867.322 8     -1387.643    20875769.625    85482748.480 9
     -1081.277                          50.000          58.000
  21821635.317   114673448.488 8      1228.715    21821636.175    89355920.147 7
       957.444                          48.000          42.000
  22148054.013   116388787.913 8     -2939.836    22148056.711    90692542.323 6
     -2290.774                          46.000          37.000
  22505449.375   118267018.637 8      2287.344    22505451.109    92156160.208 9
      1782.348                          48.000          51.000
  23119701.704   121494820.862 7      2808.445    23119702.811    94671271.747 5
      2188.393                          44.000          30.000
  24549483.303   129008460.541 7      3341.339    24549491.183   100526127.204 6
      2603.640                          39.000          37.000
  24917401.536   130941849.649 6      -638.320    24917410.453   102032646.260 5
      -497.387                          36.000          31.000
  24925867.879   130986215.798 6     -3663.822    24925877.761   102067157.423 6
     -2854.918                          37.000          33.000
  24948217.899   131103776.178 5      1366.867    24948223.689   102158821.839 2
      1065.079                          32.000          14.000
 23 11  9  8 54  0.0000000  0 10G09G06G11G04G07G20G30G26G16G03
  20449070.294   107460590.221 8     -1178.740    20449072.688    83735532.885 9
      -918.500                          50.000          59.000
  20883737.029   109744755.438 8     -1406.076    20883740.603    85515388.529 9
     -1095.644                          50.000          58.000
  21814665.594   114636822.895 8      1211.826    21814666.738    89327380.694 7
       944.280                          49.000          42.000
  22164852.056   116477063.335 8     -2946.355    22164855.219    90761328.276 6
     -2295.858                          46.000          37.000
  22492415.978   118198529.541 8      2277.424    22492417.908    92102792.146 8
      1774.609                          47.000          50.000
  23103675.066   121410599.399 7      2805.114    23103675.817    94605644.624 5
      2185.788                          44.000          30.000
  24530409.050   128908222.527 7      3339.974    24530416.573   100448019.788 6
      2602.567                          39.000          37.000
  24921093.276   130961246.039 6      -655.822    24921101.478   102047760.223 5
      -511.029                          35.000          31.000
  24940452.665   131062972.523 5      1352.218    24940459.312   102127026.884 2
      1053.629                          32.000          14.000
  24946786.126   131096137.078 6     -3665.507    24946795.275   102152810.105 6
     -2856.224                          38.000          33.000
 23 11  9  8 54 30.0000000  0 10G09G06G11G04G07G20G30G26G16G03
  20455834.880   107496138.605 9     -1192.237    20455837.436    83763232.876 9
      -929.012                          51.000          59.000
  20891815.472   109787207.197 8     -1425.049    20891818.974    85548467.780 9
     -1110.426                          50.000          58.000
  21807794.740   114600717.072 8      1194.167    21807795.830    89299246.252 7
       930.525                          49.000          42.000
  22181689.983   116565545.218 8     -2953.471    22181692.699    90830275.105 6
     -2301.402                          46.000          37.000
  22479442.299   118130351.165 8      2266.735    22479443.943    92049666.205 8
      1766.286                          47.000          50.000
  23087670.193   121326491.862 7      2800.961    23087670.980    94540106.275 5
      2182.570                          44.000          31.000
  24511344.125   128808037.110 7      3337.912    24511352.059   100369953.405 6
      2600.966                          39.000          37.000
  24924885.136   130981176.892 6      -673.877    24924894.696   102063290.609 5
      -525.090                          34.000          31.000
  24932776.097   131022628.473 6      1336.278    24932782.333   102095590.021 2
      1041.258                          33.000          14.000
  24967715.576   131206123.967 6     -3667.889    24967725.118   102238513.925 6
     -2858.084                          37.000          33.000
 23 11  9  8 55  0.0000000  0 10G09G06G11G04G07G20G30G16G26G03
  20162883.238   105956667.359 9     -1206.025    20162885.812    82563644.849 9
      -939.757                          51.000          59.000
  20600209.706   108254808.681 8     -1444.619    20600213.405    84354390.974 9
     -1125.677                          50.000          58.000
  21501231.692   112989717.140 8      1176.039    21501232.657    88043921.598 7
       916.392                          48.000          42.000
  21898775.282   115078820.298 8     -2961.057    21898778.409    89671788.058 6
     -2307.312                          46.000          37.000
  22166736.059   116487068.703 8      2255.543    22166737.792    90769186.423 9
      1757.564                          47.000          51.000
  22771894.931   119667082.508 7      2796.333    22771896.021    93247060.015 5
      2178.969                          44.000          31.000
  24192497.499   127132488.806 7      3335.231    24192505.861    99064331.570 6
      2598.870                          39.000          37.000
  24625395.272   129407330.751 6      1320.468    24625401.598   100836916.554 2
      1028.930                          33.000          14.000
  24628989.680   129426228.403 6      -692.442    24628998.025   100851642.280 5
      -539.568                          34.000          31.000
  24688867.632   129740764.839 6     -3670.770    24688877.353   101096675.408 5
     -2860.331                          36.000          32.000
 23 11  9  8 55 30.0000000  0 10G09G06G11G04G07G20G30G16G26G03
  20169799.194   105993009.866 8     -1217.412    20169801.445    82591963.642 9
      -948.629                          50.000          59.000
  20608503.506   108298393.066 8     -1461.595    20608507.366    84388352.794 9
     -1138.903                          50.000          58.000
  21494561.489   112954664.241 8      1160.210    21494562.311    88016607.619 7
       904.063                          49.000          42.000
  21915691.796   115167717.916 8     -2966.052    21915695.192    89741058.838 6
     -2311.206                          46.000          37.000
  22153883.031   116419525.917 8      2246.646    22153884.818    90716555.718 9
      1750.634                          48.000          51.000
  22755935.749   119583215.497 7      2794.228    22755936.875    93181709.098 5
      2177.326                          44.000          31.000
  24173455.607   127032423.604 7      3335.073    24173463.773    98986358.921 6
      2598.753                          39.000          38.000
  24617895.411   129367921.966 5      1306.507    24617902.559   100806208.510 2
      1018.053                          32.000          13.000
  24632987.391   129447236.078 6      -708.825    24632995.254   100868011.735 5
      -552.322                          34.000          31.000
  24709823.297   129850888.435 6     -3671.360    24709833.875   101182485.769 5
     -2860.796                          36.000          32.000
 23 11  9  8 56  0.0000000  0 10G09G06G11G04G07G20G30G16G26G03
  20176788.430   106029738.088 8     -1230.362    20176790.502    82620582.993 9
      -958.722                          50.000          59.000
  20616903.109   108342532.817 8     -1480.258    20616906.718    84422747.370 9
     -1153.445                          50.000          58.000
  21487989.977   112920130.928 8      1142.733    21487991.246    87989698.511 7
       890.441                          49.000          42.000
  21932645.836   115256811.262 8     -2972.715    21932649.035    89810482.130 6
     -2316.390                          46.000          37.000
  22141089.168   116352294.203 8      2236.144    22141090.920    90664167.424 9
      1742.451                          48.000          51.000
  22739997.921   119499461.735 7      2790.143    22739999.368    93116446.430 5
      2174.137                          44.000          32.000
  24154424.400   126932412.487 7      3332.998    24154431.959    98908428.427 7
      2597.134                          40.000          39.000
  24610483.483   129328974.766 6      1290.736    24610490.756   100775860.100 3
      1005.775                          33.000          15.000
  24637085.241   129468772.403 6      -726.273    24637093.693   100884793.140 5
      -565.916                          35.000          32.000
  24730789.950   129961069.464 6     -3673.225    24730800.029   101268340.895 5
     -2862.248                          36.000          32.000
 23 11  9  8 56 30.0000000  0 10G09G06G11G04G07G20G30G16G26G03
  20183857.558   106066887.601 9     -1244.845    20183860.024    82649530.621 9
      -970.006                          51.000          59.000
  20625415.446   108387263.729 8     -1500.357    20625418.842    84457602.592 9
     -1169.103                          50.000          58.000
  21481524.482   112886155.687 8      1123.712    21481526.144    87963224.268 7
       875.621                          49.000          42.000
  21949643.708   115346135.332 8     -2980.775    21949647.300    89880085.204 6
     -2322.671                          46.000          37.000
  22128361.724   116285412.542 8      2224.047    22128363.833    90612051.894 9
      1733.026                          48.000          51.000
  22724088.844   119415859.672 7      2784.670    22724090.416    93051301.961 5
      2169.878                          44.000          32.000
  24135410.348   126832494.518 7      3329.625    24135418.014    98830570.508 7
      2594.509                          40.000          39.000
  24603167.137   129290528.163 6      1273.654    24603174.445   100745901.840 2
       992.463                          33.000          13.000
  24641292.324   129490874.023 6      -745.694    24641299.203   100902015.012 5
      -581.053                          34.000          30.000
  24751774.402   130071343.817 6     -3676.722    24751784.623   101354268.727 5
     -2864.972                          36.000          32.000
 23 11  9  8 57  0.0000000  0 10G09G06G11G04G07G20G30G16G26G03
  20191001.933   106104431.013 9     -1258.061    20191004.560    82678785.192 9
      -980.307                          51.000          59.000
  20634034.605   108432558.610 9     -1519.255    20634038.215    84492897.261 9
     -1183.834                          51.000          58.000
  21475160.912   112852714.056 8      1105.783    21475162.413    87937165.831 7
       861.649                          48.000          42.000
  21966680.410   115435662.290 8     -2987.641    21966683.251    89949846.366 6
     -2328.032                          46.000          36.000
  22115696.929   116218856.667 8      2213.058    22115698.502    90560190.223 9
      1724.458                          48.000          51.000
  22708204.444   119332384.662 8      2780.358    22708205.694    92986256.499 5
      2166.513                          45.000          32.000
  24116409.555   126732645.838 7      3327.081    24116417.024    98752766.561 7
      2592.523                          41.000          39.000
  24595941.815   129252558.607 6      1257.860    24595949.142   100716315.292 2
       980.127                          33.000          13.000
  24645599.759   129513514.569 6      -763.808    24645607.585   100919656.864 5
      -595.171                          35.000          30.000
  24772770.915   130181684.383 6     -3679.182    24772782.012   101440248.167 6
     -2866.895                          37.000          33.000
 23 11  9  8 57 30.0000000  0 10G09G06G11G04G07G20G30G16G26G03
  20198227.576   106142402.224 9     -1273.093    20198230.346    82708373.109 9
      -992.022                          51.000          59.000
  20642767.662   108478451.567 8     -1540.010    20642771.593    84528657.963 9
     -1200.007                          50.000          58.000
  21468905.914   112819842.825 8      1085.873    21468907.022    87911551.853 7
       846.134                          48.000          42.000
  21983761.963   115525425.474 8     -2996.344    21983764.661    90019791.613 6
     -2334.811                          46.000          36.000
  22103100.608   116152663.595 8      2200.024    22103102.217    90508611.247 9
      1714.300                          48.000          51.000
  22692350.475   119249073.089 8      2773.980    22692351.690    92921338.388 5
      2161.544                          45.000          32.000
  24097429.186   126632903.915 7      3322.558    24097436.673    98675045.765 7
      2588.999                          40.000          39.000
  24588815.077   129215103.413 6      1239.478    24588821.117   100687129.543 3
       965.823                          35.000          16.000
  24650017.088   129536728.925 6      -783.729    24650025.594   100937745.870 5
      -610.703                          35.000          30.000
  24793788.335   130292125.407 6     -3683.394    24793798.109   101526305.906 6
     -2870.175                          36.000          33.000
 23 11  9  8 58  0.0000000  0 10G09G06G11G04G07G20G30G16G26G03
  20205528.591   106180769.089 9     -1286.471    20205531.253    82738269.332 9
     -1002.446                          51.000          59.000
  20651608.539   108524910.696 8     -1559.017    20651612.631    84564859.841 9
     -1214.818                          50.000          58.000
  21462753.485   112787512.807 8      1067.681    21462754.682    87886359.601 7
       831.960                          49.000          42.000
  22000882.042   115615392.279 8     -3003.238    22000885.223    90089895.505 6
     -2340.178                          46.000          37.000
  22090567.776   116086804.384 8      2188.768    22090569.652    90457292.418 9
      1705.536                          48.000          52.000
  22676522.523   119165896.612 8      2769.332    22676523.845    92856525.556 5
      2157.924                          45.000          32.000
  24078463.881   126533240.149 7      3319.860    24078471.189    98597385.857 7
      2586.902                          40.000          39.000
  24581779.328   129178134.085 6      1223.440    24581786.351   100658322.366 3
       953.351                          35.000          16.000
  24654538.166   129560485.994 6      -801.891    24654546.528   100956257.759 5
      -624.847                          35.000          31.000
  24814817.316   130402635.042 6     -3685.628    24814827.733   101612417.102 5
     -2871.901                          35.000          32.000
 23 11  9  8 58 30.0000000  0 11G09G06G11G04G07G20G30G16G26G03G29
  20212904.816   106219530.266 9     -1298.172    20212907.229    82768472.807 9
     -1011.566                          51.000          59.000
  20660556.935   108571934.789 8     -1576.483    20660560.973    84601501.946 9
     -1228.433                          50.000          58.000
  21456704.749   112755725.547 8      1050.854    21456706.018    87861590.283 7
       818.842                          49.000          42.000
  22018040.753   115705560.904 8     -3008.620    22018043.541    90160156.670 6
     -2344.380                          46.000          36.000
  22078099.308   116021280.929 8      2178.875    22078100.934    90406235.216 9
      1697.820                          48.000          51.000
  22660720.714   119082856.552 8      2766.106    22660721.571    92791819.017 5
      2155.402                          45.000          32.000
  24059513.817   126433656.831 7      3318.452    24059520.447    98519788.598 6
      2585.799                          40.000          38.000
  24574838.178   129141652.978 6      1208.189    24574843.628   100629895.619 3
       941.439                          36.000          16.000
  24659162.705   129584785.390 6      -819.003    24659170.353   100975192.308 5
      -638.184                          35.000          29.000
  24835860.127   130513212.298 6     -3686.686    24835870.438   101698580.989 5
     -2872.742                          36.000          32.000
  25570886.072   134375916.642 6      1546.477    25570887.448   104708508.434 4
      1205.059                          34.000          24.000
 23 11  9  8 59  0.0000000  0 11G09G06G11G04G07G20G30G16G26G03G29
  20220355.967   106258686.583 9     -1310.942    20220358.486    82798984.184 9
     -1021.512                          51.000          59.000
  20669612.992   108619524.820 8     -1594.973    20669616.744    84638585.041 9
     -1242.839                          50.000          58.000
  21450759.904   112724484.743 8      1033.035    21450761.351    87837246.783 7
       804.960                          48.000          42.000
  22035237.883   115795931.668 8     -3014.850    22035241.010    90230575.324 6
     -2349.238                          46.000          36.000
  22065695.275   115956097.270 8      2167.942    22065696.884    90355442.785 9
      1689.299                          48.000          52.000
  22644945.601   118999956.559 8      2761.780    22644946.333    92727221.627 5
      2152.029                          45.000          32.000
  24040579.336   126334158.356 7      3315.969    24040586.144    98442257.431 6
      2583.863                          40.000          38.000
  24567989.517   129105664.063 6      1192.263    24567994.914   100601852.334 3
       929.015                          36.000          16.000
  24663890.151   129609628.870 6      -836.332    24663897.495   100994550.868 5
      -651.686                          37.000          30.000
  24856915.483   130623858.255 6     -3688.461    24856925.632   101784798.433 5
     -2874.128                          37.000          32.000
  25562104.019   134329770.128 6      1531.214    25562106.861   104672550.041 5
      1193.159                          35.000          28.000
 23 11  9  8 59 30.0000000  0 11G09G06G11G04G07G20G30G16G26G03G29
  20227883.650   106298244.852 9     -1327.296    20227886.169    82829808.773 9
     -1034.249                          51.000          59.000
  20678778.299   108667687.728 8     -1616.912    20678781.784    84676114.538 9
     -1259.928                          50.000          57.000
  21444920.718   112693800.055 8      1011.584    21444922.380    87813336.620 7
       788.250                          48.000          42.000
  22052474.700   115886510.910 8     -3024.704    22052477.345    90301156.445 6
     -2356.910                          46.000          36.000
  22053357.912   115891263.323 8      2153.298    22053359.395    90304922.854 9
      1677.897                          48.000          52.000
  22629198.739   118917206.305 8      2753.868    22629199.221    92662740.910 5
      2145.872                          45.000          32.000
  24021663.349   126234755.128 7      3309.968    24021670.157    98364800.489 6
      2579.195                          41.000          38.000
  24561236.581   129070177.819 6      1172.601    24561242.424   100574200.754 3
       913.703                          36.000          16.000
  24668722.203   129635024.206 6      -857.710    24668730.530   101014339.490 5
      -668.347                          36.000          30.000
  24877985.634   130734580.088 6     -3694.046    24877995.301   101871074.994 6
     -2878.467                          37.000          33.000
  25553412.652   134284099.955 6      1512.610    25553415.582   104636962.844 5
      1178.671                          33.000          28.000
                            4  1
RINEX FILE SPLICE; other post-header comments skipped       COMMENT
 23 11  9  9  0  0.0000000  0 11G09G06G11G07G04G20G30G16G26G03G29
  20235492.316   106338227.985 9     -1338.530    20235494.692    82860964.426 9
     -1043.010                          51.000          59.000
  20688056.700   108716446.573 8     -1633.848    20688060.399    84714108.393 9
     -1273.121                          50.000          57.000
  21439192.553   112663697.292 8       995.068    21439193.821    87789879.894 7
       775.383                          49.000          42.000
  22041091.918   115826805.252 8      2143.649    22041093.294    90254695.809 9
      1670.383                          48.000          51.000
  22069754.974   115977321.093 8     -3029.475    22069758.155    90371917.510 6
     -2360.622                          46.000          36.000
  22613484.934   118834631.363 8      2750.901    22613485.542    92598396.793 5
      2143.570                          45.000          32.000
  24002770.753   126135473.761 7      3308.673    24002777.686    98287438.491 7
      2578.191                          41.000          39.000
  24554583.390   129035220.507 6      1157.704    24554589.984   100546961.212 3
       902.134                          37.000          16.000
  24673664.006   129660995.213 6      -873.948    24673672.566   101034576.700 5
      -681.001                          36.000          30.000
  24899074.530   130845401.003 6     -3694.417    24899084.429   101957428.766 6
     -2878.754                          37.000          33.000
  25544818.241   134238931.965 6      1498.556    25544820.064   104601766.933 4
      1167.712                          35.000          25.000
 23 11  9  9  0 30.0000000  0 11G09G06G11G07G04G20G30G16G26G03G29
  20243172.404   106378587.755 9     -1351.370    20243174.923    82892413.568 9
     -1053.015                          51.000          59.000
  20697439.635   108765753.235 8     -1652.420    20697443.173    84752529.121 9
     -1287.595                          50.000          57.000
  21433565.972   112634131.028 8       976.844    21433567.295    87766841.217 7
       761.177                          49.000          42.000
  22028888.876   115762678.008 8      2132.262    22028890.342    90204726.549 9
      1661.504                          48.000          52.000
  22087070.594   116068313.570 8     -3035.843    22087073.274    90442820.626 6
     -2365.582                          46.000          36.000
  22597796.129   118752186.682 8      2746.256    22597796.736    92534154.179 5
      2139.945                          45.000          32.000
  23983892.559   126036269.567 7      3305.747    23983900.028    98210136.640 7
      2575.905                          41.000          39.000
  24548023.493   129000747.628 6      1141.236    24548030.069   100520099.137 2
       889.286                          36.000          14.000
  24678706.895   129687494.521 6      -891.970    24678715.633   101055225.651 5
      -695.047                          37.000          30.000
  24920172.360   130956273.082 6     -3696.376    24920182.831   102043822.388 6
     -2880.290                          37.000          33.000
  25536309.817   134194221.300 6      1482.967    25536312.336   104566927.399 5
      1155.558                          36.000          29.000
 23 11  9  9  1  0.0000000  0 11G09G06G11G07G04G20G30G16G26G03G29
  20250927.417   106419340.682 9     -1364.653    20250930.222    82924169.064 9
     -1063.365                          51.000          59.000
  20706929.837   108815624.280 8     -1671.475    20706933.447    84791389.630 9
     -1302.446                          50.000          57.000
  21428045.624   112605120.636 8       958.065    21428046.821    87744235.686 7
       746.546                          48.000          42.000
  22016752.540   115698901.281 8      2120.325    22016753.862    90155030.416 9
      1652.203                          48.000          51.000
  22104423.792   116159504.398 8     -3042.680    22104426.865    90513878.305 6
     -2370.909                          46.000          36.000
  22582136.235   118669892.386 8      2740.905    22582136.646    92470028.756 5
      2135.767                          45.000          32.000
  23965033.306   125937162.704 7      3302.200    23965040.561    98132910.643 7
      2573.142                          42.000          40.000
  24541560.678   128966779.944 6      1123.892    24541566.057   100493630.672 3
       875.752                          35.000          15.000
  24683853.334   129714539.515 6      -910.193    24683861.911   101076299.846 5
      -709.246                          35.000          30.000
  24941283.557   131067213.218 6     -3698.913    24941293.796   102130269.023 5
     -2882.257                          35.000          31.000
  25527892.846   134149987.469 6      1466.801    25527895.508   104532459.369 5
      1142.968                          36.000          30.000
 23 11  9  9  1 30.0000000  0 11G09G06G11G07G04G20G30G16G26G03G29
  20258757.623   106460487.970 9     -1377.959    20258760.553    82956231.851 9
     -1073.734                          51.000          59.000
  20716527.772   108866061.010 8     -1690.530    20716531.417    84830690.928 9
     -1317.289                          50.000          57.000
  21422631.614   112576670.152 8       939.127    21422633.204    87722066.452 7
       731.793                          49.000          42.000
  22004683.426   115635479.415 8      2108.256    22004685.035    90105610.805 9
      1642.801                          48.000          52.000
  22121814.532   116250894.376 8     -3049.485    22121818.035    90585091.151 6
     -2376.215                          46.000          36.000
  22566505.772   118587752.309 8      2735.560    22566506.254    92406023.506 5
      2131.610                          45.000          32.000
  23946193.281   125838158.041 7      3298.552    23946200.428    98055764.304 7
      2570.303                          42.000          41.000
  24535193.106   128933320.500 6      1107.141    24535199.253   100467558.216 3
       862.704                          36.000          15.000
  24689104.558   129742132.289 6      -928.730    24689113.010   101097800.885 5
      -723.686                          37.000          32.000
  24962407.779   131178222.876 6     -3701.230    24962418.697   102216769.816 5
     -2884.065                          35.000          30.000
  25519567.382   134106234.532 6      1450.470    25519569.794   104498366.098 5
      1130.234                          35.000          28.000
 23 11  9  9  2  0.0000000  0 11G09G06G11G07G04G20G30G16G26G03G29
  20266667.489   106502054.810 8     -1391.660    20266670.276    82988621.565 9
     -1084.408                          50.000          59.000
  20726237.960   108917088.635 8     -1709.979    20726241.927    84870452.661 9
     -1332.451                          50.000          58.000
  21417329.571   112548807.520 8       919.759    21417331.322    87700355.292 7
       716.700                          49.000          43.000
  21992687.683   115572440.760 8      2095.678    21992689.309    90056489.798 9
      1632.993                          48.000          52.000
  22139248.552   116342508.269 8     -3056.673    22139251.697    90656478.488 6
     -2381.818                          45.000          35.000
  22550909.474   118505794.447 8      2729.703    22550910.225    92342160.250 5
      2127.033                          45.000          32.000
  23927378.146   125739284.340 7      3294.255    23927385.008    97978720.033 7
      2566.945                          41.000          41.000
  24528929.209   128900398.856 6      1089.220    24528934.713   100441904.829 3
       848.727                          37.000          17.000
  24694464.460   129770298.792 6      -947.630    24694472.966   101119748.978 5
      -738.420                          36.000          32.000
  24983551.051   131289327.717 6     -3704.250    24983561.915   102303344.719 5
     -2886.417                          36.000          30.000
  25511338.000   134062990.757 6      1433.761    25511340.377   104464669.597 4
      1117.217                          35.000          26.000
 23 11  9  9  2 30.0000000  0 11G09G06G11G07G04G20G30G16G26G03G29
  20274654.674   106544028.518 9     -1405.638    20274657.265    83021328.322 9
     -1095.304                          51.000          59.000
  20736057.989   108968694.512 9     -1729.634    20736062.063    84910664.982 9
     -1347.763                          51.000          57.000
  21412137.458   112521522.902 8       900.033    21412139.120    87679094.530 7
       701.327                          49.000          42.000
  21980762.862   115509775.655 8      2082.763    21980764.613    90007659.876 9
      1622.933                          48.000          52.000
  22156721.990   116434332.974 8     -3064.156    22156725.225    90728030.103 6
     -2387.645                          46.000          35.000
  22535346.216   118424009.166 8      2723.523    22535347.003    92278431.476 6
      2122.234                          45.000          33.000
  23908586.367   125640532.518 7      3289.848    23908592.854    97901770.746 7
      2563.518                          41.000          41.000
  24522763.967   128868005.647 6      1071.032    24522770.990   100416663.226 3
       834.566                          38.000          16.000
  24699930.791   129799027.074 6      -967.069    24699939.636   101142134.838 5
      -753.568                          37.000          32.000
  25004709.082   131400515.314 6     -3707.300    25004720.840   102389984.085 5
     -2888.799                          35.000          31.000
  25503204.485   134020246.651 6      1416.484    25503206.380   104431362.458 4
      1103.759                          35.000          26.000
 23 11  9  9  3  0.0000000  0 11G09G06G11G07G04G20G30G16G26G03G29
  20282720.912   106586415.451 9     -1419.480    20282723.181    83054357.068 9
     -1106.086                          51.000          58.000
  20745989.609   109020885.024 8     -1749.159    20745993.666    84951332.858 9
     -1362.979                          50.000          57.000
  21407057.420   112494825.396 8       880.303    21407058.188    87658291.253 7
       685.951                          48.000          42.000
  21968911.108   115447493.669 8      2069.855    21968912.591    89959128.506 9
      1612.872                          48.000          52.000
  22174237.314   116526374.440 8     -3071.470    22174240.298    90799750.618 6
     -2393.355                          46.000          36.000
  22519817.732   118342405.679 8      2717.192    22519818.303    92214844.360 6
      2117.291                          45.000          33.000
  23889819.193   125541912.597 7      3285.299    23889825.930    97824924.256 7
      2559.965                          41.000          41.000
  24516702.455   128836151.758 6      1052.936    24516709.853   100391841.926 3
       820.473                          37.000          18.000
  24705505.372   129828324.258 6      -985.820    24705514.128   101164963.993 5
      -768.177                          37.000          32.000
  25025884.767   131511792.301 6     -3710.632    25025896.615   102476693.085 5
     -2891.391                          36.000          31.000
  25495167.249   133978011.590 6      1399.522    25495169.340   104398451.977 5
      1090.540                          36.000          28.000
 23 11  9  9  3 30.0000000  0 11G09G06G11G07G04G20G30G16G26G03G29
  20290858.786   106629180.518 9     -1431.426    20290861.377    83087680.466 9
     -1115.396                          51.000          59.000
  20756025.907   109073625.052 8     -1766.780    20756029.731    84992428.923 9
     -1376.707                          50.000          57.000
  21402082.505   112468682.656 8       862.528    21402083.452    87637920.262 7
       672.102                          48.000          42.000
  21957126.219   115385562.778 8      2058.845    21957127.577    89910870.701 9
      1604.298                          48.000          52.000
  22191786.767   116618597.222 8     -3076.715    22191789.948    90871612.408 6
     -2397.436                          45.000          35.000
  22504317.605   118260952.167 8      2712.840    22504318.070    92151374.092 5
      2113.901                          45.000          32.000
  23871070.997   125443393.077 7      3282.680    23871078.109    97748156.016 7
      2557.931                          42.000          41.000
  24510738.025   128804804.131 6      1036.904    24510745.137   100367415.209 3
       807.984                          38.000          18.000
  24711182.540   129858156.072 6     -1003.046    24711190.009   101188209.707 5
      -781.596                          37.000          31.000
  25047070.942   131623124.006 6     -3711.598    25047082.128   102563444.669 5
     -2892.125                          35.000          30.000
  25487221.020   133936253.309 6      1384.349    25487223.450   104365912.982 5
      1078.714                          37.000          31.000
 23 11  9  9  4  0.0000000  0 11G09G06G11G07G04G20G30G16G26G03G29
  20299075.464   106672359.970 9     -1446.809    20299078.233    83121326.756 9
     -1127.380                          51.000          59.000
  20766173.457   109126950.838 8     -1787.862    20766177.120    85033981.433 9
     -1393.134                          50.000          57.000
  21397220.648   112443133.699 8       841.204    21397222.042    87618011.965 7
       655.487                          49.000          43.000
  21945415.290   115324022.558 8      2044.219    21945416.773    89862917.308 9
      1592.900                          48.000          52.000
  22209377.534   116711037.192 8     -3085.541    22209380.554    90943643.437 6
     -2404.317                          45.000          35.000
  22488853.342   118179687.615 8      2705.077    22488853.806    92088051.061 6
      2107.856                          45.000          33.000
  23852350.104   125345013.837 7      3276.340    23852356.912    97671497.087 7
      2552.986                          42.000          41.000
  24504876.182   128774002.494 6      1017.084    24504882.972   100343414.008 3
       792.523                          38.000          19.000
  24716967.618   129888559.446 6     -1023.462    24716975.623   101211900.737 5
      -797.506                          37.000          32.000
  25068274.271   131734546.994 6     -3716.045    25068284.778   102650267.340 5
     -2895.583                          35.000          30.000
  25479373.642   133895011.453 6      1365.527    25479375.214   104333776.411 5
      1064.053                          38.000          31.000
 23 11  9  9  4 30.0000000  0 11G09G06G11G07G04G20G30G16G26G03G29
  20307365.547   106715923.946 9     -1458.927    20307368.084    83155272.677 9
     -1136.829                          51.000          58.000
  20776426.953   109180832.484 8     -1805.666    20776430.812    85075967.074 9
     -1407.017                          50.000          57.000
  21392466.666   112418151.378 8       822.888    21392468.399    87598545.212 7
       641.207                          49.000          43.000
  21933773.675   115262846.037 8      2032.720    21933775.659    89815247.333 9
      1583.926                          48.000          52.000
  22227003.609   116803664.087 8     -3091.070    22227007.040    91015820.123 6
     -2408.626                          45.000          35.000
  22473420.009   118098585.606 8      2700.251    22473420.706    92024854.689 6
      2104.087                          45.000          33.000
  23833650.779   125246748.649 7      3273.205    23833657.176    97594927.003 7
      2550.535                          42.000          40.000
  24499114.101   128743720.955 6      1000.429    24499120.426   100319818.148 3
       779.550                          37.000          19.000
  24722855.711   129919505.273 6     -1040.868    24722863.895   101236014.426 5
      -811.066                          37.000          30.000
  25089489.715   131846031.781 6     -3717.453    25089499.597   102737138.133 5
     -2896.708                          36.000          30.000
  25471618.432   133854258.816 6      1349.830    25471620.487   104302021.025 5
      1051.823                          37.000          30.000
 23 11  9  9  5  0.0000000  0 11G09G06G11G07G04G20G30G16G26G03G29
  20315732.645   106759892.506 9     -1472.110    20315735.004    83189533.856 9
     -1147.098                          51.000          58.000
  20786789.914   109235289.996 8     -1824.668    20786793.648    85118401.441 9
     -1421.819                          50.000          57.000
  21387824.740   112393758.470 8       803.442    21387826.491    87579537.743 7
       626.057                          48.000          42.000
  21922205.949   115202056.764 8      2020.109    21922207.486    89767879.100 9
      1574.109                          48.000          52.000
  22244669.283   116896497.613 8     -3097.675    22244672.910    91088157.820 6
     -2413.768                          45.000          35.000
  22458022.326   118017669.314 8      2694.295    22458022.987    91961803.038 6
      2099.452                          45.000          33.000
  23814977.310   125148621.237 7      3268.906    23814983.707    97518464.272 7
      2547.192                          43.000          41.000
  24493455.196   128713982.923 6       982.249    24493461.754   100296645.853 3
       765.373                          37.000          19.000
  24728851.698   129951014.354 6     -1059.514    24728859.506   101260566.946 5
      -825.594                          37.000          30.000
  25110721.153   131957598.823 6     -3720.221    25110731.266   102824073.002 5
     -2898.857                          36.000          30.000
  25463960.609   133814018.481 6      1332.968    25463962.932   104270664.810 5
      1038.672                          37.000          30.000
 23 11  9  9  5 30.0000000  0 11G09G06G11G07G04G20G30G16G26G03G29
  20324170.433   106804233.178 9     -1485.208    20324172.864    83224084.995 9
     -1157.306                          51.000          58.000
  20797256.194   109290290.794 8     -1843.399    20797259.928    85161259.158 9
     -1436.417                          50.000          57.000
  21383289.618   112369925.188 8       784.099    21383290.922    87560966.347 7
       610.984                          48.000          42.000
  21910705.964   115141624.930 8      2007.396    21910707.644    89720789.394 9
      1564.202                          48.000          52.000
  22262368.229   116989504.959 8     -3104.146    22262371.892    91160630.962 6
     -2418.819                          45.000          35.000
  22442654.305   117936908.960 8      2688.323    22442654.680    91898872.894 6
      2094.790                          45.000          33.000
  23796325.017   125050602.766 7      3264.367    23796331.396    97442086.428 7
      2543.653                          43.000          41.000
  24487892.962   128684759.320 6       964.585    24487899.305   100273874.480 3
       751.625                          38.000          19.000
  24734949.037   129983054.824 6     -1077.866    24734956.739   101285533.492 5
      -839.892                          37.000          30.000
  25131960.863   132069215.950 6     -3722.411    25131971.870   102911046.845 5
     -2900.560                          36.000          29.000
  25456396.026   133774260.717 6      1316.249    25456397.295   104239684.697 5
      1025.637                          35.000          28.000
 23 11  9  9  6  0.0000000  0 11G09G06G11G07G04G20G30G16G26G03G29
  20332682.825   106848966.937 9     -1497.079    20332685.595    83258942.426 9
     -1166.555                          51.000          58.000
  20807829.956   109345855.804 8     -1860.938    20807833.815    85204556.507 9
     -1450.083                          50.000          57.000
  21378865.284   112346675.219 8       765.822    21378866.302    87542849.470 7
       596.746                          49.000          42.000
  21899278.992   115081574.809 8      1995.862    21899280.314    89673997.128 9
      1555.215                          48.000          52.000
  22280104.002   117082706.782 8     -3109.409    22280107.487    91233255.652 6
     -2422.917                          45.000          35.000
  22427320.289   117856328.765 8      2683.544    22427321.021    91836083.137 6
      2091.069                          45.000          33.000
  23777698.043   124952717.842 7      3261.168    23777704.744    97365812.637 7
      2541.158                          42.000          40.000
  24482434.226   128656073.790 6       947.618    24482440.855   100251522.363 3
       738.407                          37.000          18.000
  24741151.536   130015648.418 6     -1095.185    24741159.934   101310931.006 5
      -853.385                          37.000          31.000
  25153215.172   132180904.567 6     -3723.626    25153225.769   102998076.380 5
     -2901.506                          36.000          28.000
  25448925.720   133735009.426 6      1300.573    25448927.971   104209099.205 5
      1013.430                          35.000          29.000
 23 11  9  9  6 30.0000000  0 11G09G06G11G07G04G20G30G16G26G03G29
  20341264.048   106894061.257 9     -1509.271    20341266.782    83294080.814 9
     -1176.060                          51.000          58.000
  20818504.999   109401952.343 8     -1878.783    20818508.573    85248268.034 9
     -1463.990                          50.000          57.000
  21374545.948   112323978.645 8       747.227    21374547.270    87525163.801 7
       582.251                          50.000          43.000
  21887918.546   115021876.842 8      1983.908    21887920.279    89627479.271 9
      1545.894                          49.000          53.000
  22297870.761   117176070.165 8     -3114.925    22297874.156    91306006.223 6
     -2427.216                          45.000          35.000
  22412015.024   117775899.408 8      2678.273    22412016.025    91773410.908 6
      2086.957                          46.000          34.000
  23759090.905   124854937.569 7      3257.456    23759098.034    97289620.406 7
      2538.261                          42.000          41.000
  24477071.946   128627897.255 6       930.439    24477078.826   100229566.930 3
       724.999                          38.000          18.000
  24747453.315   130048763.284 6     -1112.679    24747461.874   101336734.672 5
      -867.020                          36.000          31.000
  25174477.237   132292632.499 6     -3725.062    25174487.940   103085136.532 5
     -2902.630                          35.000          27.000
  25441548.101   133696235.247 6      1284.296    25441549.888   104178885.512 5
      1000.750                          34.000          28.000
 23 11  9  9  7  0.0000000  0 11G09G06G11G07G04G20G30G16G26G03G29
  20349916.586   106939530.043 9     -1521.871    20349919.195    83329510.986 9
     -1185.876                          51.000          58.000
  20829283.576   109458594.249 8     -1897.148    20829287.436    85292404.518 9
     -1478.301                          50.000          57.000
  21370335.470   112301852.044 8       728.014    21370337.221    87507922.273 7
       567.278                          48.000          43.000
  21876628.558   114962548.205 8      1971.418    21876630.291    89581249.200 9
      1536.163                          49.000          53.000
  22315670.452   117269608.730 8     -3120.881    22315673.776    91378893.312 6
     -2431.860                          45.000          35.000
  22396741.548   117695637.774 8      2672.549    22396742.567    91710869.371 6
      2082.498                          46.000          34.000
  23740506.942   124757279.521 7      3253.160    23740514.161    97213523.405 7
      2534.917                          42.000          41.000
  24471810.073   128600247.083 6       912.753    24471816.613   100208021.620 3
       711.220                          36.000          17.000
  24753857.144   130082413.945 6     -1130.658    24753865.578   101362955.820 5
      -881.032                          36.000          30.000
  25195748.307   132404414.073 6     -3726.900    25195760.101   103172238.456 5
     -2904.075                          35.000          27.000
  25434263.186   133657955.065 6      1267.828    25434265.312   104149056.746 5
       987.907                          34.000          28.000
 23 11  9  9  7 30.0000000  0 11G09G06G11G07G04G20G30G16G26G03G29
  20358640.672   106985375.928 9     -1534.822    20358643.335    83365235.002 9
     -1195.962                          51.000          58.000
  20840166.186   109515783.987 8     -1915.830    20840170.546    85336967.881 9
     -1492.849                          50.000          57.000
  21366234.797   112280300.683 8       708.421    21366236.620    87491128.989 7
       552.021                          48.000          42.000
  21865410.153   114903594.443 8      1958.463    21865411.707    89535311.243 9
      1526.077                          49.000          52.000
  22333504.309   117363324.748 8     -3127.161    22333507.936    91451918.668 6
     -2436.744                          45.000          35.000
  22381501.505   117615549.637 8      2666.347    22381502.238    91648463.032 6
      2077.678                          46.000          34.000
  23721947.335   124659750.017 7      3248.446    23721954.697    97137526.572 7
      2531.255                          42.000          41.000
  24466650.053   128573129.457 6       894.790    24466656.093   100186891.264 3
       697.232                          37.000          18.000
  24760363.130   130116603.714 6     -1149.085    24760371.600   101389597.036 5
      -895.390                          37.000          30.000
  25217030.707   132516252.294 6     -3729.228    25217042.876   103259384.539 5
     -2905.863                          34.000          27.000
  25427073.620   133620174.344 6      1250.740    25427075.961   104119617.163 5
       974.613                          36.000          29.000
 23 11  9  9  8  0.0000000  0 11G09G06G11G07G04G20G30G16G26G03G29
  20367437.789   107031605.343 9     -1548.098    20367440.701    83401257.868 9
     -1206.307                          51.000          58.000
  20851154.403   109573527.817 8     -1934.751    20851158.923    85381963.005 9
     -1507.601                          50.000          57.000
  21362244.751   112259333.621 8       688.398    21362246.467    87474791.002 7
       536.416                          49.000          43.000
  21854264.707   114845025.130 8      1945.134    21854266.226    89489672.850 9
      1515.683                          49.000          53.000
  22351372.617   117457224.372 8     -3133.752    22351376.566    91525087.084 6
     -2441.894                          45.000          34.000
  22366295.878   117535644.480 8      2659.696    22366296.932    91586199.281 6
      2072.480                          46.000          34.000
  23703414.656   124562359.169 7      3243.253    23703421.768    97061637.762 7
      2527.200                          42.000          42.000
  24461592.655   128546553.549 6       876.056    24461598.820   100166183.052 3
       682.634                          34.000          17.000
  24766973.596   130151339.613 6     -1167.693    24766982.281   101416663.806 5
      -909.882                          37.000          30.000
  25238325.972   132628154.007 6     -3731.718    25238337.801   103346580.073 4
     -2907.808                          33.000          25.000
  25419981.298   133582902.324 6      1233.163    25419983.121   104090573.939 5
       960.898                          36.000          28.000
 23 11  9  9  8 30.0000000  0 11G09G06G11G07G20G04G30G16G26G03G29
  20376312.564   107078241.877 8     -1560.886    20376315.423    83437597.972 9
     -1216.278                          50.000          58.000
  20862252.835   109631849.134 8     -1953.275    20862256.945    85427408.118 9
     -1522.033                          49.000          57.000
  21358370.890   112238977.003 8       668.735    21358372.123    87458928.670 7
       521.091                          49.000          43.000
  21843197.742   114786866.868 8      1932.097    21843198.832    89444354.758 9
      1505.526                          49.000          53.000
  22351130.670   117455948.779 8      2653.423    22351131.099    91524098.739 6
      2067.603                          46.000          34.000
  22369280.862   117551330.897 8     -3139.940    22369284.597    91598416.728 6
     -2446.702                          45.000          35.000
  23684913.231   124465134.176 7      3238.454    23684920.521    96985878.185 7
      2523.460                          42.000          42.000
  24456642.971   128520546.354 6       857.706    24456649.529   100145917.964 3
       668.352                          36.000          17.000
  24773692.563   130186645.805 6     -1186.048    24773700.944   101444174.966 5
      -924.191                          36.000          30.000
  25259637.123   132740143.149 6     -3734.186    25259649.166   103433843.772 4
     -2909.740                          34.000          26.000
  25412991.079   133546165.510 6      1215.985    25412992.455   104061947.747 5
       947.519                          35.000          28.000
 23 11  9  9  9  0.0000000  0 11G09G06G11G07G20G04G30G16G26G03G29
  20385259.638   107125259.209 8     -1572.696    20385262.604    83474234.804 9
     -1225.479                          50.000          59.000
  20873456.069   109690721.400 8     -1970.664    20873459.804    85473282.543 9
     -1535.575                          49.000          57.000
  21354609.032   112219207.099 8       650.097    21354609.872    87443523.520 7
       506.567                          48.000          43.000
  21832204.344   114729096.664 8      1920.074    21832205.702    89399339.051 9
      1496.166                          48.000          53.000
  22336000.432   117376439.673 8      2647.997    22336001.237    91462143.598 6
      2063.383                          46.000          35.000
  22387222.880   117645617.680 8     -3144.970    22387226.436    91671886.836 6
     -2450.617                          45.000          35.000
  23666438.913   124368052.393 7      3234.520    23666446.132    96910230.190 7
      2520.408                          43.000          42.000
  24451798.340   128495084.703 6       840.504    24451803.629   100126077.965 3
       654.923                          35.000          18.000
  24780514.974   130222496.592 6     -1203.283    24780522.962   101472110.496 5
      -937.620                          35.000          31.000
  25280960.281   132852193.873 5     -3735.233    25280971.610   103521155.483 4
     -2910.548                          32.000          24.000
  25406097.389   133509940.642 6      1199.755    25406099.587   104033720.475 5
       934.886                          36.000          29.000
 23 11  9  9  9 30.0000000  0 11G09G06G11G07G20G04G30G16G26G03G29
  20394277.848   107172650.093 9     -1586.113    20394280.724    83511162.713 9
     -1235.932                          51.000          59.000
  20884762.336   109750137.228 8     -1989.790    20884766.088    85519580.527 9
     -1550.482                          50.000          57.000
  21350957.640   112200019.192 8       629.697    21350959.016    87428571.884 7
       490.671                          48.000          42.000
  21821284.012   114671709.813 8      1906.269    21821285.424    89354622.065 9
      1485.405                          49.000          53.000
  22320905.075   117297113.318 8      2640.962    22320906.129    91400330.859 6
      2057.900                          46.000          35.000
  22405198.152   117740077.228 8     -3151.765    22405201.458    91745491.569 6
     -2455.914                          45.000          34.000
  23647991.541   124271110.284 7      3228.877    23647997.920    96834691.017 7
      2516.004                          43.000          42.000
  24447054.597   128470164.516 6       821.500    24447061.137   100106659.898 3
       640.129                          36.000          17.000
  24787439.667   130258885.287 6     -1222.205    24787447.405   101500465.200 5
      -952.358                          35.000          29.000
  25302293.071   132964299.202 5     -3737.742    25302304.472   103608509.793 4
     -2912.499                          32.000          23.000
  25399301.102   133474223.102 6      1181.844    25399302.157   104005888.545 5
       920.930                          36.000          30.000
 23 11  9  9 10  0.0000000  0 11G09G06G11G07G20G04G30G16G26G03G29
  20403365.765   107220406.537 9     -1597.895    20403368.463    83548375.468 9
     -1245.110                          51.000          59.000
  20896170.974   109810088.347 8     -2007.217    20896174.530    85566295.627 9
     -1564.066                          50.000          57.000
  21347416.018   112181407.867 8       610.805    21347417.858    87414069.546 7
       475.954                          49.000          43.000
  21810435.496   114614701.573 8      1893.989    21810437.158    89310200.097 9
      1475.835                          49.000          54.000
  22305843.561   117217964.492 8      2635.335    22305844.509    91338656.454 6
      2053.511                          46.000          35.000
  22423205.035   117834701.264 7     -3156.808    22423208.216    91819224.466 6
     -2459.844                          44.000          35.000
  23629569.472   124174303.473 7      3224.607    23629575.922    96759257.267 7
      2512.677                          42.000          42.000
  24442415.244   128445780.963 6       803.978    24442421.034   100087659.947 3
       626.486                          36.000          17.000
  24794464.641   130295804.413 6     -1239.407    24794472.772   101529233.252 5
      -965.766                          35.000          30.000
  25323634.617   133076451.726 5     -3739.264    25323647.001   103695900.910 3
     -2913.691                          29.000          19.000
  25392599.075   133439007.690 6      1165.560    25392601.291   103978447.862 5
       908.234                          37.000          29.000
 23 11  9  9 10 30.0000000  0 11G09G06G11G07G20G04G30G16G26G03G29
  20412531.090   107268570.111 8     -1611.123    20412533.681    83585905.469 9
     -1255.416                          50.000          59.000
  20907688.846   109870616.099 8     -2026.175    20907692.903    85613460.048 9
     -1578.839                          50.000          57.000
  21343992.563   112163417.263 8       590.397    21343994.278    87400050.875 7
       460.054                          49.000          43.000
  21799667.802   114558116.505 8      1880.151    21799669.374    89266107.872 9
      1465.053                          49.000          53.000
  22290824.076   117139038.048 8      2628.202    22290825.416    91277155.351 6
      2047.948                          46.000          35.000
  22441250.211   117929531.078 7     -3163.385    22441253.642    91893117.706 6
     -2464.972                          44.000          34.000
  23611182.068   124077677.248 7      3218.907    23611188.805    96683964.255 7
      2508.235                          41.000          42.000
  24437885.304   128421979.324 6       784.726    24437891.773   100069113.473 3
       611.462                          35.000          17.000
  24801598.992   130333296.130 6     -1258.270    24801607.283   101558447.489 5
      -980.468                          35.000          29.000
  25344994.265   133188693.280 5     -3741.815    25345006.684   103783361.428 3
     -2915.694                          30.000          18.000
  25386001.921   133404338.356 6      1147.782    25386004.208   103951432.687 5
       894.380                          36.000          29.000
 23 11  9  9 11  0.0000000  0 11G09G06G11G07G20G04G30G16G26G03G29
  20421768.267   107317111.278 9     -1624.527    20421771.126    83623729.701 9
     -1265.859                          51.000          59.000
  20919310.930   109931690.651 8     -2045.084    20919315.558    85661050.530 9
     -1593.568                          50.000          57.000
  21340681.915   112146020.265 8       569.819    21340683.291    87386494.750 7
       444.022                          49.000          43.000
  21788975.657   114501928.015 8      1866.116    21788976.801    89222324.672 9
      1454.119                          49.000          53.000
  22275842.097   117060307.483 8      2620.858    22275843.402    91215806.877 6
      2042.228                          47.000          36.000
  22459329.516   118024536.860 7     -3169.961    22459332.590    91967148.084 6
     -2470.096                          44.000          34.000
  23592824.113   123981205.733 7      3212.831    23592830.886    96608791.793 7
      2503.502                          42.000          43.000
  24433461.327   128398732.262 6       765.414    24433467.474   100050999.051 3
       596.419                          34.000          17.000
  24808836.357   130371331.279 6     -1276.896    24808844.398   101588085.211 5
      -994.980                          33.000          28.000
  25366364.991   133300994.827 5     -3744.773    25366376.713   103870868.763 3
     -2917.956                          28.000          16.000
  25379504.512   133370189.041 6      1129.374    25379506.138   103924822.728 5
       880.037                          37.000          30.000
 23 11  9  9 11 30.0000000  0 11G09G06G11G07G20G04G30G16G26G29G03
  20431081.012   107366050.269 9     -1636.865    20431084.086    83661863.929 9
     -1275.476                          51.000          59.000
  20931041.033   109993331.991 8     -2063.100    20931045.410    85709082.677 9
     -1607.609                          49.000          57.000
  21337488.882   112129239.625 8       550.150    21337489.811    87373418.906 7
       428.692                          48.000          42.000
  21778363.227   114446160.088 8      1852.957    21778364.495    89178869.183 9
      1443.862                          49.000          53.000
  22260902.040   116981796.107 8      2614.378    22260903.165    91154629.200 6
      2037.175                          47.000          36.000
  22477445.847   118119738.648 7     -3175.647    22477449.635    92041331.179 6
     -2474.534                          44.000          34.000
  23574500.574   123884912.841 7      3207.883    23574506.631    96533758.510 7
      2499.642                          42.000          43.000
  24429147.781   128376063.422 6       746.998    24429153.874   100033335.182 3
       582.076                          36.000          18.000
  24816181.455   130409930.527 6     -1294.934    24816190.193   101618162.547 5
     -1009.036                          36.000          29.000
  25373107.884   133336582.585 6      1112.269    25373110.726   103898635.789 5
       866.705                          37.000          29.000
  25387750.155   133413376.994 5     -3746.480    25387763.181   103958439.038 2
     -2919.348                          27.000          14.000
 23 11  9  9 12  0.0000000  0 11G09G06G11G07G20G04G30G16G26G29G03
  20440468.736   107415383.770 9     -1650.946    20440471.881    83700305.572 9
     -1286.452                          51.000          59.000
  20942878.081   110055536.476 8     -2082.860    20942882.262    85757553.642 9
     -1623.011                          49.000          57.000
  21334412.819   112113074.479 8       528.555    21334413.945    87360822.670 7
       411.860                          48.000          43.000
  21767830.778   114390811.446 8      1837.961    21767831.814    89135740.399 9
      1432.170                          49.000          54.000
  22246003.920   116903504.152 8      2606.078    22246004.456    91093622.502 6
      2030.705                          47.000          36.000
  22495598.826   118215132.818 7     -3182.988    22495602.614    92115664.184 6
     -2480.248                          44.000          34.000
  23556210.503   123788798.921 7      3200.848    23556216.561    96458864.679 7
      2494.158                          43.000          44.000
  24424943.950   128353972.742 6       726.619    24424949.972   100016121.814 3
       566.169                          34.000          17.000
  24823634.392   130449091.075 6     -1314.444    24823642.361   101648677.264 5
     -1024.242                          36.000          30.000
  25366816.523   133303518.347 6      1093.186    25366818.810   103872871.364 5
       851.831                          38.000          28.000
  25409151.812   133525836.916 5     -3749.955    25409164.374   104046069.913 2
     -2922.020                          28.000          14.000
 23 11  9  9 12 30.0000000  0 11G09G06G11G07G20G04G30G16G26G29G03
  20449930.330   107465104.198 9     -1663.930    20449933.350    83739048.713 9
     -1296.565                          51.000          59.000
  20954821.093   110118296.176 8     -2101.380    20954825.256    85806457.240 9
     -1637.437                          49.000          57.000
  21331452.494   112097519.663 8       508.195    21331454.459    87348702.019 7
       395.995                          49.000          43.000
  21757377.203   114335877.767 8      1824.053    21757378.257    89092934.965 9
      1421.342                          49.000          53.000
  22231146.221   116825427.289 8      2598.822    22231146.900    91032783.395 6
      2025.055                          46.000          36.000
  22513786.918   118310711.562 7     -3189.080    22513790.331    92190141.011 6
     -2484.998                          44.000          34.000
  23537953.669   123692860.059 7      3194.914    23537960.030    96384107.236 7
      2489.542                          42.000          43.000
  24420849.442   128332455.784 6       707.594    24420855.428    99999355.486 3
       551.381                          34.000          16.000
  24831192.667   130488805.677 6     -1333.100    24831200.083   101679623.710 5
     -1038.767                          33.000          29.000
  25360627.212   133270991.706 6      1075.119    25360629.410   103847525.828 5
       837.755                          37.000          28.000
  25430564.280   133638367.226 4     -3752.232    25430578.808   104133755.679 2
     -2923.883                          25.000          11.000
 23 11  9  9 13  0.0000000  0 10G09G06G11G07G20G04G30G16G26G29
  20459464.847   107515207.880 9     -1677.451    20459467.814    83778090.502 9
     -1307.112                          51.000          58.000
  20966868.852   110181607.138 8     -2120.465    20966872.873    85855790.407 9
     -1652.308                          50.000          57.000
  21328608.478   112082573.992 8       487.122    21328610.622    87337056.027 7
       379.569                          49.000          43.000
  21747002.412   114281358.424 8      1809.502    21747003.699    89050452.383 9
      1410.002                          49.000          53.000
  22216329.334   116747564.834 8      2590.916    22216330.138    90972111.368 6
      2018.895                          46.000          35.000
  22532008.962   118406471.024 8     -3195.856    22532012.875    92264758.650 6
     -2490.270                          45.000          34.000
  23519729.946   123597096.303 7      3188.238    23519736.361    96309486.244 7
      2484.335                          42.000          41.000
  24416864.453   128311511.825 6       687.466    24416869.600    99983035.623 3
       535.670                          34.000          16.000
  24838854.100   130529071.066 6     -1352.349    24838862.498   101710999.342 5
     -1053.784                          36.000          30.000
  25354539.664   133239001.320 6      1056.471    25354541.827   103822598.166 5
       823.223                          38.000          27.000
 23 11  9  9 13 30.0000000  0 10G09G06G11G07G20G04G30G16G26G29
  20469067.910   107565671.537 9     -1687.210    20469070.734    83817412.786 9
     -1314.710                          51.000          59.000
  20979016.858   110245445.700 8     -2135.815    20979021.128    85905534.693 9
     -1664.264                          50.000          57.000
  21325876.465   112068216.543 8       469.660    21325878.216    87325868.386 7
       365.966                          48.000          42.000
  21736702.422   114227233.045 8      1798.460    21736703.833    89008276.779 9
      1401.403                          49.000          54.000
  22201549.472   116669896.592 8      2586.527    22201550.366    90911590.670 6
      2015.482                          46.000          35.000
  22550261.901   118502387.684 7     -3198.814    22550264.903    92339498.786 6
     -2492.569                          44.000          33.000
  23501536.421   123501488.015 7      3185.163    23501542.336    96234986.380 7
      2481.947                          42.000          41.000
  24412983.677   128291120.589 6       671.311    24412989.627    99967146.421 3
       523.088                          35.000          17.000
  24846616.779   130569864.389 6     -1367.693    24846625.838   101742786.315 5
     -1065.731                          36.000          32.000
  25348549.825   133207526.840 6      1041.347    25348552.291   103798072.529 5
       811.456                          37.000          27.000
 23 11  9  9 14  0.0000000  0 10G09G06G11G07G20G04G30G16G26G29
  20478735.874   107616477.318 9     -1698.629    20478738.787    83857001.663 9
     -1323.605                          51.000          58.000
  20991261.713   110309793.652 8     -2152.766    20991266.180    85955675.893 9
     -1677.483                          49.000          57.000
  21323253.310   112054431.884 8       450.555    21323254.508    87315127.068 7
       351.084                          49.000          42.000
  21726474.782   114173486.815 8      1785.802    21726476.248    88966396.608 9
      1391.530                          49.000          54.000
  22186803.704   116592408.001 8      2580.604    22186804.937    90851209.960 6
      2010.851                          46.000          35.000
  22568540.875   118598443.499 7     -3203.525    22568544.163    92414347.352 6
     -2496.257                          43.000          33.000
  23483369.289   123406021.062 7      3180.437    23483376.008    96160596.661 7
      2478.257                          43.000          42.000
  24409205.540   128271267.804 6       653.539    24409211.669    99951676.762 3
       509.236                          35.000          17.000
  24854476.629   130611168.086 6     -1384.594    24854485.599   101774971.002 5
     -1078.901                          36.000          31.000
  25342656.049   133176552.971 6      1024.690    25342658.229   103773936.982 5
       798.460                          38.000          27.000
 23 11  9  9 14 30.0000000  0 10G09G06G11G07G20G04G30G16G26G29
  20488465.950   107667608.482 9     -1709.650    20488468.577    83896844.085 9
     -1332.196                          51.000          58.000
  21003600.595   110374633.870 8     -2169.439    21003604.865    86006200.676 9
     -1690.476                          49.000          57.000
  21320736.298   112041205.658 8       431.658    21320737.799    87304820.889 7
       336.354                          50.000          43.000
  21716316.904   114120105.903 8      1773.380    21716318.512    88924801.104 9
      1381.847                          49.000          54.000
  22172089.725   116515085.781 8      2574.766    22172090.708    90790958.880 6
      2006.301                          46.000          36.000
  22586843.007   118694621.511 7     -3207.823    22586846.456    92489291.131 6
     -2499.606                          44.000          33.000
  23465226.799   123310682.397 7      3175.905    23465233.696    96086306.906 7
      2474.719                          43.000          43.000
  24405528.238   128251938.640 6       635.866    24405533.402    99936615.142 3
       495.482                          34.000          17.000
  24862430.417   130652965.838 6     -1401.430    24862439.245   101807540.638 5
     -1092.021                          37.000          32.000
  25336854.532   133146065.628 6      1008.196    25336857.140   103750180.547 5
       785.609                          38.000          28.000
 23 11  9  9 15  0.0000000  0 10G09G06G11G07G20G04G30G16G26G29
  20498262.874   107719092.130 9     -1722.774    20498265.697    83936961.172 9
     -1342.417                          51.000          58.000
  21016038.239   110439993.066 8     -2188.113    21016042.563    86057129.851 9
     -1705.020                          49.000          56.000
  21318331.199   112028567.271 8       410.697    21318333.504    87294972.767 7
       320.026                          49.000          43.000
  21706234.147   114067120.446 8      1758.794    21706235.809    88883513.744 9
      1370.489                          49.000          53.000
  22157413.057   116437960.090 8      2566.741    22157413.986    90730860.932 6
      2000.060                          46.000          35.000
  22605173.623   118790948.659 7     -3214.102    22605177.179    92564351.133 6
     -2504.488                          44.000          33.000
  23447114.811   123215502.790 7      3169.189    23447121.583    96012141.105 7
      2469.491                          43.000          43.000
  24401954.612   128233163.772 6       615.827    24401960.956    99921985.413 3
       479.856                          35.000          17.000
  24870483.128   130695285.047 6     -1420.222    24870492.474   101840516.614 5
     -1106.665                          36.000          31.000
  25331151.704   133116094.519 7       989.563    25331154.099   103726826.353 5
       771.092                          39.000          29.000
 23 11  9  9 15 30.0000000  0 10G09G06G11G07G20G04G30G16G26G29
  20508127.343   107770931.239 9     -1733.827    20508130.631    83977355.246 9
     -1351.030                          51.000          59.000
  21028574.895   110505873.760 8     -2204.672    21028579.094    86108465.402 9
     -1717.907                          49.000          56.000
  21316039.371   112016522.038 8       391.622    21316041.819    87285586.858 7
       305.168                          48.000          43.000
  21696227.655   114014536.128 8      1746.152    21696229.120    88842538.951 9
      1360.653                          49.000          54.000
  22142775.611   116361037.154 8      2560.746    22142775.986    90670920.971 6
      1995.402                          47.000          35.000
  22623532.990   118887427.681 7     -3218.448    22623537.135    92639529.465 6
     -2507.854                          44.000          34.000
  23429034.594   123120488.913 7      3164.402    23429041.080    95938104.459 7
      2465.778                          43.000          44.000
  24398488.897   128214948.981 6       597.879    24398494.848    99907792.095 3
       465.876                          34.000          16.000
  24878635.924   130738128.986 6     -1436.782    24878645.144   101873901.462 5
     -1119.570                          37.000          31.000
  25325547.407   133086645.454 6       972.995    25325550.052   103703878.966 5
       758.190                          38.000          29.000
 23 11  9  9 16  0.0000000  0 10G09G06G11G07G20G04G30G16G26G29
  20518057.803   107823114.708 9     -1746.557    20518060.787    84018017.646 9
     -1360.952                          51.000          58.000
  21041208.670   110572264.408 8     -2222.918    21041212.583    86160198.322 9
     -1732.138                          49.000          56.000
  21313858.475   112005061.186 8       370.890    21313860.458    87276656.298 7
       289.007                          49.000          43.000
  21686296.266   113962344.994 8      1731.724    21686297.589    88801870.534 9
      1349.399                          48.000          54.000
  22128174.618   116284309.172 8      2552.933    22128175.279    90611132.912 6
      1989.303                          47.000          36.000
  22641918.963   118984047.312 7     -3224.312    22641923.591    92714817.355 6
     -2512.446                          44.000          33.000
  23410983.700   123025633.317 7      3157.763    23410990.490    95864191.138 7
      2460.592                          43.000          44.000
  24395127.448   128197286.272 6       578.093    24395133.738    99894028.945 3
       450.458                          36.000          18.000
  24886886.838   130781486.873 6     -1455.067    24886895.772   101907686.790 5
     -1133.817                          36.000          31.000
  25320040.800   133057709.762 7       954.531    25320043.927   103681331.612 5
       743.796                          39.000          30.000
 23 11  9  9 16 30.0000000  0 10G09G06G11G07G20G04G30G16G26G29
  20528059.256   107875673.282 9     -1758.750    20528062.204    84058972.336 9
     -1370.453                          51.000          58.000
  21053945.209   110639195.344 8     -2240.553    21053949.372    86212352.241 9
     -1745.879                          50.000          56.000
  21311794.835   111994217.744 8       350.623    21311796.247    87268206.832 7
       273.217                          49.000          43.000
  21676445.700   113910580.654 8      1717.786    21676447.040    88761534.683 9
      1338.537                          49.000          54.000
  22113617.350   116207809.842 8      2545.600    22113617.958    90551523.033 6
      1983.588                          47.000          36.000
  22660337.602   119080838.159 7     -3229.759    22660341.944    92790238.666 6
     -2516.690                          44.000          33.000
  23392970.063   122930970.484 7      3151.654    23392976.335    95790428.020 7
      2455.835                          43.000          44.000
  24391877.931   128180209.161 6       558.870    24391883.720    99880722.076 3
       435.475                          36.000          17.000
  24895241.267   130825389.775 6     -1473.076    24895249.898   101941896.806 5
     -1147.850                          36.000          31.000
  25314639.244   133029320.989 6       936.537    25314642.318   103659210.394 5
       729.783                          37.000          29.000
 23 11  9  9 17  0.0000000  0 10G09G06G11G07G20G04G30G16G26G29
  20538123.071   107928557.815 9     -1768.748    20538125.823    84100181.021 9
     -1378.243                          51.000          58.000
  21066775.042   110706616.894 8     -2256.011    21066779.331    86264888.456 9
     -1757.933                          49.000          56.000
  21309840.107   111983944.798 8       332.480    21309841.161    87260201.904 7
       259.079                          49.000          43.000
  21666667.538   113859196.731 8      1705.988    21666669.146    88721495.260 9
      1329.336                          49.000          54.000
  22099094.909   116131493.721 8      2540.320    22099095.874    90492055.923 6
      1979.466                          46.000          36.000
  22678779.220   119177750.880 7     -3232.935    22678783.884    92865754.937 6
     -2519.175                          44.000          33.000
  23374984.051   122836454.868 7      3147.625    23374989.698    95716779.592 7
      2452.688                          43.000          43.000
  24388730.445   128163671.338 6       541.640    24388736.806    99867835.483 3
       422.067                          36.000          18.000
  24903690.438   130869788.710 6     -1488.605    24903698.551   101976493.359 5
     -1159.947                          36.000          31.000
  25309332.698   133001432.405 6       920.916    25309335.164   103637478.971 5
       717.597                          38.000          30.000
 23 11  9  9 17 30.0000000  0 10G09G06G11G07G20G04G30G16G26G29
  20548248.053   107981765.310 9     -1778.774    20548250.948    84141641.371 9
     -1386.054                          51.000          58.000
  21079697.580   110774525.623 8     -2271.591    21079702.048    86317804.283 9
     -1770.065                          49.000          56.000
  21307993.915   111974241.607 8       314.082    21307995.184    87252640.946 7
       244.743                          48.000          42.000
  21656961.799   113808193.057 8      1693.878    21656963.461    88681752.133 9
      1319.906                          49.000          54.000
  22084606.974   116055360.850 8      2534.839    22084608.260    90432731.600 6
      1975.204                          46.000          36.000
  22697243.835   119274782.343 7     -3236.212    22697248.374    92941363.739 6
     -2521.712                          44.000          33.000
  23357026.898   122742087.244 7      3143.303    23357032.027    95643246.477 7
      2449.327                          44.000          43.000
  24385686.100   128147672.992 6       524.291    24385691.961    99855369.196 3
       408.535                          36.000          16.000
  24912232.832   130914681.015 6     -1504.502    24912241.141   102011474.345 5
     -1172.339                          37.000          31.000
  25304120.429   132974043.602 6       904.716    25304123.074   103616136.973 5
       704.976                          38.000          30.000
 23 11  9  9 18  0.0000000  0 11G09G06G11G07G20G04G30G16G26G05G29
  20558437.881   108035312.136 9     -1791.954    20558440.847    84183366.133 9
     -1396.319                          51.000          58.000
  21092715.932   110842937.350 8     -2290.136    21092720.774    86371112.048 9
     -1784.512                          50.000          56.000
  21306259.655   111965126.767 8       292.574    21306261.049    87245538.442 7
       227.986                          49.000          43.000
  21647332.147   113757589.216 8      1678.686    21647333.827    88642320.568 9
      1308.071                          49.000          53.000
  22070158.314   115979430.856 8      2526.130    22070158.993    90373565.368 6
      1968.419                          46.000          35.000
  22715734.253   119371948.777 7     -3242.518    22715738.667    93017077.704 5
     -2526.629                          44.000          32.000
  23339101.088   122647887.594 7      3135.742    23339106.448    95569844.244 7
      2443.438                          44.000          44.000
  24382747.878   128132232.872 6       503.961    24382753.900    99843337.946 3
       392.704                          37.000          17.000
  24920872.629   130960083.153 6     -1523.527    24920881.510   102046852.610 5
     -1187.158                          37.000          30.000
  25132172.182   132070452.327 6      3273.496    25132175.095   102912055.845 2
      2550.762                          34.000          10.000
  25299007.030   132947173.406 6       885.642    25299009.370   103595199.085 5
       690.121                          38.000          29.000
 23 11  9  9 18 30.0000000  0 11G09G06G11G07G20G04G30G16G26G05G29
  20568700.526   108089242.700 9     -1803.170    20568703.563    84225389.913 9
     -1405.059                          51.000          58.000
  21105838.728   110911896.039 8     -2306.801    21105843.106    86424846.017 9
     -1797.497                          49.000          56.000
  21304645.707   111956646.927 8       272.972    21304647.565    87238930.749 7
       212.712                          49.000          43.000
  21637787.677   113707432.044 8      1665.365    21637789.142    88603237.056 9
      1297.693                          49.000          53.000
  22055756.561   115903751.346 8      2519.352    22055757.901    90314594.326 6
      1963.134                          46.000          36.000
  22734258.873   119469294.487 7     -3246.924    22734263.036    93092931.362 5
     -2530.059                          44.000          32.000
  23321216.465   122553904.063 7      3130.076    23321222.094    95496610.415 8
      2439.024                          44.000          45.000
  24379925.430   128117398.957 6       485.299    24379931.023    99831779.053 3
       378.154                          36.000          18.000
  24929616.997   131006039.778 6     -1540.168    24929627.325   102082662.933 5
     -1200.130                          37.000          31.000
  25113484.007   131972246.260 6      3274.018    25113486.741   102835531.404 2
      2551.177                          34.000          12.000
  25294002.184   132920868.993 7       868.362    25294004.239   103574702.057 5
       676.654                          39.000          30.000
 23 11  9  9 19  0.0000000  0 11G09G06G11G07G20G04G30G16G26G05G29
  20579033.109   108143541.692 9     -1815.734    20579036.272    84267700.775 9
     -1414.856                          51.000          58.000
  21119062.144   110981385.794 8     -2324.845    21119066.433    86478993.811 9
     -1811.573                          49.000          56.000
  21303150.445   111948788.906 8       251.906    21303152.035    87232807.586 7
       196.286                          49.000          43.000
  21628325.797   113657709.274 8      1650.534    21628327.172    88564492.041 9
      1286.122                          49.000          54.000
  22041400.820   115828310.580 8      2511.095    22041401.999    90255809.327 6
      1956.691                          46.000          36.000
  22752814.031   119566803.960 7     -3252.622    22752818.426    93168912.623 5
     -2534.517                          44.000          32.000
  23303370.779   122460124.989 7      3122.886    23303376.819    95423535.902 8
      2433.408                          44.000          46.000
  24377215.647   128103157.856 6       465.224    24377221.079    99820682.130 3
       362.520                          36.000          16.000
  24938466.201   131052535.805 6     -1558.444    24938475.279   102118893.596 5
     -1214.373                          37.000          31.000
  25094799.317   131874054.962 6      3273.189    25094801.050   102759018.542 2
      2550.511                          33.000          11.000
  25289101.641   132895117.145 6       849.440    25289104.482   103554635.623 5
       661.895                          38.000          31.000
 23 11  9  9 19 30.0000000  0 11G09G06G11G07G20G04G30G16G26G05G29
  20589432.917   108198192.607 9     -1827.064    20589435.722    84310285.862 9
     -1423.685                          51.000          58.000
  21132383.644   111051389.558 8     -2341.568    21132387.468    86533542.142 9
     -1824.595                          49.000          55.000
  21301770.617   111941538.365 8       231.999    21301771.921    87227157.779 7
       180.777                          49.000          43.000
  21618943.970   113608407.310 8      1636.873    21618945.292    88526074.930 9
      1275.483                          49.000          54.000
  22027087.893   115753095.350 8      2503.913    22027088.733    90197200.063 6
      1951.108                          47.000          36.000
  22771397.922   119664460.596 7     -3257.190    22771401.835    93245008.584 5
     -2538.061                          43.000          32.000
  23285561.689   122366537.562 7      3116.804    23285567.871    95350610.709 8
      2428.674                          44.000          45.000
  24374615.329   128089496.164 6       446.099    24374621.082    99810036.670 3
       347.612                          35.000          17.000
  24947413.614   131099554.848 6     -1575.507    24947422.960   102155531.814 5
     -1227.668                          37.000          31.000
  25076113.501   131775865.782 6      3273.437    25076116.253   102682507.291 2
      2550.689                          35.000          13.000
  25284303.486   132869904.097 7       831.898    25284306.595   103534989.030 5
       648.233                          39.000          32.000
 23 11  9  9 20  0.0000000  0 11G09G06G11G07G20G04G30G16G26G05G29
  20599898.267   108253187.742 9     -1838.442    20599901.144    84353139.173 9
     -1432.550                          51.000          58.000
  21145800.957   111121899.060 8     -2358.207    21145804.996    86588484.556 9
     -1837.566                          49.000          55.000
  21300505.830   111934889.756 8       212.080    21300506.705    87221977.011 7
       165.256                          49.000          43.000
  21609641.214   113559521.186 8      1623.097    21609642.518    88487981.856 9
      1264.748                          49.000          54.000
  22012817.030   115678101.201 8      2496.591    22012817.977    90138763.076 6
      1945.390                          47.000          36.000
  22790008.616   119762256.586 7     -3261.681    22790012.816    93321213.110 5
     -2541.575                          43.000          32.000
  23267788.104   122273137.751 7      3110.746    23267794.108    95277831.700 8
      2423.949                          44.000          45.000
  24372125.709   128076408.970 6       427.213    24372130.748    99799838.895 3
       332.875                          36.000          17.000
  24956459.253   131147089.359 6     -1592.520    24956468.742   102192571.699 5
     -1240.927                          37.000          30.000
  25057428.507   131677673.660 6      3273.661    25057431.312   102605993.727 3
      2550.921                          36.000          16.000
  25279607.346   132845224.532 7       814.244    25279609.973   103515758.139 5
       634.468                          39.000          32.000
 23 11  9  9 20 30.0000000  0 11G09G06G11G07G20G04G30G16G26G05G29
  20610430.412   108308534.511 9     -1851.240    20610433.379    84396266.478 9
     -1442.527                          51.000          58.000
  21159316.121   111192921.148 8     -2376.424    21159320.642    86643826.370 9
     -1851.755                          49.000          56.000
  21299356.583   111928852.618 8       190.584    21299358.317    87217272.718 7
       148.504                          50.000          44.000
  21600419.350   113511061.027 8      1607.777    21600420.762    88450220.691 9
      1252.814                          49.000          54.000
  21998590.411   115603338.859 8      2487.696    21998591.072    90080506.708 6
      1938.465                          46.000          36.000
  22808646.919   119860199.248 7     -3267.606    22808650.957    93397531.910 5
     -2546.179                          43.000          32.000
  23250052.634   122179936.673 7      3102.856    23250058.442    95205207.545 8
      2417.809                          44.000          45.000
  24369746.538   128063906.794 6       406.523    24369751.255    99790096.978 3
       316.761                          36.000          18.000
  24965604.583   131195146.870 6     -1611.022    24965612.464   102230019.120 5
     -1255.344                          36.000          28.000
  25038744.031   131579487.708 6      3272.242    25038747.587   102529484.963 3
      2549.845                          37.000          17.000
  25275014.507   132821088.409 7       795.021    25275017.009   103496950.695 5
       619.499                          39.000          31.000
 23 11  9  9 21  0.0000000  0 11G09G06G11G07G20G04G30G16G26G05G29
  20621027.172   108364220.873 9     -1862.763    20621030.102    84439658.400 9
     -1451.502                          51.000          58.000
  21172926.438   111264443.138 8     -2393.255    21172931.137    86699557.703 9
     -1864.868                          50.000          57.000
  21298322.289   111923416.966 8       170.278    21298324.379    87213037.117 7
       132.686                          50.000          44.000
  21591277.219   113463017.592 8      1593.617    21591278.666    88412784.248 9
      1241.781                          49.000          54.000
  21984405.838   115528799.502 8      2480.008    21984406.642    90022424.101 6
      1932.477                          46.000          36.000
  22827310.327   119958276.388 7     -3272.427    22827314.598    93473955.506 5
     -2549.933                          43.000          32.000
  23232352.903   122086925.977 7      3096.235    23232359.246    95132731.739 8
      2412.653                          44.000          45.000
  24367476.582   128051979.543 6       387.129    24367481.443    99780803.058 3
       301.671                          37.000          18.000
  24974846.281   131243715.446 6     -1628.419    24974854.447   102267864.791 5
     -1268.898                          36.000          29.000
  25020059.109   131481298.652 6      3272.181    25020062.879   102452973.721 3
      2549.743                          36.000          17.000
  25270523.164   132797486.039 7       776.887    25270525.808   103478559.150 5
       605.378                          39.000          31.000
 23 11  9  9 21 30.0000000  0 11G09G06G11G07G20G04G30G16G26G05G29
  20631691.012   108420259.195 9     -1873.279    20631693.906    84483324.570 9
     -1459.701                          51.000          58.000
  21186633.944   111336476.810 8     -2409.174    21186638.733    86755687.753 9
     -1877.281                          50.000          58.000
  21297405.090   111918597.185 8       150.795    21297407.216    87209281.414 7
       117.497                          50.000          44.000
  21582217.034   113415406.237 8      1580.269    21582218.607    88375684.495 9
      1231.373                          49.000          54.000
  21970266.902   115454498.582 8      2473.131    21970267.992    89964527.296 6
      1927.109                          46.000          37.000
  22846001.414   120056500.338 7     -3276.050    22846005.488    93550493.498 5
     -2552.764                          42.000          31.000
  23214693.144   121994121.707 8      3090.427    23214699.040    95060416.785 8
      2408.115                          45.000          46.000
  24365319.773   128040642.369 6       368.527    24365324.294    99771968.922 3
       287.160                          38.000          19.000
  24984187.992   131292807.485 6     -1644.667    24984196.265   102306118.342 5
     -1281.561                          37.000          29.000
  25001378.099   131383121.935 6      3272.862    25001380.744   102376472.171 3
      2550.276                          37.000          18.000
  25266135.943   132774431.982 7       759.775    25266138.570   103460594.873 5
       592.029                          39.000          31.000
 23 11  9  9 22  0.0000000  0 11G09G06G11G07G20G04G30G16G05G26G29
  20642418.429   108476632.934 9     -1884.406    20642421.413    84527252.099 9
     -1468.367                          51.000          58.000
  21200435.763   111409004.977 8     -2425.586    21200440.427    86812203.119 9
     -1890.068                          49.000          57.000
  21296602.699   111914378.927 8       130.871    21296604.254    87205994.428 7
       101.977                          48.000          43.000
  21573236.528   113368213.173 8      1566.435    21573237.779    88338910.683 9
      1220.596                          49.000          54.000
  21956171.030   115380423.335 8      2465.745    21956171.995    89906806.327 6
      1921.355                          46.000          37.000
  22864717.536   120154854.468 7     -3280.330    22864721.592    93627132.943 5
     -2556.100                          43.000          31.000
  23197069.784   121901511.025 7      3084.068    23197075.520    94988252.670 8
      2403.163                          44.000          46.000
  24363271.269   128029881.380 6       349.316    24363276.880    99763583.779 3
       272.181                          38.000          19.000
  24982695.661   131284943.909 6      3272.817    24982698.591   102299969.633 3
      2550.252                          37.000          18.000
  24993625.910   131342406.548 6     -1661.335    24993634.933   102344766.964 5
     -1294.545                          37.000          30.000
  25261850.827   132751911.881 6       742.066    25261853.114   103443046.666 5
       578.233                          37.000          29.000
 23 11  9  9 22 30.0000000  0 11G09G06G11G07G20G04G30G16G05G26G29
  20653209.014   108533337.584 9     -1895.449    20653212.070    84571437.477 9
     -1476.965                          51.000          58.000
  21214330.519   111482022.496 8     -2441.837    21214334.843    86869099.798 9
     -1902.718                          48.000          55.000
  21295914.080   111910759.604 8       110.931    21295915.331    87203174.147 7
        86.447                          49.000          43.000
  21564335.056   113321436.404 8      1552.542    21564336.611    88302461.262 9
      1209.781                          49.000          54.000
  21942117.633   115306572.670 8      2458.153    21942118.563    89849260.352 6
      1915.452                          46.000          37.000
  22883457.531   120253334.155 7     -3284.469    22883461.712    93703870.222 5
     -2559.315                          44.000          31.000
  23179483.538   121809093.049 8      3077.564    23179489.078    94916238.722 8
      2398.107                          45.000          46.000
  24361333.409   128019695.252 6       330.202    24361339.056    99755646.571 3
       257.310                          38.000          19.000
  24964012.418   131186762.673 6      3273.001    24964015.312   102223464.689 3
      2550.422                          37.000          18.000
  25003160.516   131392508.138 6     -1678.151    25003168.272   102383807.175 5
     -1307.644                          37.000          29.000
  25257666.598   132729924.056 6       724.260    25257669.439   103425913.223 5
       564.374                          38.000          29.000
 23 11  9  9 23  0.0000000  0 11G09G06G11G07G20G04G30G16G05G26G29
  20664066.697   108590394.453 9     -1908.079    20664069.735    84615897.308 9
     -1486.809                          51.000          58.000
  21228322.124   111555550.005 8     -2459.816    21228326.163    86926393.882 9
     -1916.739                          49.000          54.000
  21295343.237   111907762.529 8        89.069    21295345.024    87200838.736 7
        69.411                          50.000          44.000
  21555517.926   113275100.296 8      1536.828    21555518.945    88266355.208 9
      1197.529                          49.000          54.000
  21928111.536   115232970.908 8      2448.833    21928112.679    89791908.327 6
      1908.181                          47.000          37.000
  22902225.705   120351960.644 7     -3290.428    22902230.012    93780721.901 5
     -2563.973                          44.000          32.000
  23161937.998   121716892.808 7      3069.258    23161943.806    94844394.450 8
      2391.627                          44.000          45.000
  24359508.624   128010107.362 6       309.190    24359513.753    99748175.517 3
       240.929                          37.000          19.000
  24945333.213   131088602.459 6      3271.278    24945335.840   102146976.211 3
      2549.032                          37.000          20.000
  25012793.725   131443133.661 6     -1696.689    25012802.230   102423255.640 5
     -1322.097                          37.000          29.000
  25253588.637   132708492.083 6       704.547    25253591.139   103409212.915 5
       548.996                          37.000          29.000
 23 11  9  9 23 30.0000000  0 11G09G06G11G07G20G04G30G16G05G26G29
  20674988.601   108647789.940 9     -1920.251    20674991.871    84660621.001 9
     -1496.297                          51.000          58.000
  21242408.579   111629573.186 8     -2477.150    21242412.671    86984074.215 9
     -1930.246                          49.000          55.000
  21294889.417   111905376.068 8        67.892    21294891.061    87198979.129 7
        52.900                          49.000          44.000
  21546782.029   113229193.820 8      1521.631    21546783.405    88230583.937 9
      1185.686                          49.000          55.000
  21914150.969   115159607.984 8      2439.998    21914152.219    89734742.403 6
      1901.298                          47.000          38.000
  22921018.789   120450720.254 7     -3295.731    22921023.864    93857677.300 5
     -2568.097                          43.000          31.000
  23144432.270   121624900.359 7      3061.555    23144438.078    94772712.100 8
      2385.622                          44.000          45.000
  24357795.843   128001106.616 6       288.734    24357800.935    99741162.017 3
       224.990                          38.000          20.000
  24926655.277   130990452.434 6      3270.070    24926658.083   102070495.701 3
      2548.109                          37.000          20.000
  25022525.141   131494269.418 6     -1714.446    25022533.557   102463101.705 5
     -1335.935                          34.000          28.000
  25249613.637   132687604.702 6       685.705    25249616.389   103392936.968 5
       534.316                          37.000          30.000
 23 11  9  9 24  0.0000000  0 11G09G06G11G07G20G04G30G16G05G26G29
  20685978.729   108705542.793 8     -1929.862    20685981.785    84705623.160 9
     -1503.789                          50.000          57.000
  21256592.724   111704110.086 8     -2491.978    21256597.280    87042154.836 9
     -1941.799                          50.000          56.000
  21294555.409   111903620.931 8        49.175    21294557.446    87197611.468 7
        38.317                          49.000          44.000
  21538132.207   113183738.471 8      1508.817    21538133.708    88195164.195 9
      1175.699                          49.000          54.000
  21900240.256   115086505.779 8      2433.519    21900241.167    89677779.649 6
      1896.251                          47.000          37.000
  22939841.357   120549631.692 7     -3298.415    22939846.128    93934750.985 5
     -2570.187                          43.000          31.000
  23126970.161   121533138.127 7      3055.999    23126976.612    94701209.160 8
      2381.296                          44.000          46.000
  24356199.245   127992714.651 6       270.683    24356204.767    99734622.863 3
       210.926                          37.000          19.000
  24907984.025   130892333.344 6      3271.234    24907987.170   101994039.315 4
      2549.014                          38.000          22.000
  25032356.195   131545934.154 6     -1729.735    25032365.773   102503359.931 5
     -1347.849                          35.000          28.000
  25245746.781   132667282.872 6       669.079    25245749.550   103377101.710 5
       521.360                          38.000          31.000
 23 11  9  9 24 30.0000000  0 11G09G06G11G07G20G04G30G16G05G26G29
  20697033.240   108763632.982 8     -1942.971    20697036.152    84750888.168 9
     -1513.999                          50.000          57.000
  21270870.627   111779139.977 8     -2510.281    21270875.291    87100619.597 9
     -1956.061                          49.000          57.000
  21294337.961   111902479.008 8        26.767    21294340.088    87196721.628 7
        20.860                          49.000          43.000
  21529564.832   113138716.690 8      1492.425    21529566.119    88160082.294 9
      1162.930                          49.000          54.000
  21886375.770   115013647.877 8      2423.385    21886376.664    89621007.266 6
      1888.351                          47.000          37.000
  22958688.941   120648674.811 7     -3304.675    22958692.604    94011927.295 5
     -2575.073                          43.000          31.000
  23109549.204   121441589.736 8      3046.863    23109555.261    94629872.850 8
      2374.178                          45.000          47.000
  24354714.097   127984914.192 6       249.196    24354720.137    99728544.628 3
       194.188                          38.000          18.000
  24889315.149   130794228.468 7      3268.929    24889318.008   101917593.992 4
      2547.230                          39.000          22.000
  25042285.260   131598107.790 6     -1748.655    25042294.070   102544014.678 5
     -1362.579                          35.000          28.000
  25241983.296   132647508.637 6       648.871    25241986.531   103361693.151 5
       505.616                          38.000          30.000
 23 11  9  9 25  0.0000000  0 11G09G06G11G07G20G04G30G16G05G26G29
  20708154.955   108822078.356 8     -1953.286    20708158.279    84796429.950 9
     -1522.041                          50.000          57.000
  21285245.577   111854680.024 8     -2525.632    21285250.223    87159481.871 9
     -1968.023                          48.000          56.000
  21294241.254   111901970.048 8         7.239    21294243.005    87196325.007 7
         5.641                          49.000          43.000
  21521083.837   113094149.649 8      1478.785    21521085.213    88125354.739 9
      1152.295                          50.000          55.000
  21872561.729   114941055.172 8      2416.167    21872562.926    89564441.538 6
      1882.725                          47.000          37.000
  22977564.544   120747867.492 7     -3307.970    22977568.457    94089220.161 5
     -2577.634                          43.000          30.000
  23092172.991   121350276.706 7      3040.630    23092178.923    94558719.947 8
      2369.313                          44.000          46.000
  24353346.349   127977725.031 6       230.256    24353351.852    99722942.753 3
       179.419                          37.000          18.000
  24870652.973   130696157.952 7      3269.246    24870656.082   101841175.390 4
      2547.467                          39.000          23.000
  25052314.196   131650808.118 6     -1764.577    25052322.630   102585079.865 5
     -1374.993                          36.000          29.000
  25238328.831   132628302.317 6       631.483    25238331.708   103346727.150 5
       492.067                          37.000          31.000
 23 11  9  9 25 30.0000000  0 11G09G11G06G07G20G04G30G16G05G26G29
  20719338.444   108880847.258 8     -1963.909    20719341.804    84842223.829 9
     -1530.314                          50.000          57.000
  21294259.212   111902064.262 8       -12.741    21294260.874    87196398.376 7
        -9.925                          49.000          43.000
  21299710.855   111930697.770 8     -2541.427    21299716.019    87218716.373 9
     -1980.330                          48.000          55.000
  21512683.788   113050007.822 8      1464.687    21512685.164    88090958.512 9
      1141.315                          49.000          55.000
  21858792.914   114868699.611 8      2408.290    21858793.772    89508060.587 6
      1876.588                          47.000          37.000
  22996462.840   120847178.036 7     -3311.891    22996467.165    94166604.856 5
     -2580.689                          42.000          30.000
  23074835.696   121259171.009 8      3033.669    23074842.361    94487728.609 8
      2363.898                          45.000          46.000
  24352089.906   127971117.953 6       210.925    24352094.302    99717794.415 3
       164.362                          38.000          19.000
  24851991.513   130598092.098 7      3269.154    24851994.908   101764760.370 4
      2547.389                          39.000          23.000
  25062435.354   131704003.491 6     -1781.046    25062446.039   102626530.775 5
     -1387.818                          35.000          28.000
  25234776.862   132609634.494 6       613.841    25234779.257   103332180.727 5
       478.326                          38.000          31.000
 23 11  9  9 26  0.0000000  0 11G09G11G06G07G20G04G30G16G05G26G29
  20730584.796   108939948.766 8     -1974.064    20730588.459    84888276.883 9
     -1538.228                          50.000          58.000
  21294393.909   111902772.623 8       -32.388    21294395.767    87196950.310 7
       -25.232                          49.000          44.000
  21314269.391   112007201.552 8     -2556.688    21314273.769    87278329.618 9
     -1992.220                          49.000          55.000
  21504367.044   113006302.807 8      1450.968    21504368.563    88056902.668 9
      1130.627                          49.000          55.000
  21845071.649   114796593.470 8      2400.845    21845072.471    89451873.988 6
      1870.787                          48.000          38.000
  23015385.046   120946615.486 7     -3315.205    23015389.995    94244088.428 5
     -2583.268                          43.000          30.000
  23057540.805   121168285.354 7      3027.352    23057546.845    94416908.726 8
      2358.975                          44.000          46.000
  24350944.770   127965104.723 6       192.026    24350950.559    99713108.850 3
       149.615                          38.000          19.000
  24833334.216   130500044.506 7      3269.400    24833337.396   101688359.576 4
      2547.597                          39.000          24.000
  25072655.095   131757702.882 6     -1796.813    25072663.618   102668374.426 5
     -1400.114                          35.000          28.000
  25231328.981   132591516.156 7       596.256    25231331.625   103318062.496 5
       464.618                          39.000          31.000
 23 11  9  9 26 30.0000000  0 11G09G11G06G07G20G04G30G16G05G26G29
  20741894.601   108999381.526 9     -1986.811    20741898.014    84934588.056 9
     -1548.165                          51.000          57.000
  21294645.916   111904095.557 8       -54.621    21294647.792    87197981.138 7
       -42.564                          48.000          43.000
  21328919.756   112084189.198 8     -2574.515    21328923.527    87338319.923 9
     -2006.122                          50.000          55.000
  21496133.856   112963036.047 8      1434.660    21496135.160    88023188.320 9
      1117.908                          49.000          55.000
  21831398.058   114724738.697 8      2390.707    21831399.273    89395883.262 6
      1862.880                          47.000          38.000
  23034331.267   121046178.401 7     -3321.105    23034335.627    94321669.797 5
     -2587.873                          43.000          30.000
  23040288.210   121077622.099 8      3018.157    23040293.767    94346262.125 8
      2351.800                          45.000          46.000
  24349913.566   127959686.331 6       170.390    24349919.017    99708886.795 3
       132.772                          38.000          19.000
  24814679.831   130402015.970 7      3267.085    24814683.137   101611973.571 4
      2545.785                          40.000          25.000
  25082969.380   131811904.800 6     -1815.011    25082977.725   102710609.659 4
     -1414.292                          34.000          26.000
  25227985.901   132573948.283 7       576.096    25227988.814   103304373.202 5
       448.898                          39.000          32.000
 23 11  9  9 27  0.0000000  0 11G09G11G06G07G20G30G04G16G05G26G29
  20753267.323   109059144.362 8     -1997.170    20753270.593    84981156.427 9
     -1556.239                          50.000          57.000
  21295014.786   111906033.728 8       -74.493    21295016.644    87199491.367 7
       -58.052                          49.000          43.000
  21343661.772   112161658.771 8     -2589.919    21343665.739    87398685.753 9
     -2018.128                          50.000          56.000
  21487984.331   112920209.263 8      1420.642    21487985.456    87989816.810 9
      1106.984                          49.000          54.000
  21817772.839   114653137.777 8      2382.901    21817774.054    89340090.340 6
      1856.794                          47.000          38.000
  23023078.464   120987183.710 8      3011.196    23023083.843    94275790.745 8
      2346.374                          45.000          46.000
  23053301.111   121145865.590 7     -3324.505    23053305.632    94399347.989 5
     -2590.529                          43.000          30.000
  24348995.724   127954864.319 7       151.098    24349001.156    99705129.424 3
       117.728                          39.000          19.000
  24796029.539   130304007.570 7      3266.960    24796032.988   101535603.206 4
      2545.677                          39.000          24.000
  25093378.801   131866607.977 6     -1831.452    25093387.164   102753235.485 5
     -1427.100                          35.000          28.000
  25224747.337   132556931.827 6       558.364    25224750.768   103291113.578 5
       435.087                          38.000          31.000
 23 11  9  9 27 30.0000000  0 11G09G11G06G07G20G30G04G16G05G26G29
  20764702.372   109119236.411 8     -2009.347    20764705.928    85027981.326 9
     -1565.718                          50.000          57.000
  21295500.913   111908588.051 8       -96.211    21295502.753    87201481.718 7
       -74.962                          49.000          43.000
  21358494.991   112239608.579 8     -2607.083    21358499.851    87459425.771 9
     -2031.481                          49.000          56.000
  21479918.575   112877824.084 8      1404.693    21479919.969    87956789.402 9
      1094.574                          49.000          55.000
  21804196.277   114581793.137 8      2373.028    21804197.581    89284497.116 6
      1849.123                          48.000          38.000
  23005911.551   120896972.932 8      3002.449    23005917.466    94205496.728 8
      2339.576                          45.000          46.000
  23072294.650   121245676.199 7     -3329.856    23072299.010    94477122.355 5
     -2594.686                          44.000          31.000
  24348191.547   127950639.638 7       130.067    24348197.211    99701837.499 3
       101.361                          39.000          18.000
  24777384.000   130206021.698 7      3264.870    24777386.769   101459250.366 4
      2544.078                          39.000          25.000
  25103884.143   131921811.349 6     -1849.246    25103892.345   102796251.081 5
     -1440.973                          33.000          28.000
  25221614.754   132540468.172 6       538.724    25221617.935   103278284.697 5
       419.799                          38.000          30.000
 23 11  9  9 28  0.0000000  0 11G09G11G06G07G20G30G04G16G05G26G29
  20776204.180   109179677.670 8     -2019.968    20776207.593    85075078.339 9
     -1574.000                          50.000          57.000
  21296108.067   111911780.247 8      -116.552    21296110.300    87203969.109 7
       -90.819                          49.000          43.000
  21373423.505   112318057.844 8     -2622.768    21373428.687    87520554.955 9
     -2043.710                          48.000          55.000
  21471940.968   112835903.073 8      1390.161    21471942.791    87924123.686 9
      1083.242                          49.000          54.000
  21790673.411   114510727.807 8      2364.733    21790674.233    89229121.529 6
      1842.649                          47.000          38.000
  22988792.848   120807013.419 8      2994.929    22988798.781    94135398.507 8
      2333.705                          45.000          46.000
  23091315.563   121345630.212 7     -3333.602    23091319.530    94555008.484 5
     -2597.607                          42.000          29.000
  24347505.323   127947034.788 7       110.391    24347511.005    99699028.596 3
        86.019                          40.000          18.000
  24758746.912   130108080.961 7      3264.344    24758749.271   101382932.673 4
      2543.648                          40.000          25.000
  25114488.354   131977534.805 6     -1865.703    25114496.055   102839671.901 5
     -1453.791                          33.000          28.000
  25218591.334   132524578.894 6       520.551    25218594.300   103265903.381 5
       405.633                          38.000          29.000
 23 11  9  9 28 30.0000000  0 11G09G11G06G07G20G30G04G16G05G26G29
  20787766.992   109240441.561 8     -2030.031    20787770.459    85122426.756 9
     -1581.839                          50.000          57.000
  21296832.566   111915585.525 8      -136.224    21296834.174    87206934.229 7
      -106.150                          49.000          43.000
  21388441.811   112396979.112 8     -2637.648    21388447.047    87582051.932 9
     -2055.310                          49.000          56.000
  21464047.774   112794422.353 8      1376.149    21464049.007    87891801.054 9
      1072.321                          49.000          54.000
  21777198.988   114439919.050 8      2356.771    21777199.828    89173945.870 6
      1836.440                          48.000          38.000
  22971717.674   120717282.285 8      2988.082    22971723.321    94065478.232 8
      2328.371                          45.000          46.000
  23110358.653   121445701.083 7     -3336.911    23110363.388    94632985.637 5
     -2600.189                          42.000          30.000
  24346933.389   127944025.731 7        91.307    24346939.518    99696683.904 3
        71.142                          39.000          20.000
  24740112.559   130010161.272 7      3264.323    24740115.615   101306631.367 4
      2543.641                          40.000          25.000
  25125184.840   132033751.583 6     -1881.095    25125194.257   102883477.130 5
     -1465.785                          34.000          27.000
  25215672.375   132509240.347 6       502.895    25215674.680   103253951.194 5
       391.857                          38.000          28.000
 23 11  9  9 29  0.0000000  0 11G09G11G06G07G20G30G04G16G05G26G29
  20799388.433   109301511.775 8     -2042.221    20799391.864    85170013.875 9
     -1591.340                          50.000          57.000
  21297670.373   111919989.249 8      -158.238    21297672.053    87210365.673 7
      -123.306                          49.000          43.000
  21403546.854   112476355.208 8     -2654.855    21403551.625    87643903.331 9
     -2068.723                          50.000          56.000
  21456235.187   112753368.067 8      1359.910    21456236.491    87859810.703 9
      1059.661                          49.000          54.000
  21763770.596   114369353.970 8      2346.560    21763771.919    89118960.096 6
      1828.476                          48.000          38.000
  22954683.510   120627766.813 8      2978.828    22954688.996    93995725.984 8
      2321.155                          45.000          47.000
  23129420.897   121545872.438 7     -3342.156    23129425.847    94711041.083 5
     -2604.283                          42.000          29.000
  24346470.867   127941598.095 7        69.781    24346476.496    99694792.255 3
        54.367                          39.000          19.000
  24721481.119   129912250.161 7      3262.065    24721484.192   101230336.771 4
      2541.865                          41.000          26.000
  25135973.870   132090445.182 6     -1899.128    25135982.912   102927653.901 5
     -1479.844                          34.000          28.000
  25212855.663   132494437.936 7       483.079    25212858.361   103242416.779 5
       376.408                          39.000          29.000
 23 11  9  9 29 30.0000000  0 11G09G11G06G07G20G30G04G16G05G26G29
  20811073.845   109362918.157 8     -2053.226    20811077.115    85217862.942 9
     -1599.915                          50.000          57.000
  21298628.385   111925022.917 8      -179.005    21298630.315    87214287.984 7
      -139.488                          49.000          44.000
  21418743.850   112556215.072 8     -2670.786    21418747.942    87706131.707 9
     -2081.131                          50.000          55.000
  21448510.051   112712772.608 8      1344.773    21448511.623    87828177.881 9
      1047.874                          49.000          55.000
  21750395.150   114299065.323 8      2337.580    21750396.383    89064189.717 7
      1821.489                          48.000          39.000
  22937696.448   120538500.466 8      2970.573    22937702.041    93926167.861 8
      2314.728                          45.000          47.000
  23148507.784   121646174.142 7     -3346.286    23148511.804    94789198.116 5
     -2607.494                          42.000          30.000
  24346126.656   127939784.535 6        49.478    24346131.588    99693379.106 3
        38.547                          38.000          19.000
  24702857.541   129814379.577 7      3260.910    24702860.453   101154073.791 4
      2540.970                          40.000          26.000
  25146858.464   132147645.214 6     -1915.949    25146867.595   102972225.277 5
     -1492.942                          37.000          31.000
  25210147.202   132480203.328 6       464.329    25210150.061   103231324.808 5
       361.807                          38.000          30.000
 23 11  9  9 30  0.0000000  0 11G09G11G06G07G20G30G04G16G05G26G29
  20822827.194   109424682.560 8     -2064.232    20822830.697    85265990.990 9
     -1608.489                          50.000          57.000
  21299710.640   111930710.080 8      -199.902    21299712.481    87218719.519 7
      -155.765                          49.000          43.000
  21434036.553   112636579.740 8     -2686.664    21434040.627    87768753.441 9
     -2093.498                          49.000          54.000
  21440876.976   112672660.494 8      1329.555    21440878.584    87796921.695 9
      1036.021                          49.000          55.000
  21737077.189   114229078.881 8      2328.312    21737078.082    89009654.807 7
      1814.276                          48.000          39.000
  22920761.743   120449508.737 8      2962.272    22920767.586    93856823.743 8
      2308.265                          45.000          47.000
  23167623.904   121746628.102 7     -3350.460    23167627.281    94867473.803 5
     -2610.736                          42.000          29.000
  24345902.328   127938608.549 7        29.111    24345907.939    99692462.725 3
        22.701                          39.000          20.000
  24684245.952   129716573.898 7      3259.709    24684249.205   101077861.450 4
      2540.049                          39.000          26.000
  25157844.018   132205373.230 6     -1932.363    25157853.077   103017208.082 5
     -1505.734                          36.000          31.000
  25207550.547   132466560.083 6       445.449    25207553.745   103220693.681 5
       347.118                          38.000          31.000
 23 11  9  9 30 30.0000000  0 11G09G11G07G06G20G30G04G16G05G26G29
  20834644.551   109486782.622 8     -2075.240    20834648.000    85314380.597 9
     -1617.072                          50.000          57.000
  21300913.154   111937030.019 8      -220.858    21300915.155    87223644.124 7
      -172.098                          49.000          44.000
  21433331.906   112633011.624 8      1314.232    21433333.747    87766026.473 9
      1024.069                          49.000          55.000
  21449420.996   112717425.936 8     -2702.465    21449425.409    87831750.393 9
     -2105.823                          48.000          54.000
  21723813.317   114159375.675 8      2319.055    21723814.103    88955340.611 7
      1807.048                          47.000          39.000
  22903875.838   120360772.930 8      2953.913    22903881.717    93787679.036 8
      2301.736                          45.000          48.000
  23186764.182   121847211.971 7     -3354.554    23186768.400    94945850.704 5
     -2613.942                          42.000          30.000
  24345796.579   127938049.801 6         8.751    24345801.100    99692027.284 3
         6.817                          38.000          20.000
  24665643.049   129618814.377 7      3258.243    24665646.480   101001685.163 4
      2538.879                          40.000          26.000
  25168924.867   132263606.672 6     -1949.030    25168934.498   103062584.683 5
     -1518.725                          35.000          29.000
  25205063.572   132453488.585 6       426.536    25205066.645   103210508.073 5
       332.356                          38.000          32.000
 23 11  9  9 31  0.0000000  0 11G09G11G07G06G20G30G04G16G05G26G29
  20846526.201   109549222.133 8     -2086.455    20846529.864    85363034.706 9
     -1625.812                          50.000          57.000
  21302237.392   111943988.113 8      -242.058    21302239.447    87229065.990 7
      -188.621                          49.000          43.000
  21425876.467   112593832.368 8      1298.645    21425878.290    87735497.186 9
      1011.928                          49.000          55.000
  21464898.089   112798756.533 8     -2718.565    21464902.807    87895124.779 9
     -2118.362                          48.000          54.000
  21710604.231   114089962.374 8      2309.465    21710605.410    88901252.320 7
      1799.577                          48.000          39.000
  22887040.056   120272300.408 8      2945.277    22887045.863    93718739.477 8
      2295.016                          45.000          47.000
  23205929.925   121947929.571 7     -3358.916    23205934.731    95024331.804 5
     -2617.329                          42.000          29.000
  24345809.034   127938114.799 6       -12.053    24345813.448    99692077.854 3
        -9.401                          38.000          18.000
  24647049.884   129521107.181 7      3256.495    24647053.118   100925549.690 4
      2537.533                          40.000          25.000
  25180104.281   132322349.013 6     -1966.101    25180112.716   103108357.857 5
     -1532.029                          35.000          29.000
  25202686.295   132440994.276 7       407.428    25202688.654   103200772.227 5
       317.467                          39.000          32.000
 23 11  9  9 31 30.0000000  0 11G09G11G07G06G20G30G04G16G05G26G29
  20858471.231   109611992.308 8     -2096.335    20858474.662    85411946.478 9
     -1633.501                          50.000          56.000
  21303681.459   111951577.122 8      -261.950    21303683.389    87234979.481 7
      -204.115                          49.000          43.000
  21418509.212   112555116.816 8      1284.316    21418510.927    87705329.226 9
      1000.764                          49.000          54.000
  21480464.992   112880561.807 8     -2733.169    21480470.192    87958869.031 9
     -2129.743                          49.000          55.000
  21697449.271   114020833.847 8      2301.074    21697450.754    88847385.933 6
      1793.042                          48.000          38.000
  22870253.288   120184086.035 8      2937.725    22870258.631    93650001.060 8
      2289.126                          45.000          46.000
  23225119.343   122048772.132 7     -3361.957    23225124.114    95102910.297 5
     -2619.708                          42.000          29.000
  24345938.334   127938796.826 6       -31.536    24345943.266    99692609.211 3
       -24.560                          38.000          18.000
  24628465.528   129423446.962 7      3256.055    24628468.441   100849450.857 4
      2537.180                          39.000          24.000
  25191377.848   132381591.233 6     -1981.602    25191385.728   103154520.537 5
     -1544.097                          34.000          28.000
  25200416.840   132429070.303 7       389.491    25200419.842   103191480.781 5
       303.501                          39.000          32.000
 23 11  9  9 32  0.0000000  0 11G09G11G07G06G20G30G04G16G05G29G26
  20870474.908   109675070.540 8     -2107.817    20870478.178    85461098.294 9
     -1642.451                          50.000          57.000
  21305241.764   111959776.038 8      -283.528    21305243.569    87241368.222 7
      -220.931                          49.000          43.000
  21411226.299   112516844.734 8      1268.238    21411227.782    87675506.826 9
       988.238                          49.000          55.000
  21496118.042   112962818.223 8     -2749.466    21496123.278    88022964.823 9
     -2142.435                          49.000          56.000
  21684345.255   113951971.005 8      2290.869    21684346.417    88793726.580 7
      1785.098                          47.000          39.000
  22853512.068   120096110.816 8      2928.366    22853517.375    93581448.994 8
      2281.842                          45.000          47.000
  23244328.936   122149717.072 7     -3366.633    23244334.440    95181568.542 5
     -2623.346                          43.000          30.000
  24346181.317   127940075.415 6       -52.459    24346187.017    99693605.393 3
       -40.843                          38.000          18.000
  24609887.283   129325813.409 7      3253.721    24609889.588   100773372.819 4
      2535.359                          39.000          25.000
  25198253.080   132417696.082 6       369.938    25198255.689   103182617.715 5
       288.268                          38.000          32.000
  25202742.171   132441310.495 6     -1998.659    25202750.052   103201054.963 5
     -1557.390                          35.000          28.000
 23 11  9  9 32 30.0000000  0 11G09G11G07G06G20G30G04G16G05G29G26
  20882540.841   109738478.359 8     -2118.069    20882544.075    85510506.937 9
     -1650.442                          50.000          57.000
  21306922.292   111968607.912 8      -304.030    21306924.115    87248250.167 7
      -236.905                          49.000          43.000
  21404032.444   112479039.856 8      1253.318    21404033.731    87646048.482 9
       976.610                          49.000          55.000
  21511860.705   113045546.369 8     -2764.491    21511865.726    88087428.201 9
     -2154.148                          49.000          55.000
  21671296.258   113883398.906 8      2281.797    21671297.384    88740293.784 7
      1778.027                          48.000          39.000
  22836821.400   120008399.871 8      2920.215    22836826.904    93513102.858 8
      2275.489                          46.000          49.000
  23263561.330   122250785.940 7     -3370.045    23263567.638    95260323.364 5
     -2626.001                          44.000          30.000
  24346542.951   127941973.968 6       -72.589    24346548.311    99695084.682 3
       -56.559                          38.000          19.000
  24591317.473   129228231.085 6      3252.808    24591320.136   100697334.674 4
      2534.659                          38.000          24.000
  25196197.481   132406894.630 7       351.450    25196200.268   103174200.941 5
       273.856                          39.000          32.000
  25214200.825   132501527.962 6     -2014.615    25214209.367   103247977.603 5
     -1569.828                          36.000          30.000
 23 11  9  9 33  0.0000000  0 11G09G11G07G06G20G30G04G16G05G29G26
  20894664.920   109802191.180 8     -2128.434    20894668.207    85560153.245 9
     -1658.517                          50.000          57.000
  21308719.219   111978049.644 8      -324.501    21308720.773    87255607.326 7
      -252.853                          49.000          44.000
  21396922.986   112441680.172 8      1238.259    21396924.433    87616937.040 9
       964.879                          49.000          55.000
  21527688.531   113128720.686 8     -2779.481    21527692.784    88152239.261 9
     -2165.825                          48.000          54.000
  21658298.813   113815096.270 8      2272.629    21658299.814    88687070.961 7
      1770.879                          48.000          39.000
  22820177.066   119920932.248 8      2911.861    22820182.606    93444946.321 8
      2268.985                          46.000          50.000
  23282812.861   122351954.272 7     -3373.476    23282819.473    95339155.675 5
     -2628.669                          43.000          30.000
  24347018.749   127944469.998 6       -92.823    24347023.449    99697029.503 3
       -72.325                          37.000          18.000
  24572752.738   129130678.012 6      3251.664    24572756.383   100621319.311 4
      2533.777                          38.000          24.000
  25194246.344   132396643.615 7       332.918    25194249.168   103166213.076 6
       259.420                          39.000          33.000
  25225750.379   132562218.767 6     -2030.498    25225758.527   103295269.094 5
     -1582.205                          36.000          30.000
 23 11  9  9 33 30.0000000  0 11G09G11G07G06G20G30G04G16G05G29G26
  20906844.142   109866192.166 8     -2139.223    20906847.430    85610024.102 9
     -1666.924                          50.000          57.000
  21310628.989   111988085.865 8      -345.545    21310630.847    87263427.729 7
      -269.258                          50.000          44.000
  21389895.760   112404751.228 8      1222.665    21389897.207    87588161.239 9
       952.734                          49.000          55.000
  21543597.376   113212323.324 8     -2794.946    21543601.986    88217384.090 9
     -2177.881                          48.000          54.000
  21645349.990   113747049.270 8      2262.861    21645351.026    88634047.340 7
      1763.263                          47.000          39.000
  22803576.172   119833694.656 8      2902.925    22803581.926    93376969.020 8
      2262.016                          46.000          49.000
  23302080.385   122453205.234 7     -3377.515    23302086.925    95418052.373 5
     -2631.824                          43.000          30.000
  24347604.513   127947548.763 6      -113.346    24347609.463    99699428.410 3
       -88.312                          37.000          18.000
  24554192.255   129033140.714 6      3249.881    24554196.275   100545316.226 4
      2532.369                          38.000          24.000
  25192397.740   132386927.774 6       313.834    25192400.421   103158642.250 5
       244.546                          38.000          31.000
  25237385.454   132623365.685 6     -2046.987    25237394.442   103342916.040 5
     -1595.055                          36.000          29.000
 23 11  9  9 34  0.0000000  0 11G09G11G07G06G20G30G04G16G05G29G26
  20919077.632   109930479.320 8     -2148.133    20919080.688    85660117.949 9
     -1673.869                          50.000          57.000
  21312652.012   111998716.051 8      -364.750    21312653.978    87271710.961 7
      -284.221                          49.000          44.000
  21382950.267   112368253.509 8      1208.884    21382951.697    87559721.449 9
       941.988                          49.000          55.000
  21559587.382   113296351.289 8     -2808.485    21559592.421    88282860.335 9
     -2188.427                          49.000          54.000
  21632450.003   113679259.949 8      2254.846    21632451.039    88581224.520 7
      1757.024                          48.000          40.000
  22787019.504   119746688.697 8      2895.851    22787024.954    93309172.201 8
      2256.505                          45.000          48.000
  23321363.724   122554536.932 7     -3379.596    23321370.228    95497011.987 5
     -2633.440                          43.000          30.000
  24348301.495   127951210.591 6      -132.259    24348307.231    99702281.640 3
      -103.051                          37.000          18.000
  24535634.238   128935619.277 6      3249.710    24535638.777   100469325.475 4
      2532.250                          38.000          23.000
  25190650.758   132377747.308 6       296.556    25190653.349   103151488.567 5
       231.094                          38.000          30.000
  25249107.658   132684966.398 6     -2061.468    25249116.378   103390916.621 5
     -1606.341                          36.000          29.000
