     2.11           OBSERVATION DATA    M: Mixed            RINEX VERSION / TYPE
RTKCONV demo5 b34f.1                    20231029 203032 UTC PGM / RUN BY / DATE 
format: u-blox UBX                                          COMMENT             
log: C:\Users\oo\Desktop\divers\verniquet\Reseau\verniquet\mCOMMENT             
                                                            MARKER NAME         
                                                            MARKER NUMBER       
                                                            OBSERVER / AGENCY   
                                                            REC # / TYPE / VERS 
                                                            ANT # / TYPE        
  4201919.9304   178883.4763  4779109.5561                  APPROX POSITION XYZ 
        0.0000        0.0000        0.0000                  ANTENNA: DELTA H/E/N
     1     1                                                WAVELENGTH FACT L1/2
     4    C1    L1    D1    S1                              # / TYPES OF OBSERV 
  2023    10    29    17    30   39.9940000     GPS         TIME OF FIRST OBS   
  2023    10    29    18    20   14.9940000     GPS         TIME OF LAST OBS    
                                                            END OF HEADER       
 23 10 29 17 30 39.9940000  0 10G10G25G32G23G12G19G17G15G24G06
  22224624.139   116791183.7773      -2087.978          38.000  
  20320189.508   106783316.0323       2952.587          44.000  
  21599414.841   113505683.7663       2628.436          39.000  
  23235285.398   122102243.8133      -3296.605          40.000  
  18486266.704    97145982.6153        883.174          47.000  
  20529504.155   107883272.2463      -1585.705          38.000  
  22602689.499   118777906.7353      -2972.871          32.000  
  21984540.448   115529536.1693      -4013.110          40.000  
  18759339.891    98580998.7183      -1732.343          46.000  
  23092540.447   121351968.1623       2455.728          29.000  
 23 10 29 17 30 40.9940000  0 10G10G25G32G23G12G19G17G15G24G06
  22225021.899   116793272.9132      -2089.505          38.000  
  20319627.744   106780364.2672       2951.319          43.000  
  21598915.457   113503056.2782       2627.111          39.000  
  23235913.117   122105541.0252      -3297.722          40.000  
  18486098.492    97145100.3082        881.649          47.000  
  20529805.974   107884858.7082      -1587.067          38.000  
  22603262.220   118780880.5012      -2974.233          33.000  
  21985304.513   115533549.9432      -4014.172          40.000  
  18759669.502    98582732.0432      -1733.808          46.000  
  23092070.041   121349513.7382       2453.881          29.000  
 23 10 29 17 30 41.9940000  0 10G10G25G32G23G12G19G17G15G24G06
  22225419.384   116795362.1122      -2092.787          38.000  
  20319066.065   106777412.4502       2947.792          44.000  
  21598415.720   113500428.8962       2623.445          39.000  
  23236540.688   122108837.9522      -3300.891          39.000  
  18485930.588    97144218.2032        878.088          47.000  
  20530107.731   107886445.5162      -1590.868          38.000  
  22603827.221   118783854.2412      -2977.865          33.000  
  21986068.518   115537563.5232      -4016.986          41.000  
  18759998.702    98584465.4872      -1737.380          45.000  
  23091592.295                        2451.748          28.000  
 23 10 29 17 30 42.9940000  0 10G10G25G32G23G12G19G17G15G24G06
  22225817.243   116797453.3982      -2091.189          38.000  
  20318504.681   106774462.5092       2950.227          43.000  
  21597916.672   113497803.4222       2625.684          40.000  
  23237168.466   122112136.4912      -3297.400          39.000  
  18485763.553    97143338.2052        880.463          47.000  
  20530409.956   107888034.4492      -1588.893          38.000  
  22604394.599   118786829.9232      -2975.123          34.000  
  21986832.746   115541578.7372      -4014.233          41.000  
  18760328.415    98586200.9332      -1735.167          45.000  
  23091110.220   121344602.6663       2452.711          27.000  
 23 10 29 17 30 43.9940000  0 10G10G25G32G23G12G19G17G15G24G06
  22226214.008   116799542.1342      -2087.029          36.000  
  20317943.020   106771509.9022       2955.264          45.000  
  21597416.512   113495175.4272       2630.381          38.000  
  23237795.507   122115432.2112      -3293.595          39.000  
  18485595.409    97142455.8142        884.567          46.000  
  20530712.118   107889621.0482      -1584.780          38.000  
  22604961.066   118789802.9882      -2971.145          34.000  
  21987596.712   115545591.1462      -4010.272          41.000  
  18760657.982    98587933.8812      -1730.724          47.000  
  23090639.156   121342127.3183       2456.951          27.000  
 23 10 29 17 30 44.9940000  0 10G10G25G32G23G12G19G17G15G24G06
  22226611.721   116801632.3622      -2093.964          38.000  
  20317381.229   106768558.7142       2946.822          44.000  
  21596916.724   113492548.8492       2622.237          39.000  
  23238422.880   122118729.0222      -3300.750          39.000  
  18485427.985    97141575.0082        876.537          46.000  
  20531013.786   107891209.3862      -1592.406          35.000  
  22605527.149   118792777.3802      -2979.400          35.000  
  21988360.942   115549604.6852      -4017.480          41.000  
  18760987.940    98589668.3382      -1738.932          45.000  
  23090170.604                        2451.473          25.000  
 23 10 29 17 30 45.9940000  0 10G10G25G32G23G12G19G17G15G24G06
  22227010.393   116803727.7162      -2092.239          35.000  
  20316820.774   106765612.4032       2948.889          44.000  
  21596418.097   113489927.2732       2623.777          39.000  
  23239050.954   122122030.4982      -3298.395          39.000  
  18485261.551    97140699.3882        877.734          46.000  
  20531317.077   107892802.9602      -1591.539          34.000  
  22606094.303   118795756.6792      -2976.342          34.000  
  21989125.678   115553622.9902      -4016.333          40.000  
  18761318.713    98591407.8672      -1737.654          46.000  
  23089700.882                        2449.881          23.000  
 23 10 29 17 35 38.9940000  0  9G10G25G32G12G19G17G15G24G06
  22348362.730                       -2244.364          20.000  
  20155997.061   105920484.2291       2828.844          43.000  
  21454280.987   112743005.6511       2476.697          45.000  
  18441788.260    96912248.1291        689.904          47.000  
  20626184.338   108391329.2211      -1803.938          46.000  
  22775599.914   119686588.190       -3097.329          40.000  
  22215053.124   116740871.0723      -4073.035          33.000  
  18862939.393    99125420.8251      -1897.861          44.000  
  22956431.538                        2340.854          19.000  
 23 10 29 17 35 39.9940000  0  9G10G25G32G12G19G17G15G24G06
  22348793.700                       -2244.364          19.000  
  20155459.054   105917656.847        2830.866          43.000  
  21453809.855   112740530.110        2478.645          44.000  
  18441657.246    96911559.278         692.014          46.000  
  20626527.926   108393134.817       -1802.455          44.000  
  22776189.580   119689686.874       -3095.590          39.000  
  22215828.537   116744944.6922      -4070.398          33.000  
  18863300.815    99127319.717       -1895.573          44.000  
  22955986.147                        2338.576          18.000  
 23 10 29 17 35 40.9940000  0  9G10G25G32G12G19G17G15G24G06
  22349217.838                       -2244.364          20.000  
  20154920.060   105914825.991        2830.688          44.000  
  21453338.006   112738051.181        2478.672          45.000  
  18441525.872    96910867.175         691.882          47.000  
  20626871.263   108394937.201       -1802.527          46.000  
  22776778.938   119692782.058       -3095.412          40.000  
  22216602.710   116749014.6012      -4069.319          33.000  
  18863661.729    99129215.298       -1895.595          43.000  
  22955539.422                        2333.380          20.000  
 23 10 29 17 35 41.9940000  0  9G10G25G32G12G19G17G15G24G06
  22349648.113                       -2244.364          19.000  
  20154382.085   105911997.576        2826.108          44.000  
  21452867.035   112735574.805        2474.259          44.000  
  18441394.404    96910177.765         686.838          46.000  
  20627214.985   108396742.386       -1807.803          45.000  
  22777368.541   119695879.679       -3100.437          40.000  
  22217374.142   116753086.7502      -4074.960          31.000  
  18864022.731    99131113.441       -1900.762          44.000  
  22955094.563                        2339.778          22.000  
 23 10 29 17 35 42.9940000  0  9G10G25G32G12G19G17G15G24G06
  22350075.739                       -2244.364          18.000  
  20153843.925   105909170.962        2825.936          42.000  
  21452396.505   112733100.363        2473.062          44.000  
  18441263.393    96909490.370         686.847          46.000  
  20627559.114   108398549.650       -1807.965          44.000  
  22777958.319   119698979.072       -3100.048          39.000  
  22218144.238   116757159.9051      -4074.060          30.000  
  18864384.306    99133013.521       -1900.628          44.000  
  22954649.596                        2336.705          20.000  
 23 10 29 17 35 43.9940000  0  9G10G25G32G12G19G17G15G24G06
  22350505.551                       -2244.364          18.000  
  20153307.433   105906351.640        2828.688          43.000  
  21451926.303   112730633.282        2476.100          43.000  
  18441133.822    96908810.515         689.024          45.000  
  20627904.323   108400364.512       -1805.649          44.000  
  22778549.729   119702085.749       -3097.750          39.000  
  22218923.377                       -4073.822          30.000  
  18864747.552    99134921.022       -1898.421          44.000  
  22954207.447                        2325.226          18.000  
 23 10 29 17 35 44.9940000  0  9G10G25G32G12G19G17G15G24G06
  22350932.237                       -2244.364          17.000  
  20152769.888   105903527.544        2823.810          43.000  
  21451455.415   112728161.494        2471.630          43.000  
  18441003.138    96908126.078         684.228          45.000  
  20628249.050   108402174.889       -1810.656          44.000  
  22779139.559   119705187.597       -3102.426          38.000  
  22219698.176   116765301.0793      -4078.227          29.000  
  18865109.838    99136823.846       -1902.889          43.000  
  22953768.890                        2311.156          16.000  
 23 10 29 17 35 45.9940000  0  9G10G25G32G12G19G17G15G24G06
  22351362.651                       -2244.364          16.000  
  20152232.260   105900701.983        2825.102          43.000  
  21450984.307   112725688.361        2472.410          44.000  
  18440872.261    96907440.408         685.029          44.000  
  20628593.305   108403984.075       -1809.484          45.000  
  22779729.401   119708287.913       -3099.951          36.000  
  22220471.822   116769366.9262      -4074.349          30.000  
  18865471.725    99138725.387       -1902.107          43.000  
  22953327.962                        2311.156          14.000  
 23 10 29 17 35 46.9940000  0  8G25G32G12G19G17G15G24G06
  20151694.549   105897877.022        2825.052          44.000  
  21450513.902   112723215.898        2472.308          44.000  
  18440741.886    96906755.551         684.611          44.000  
  20628937.408   108405794.176       -1810.230          45.000  
  22780319.362   119711388.885       -3100.754          36.000  
  22221237.147   116773441.1902      -4074.680          30.000  
  18865833.767    99140627.549       -1902.239          43.000  
  22952886.644                        2329.940          12.000  
 23 10 29 17 35 47.9940000  0  8G25G32G12G19G17G15G24G06
  20151157.357   105895052.397        2823.738          43.000  
  21450043.228   112720743.942        2471.350          42.000  
  18440611.304    96906071.310         683.473          44.000  
  20629282.150   108407604.961       -1811.093          45.000  
  22780909.620   119714490.278       -3103.529          34.000  
  22222014.216   116777515.6722      -4074.302          31.000  
  18866195.894    99142530.333       -1903.424          44.000  
  22952445.786                        2329.940          12.000  
 23 10 29 17 35 48.9940000  0  8G25G32G12G19G17G15G24G06
  20150619.591   105892227.641        2826.990          44.000  
  21449572.373   112718271.885        2474.040          43.000  
  18440481.112    96905387.093         685.858          43.000  
  20629626.646   108409415.876       -1809.314          44.000  
  22781499.749   119717591.327       -3098.807          35.000  
  22222790.143                       -4072.383          24.000  
  18866557.759    99144433.016       -1900.793          43.000  
  22952000.984                        2325.516          16.000  
 23 10 29 17 35 49.9940000  0  8G25G32G12G19G17G15G24G06
  20150081.619   105889401.909        2826.318          44.000  
  21449101.444   112715799.009        2473.473          43.000  
  18440350.772    96904702.173         685.531          43.000  
  20629971.214   108411226.125       -1810.072          45.000  
  22782089.706   119720691.480       -3099.661          36.000  
  22223562.960                       -4072.631          24.000  
  18866919.316    99146334.856       -1901.422          43.000  
  22951554.641                        2334.347          19.000  
 23 10 29 17 35 50.9940000  0  8G25G32G12G19G17G15G24G06
  20149543.641   105886575.811        2825.873          44.000  
  21448630.831   112713325.844        2472.762          43.000  
  18440220.317    96904017.092         684.615          44.000  
  20630315.768   108413036.291       -1810.662          45.000  
  22782679.790   119723791.249       -3100.494          35.000  
  22224327.454                       -4075.791          23.000  
  18867281.116    99148236.467       -1901.969          43.000  
  22951110.050                        2336.124          22.000  
 23 10 29 17 35 51.9940000  0  8G25G32G12G19G17G15G24G06
  20149005.974   105883751.627        2820.475          43.000  
  21448160.232   112710854.655        2467.725          43.000  
  18440090.465    96903334.091         679.312          44.000  
  20630660.571   108414848.660       -1816.551          44.000  
  22783270.220   119726892.854       -3105.878          36.000  
  22225111.519   116793748.7513      -4078.158          26.000  
  18867643.596    99150140.050       -1907.234          42.000  
  22950667.648                        2333.215          21.000  
 23 10 29 17 35 52.9940000  0  9G10G25G32G12G19G17G15G24G06
  22354388.879                       -2259.690          23.000  
  20148468.662   105880929.156        2823.608          42.000  
  21447690.073   112708385.332        2470.074          43.000  
  18439960.810    96902653.140         681.814          44.000  
  20631005.689   108416663.033       -1813.383          44.000  
  22783860.975   119729996.161       -3102.560          38.000  
  22225895.361   116797824.2512      -4075.756          30.000  
  18868005.976    99152045.579       -1904.619          42.000  
  22950224.572                        2333.728          21.000  
 23 10 29 17 35 53.9940000  0  9G10G25G32G12G19G17G15G24G06
  22354823.969                       -2259.690          23.000  
  20147932.554                        2815.004          42.000  
  21447221.233   112705907.4983       2461.667          42.000  
  18439832.167                         673.128          44.000  
  20631352.453                       -1822.725          44.000  
  22784452.252                       -3110.705          38.000  
  22226667.987                       -4083.066          29.000  
  18868369.080    99153948.6163      -1912.775          43.000  
  22949781.081                        2321.215          20.000  
 23 10 29 17 35 54.9940000  0  8G25G32G12G19G17G15G24G06
  20147396.222   105875280.6493       2824.252          41.000  
  21446751.875   112703441.8722       2470.850          42.000  
  18439703.478    96901294.3203        682.323          45.000  
  20631698.964   108420306.6843      -1813.500          44.000  
  22785043.880   119736210.7173      -3100.908          39.000  
  22227443.121   116806000.9783      -4076.254          29.000  
  18868732.680    99155858.8472      -1903.900          43.000  
  22949340.378                        2336.980          20.000  
 23 10 29 17 35 55.9940000  0  8G25G32G12G19G17G15G24G06
  20146859.586   105872459.1472       2818.987          42.000  
  21446281.908   112700973.7772       2465.345          43.000  
  18439574.687    96900614.9762        676.381          45.000  
  20632044.463   108422122.9222      -1819.220          44.000  
  22785634.810   119739314.9722      -3107.214          36.000  
  22228225.504                       -4079.315          29.000  
  18869095.852    99157765.6452      -1909.642          43.000  
  22948898.179                        2315.436          19.000  
 23 10 29 17 35 56.9940000  0  8G25G32G12G19G17G15G24G06
  20146322.508   105869639.0142       2823.817          42.000  
  21445812.765   112698507.1562       2470.152          43.000  
  18439445.475    96899937.2152        681.247          45.000  
  20632389.864   108423940.8202      -1814.417          44.000  
  22786225.733   119742420.5632      -3102.504          34.000  
  22228998.060   116814172.9653      -4074.178          30.000  
  18869459.019    99159673.9712      -1904.866          43.000  
  22948459.478                        2323.803          19.000  
 23 10 29 17 35 57.9940000  0  8G25G32G12G19G17G15G24G06
  20145787.713   105866827.8462       2812.942          42.000  
  21445345.025   112696049.6312       2459.235          42.000  
  18439318.982    96899268.6642        670.358          46.000  
  20632737.237   108425768.0262      -1825.503          44.000  
  22786818.384   119745535.0562      -3112.115          34.000  
  22229777.687   116818269.5753      -4084.719          30.000  
  18869824.265    99161591.3882      -1915.630          44.000  
  22948018.533                        2325.015          18.000  
 23 10 29 17 35 58.9940000  0  9G10G25G32G12G19G17G15G24G06
  22356990.486   117486777.3533      -2277.336          26.000  
  20145252.118   105864013.6672       2812.245          44.000  
  21444876.530   112693589.1942       2458.041          44.000  
  18439191.232    96898597.3342        669.048          47.000  
  20633084.178   108427592.5392      -1826.971          45.000  
  22787409.946   119748646.6332      -3113.911          36.000  
  22230554.704                       -4087.598          34.000  
  18870188.787    99163505.9342      -1916.846          46.000  
  22947577.221                        2325.309          15.000  
 23 10 29 17 35 59.9940000  0  9G10G25G32G12G19G17G15G24G06
  22357421.511   117489042.4052      -2266.690          26.000  
  20144716.396   105861199.1643       2814.375          42.000  
  21444407.754   112691122.4713       2460.607          44.000  
  18439063.463    96897931.8623        671.294          44.000  
  20633430.800   108429409.9793      -1824.579          43.000  
  22788001.077   119751753.7573      -3111.278          35.000  
  22231330.790   116826430.9473      -4079.130          28.000  
  18870553.272    99165426.2553      -1914.385          44.000  
  22947134.531                        2325.309          14.000  
 23 10 29 17 36 00.9940000  0  9G10G25G32G12G19G17G15G24G06
  22357852.343   117491308.7142      -2265.544          26.000  
  20144180.984   105858384.1032       2815.427          43.000  
  21443938.976   112688661.3562       2461.359          43.000  
  18438935.658    96897260.0802        672.228          45.000  
  20633777.922   108431234.1952      -1824.143          45.000  
  22788592.748   119754864.2912      -3110.734          33.000  
  22232104.931   116830511.8322      -4079.682          31.000  
  18870917.881    99167340.1262      -1913.320          45.000  
  22946695.776                        2325.309          15.000  
 23 10 29 17 36 01.9940000  0  9G10G25G32G12G19G17G15G24G06
  22358276.549   117493574.3282      -2265.508          27.000  
  20143645.293   105855568.2822       2815.375          44.000  
  21443470.278   112686199.5482       2461.755          43.000  
  18438807.796    96896587.7312        672.266          45.000  
  20634124.874   108433057.9142      -1823.989          44.000  
  22789183.990   119757974.1222      -3109.889          35.000  
  22232882.838   116834591.8972      -4080.252          37.000  
  18871282.235    99169253.3722      -1913.248          45.000  
  22946257.797                        2323.355          17.000  
 23 10 29 17 36 02.9940000  0  9G10G25G32G12G19G17G15G24G06
  22358707.044   117495840.1762      -2266.416          27.000  
  20143109.842   105852752.5072       2816.251          40.000  
  21443002.093   112683737.8072       2462.062          43.000  
  18438679.829    96895915.5562        671.934          43.000  
  20634472.319   108434881.9142      -1824.098          45.000  
  22789775.072   119761083.8532      -3109.725          34.000  
  22233661.345   116838671.5592      -4079.746          38.000  
  18871646.063    99171166.7302      -1913.698          46.000  
  22945822.480                        2332.117          19.000  
 23 10 29 17 36 03.9940000  0  9G10G25G32G12G19G17G15G24G06
  22359136.405   117498106.0902      -2266.491          28.000  
  20142574.164   105849936.7102       2815.494          45.000  
  21442533.719   112681276.2342       2461.424          44.000  
  18438551.941    96895243.7992        671.626          46.000  
  20634819.353   108436706.3182      -1824.771          45.000  
  22790366.164   119764193.6722      -3109.727          35.000  
  22234437.181   116842751.0512      -4079.550          38.000  
  18872010.389    99173080.2842      -1913.658          46.000  
  22945381.033                        2332.117          18.000  
 23 10 29 17 36 04.9940000  0  9G10G25G32G12G19G17G15G24G06
  22359566.784   117500372.0522      -2264.598          26.000  
  20142038.096   105847120.9682       2815.684          46.000  
  21442065.420   112678814.9652       2461.465          39.000  
  18438424.055    96894572.2182        671.535          44.000  
  20635166.368   108438531.0552      -1824.790          44.000  
  22790957.442   119767303.5222      -3110.254          34.000  
  22235213.374   116846830.3982      -4078.816          38.000  
  18872374.586    99174994.0322      -1913.979          46.000  
  22944940.391                        2332.117          16.000  
 23 10 29 17 36 05.9940000  0  9G10G25G32G12G19G17G15G24G06
  22359997.023   117502638.5772      -2266.426          25.000  
  20141502.540   105844305.4782       2815.391          46.000  
  21441597.763   112676353.9152       2460.795          41.000  
  18438296.151    96893901.1282        670.855          46.000  
  20635513.008   108440356.3302      -1825.666          44.000  
  22791548.433   119770413.5352      -3110.417          33.000  
  22235989.985   116850909.7252      -4079.318          38.000  
  18872738.674    99176908.0992      -1914.351          46.000  
  22944501.978                        2325.713          16.000  
 23 10 29 17 36 06.9940000  0  9G10G25G32G12G19G17G15G24G06
  22360425.031   117504905.2902      -2265.914          25.000  
  20140967.331   105841489.7481       2815.461          45.000  
  21441130.573   112673893.222        2461.022          41.000  
  18438168.629    96893229.9741        670.718          46.000  
  20635860.147   108442182.108       -1825.663          44.000  
  22792139.884   119773523.816       -3110.080          33.000  
  22236766.181   116854988.5891      -4078.733          38.000  
  18873103.019    99178822.558       -1914.298          46.000  
  22944062.089                        2325.713          13.000  
 23 10 29 17 36 07.9940000  0  9G10G25G32G12G19G17G15G24G06
  22360852.420   117507172.5532      -2267.583          25.000  
  20140431.489   105838674.761        2814.946          45.000  
  21440663.201   112671432.878        2460.255          41.000  
  18438040.841    96892559.812         669.845          46.000  
  20636207.679   108444008.471       -1826.769          44.000  
  22792731.475   119776634.379       -3110.666          34.000  
  22237542.319   116859067.958       -4079.481          38.000  
  18873467.284    99180737.395       -1915.102          46.000  
  22943620.251                        2325.713          11.000  
 23 10 29 17 36 08.9940000  0  8G10G25G32G12G19G17G15G24
  22361283.739   117509439.8542      -2267.023          25.000  
  20139895.990   105835859.941        2814.509          45.000  
  21440196.125   112668972.765        2459.793          42.000  
  18437913.088    96891890.032         669.329          46.000  
  20636555.161   108445835.301       -1827.293          44.000  
  22793323.384   119779744.946       -3110.193          34.000  
  22238318.710   116863147.212       -4079.201          39.000  
  18873831.714    99182652.515       -1915.525          46.000  
 23 10 29 17 36 09.9940000  0  8G10G25G32G12G19G17G15G24
  22361712.480                       -2266.928          23.000  
  20139360.259   105833045.243        2814.281          46.000  
  21439729.098   112666512.871        2459.530          42.000  
  18437785.579    96891220.597         668.946          47.000  
  20636902.383   108447662.527       -1827.602          44.000  
  22793915.435   119782855.699       -3110.923          35.000  
  22239095.089   116867226.375       -4079.499          39.000  
  18874196.212    99184567.883       -1915.897          46.000  
 23 10 29 17 36 10.9940000  0  8G10G25G32G12G19G17G15G24
  22362141.675                       -2266.928          20.000  
  20138824.562   105830230.594        2814.542          45.000  
  21439262.089   112664053.153        2459.466          40.000  
  18437657.914    96890551.403         669.036          46.000  
  20637250.123   108449490.096       -1827.849          44.000  
  22794507.366   119785966.481       -3110.940          35.000  
  22239871.703   116871305.305       -4078.913          39.000  
  18874560.481    99186483.444       -1915.741          46.000  
 23 10 29 17 36 11.9940000  0  9G10G25G32G12G19G17G15G24G06
  22362574.924                       -2273.873          20.000  
  20138289.073   105827416.243        2814.178          47.000  
  21438797.468   112661594.028        2455.456          31.000  
  18437530.470    96889882.783         668.264          43.000  
  20637598.204   108451318.300       -1828.698          44.000  
  22795099.223   119789077.495       -3110.318          33.000  
  22240648.279   116875384.360       -4079.539          39.000  
  18874925.311    99188399.401       -1915.923          46.000  
  22941855.114                        2325.713          12.000  
 23 10 29 17 36 12.9940000  0  9G10G25G32G12G19G17G15G24G06
  22363008.135                       -2263.687          21.000  
  20137753.727   105824602.042        2813.992          45.000  
  21438343.633   112659255.8943       2459.655          34.000  
  18437402.693    96889214.538         668.159          44.000  
  20637945.981   108453146.899       -1828.980          44.000  
  22795690.958   119792188.680       -3111.100          34.000  
  22241424.560   116879463.239       -4078.695          39.000  
  18875290.229    99190315.642       -1916.426          47.000  
  22941413.536                        2325.713          14.000  
 23 10 29 17 36 13.9940000  0  9G10G25G32G12G19G17G15G24G06
  22363443.363                       -2263.670          22.000  
  20137218.206   105821788.031        2813.948          45.000  
  21437876.024   112656797.0052       2459.914          32.000  
  18437275.171    96888546.615         668.234          43.000  
  20638293.831   108454975.990       -1829.127          44.000  
  22796283.087   119795299.917       -3110.901          36.000  
  22242200.971   116883542.078       -4078.298          39.000  
  18875654.915    99192232.157       -1916.246          46.000  
  22940973.367                        2325.713          13.000  
 23 10 29 17 36 14.9940000  0  9G10G25G32G12G19G17G15G24G06
  22363877.465                       -2271.060          21.000  
  20136682.960   105818974.235        2813.611          44.000  
  21437401.045   112654338.5742       2458.936          36.000  
  18437147.839    96887879.181         667.868          42.000  
  20638641.760   108456805.593       -1829.634          44.000  
  22796874.959   119798411.486       -3111.232          33.000  
  22242977.137   116887620.915       -4078.410          39.000  
  18876019.690    99194149.065       -1916.832          45.000  
  22940528.136                        2325.713          13.000  
 23 10 29 17 36 15.9940000  0  9G10G25G32G12G19G17G15G24G06
  22364309.914                       -2263.898          20.000  
  20136147.334   105816160.383        2813.637          45.000  
  21436929.721   112651880.0892       2457.276          34.000  
  18437020.390    96887211.895         667.053          43.000  
  20638990.119   108458635.540       -1830.191          42.000  
  22797467.176   119801522.907       -3110.340          30.000  
  22243753.316   116891699.492       -4078.908          39.000  
  18876384.413    99196066.009       -1917.293          45.000  
  22940086.390                        2325.713          13.000  
 23 10 29 17 36 16.9940000  0  8G10G25G32G12G19G17G15G24
  22364742.651                       -2276.421          19.000  
  20135611.702   105813346.400        2814.033          44.000  
  21436456.685   112649421.5742       2457.949          35.000  
  18436893.832    96886545.025         667.460          39.000  
  20639338.567   108460466.196       -1830.349          41.000  
  22798059.352                       -3111.216          25.000  
  22244529.657   116895778.469       -4078.983          34.000  
  18876749.004    99197983.526       -1917.343          42.000  
 23 10 29 17 36 17.9940000  0  8G10G25G32G12G19G17G15G24
  22365170.160                       -2275.146          19.000  
  20135076.002   105810533.032        2813.577          40.000  
  21435987.771   112646963.8402       2457.405          35.000  
  18436767.049    96885878.721         665.535          41.000  
  20639687.615   108462297.200       -1831.662          39.000  
  22798655.364   119807741.7013      -3113.048          31.000  
  22245306.006   116899857.088       -4079.615          36.000  
  18877113.483    99199901.164       -1918.555          43.000  
 23 10 29 17 36 18.9940000  0  8G10G25G32G12G19G17G15G24
  22365600.993                       -2267.967          18.000  
  20134540.756   105807719.989        2812.695          40.000  
  21435521.896   112644506.5322       2457.178          35.000  
  18436640.557    96885212.868         665.550          43.000  
  20640036.525   108464128.747       -1831.928          41.000  
  22799250.202   119810853.8382      -3112.466          33.000  
  22246082.523   116903935.712       -4078.291          36.000  
  18877478.212    99201819.257       -1918.387          43.000  
 23 10 29 17 36 19.9940000  0  8G10G25G32G12G19G17G15G24
  22366032.746                       -2267.967          16.000  
  20134005.261   105804907.147        2812.827          40.000  
  21435054.566   112642049.4832       2457.459          35.000  
  18436514.109    96884547.559         665.223          42.000  
  20640385.128   108465960.787       -1832.352          41.000  
  22799839.695   119813966.1962      -3111.975          33.000  
  22246858.676   116908014.290       -4078.291          36.000  
  18877842.799    99203737.743       -1918.348          43.000  
 23 10 29 17 36 20.9940000  0  8G10G25G32G12G19G17G15G24
  22366463.485                       -2271.003          15.000  
  20133469.975   105802094.455        2813.283          39.000  
  21434586.813   112639592.6942       2457.753          31.000  
  18436387.965    96883882.335         664.000          44.000  
  20640734.207   108467792.914       -1836.619          38.000  
  22800433.873   119817078.4032      -3115.490          34.000  
  22247634.685   116912092.529       -4079.883          35.000  
  18878207.740    99205656.173       -1920.677          47.000  
 23 10 29 17 36 21.9940000  0  8G10G25G32G12G19G17G15G24
  22366894.817                       -2271.003          13.000  
  20132934.738   105799281.976        2812.520          40.000  
  21434116.748   112637136.1212       2457.486          31.000  
  18436262.228    96883217.843         664.406          43.000  
  20641083.303   108469626.125       -1834.915          38.000  
  22801029.113   119820191.1992      -3114.039          34.000  
  22248410.729   116916171.032       -4078.533          35.000  
  18878572.925    99207575.330       -1919.629          46.000  
 23 10 29 17 36 22.9940000  0  7G25G32G12G19G17G15G24
  20132399.450   105796469.737        2811.841          40.000  
  21433648.742   112634680.0972       2456.003          34.000  
  18436136.303    96882553.973         663.868          44.000  
  20641432.266   108471459.949       -1833.929          42.000  
  22801619.750   119823304.3412      -3112.936          35.000  
  22249186.984   116920249.653       -4078.873          35.000  
  18878938.075    99209495.040       -1919.872          46.000  
 23 10 29 17 36 23.9940000  0  7G25G32G12G19G17G15G24
  20131864.139   105793657.948        2812.048          42.000  
  21433184.296   112632224.5532       2455.253          34.000  
  18436010.290    96881890.526         663.676          44.000  
  20641781.475   108473294.233       -1833.861          43.000  
  22802213.304   119826417.6602      -3113.011          36.000  
  22249963.687   116924328.288       -4078.380          36.000  
  18879303.566    99211415.051       -1920.101          46.000  
 23 10 29 17 36 24.9940000  0  8G25G32G12G19G17G15G24G06
  20131328.969   105790846.296        2811.866          42.000  
  21432721.950                        2455.590          29.000  
  18435884.622    96881227.526         663.248          46.000  
  20642130.408   108475128.868       -1834.246          45.000  
  22802805.529   119829530.971       -3113.448          37.000  
  22250739.886   116928406.928       -4078.514          36.000  
  18879668.685    99213335.393       -1919.679          47.000  
  22936040.736                        2319.296          17.000  
 23 10 29 17 36 25.9940000  0  9G10G25G32G12G19G17G15G24G06
  22368612.444                       -2271.955          16.000  
  20130793.939   105788035.001        2810.831          42.000  
  21432265.740   112627316.1463       2454.257          34.000  
  18435759.022    96880565.071         661.893          47.000  
  20642478.906   108476964.266       -1835.887          45.000  
  22803397.454   119832644.782       -3114.216          39.000  
  22251516.141   116932485.590       -4078.978          35.000  
  18880034.468    99215256.187       -1921.205          47.000  
  22935597.042                        2311.507          18.000  
 23 10 29 17 36 26.9940000  0  9G10G25G32G12G19G17G15G24G06
  22369040.481                       -2274.947          18.000  
  20130259.131   105785224.009        2810.926          44.000  
  21431774.109   112624861.3642       2454.135          41.000  
  18435633.141    96879903.109         661.568          48.000  
  20642827.980   108478800.265       -1835.987          46.000  
  22803989.466   119835758.856       -3114.873          39.000  
  22252292.523   116936564.358       -4079.850          36.000  
  18880400.151    99217177.382       -1921.639          47.000  
  22935153.255                        2322.792          20.000  
 23 10 29 17 36 27.9940000  0  9G10G25G32G12G19G17G15G24G06
  22369469.263                       -2274.346          20.000  
  20129723.824   105782413.319        2810.935          34.000  
  21431308.081   112622407.1572       2454.138          43.000  
  18435507.288    96879241.479         661.332          47.000  
  20643176.915   108480636.625       -1836.636          46.000  
  22804581.637   119838872.955       -3113.965          39.000  
  22253068.371   116940642.910       -4078.816          36.000  
  18880765.759    99219098.756       -1921.669          47.000  
  22934710.766                        2319.121          21.000  
 23 10 29 17 36 28.9940000  0  9G10G25G32G12G19G17G15G24G06
  22369895.360                       -2277.312          20.000  
  20129188.711   105779602.483        2810.105          40.000  
  21430839.154   112619953.2432       2453.488          43.000  
  18435381.258    96878580.387         660.501          48.000  
  20643526.410   108482473.597       -1837.524          45.000  
  22805173.677   119841987.332       -3114.801          38.000  
  22253844.474   116944721.513       -4078.838          36.000  
  18881131.718    99221020.547       -1922.238          47.000  
  22934268.645                        2314.780          21.000  
 23 10 29 17 36 29.9940000  0  9G10G25G32G12G19G17G15G24G06
  22370323.639                       -2275.680          19.000  
  20128653.851   105776792.208        2810.134          42.000  
  21430375.031   112617499.8182       2453.091          43.000  
  18435255.352    96877919.847         660.109          48.000  
  20643876.223   108484311.220       -1838.195          46.000  
  22805765.754   119845102.067       -3115.399          37.000  
  22254620.234   116948800.261       -4078.859          36.000  
  18881497.298    99222942.827       -1922.548          47.000  
  22933833.539                        2315.337          22.000  
 23 10 29 17 36 30.9940000  0  9G10G25G32G12G19G17G15G24G06
  22370753.516                       -2273.099          19.000  
  20128119.261   105773982.263        2809.962          42.000  
  21429907.851   112615046.7112       2453.127          43.000  
  18435129.645    96877259.755         660.047          47.000  
  20644226.070   108486149.334       -1838.010          46.000  
  22806357.763   119848216.953       -3114.635          37.000  
  22255396.548   116952879.043       -4079.081          37.000  
  18881863.334    99224865.465       -1922.712          47.000  
  22933390.866                        2325.058          23.000  
 23 10 29 17 36 31.9940000  0  9G10G25G32G12G19G17G15G24G06
  22371182.595                       -2274.576          18.000  
  20127584.719   105771172.383        2810.037          32.000  
  21429440.168   112612593.7702       2453.149          43.000  
  18435003.932    96876599.941         659.911          47.000  
  20644575.774   108487987.811       -1838.267          46.000  
  22806949.884   119851331.869       -3114.895          37.000  
  22256172.400   116956957.547       -4077.989          37.000  
  18882229.437    99226788.268       -1922.645          47.000  
  22932945.013                        2313.489          22.000  
 23 10 29 17 36 32.9940000  0  9G10G25G32G12G19G17G15G24G06
  22371614.516                       -2273.223          17.000  
  20127050.138   105768362.693        2808.858          37.000  
  21428973.671   112610141.3482       2451.852          42.000  
  18434878.563    96875940.747         658.872          47.000  
  20644925.981   108489826.991       -1839.643          46.000  
  22807542.217   119854447.198       -3115.842          37.000  
  22256948.817   116961036.213       -4078.757          36.000  
  18882595.373    99228711.605       -1923.733          47.000  
  22932499.548                        2315.969          22.000  
 23 10 29 17 36 33.9940000  0  9G10G25G32G12G19G17G15G24G06
  22372046.641                       -2269.539          16.000  
  20126515.518   105765553.396        2808.958          41.000  
  21428507.022   112607689.2532       2451.602          43.000  
  18434753.181    96875282.052         658.557          47.000  
  20645276.507   108491666.723       -1839.932          46.000  
  22808134.416   119857562.772       -3115.908          37.000  
  22257725.086   116965114.911       -4078.452          37.000  
  18882961.426    99230635.334       -1923.859          47.000  
  22932059.617                        2320.520          22.000  
 23 10 29 17 36 34.9940000  0  9G10G25G32G12G19G17G15G24G06
  22372480.649                       -2269.539          15.000  
  20125981.210   105762744.303        2809.157          41.000  
  21428041.284   112605237.4062       2451.485          43.000  
  18434627.594    96874623.670         658.335          47.000  
  20645626.938   108493506.868       -1840.482          46.000  
  22808727.012   119860678.389       -3115.886          36.000  
  22258501.692   116969193.475       -4077.895          38.000  
  18883327.638    99232559.301       -1924.231          47.000  
  22931622.337                        2312.879          23.000  
 23 10 29 17 36 35.9940000  0  9G10G25G32G12G19G17G15G24G06
  22372913.530                       -2273.280          15.000  
  20125446.601   105759935.494        2808.202          42.000  
  21427575.026   112602786.0602       2450.687          43.000  
  18434502.419    96873965.963         657.087          47.000  
  20645977.705   108495347.715       -1841.213          46.000  
  22809319.602   119863794.417       -3117.033          37.000  
  22259277.863   116973272.270       -4078.893          39.000  
  18883693.907    99234483.801       -1925.045          47.000  
  22931178.525                        2318.460          22.000  
 23 10 29 17 36 36.9940000  0  9G10G25G32G12G19G17G15G24G06
  22373347.552                       -2273.280          14.000  
  20124912.059   105757127.099        2808.256          42.000  
  21427108.751   112600335.201        2450.596          43.000  
  18434377.351    96873308.827         656.791          47.000  
  20646328.082   108497189.251       -1841.971          45.000  
  22809912.165   119866910.831       -3116.482          36.000  
  22260054.212   116977351.173       -4079.261          39.000  
  18884060.031    99236408.801       -1925.349          46.000  
  22930736.241                        2318.510          22.000  
 23 10 29 17 36 37.9940000  0  9G10G25G32G12G19G17G15G24G06
  22373780.017                       -2273.280          12.000  
  20124377.849   105754318.849        2808.400          42.000  
  21426642.573   112597884.584        2450.235          43.000  
  18434252.410    96872652.043         656.637          47.000  
  20646678.698   108499031.208       -1842.104          45.000  
  22810504.627   119870027.273       -3116.017          36.000  
  22260830.561   116981429.922       -4078.907          37.000  
  18884426.260    99238334.053       -1925.395          46.000  
  22930293.799                        2323.862          21.000  
 23 10 29 17 36 38.9940000  0  9G10G25G32G12G19G17G15G24G06
  22374216.699                       -2273.280          13.000  
  20123843.630   105751510.841        2808.014          42.000  
  21426176.316   112595434.308        2449.961          43.000  
  18434127.534    96871995.733         656.030          47.000  
  20647029.253   108500873.714       -1842.623          46.000  
  22811097.448   119873144.024       -3116.944          36.000  
  22261606.725   116985508.693       -4078.527          38.000  
  18884792.623    99240259.678       -1925.889          46.000  
  22929852.110                        2318.286          21.000  
 23 10 29 17 36 39.9940000  0  9G10G25G32G12G19G17G15G24G06
  22374649.197                       -2273.280          12.000  
  20123309.372   105748702.974        2807.883          42.000  
  21425710.402   112592984.266        2449.980          43.000  
  18434002.488    96871339.783         655.656          47.000  
  20647380.011   108502716.649       -1843.244          46.000  
  22811690.266   119876260.823       -3117.064          36.000  
  22262382.614   116989587.376       -4078.842          37.000  
  18885159.052    99242185.556       -1926.056          46.000  
  22929410.301                        2320.382          21.000  
 23 10 29 17 36 40.9940000  0  9G10G25G32G12G19G17G15G24G06
  22375082.664                       -2273.280          11.000  
  20122774.957   105745895.428        2807.394          42.000  
  21425244.289   112590534.665        2449.473          43.000  
  18433877.634    96870684.395         655.204          47.000  
  20647730.854   108504560.205       -1843.706          46.000  
  22812283.622   119879377.941       -3117.746          36.000  
  22263158.490   116993666.132       -4078.650          36.000  
  18885525.679    99244111.902       -1926.422          46.000  
  22928972.429                        2309.791          21.000  
 23 10 29 17 36 41.9940000  0  9G10G25G32G12G19G17G15G24G06
  22375514.215                       -2275.327          11.000  
  20122240.571   105743088.191        2806.368          42.000  
  21424778.299   112588085.449        2448.834          43.000  
  18433753.087    96870029.501         654.299          47.000  
  20648081.916   108506404.344       -1844.687          46.000  
  22812876.419   119882495.293       -3118.632          36.000  
  22263934.373   116997744.894       -4079.323          37.000  
  18885892.419    99246038.639       -1927.248          46.000  
  22928531.465                        2314.592          21.000  
 23 10 29 17 36 42.9940000  0  8G25G32G12G19G17G15G24G06
  20121706.336   105740281.157        2807.174          42.000  
  21424312.260   112585636.550        2448.837          43.000  
  18433628.759    96869375.041         654.678          47.000  
  20648433.025   108508248.995       -1844.728          46.000  
  22813469.515   119885612.830       -3117.393          37.000  
  22264710.140   117001823.639       -4078.404          37.000  
  18886258.961    99247965.728       -1926.864          46.000  
  22928092.301                        2314.004          21.000  
 23 10 29 17 36 43.9940000  0  8G25G32G12G19G17G15G24G06
  20121172.297   105737474.460        2806.822          42.000  
  21423845.931   112583188.095        2448.482          42.000  
  18433504.256    96868721.175         653.828          47.000  
  20648784.067   108510094.303       -1845.577          46.000  
  22814062.844   119888730.726       -3118.091          37.000  
  22265486.116   117005902.513       -4078.679          37.000  
  18886625.697    99249893.290       -1927.557          47.000  
  22927657.603                        2310.069          22.000  
 23 10 29 17 36 44.9940000  0  8G25G32G12G19G17G15G24G06
  20120638.156   105734667.936        2806.492          42.000  
  21423379.487   112580739.914        2447.961          42.000  
  18433379.611    96868067.668         653.197          47.000  
  20649135.355   108511940.039       -1846.058          46.000  
  22814656.001   119891848.721       -3118.185          36.000  
  22266262.238   117009981.299       -4078.768          37.000  
  18886992.681    99251821.125       -1928.278          47.000  
  22927219.542                        2313.106          22.000  
 23 10 29 17 36 45.9940000  0  9G10G25G32G12G19G17G15G24G06
  22377255.640                       -2275.327          11.000  
  20120104.071   105731861.843        2806.122          42.000  
  21422913.444   112578292.235        2447.680          42.000  
  18433255.269    96867414.808         652.677          47.000  
  20649486.811   108513786.497       -1846.736          46.000  
  22815249.670   119894967.092       -3118.048          37.000  
  22267038.001   117014060.267       -4079.538          36.000  
  18887359.926    99253749.491       -1928.723          47.000  
  22926777.316                        2313.359          23.000  
 23 10 29 17 36 46.9940000  0  9G10G25G32G12G19G17G15G24G06
  22377693.215                       -2275.327          13.000  
  20119570.229   105729056.042        2805.337          41.000  
  21422447.857   112575844.997        2446.816          42.000  
  18433130.873    96866762.486         651.796          46.000  
  20649838.738   108515633.560       -1847.776          46.000  
  22815843.364   119898085.812       -3119.314          37.000  
  22267814.215   117018139.265       -4079.070          37.000  
  18887726.899    99255678.296       -1929.266          47.000  
  22926340.064                        2317.524          23.000  
 23 10 29 17 36 47.9940000  0  9G10G25G32G12G19G17G15G24G06
  22378133.098                       -2278.870          15.000  
  20119036.549   105726250.486        2805.740          41.000  
  21421982.058   112573398.099        2446.851          42.000  
  18433006.674    96866110.639         651.877          46.000  
  20650190.713   108517481.170       -1847.868          46.000  
  22816436.880   119901204.723       -3119.058          37.000  
  22268590.525   117022218.314       -4079.241          37.000  
  18888094.013    99257607.481       -1929.358          46.000  
  22925901.824                        2309.792          23.000  
 23 10 29 17 36 48.9940000  0  9G10G25G32G12G19G17G15G24G06
  22378576.927                       -2285.018          19.000  
  20118502.801   105723445.259        2804.841          42.000  
  21421516.441   112570951.621        2446.028          42.000  
  18432882.607    96865459.327         650.944          46.000  
  20650542.425   108519329.364       -1848.681          46.000  
  22817030.583   119904323.932       -3120.007          37.000  
  22269366.955   117026297.369       -4079.209          37.000  
  18888461.091    99259537.098       -1930.176          46.000  
  22925460.652                        2309.538          23.000  
 23 10 29 17 36 49.9940000  0  9G10G25G32G12G19G17G15G24G06
  22379019.111                       -2277.188          21.000  
  20117968.862   105720640.176        2804.769          42.000  
  21421050.734   112568505.403        2445.744          42.000  
  18432759.027    96864808.392         650.599          46.000  
  20650893.981   108521178.041       -1849.256          46.000  
  22817624.137   119907443.271       -3119.937          36.000  
  22270143.444   117030376.378       -4079.498          37.000  
  18888828.351    99261466.991       -1930.267          46.000  
  22925021.816                        2307.144          23.000  
 23 10 29 17 36 50.9940000  0  9G10G25G32G12G19G17G15G24G06
  22379459.569                       -2280.658          20.000  
  20117435.193   105717835.393        2804.613          42.000  
  21420585.020   112566059.575        2445.528          42.000  
  18432635.316    96864157.966         650.233          46.000  
  20651245.799   108523027.285       -1849.671          46.000  
  22818217.922   119910562.847       -3119.659          37.000  
  22270919.922   117034455.400       -4079.095          38.000  
  18889195.374    99263397.299       -1930.603          46.000  
  22924583.519                        2309.322          24.000  
 23 10 29 17 36 51.9940000  0  9G10G25G32G12G19G17G15G24G06
  22379896.652                       -2275.759          20.000  
  20116901.796   105715030.762        2805.018          42.000  
  21420119.464   112563613.999        2445.764          42.000  
  18432511.391    96863507.922         650.239          46.000  
  20651597.844   108524876.982       -1849.659          46.000  
  22818811.733   119913682.590       -3119.384          37.000  
  22271696.142   117038534.315       -4078.435          38.000  
  18889562.383    99265327.878       -1930.493          46.000  
  22924144.643                        2310.110          25.000  
 23 10 29 17 36 52.9940000  0  9G10G25G32G12G19G17G15G24G06
  22380334.360                       -2284.998          21.000  
  20116368.585   105712226.432        2804.254          42.000  
  21419653.922   112561168.799        2444.897          42.000  
  18432387.514    96862858.372         649.314          46.000  
  20651950.003   108526727.251       -1850.649          46.000  
  22819405.723   119916802.605       -3120.418          37.000  
  22272472.424   117042613.295       -4079.002          38.000  
  18889929.762    99267258.865       -1931.262          46.000  
  22923709.106                        2312.234          25.000  
 23 10 29 17 36 53.9940000  0  9G10G25G32G12G19G17G15G24G06
  22380773.228                       -2274.544          23.000  
  20115835.097   105709422.248        2804.155          41.000  
  21419188.796   112558723.905        2444.644          41.000  
  18432263.859    96862209.232         648.817          46.000  
  20652302.273   108528578.005       -1851.318          45.000  
  22819999.587   119919922.745       -3120.204          35.000  
  22273248.732   117046692.249       -4079.668          36.000  
  18890297.323    99269190.156       -1931.708          45.000  
  22923270.401                        2314.137          26.000  
 23 10 29 17 36 54.9940000  0  9G10G25G32G12G19G17G15G24G06
  22381210.703                       -2288.324          23.000  
  20115301.450   105706618.655        2803.752          41.000  
  21418723.965   112556279.665        2443.829          41.000  
  18432140.443    96861560.884         648.289          46.000  
  20652654.521   108530429.587       -1851.711          45.000  
  22820593.784   119923043.403       -3121.089          36.000  
  22274025.291   117050771.447       -4079.314          37.000  
  18890664.886    99271122.137       -1932.330          45.000  
  22922831.242                        2311.844          25.000  
 23 10 29 17 36 55.9940000  0  9G10G25G32G12G19G17G15G24G06
  22381648.573                       -2283.877          23.000  
  20114767.940   105703815.419        2803.455          41.000  
  21418258.799   112553835.863        2443.880          41.000  
  18432017.408    96860913.094         647.348          46.000  
  20653006.712   108532281.837       -1852.712          45.000  
  22821187.909   119926164.391       -3121.157          36.000  
  22274801.640   117054850.760       -4079.368          37.000  
  18891032.734    99273054.578       -1932.776          45.000  
  22922392.277                        2311.329          26.000  
 23 10 29 17 36 56.9940000  0  9G10G25G32G12G19G17G15G24G06
  22382086.093                       -2280.619          23.000  
  20114234.631   105701012.500        2802.910          41.000  
  21417793.487   112551392.515        2443.412          40.000  
  18431894.312    96860265.847         647.258          45.000  
  20653359.413   108534134.690       -1852.820          45.000  
  22821782.059   119929285.696       -3121.785          36.000  
  22275578.157   117058930.140       -4079.215          36.000  
  18891400.419    99274987.453       -1932.611          44.000  
  22921954.043                        2311.957          25.000  
 23 10 29 17 36 57.9940000  0  9G10G25G32G12G19G17G15G24G06
  22382525.376                       -2272.487          23.000  
  20113700.798   105698209.411        2802.677          41.000  
  21417328.007   112548949.123        2442.617          40.000  
  18431771.248    96859618.678         647.069          45.000  
  20653712.126   108535987.680       -1853.059          45.000  
  22822376.134   119932406.755       -3120.921          36.000  
  22276354.509   117063009.130       -4079.155          38.000  
  18891768.038    99276920.328       -1933.179          44.000  
  22921516.324                        2311.280          25.000  
 23 10 29 17 36 58.9940000  0  9G10G25G32G12G19G17G15G24G06
  22382963.320                       -2272.690          22.000  
  20113167.482   105695406.496        2803.189          40.000  
  21416863.340   112546506.005        2443.132          40.000  
  18431648.632    96858971.891         646.630          45.000  
  20654064.712   108537841.148       -1853.643          45.000  
  22822970.495   119935528.003       -3121.033          36.000  
  22277130.688   117067088.005       -4078.904          37.000  
  18892135.856    99278853.477       -1933.331          45.000  
  22921078.248                        2312.453          26.000  
 23 10 29 17 36 59.9940000  0  9G10G25G32G12G19G17G15G24G06
  22383398.086                       -2281.769          20.000  
  20112633.973   105692603.845        2802.555          40.000  
  21416398.839   112544063.191        2442.460          40.000  
  18431525.768    96858325.591         645.604          45.000  
  20654416.977   108539695.152       -1854.524          44.000  
  22823564.612   119938649.488       -3121.891          35.000  
  22277906.987   117071166.991       -4079.499          36.000  
  18892503.748    99280786.988       -1933.875          44.000  
  22920641.890   120448785.4303       2310.779          27.000  
 23 10 29 17 37 00.9940000  0  9G10G25G32G12G19G17G15G24G06
  22383830.635                       -2281.769          18.000  
  20112100.380   105689801.178        2802.754          39.000  
  21415934.188   112541620.482        2442.684          41.000  
  18431402.911    96857679.477         645.848          45.000  
  20654769.675   108541549.412       -1854.197          44.000  
  22824159.021   119941770.917       -3121.826          35.000  
  22278683.022   117075245.619       -4078.582          36.000  
  18892871.727    99282720.609       -1933.655          44.000  
  22920204.395   120446473.8602       2311.371          27.000  
 23 10 29 17 37 01.9940000  0  9G10G25G32G12G19G17G15G24G06
  22384266.092                       -2281.769          14.000  
  20111566.115   105686994.677        2807.644          39.000  
  21415469.360   112539174.050        2447.451          42.000  
  18431279.279    96857029.758         650.610          45.000  
  20655121.885   108543400.161       -1849.767          44.000  
  22824752.771   119944888.466       -3116.526          36.000  
  22279458.501   117079320.198       -4073.381          36.000  
  18893238.882    99284650.533       -1928.937          44.000  
  22919766.303                        2316.906          26.000  
 23 10 29 17 37 02.9940000  0  9G10G25G32G12G19G17G15G24G06
  22384701.333                       -2279.215          12.000  
  20111032.468   105684189.900        2802.958          39.000  
  21415004.715   112536729.470        2442.859          42.000  
  18431155.762    96856382.006         645.746          45.000  
  20655474.181   108545252.909       -1854.690          43.000  
  22825346.715   119948007.769       -3121.050          35.000  
  22280234.231   117083396.249       -4077.742          35.000  
  18893606.382    99286582.283       -1933.374          44.000  
  22919328.887                        2312.865          26.000  
 23 10 29 17 37 03.9940000  0  9G10G25G32G12G19G17G15G24G06
  22385134.993                       -2279.215          14.000  
  20110499.499   105681387.090        2798.087          39.000  
  21414540.441   112534286.944        2437.732          41.000  
  18431033.024    96855736.443         640.599          45.000  
  20655827.241   108547107.948       -1859.847          44.000  
  22825941.159   119951128.993       -3126.735          35.000  
  22281010.615   117087474.087       -4083.386          36.000  
  18893974.232    99288516.160       -1938.599          44.000  
  22918888.121                        2307.951          26.000  
 23 10 29 17 37 04.9940000  0  9G10G25G32G12G19G17G15G24G06
  22385567.023                       -2279.215          14.000  
  20109966.840   105678585.910        2800.748          42.000  
  21414075.995   112531846.109        2440.607          41.000  
  18430910.407    96855092.674         643.518          44.000  
  20656180.751   108548964.836       -1857.427          44.000  
  22826535.721   119954251.695       -3122.658          36.000  
  22281786.877   117091553.228       -4079.881          37.000  
  18894342.207    99290451.750       -1936.005          44.000  
  22918444.696                        2300.220          24.000  
 23 10 29 17 37 05.9940000  0  9G10G25G32G12G19G17G15G24G06
  22385997.784                       -2289.473          17.000  
  20109434.187   105675784.786        2800.849          42.000  
  21413611.680   112529405.437        2440.236          43.000  
  18430787.940    96854449.158         643.302          45.000  
  20656534.243   108550822.090       -1857.419          43.000  
  22827130.127   119957374.527       -3123.099          36.000  
  22282562.969   117095632.135       -4079.178          37.000  
  18894710.599    99292387.469       -1935.773          44.000  
  22918004.307                        2306.684          24.000  
 23 10 29 17 37 06.9940000  0  9G10G25G32G12G19G17G15G24G06
  22386432.260                       -2284.644          19.000  
  20108901.229   105672983.891        2800.507          41.000  
  21413147.589   112526965.106        2440.120          42.000  
  18430665.642    96853806.134         642.753          45.000  
  20656887.795   108552679.874       -1858.495          43.000  
  22827724.183   119960497.511       -3123.261          36.000  
  22283339.333   117099711.049       -4078.960          37.000  
  18895078.818    99294323.578       -1936.255          44.000  
  22917563.708                        2310.159          24.000  
 23 10 29 17 37 07.9940000  0  9G10G25G32G12G19G17G15G24G06
  22386865.915                       -2287.929          23.000  
  20108368.487   105670183.149        2800.491          41.000  
  21412683.341   112524525.035        2439.902          42.000  
  18430543.213    96853163.466         642.595          45.000  
  20657241.020   108554538.082       -1858.170          43.000  
  22828318.607   119963620.630       -3123.148          36.000  
  22284115.556   117103789.861       -4078.663          36.000  
  18895447.144    99296259.956       -1936.261          44.000  
  22917121.823                        2316.159          24.000  
 23 10 29 17 37 08.9940000  0  9G10G25G32G12G19G17G15G24G06
  22387301.795                       -2286.675          23.000  
  20107835.904   105667382.456        2800.735          42.000  
  21412219.043   112522085.162        2439.568          42.000  
  18430420.735    96852521.153         641.955          45.000  
  20657594.498   108556396.711       -1858.817          43.000  
  22828912.894   119966743.853       -3123.126          36.000  
  22284891.689   117107868.593       -4078.824          36.000  
  18895815.326    99298196.553       -1936.682          44.000  
  22916678.980                        2312.373          23.000  
 23 10 29 17 37 09.9940000  0  9G10G25G32G12G19G17G15G24G06
  22387738.391                       -2287.772          23.000  
  20107303.455   105664582.260        2800.048          41.000  
  21411755.131   112519645.843        2438.956          42.000  
  18430298.902    96851879.471         641.282          45.000  
  20657948.240   108558256.070       -1859.938          43.000  
  22829506.980   119969867.466       -3123.947          36.000  
  22285667.784   117111947.469       -4079.037          36.000  
  18896183.772    99300133.723       -1937.585          44.000  
  22916239.293                        2310.038          23.000  
 23 10 29 17 37 10.9940000  0  9G10G25G32G12G19G17G15G24G06
  22388175.353                       -2289.085          24.000  
  20106770.828   105661782.191        2799.804          41.000  
  21411290.799   112517206.751        2438.880          42.000  
  18430176.894    96851238.169         641.036          45.000  
  20658302.063   108560115.855       -1860.304          43.000  
  22830101.258   119972991.186       -3123.973          36.000  
  22286443.882   117116026.242       -4079.300          36.000  
  18896552.447    99302071.142       -1937.823          44.000  
  22915799.330                        2307.849          23.000  
 23 10 29 17 37 11.9940000  0  9G10G25G32G12G19G17G15G24G06
  22388611.556                       -2289.397          25.000  
  20106238.162   105658982.327        2799.472          41.000  
  21410827.046   112514767.981        2438.368          42.000  
  18430054.900    96850597.285         640.298          45.000  
  20658656.248   108561976.130       -1860.752          43.000  
  22830695.781   119976115.067       -3124.146          36.000  
  22287220.262   117120104.959       -4079.294          37.000  
  18896921.286    99304008.885       -1938.281          44.000  
  22915361.255                        2314.314          23.000  
 23 10 29 17 37 12.9940000  0  9G10G25G32G12G19G17G15G24G06
  22389046.665                       -2288.420          25.000  
  20105705.348   105656182.500        2799.789          41.000  
  21410362.947   112512329.366        2438.437          41.000  
  18429933.095    96849956.673         640.340          45.000  
  20659009.927   108563836.751       -1860.890          42.000  
  22831290.525   119979238.966       -3124.160          36.000  
  22287996.644   117124183.468       -4078.744          36.000  
  18897290.070    99305946.794       -1937.982          43.000  
  22914922.155                        2314.260          23.000  
 23 10 29 17 37 13.9940000  0  9G10G25G32G12G19G17G15G24G06
  22389480.808                       -2287.958          26.000  
  20105172.783   105653382.722        2799.666          41.000  
  21409899.211   112509890.883        2438.037          42.000  
  18429811.231    96849316.314         639.866          45.000  
  20659364.011   108565697.688       -1861.401          42.000  
  22831885.148   119982362.856       -3124.085          36.000  
  22288772.773   117128261.780       -4077.919          36.000  
  18897659.016    99307884.868       -1938.385          43.000  
  22914480.006                        2306.377          23.000  
 23 10 29 17 37 14.9940000  0  9G10G25G32G12G19G17G15G24G06
  22389916.163                       -2281.714          25.000  
  20104639.622   105650583.228        2799.481          41.000  
  21409435.537   112507452.775        2437.959          42.000  
  18429689.501    96848676.439         639.821          45.000  
  20659718.371   108567559.185       -1861.775          43.000  
  22832479.653   119985487.038       -3124.858          35.000  
  22289548.847   117132340.066       -4078.682          38.000  
  18898027.905    99309823.318       -1938.593          44.000  
  22914041.831                        2308.727          23.000  
 23 10 29 17 37 15.9940000  0  9G10G25G32G12G19G17G15G24G06
  22390347.611                       -2298.553          23.000  
  20104106.631   105647783.934        2799.267          40.000  
  21408971.676   112505014.985        2437.677          42.000  
  18429567.764    96848037.033         639.276          45.000  
  20660072.885   108569421.207       -1862.276          43.000  
  22833074.544   119988611.319       -3123.863          35.000  
  22290324.983   117136418.337       -4077.990          37.000  
  18898397.134    99311762.135       -1938.910          44.000  
  22913602.548                        2302.329          22.000  
 23 10 29 17 37 16.9940000  0  9G10G25G32G12G19G17G15G24G06
  22390778.666                       -2289.366          21.000  
  20103573.892   105644984.652        2799.116          41.000  
  21408507.731   112502577.321        2437.260          42.000  
  18429446.177    96847397.843         638.832          45.000  
  20660427.295   108571283.519       -1862.795          43.000  
  22833669.640   119991735.651       -3124.343          36.000  
  22291101.136   117140496.424       -4078.097          37.000  
  18898766.278    99313701.060       -1939.343          44.000  
  22913162.397                        2315.394          23.000  
 23 10 29 17 37 17.9940000  0  9G10G25G32G12G19G17G15G24G06
  22391209.562                       -2290.372          22.000  
  20103040.940   105642185.832        2798.572          40.000  
  21408044.441   112500140.205        2436.722          42.000  
  18429324.922    96846759.318         637.962          45.000  
  20660781.874   108573146.570       -1863.542          43.000  
  22834264.130   119994860.389       -3124.986          36.000  
  22291877.232   117144574.673       -4078.509          37.000  
  18899135.710    99315640.554       -1939.825          44.000  
  22912723.624                        2312.125          23.000  
 23 10 29 17 37 18.9940000  0  9G10G25G32G12G19G17G15G24G06
  22391638.818                       -2290.499          22.000  
  20102508.207   105639387.220        2798.479          40.000  
  21407580.834   112497703.418        2436.722          42.000  
  18429203.636    96846121.252         637.879          45.000  
  20661136.480   108575010.129       -1863.906          43.000  
  22834859.320   119997985.340       -3125.348          36.000  
  22292653.315   117148652.924       -4078.232          36.000  
  18899505.109    99317580.403       -1939.935          44.000  
  22912287.609                        2305.262          24.000  
 23 10 29 17 37 19.9940000  0  9G10G25G32G12G19G17G15G24G06
  22392069.173                       -2280.595          21.000  
  20101975.833   105636588.636        2798.885          40.000  
  21407117.330   112495266.760        2436.742          42.000  
  18429082.381    96845483.415         637.990          45.000  
  20661491.047   108576874.010       -1863.960          43.000  
  22835454.106   120001110.247       -3124.928          36.000  
  22293429.501   117152730.946       -4077.832          36.000  
  18899874.563    99319520.386       -1939.825          44.000  
  22911852.605                        2307.177          25.000  
 23 10 29 17 37 20.9940000  0  9G10G25G32G12G19G17G15G24G06
  22392499.766                       -2287.077          22.000  
  20101443.285   105633790.216        2797.990          41.000  
  21406653.576   112492830.319        2436.359          42.000  
  18428961.347    96844845.945         637.249          45.000  
  20661846.015   108578738.319       -1864.649          43.000  
  22836048.892   120004235.283       -3125.413          36.000  
  22294205.514   117156808.798       -4077.873          36.000  
  18900244.095    99321460.614       -1940.436          44.000  
  22911416.287   120400304.9553       2307.266          27.000  
 23 10 29 17 37 21.9940000  0  9G10G25G32G12G19G17G15G24G06
  22392935.166                       -2292.086          21.000  
  20100910.912   105630992.170        2797.791          40.000  
  21406189.668   112490394.415        2435.702          42.000  
  18428840.303    96844209.100         636.554          45.000  
  20662200.795   108580603.316       -1865.138          43.000  
  22836643.844   120007360.679       -3125.420          36.000  
  22294981.556   117160886.846       -4078.085          37.000  
  18900613.604    99323401.367       -1940.790          45.000  
  22910978.419   120397997.9462       2307.223          26.000  
 23 10 29 17 37 22.9940000  0  9G10G25G32G12G19G17G15G24G06
  22393367.574                       -2296.671          20.000  
  20100378.347   105628194.139        2798.061          40.000  
  21405726.114   112487958.637        2435.416          42.000  
  18428719.273    96843572.513         635.917          45.000  
  20662555.611   108582468.645       -1865.653          42.000  
  22837238.737   120010486.071       -3125.539          36.000  
  22295757.641   117164964.661       -4077.934          37.000  
  18900983.051    99325342.294       -1941.254          45.000  
  22910540.619   120395690.9302       2306.772          27.000  
 23 10 29 17 37 23.9940000  0  9G10G25G32G12G19G17G15G24G06
  22393803.921                       -2289.919          18.000  
  20099846.137   105625396.572        2797.761          40.000  
  21405262.466   112485523.387        2435.424          42.000  
  18428598.456    96842936.549         635.934          45.000  
  20662910.594   108584334.677       -1866.002          42.000  
  22837832.976   120013611.846       -3124.919          35.000  
  22296533.506   117169042.661       -4078.106          37.000  
  18901352.815    99327283.747       -1941.626          45.000  
  22910099.860   120393384.3702       2306.537          27.000  
 23 10 29 17 37 24.9940000  0  9G10G25G32G12G19G17G15G24G06
  22394240.390                       -2289.919          17.000  
  20099313.661   105622599.224        2797.570          40.000  
  21404798.641   112483088.473        2434.846          42.000  
  18428477.193    96842301.027         635.650          45.000  
  20663265.723   108586201.236       -1866.799          42.000  
  22838427.625   120016737.857       -3125.798          36.000  
  22297309.450   117173120.604       -4077.547          36.000  
  18901722.606    99329225.540       -1941.717          45.000  
  22909660.153   120391078.0392       2306.210          28.000  
 23 10 29 17 37 25.9940000  0  9G10G25G32G12G19G17G15G24G06
  22394681.316                       -2289.919          14.000  
  20098781.196   105619801.948        2796.899          40.000  
  21404335.452   112480653.741        2433.936          42.000  
  18428355.988    96841665.820         634.531          45.000  
  20663620.931   108588068.155       -1867.568          42.000  
  22839022.521   120019863.894       -3126.574          36.000  
  22298085.433   117177198.415       -4078.266          36.000  
  18902092.475    99331167.538       -1942.547          45.000  
  22909218.353   120388771.6792       2306.550          27.000  
 23 10 29 17 37 26.9940000  0  9G10G25G32G12G19G17G15G24G06
  22395126.283                       -2290.798          13.000  
  20098248.955   105617004.939        2797.392          41.000  
  21403872.556   112478219.357        2434.622          42.000  
  18428235.213    96841031.086         634.858          45.000  
  20663976.270   108589935.624       -1867.399          42.000  
  22839617.296   120022990.155       -3125.974          36.000  
  22298861.317   117181276.202       -4077.143          36.000  
  18902461.948    99333109.916       -1942.132          45.000  
  22908777.207   120386465.7292       2306.190          27.000  
 23 10 29 17 37 27.9940000  0  9G10G25G32G12G19G17G15G24G06
  22395576.556                       -2290.462          15.000  
  20097716.597   105614208.002        2797.078          41.000  
  21403409.318   112475785.161        2434.204          42.000  
  18428114.477    96840396.643         634.498          45.000  
  20664331.739   108591803.458       -1867.885          42.000  
  22840212.327   120026116.456       -3126.257          35.000  
  22299637.038   117185353.834       -4077.228          36.000  
  18902831.483    99335052.491       -1942.432          44.000  
  22908338.001   120384159.8102       2305.633          27.000  
 23 10 29 17 37 28.9940000  0  9G10G25G32G12G19G17G15G24G06
  22396019.649                       -2290.256          15.000  
  20097184.721   105611411.350        2796.715          41.000  
  21402945.588   112473351.355        2433.452          42.000  
  18427993.990    96839762.717         633.621          45.000  
  20664687.224   108593671.849       -1868.826          42.000  
  22840806.947   120029243.025       -3127.032          35.000  
  22300412.967   117189431.516       -4077.392          35.000  
  18903201.063    99336995.474       -1943.194          45.000  
  22907898.613   120381854.1032       2305.869          27.000  
 23 10 29 17 37 29.9940000  0  9G10G25G32G12G19G17G15G24G06
  22396454.788                       -2290.256          15.000  
  20096652.758   105608614.913        2796.538          41.000  
  21402482.358   112470917.872        2433.329          42.000  
  18427873.417    96839129.204         633.565          45.000  
  20665043.274   108595540.757       -1868.978          43.000  
  22841401.757   120032369.742       -3126.869          35.000  
  22301188.784   117193509.151       -4077.916          36.000  
  18903570.441    99338938.788       -1943.396          44.000  
  22907462.078   120379548.6472       2305.851          27.000  
 23 10 29 17 37 30.9940000  0  9G10G25G32G12G19G17G15G24G06
  22396888.374                       -2290.256          15.000  
  20096120.507   105605818.579        2796.438          40.000  
  21402019.040   112468484.580        2433.561          42.000  
  18427752.958    96838496.028         633.413          45.000  
  20665399.263   108597410.051       -1869.230          43.000  
  22841996.853   120035496.538       -3126.571          35.000  
  22301964.749   117197586.618       -4077.290          36.000  
  18903940.337    99340882.319       -1943.378          44.000  
  22907025.240   120377242.8341       2305.106          27.000  
 23 10 29 17 37 31.9940000  0  9G10G25G32G12G19G17G15G24G06
  22397322.694                       -2296.882          14.000  
  20095588.321   105603022.322        2796.088          41.000  
  21401556.016   112466051.507        2432.886          42.000  
  18427632.892    96837863.161         632.444          45.000  
  20665755.280   108599279.727       -1869.991          43.000  
  22842591.465   120038623.423       -3127.221          34.000  
  22302740.592   117201663.992       -4077.778          37.000  
  18904310.118    99342826.055       -1943.909          44.000  
  22906587.643   120374937.565        2305.586          27.000  
 23 10 29 17 37 32.9940000  0  9G10G25G32G12G19G17G15G24G06
  22397750.694                       -2296.882          13.000  
  20095056.026   105600226.420        2795.302          41.000  
  21401092.641   112463618.831        2432.512          42.000  
  18427512.383    96837230.816         631.831          45.000  
  20666110.985   108601150.015       -1870.829          43.000  
  22843185.985   120041750.563       -3127.983          34.000  
  22303516.425   117205741.301       -4077.304          36.000  
  18904680.056    99344770.230       -1944.427          44.000  
  22906147.049   120372632.650        2304.288          26.000  
 23 10 29 17 37 33.9940000  0  9G10G25G32G12G19G17G15G24G06
  22398177.803                       -2290.846          15.000  
  20094523.733   105597430.669        2795.270          41.000  
  21400629.784   112461186.478        2431.792          42.000  
  18427391.983    96836598.890         631.372          45.000  
  20666467.304   108603020.786       -1871.324          43.000  
  22843780.789   120044877.864       -3128.002          33.000  
  22304292.222   117209818.629       -4077.445          37.000  
  18905049.911    99346714.722       -1944.952          44.000  
  22905706.874   120370327.782        2305.227          25.000  
 23 10 29 17 37 34.9940000  0  9G10G25G32G12G19G17G15G24G06
  22398607.323                       -2291.834          15.000  
  20093991.624   105594635.293        2795.062          41.000  
  21400166.878   112458754.585        2431.476          42.000  
  18427271.579    96835967.544         630.940          44.000  
  20666823.489   108604892.215       -1871.938          43.000  
  22844375.499   120048005.504       -3127.796          33.000  
  22305068.216   117213896.066       -4077.812          37.000  
  18905420.142    99348659.689       -1945.367          44.000  
  22905268.841   120368023.454        2304.308          24.000  
 23 10 29 17 37 35.9940000  0  9G10G25G32G12G19G17G15G24G06
  22399038.980                       -2297.454          18.000  
  20093459.580   105591840.068        2795.036          41.000  
  21399704.057   112456322.925        2431.360          42.000  
  18427151.484    96835336.561         630.720          44.000  
  20667179.691   108606764.046       -1871.989          43.000  
  22844970.336   120051133.238       -3127.451          33.000  
  22305844.066   117217973.380       -4077.264          37.000  
  18905790.206    99350604.904       -1945.386          44.000  
  22904829.479   120365719.245        2303.670          23.000  
 23 10 29 17 37 36.9940000  0  9G10G25G32G12G19G17G15G24G06
  22399471.462                       -2289.067          19.000  
  20092927.902   105589044.954        2794.984          41.000  
  21399241.186   112453891.463        2431.319          41.000  
  18427031.191    96834705.907         630.358          44.000  
  20667536.097   108608636.300       -1872.767          42.000  
  22845565.377   120054261.051       -3127.875          33.000  
  22306619.952   117222050.550       -4077.086          37.000  
  18906160.439    99352550.366       -1945.728          44.000  
  22904393.191   120363415.045        2304.388          23.000  
 23 10 29 17 37 37.9940000  0  9G10G25G32G12G19G17G15G24G06
  22399901.828                       -2296.644          20.000  
  20092396.155   105586250.287        2794.853          41.000  
  21398778.556   112451460.611        2430.706          41.000  
  18426911.204    96834075.927         629.860          44.000  
  20667892.616   108610509.299       -1873.163          42.000  
  22846160.225   120057389.315       -3127.754          32.000  
  22307395.955   117226127.915       -4077.129          37.000  
  18906530.920    99354496.395       -1945.911          44.000  
  22903957.121                        2303.805          23.000  
 23 10 29 17 37 38.9940000  0  9G10G25G32G12G19G17G15G24G06
  22400332.429                       -2302.854          21.000  
  20091864.370   105583455.661        2794.831          41.000  
  21398315.630   112449029.866        2430.776          41.000  
  18426791.388    96833446.198         629.694          44.000  
  20668248.772   108612382.608       -1873.447          42.000  
  22846755.059   120060517.546       -3127.636          31.000  
  22308171.813   117230205.081       -4076.819          37.000  
  18906901.386    99356442.579       -1945.935          44.000  
  22903519.544                        2302.824          22.000  
 23 10 29 17 37 39.9940000  0  9G10G25G32G12G19G17G15G24G06
  22400765.476                       -2299.555          20.000  
  20091332.518   105580661.225        2794.294          41.000  
  21397853.328   112446599.418        2430.165          42.000  
  18426671.531    96832816.868         628.988          44.000  
  20668605.374   108614256.383       -1874.007          42.000  
  22847349.915   120063645.906       -3127.964          31.000  
  22308947.480   117234282.152       -4076.934          36.000  
  18907271.902    99358389.066       -1946.808          44.000  
  22903082.154                        2303.552          23.000  
 23 10 29 17 37 40.9940000  0  9G10G25G32G12G19G17G15G24G06
  22401195.395                       -2292.120          20.000  
  20090800.845   105577867.272        2794.138          41.000  
  21397390.924   112444169.557        2429.762          42.000  
  18426551.819    96832188.256         628.487          44.000  
  20668961.932   108616130.953       -1874.620          42.000  
  22847942.101   120066774.748       -3128.241          30.000  
  22309723.210   117238359.479       -4076.836          36.000  
  18907642.580    99360336.152       -1946.875          45.000  
  22902645.724                        2303.413          24.000  
 23 10 29 17 37 41.9940000  0  9G10G25G32G12G19G17G15G24G06
  22401630.147                       -2300.186          20.000  
  20090269.023   105575073.315        2794.394          41.000  
  21396928.475   112441739.806        2430.027          42.000  
  18426432.250    96831559.878         628.331          44.000  
  20669318.216   108618005.831       -1874.863          42.000  
  22848526.819   120069903.618       -3128.946          30.000  
  22310498.981   117242436.571       -4076.807          36.000  
  18908013.235    99362283.366       -1946.991          45.000  
  22902208.762                        2303.146          24.000  
 23 10 29 17 37 42.9940000  0  9G10G25G32G12G19G17G15G24G06
  22402067.493                       -2294.559          21.000  
  20089737.258   105572279.726        2793.306          41.000  
  21396466.487   112439310.496        2428.874          42.000  
  18426312.814    96830932.041         627.553          44.000  
  20669675.223   108619881.287       -1875.904          42.000  
  22849119.834   120073032.686       -3129.344          30.000  
  22311274.881   117246513.716       -4077.147          36.000  
  18908383.996    99364231.035       -1948.108          45.000  
  22901770.271                        2302.856          25.000  
 23 10 29 17 37 43.9940000  0  9G10G25G32G12G19G17G15G24G06
  22402504.918                       -2299.155          22.000  
  20089205.952   105569486.354        2793.093          41.000  
  21396004.345   112436881.529        2428.750          42.000  
  18426193.358    96830304.692         627.012          44.000  
  20670032.305   108621757.311       -1876.411          42.000  
  22849716.274   120076162.006       -3128.892          30.000  
  22312050.672   117250590.846       -4077.117          36.000  
  18908754.892    99366179.065       -1948.187          45.000  
  22901330.578                        2301.926          25.000  
 23 10 29 17 37 44.9940000  0  9G10G25G32G12G19G17G15G24G06
  22402945.377                       -2301.092          22.000  
  20088674.575   105566693.090        2793.292          41.000  
  21395542.176   112434452.780        2428.634          42.000  
  18426074.029    96829677.649         626.787          44.000  
  20670389.493   108623633.705       -1876.720          42.000  
  22850313.906   120079291.459       -3130.677          30.000  
  22312826.356   117254667.857       -4077.282          36.000  
  18909125.661    99368127.315       -1948.358          45.000  
  22900891.528                        2304.102          24.000  
 23 10 29 17 37 45.9940000  0  9G10G25G32G12G19G17G15G24G06
  22403385.273                       -2302.543          24.000  
  20088143.085   105563900.366        2793.034          41.000  
  21395080.244   112432024.672        2428.107          42.000  
  18425954.991    96829051.364         626.191          44.000  
  20670747.024   108625510.939       -1877.429          42.000  
  22850911.491   120082421.281       -3129.318          30.000  
  22313602.312   117258745.145       -4077.394          36.000  
  18909496.554    99370076.222       -1948.932          45.000  
  22900449.806                        2301.901          24.000  
 23 10 29 17 37 46.9940000  0  9G10G25G32G12G19G17G15G24G06
  22403825.487                       -2297.405          24.000  
  20087611.656   105561107.717        2792.740          41.000  
  21394618.653   112429596.717        2427.915          42.000  
  18425835.629    96828425.359         625.851          44.000  
  20671104.128   108627388.505       -1877.745          43.000  
  22851506.398   120085551.269       -3130.619          30.000  
  22314377.972   117262822.196       -4076.808          36.000  
  18909867.430    99372025.300       -1949.146          45.000  
  22900009.838                        2293.554          24.000  
 23 10 29 17 37 47.9940000  0  9G10G25G32G12G19G17G15G24G06
  22404267.556                       -2300.350          25.000  
  20087080.386   105558315.210        2792.197          41.000  
  21394157.235   112427169.035        2427.611          43.000  
  18425716.470    96827799.730         625.257          44.000  
  20671461.445   108629266.534       -1878.334          43.000  
  22852106.371   120088681.256       -3129.528          30.000  
  22315153.641   117266899.170       -4076.874          36.000  
  18910238.564    99373974.660       -1949.847          45.000  
  22899568.917                        2301.221          23.000  
 23 10 29 17 37 48.9940000  0  9G10G25G32G12G19G17G15G24G06
  22404711.339                       -2299.584          26.000  
  20086549.354   105555523.124        2791.803          41.000  
  21393695.463   112424741.871        2427.072          43.000  
  18425597.525    96827174.710         624.831          44.000  
  20671819.004   108631145.243       -1878.968          43.000  
  22852705.297   120091811.702       -3130.151          31.000  
  22315929.467   117270976.322       -4077.221          36.000  
  18910609.677    99375924.517       -1949.805          45.000  
  22899129.087                        2301.778          24.000  
 23 10 29 17 37 49.9940000  0  9G10G25G32G12G19G17G15G24G06
  22405156.036                       -2299.813          26.000  
  20086018.152   105552731.197        2791.573          41.000  
  21393233.946   112422314.981        2426.589          43.000  
  18425478.676    96826550.109         624.148          44.000  
  20672176.520   108633024.427       -1879.859          43.000  
  22853303.284   120094942.268       -3130.415          31.000  
  22316704.985   117275053.364       -4077.208          36.000  
  18910980.974    99377874.704       -1950.726          45.000  
  22898689.005                        2301.637          24.000  
 23 10 29 17 37 50.9940000  0  9G10G25G32G12G19G17G15G24G06
  22405600.720   117742226.2343      -2300.496          27.000  
  20085486.985   105549939.530        2791.232          41.000  
  21392772.632   112419888.444        2426.115          43.000  
  18425359.681    96825925.964         623.713          44.000  
  20672534.260   108634904.131       -1880.250          43.000  
  22853895.546   120098073.060       -3130.979          31.000  
  22317480.957   117279130.416       -4077.108          36.000  
  18911352.254    99379825.243       -1950.934          45.000  
  22898252.595                        2301.182          23.000  
 23 10 29 17 37 51.9940000  0  9G10G25G32G12G19G17G15G24G06
  22406044.967   117744526.8802      -2300.881          27.000  
  20084955.927   105547148.322        2790.855          41.000  
  21392311.146   112417462.481        2425.676          43.000  
  18425241.198    96825302.489         623.342          44.000  
  20672892.120   108636784.584       -1880.795          43.000  
  22854492.453   120101204.285       -3132.109          31.000  
  22318256.901   117283207.676       -4077.264          36.000  
  18911723.636    99381776.366       -1951.398          45.000  
  22897811.107                        2301.092          23.000  
 23 10 29 17 37 52.9940000  0  9G10G25G32G12G19G17G15G24G06
  22406486.037   117746827.8052      -2300.784          27.000  
  20084424.919   105544357.328        2791.040          41.000  
  21391849.790   112415036.836        2425.650          43.000  
  18425122.598    96824679.474         622.939          44.000  
  20673249.981   108638665.549       -1881.114          42.000  
  22855090.989   120104335.687       -3132.499          31.000  
  22319032.838   117287284.899       -4077.029          36.000  
  18912095.162    99383727.831       -1951.654          45.000  
  22897371.219                        2300.528          22.000  
 23 10 29 17 37 53.9940000  0  9G10G25G32G12G19G17G15G24G06
  22406925.272   117749128.8862      -2300.966          27.000  
  20083893.852   105541566.378        2790.798          41.000  
  21391388.526   112412611.306        2425.579          43.000  
  18425004.100    96824056.686         622.780          44.000  
  20673607.946   108640546.818       -1881.433          43.000  
  22855686.613   120107467.001       -3131.339          32.000  
  22319808.576   117291361.885       -4077.167          36.000  
  18912466.542    99385679.413       -1951.642          45.000  
  22896932.761                        2297.452          22.000  
 23 10 29 17 37 54.9940000  0  9G10G25G32G12G19G17G15G24G06
  22407366.494   117751430.2642      -2301.679          27.000  
  20083362.316   105538775.593        2790.824          41.000  
  21390927.370   112410186.107        2425.142          43.000  
  18424885.822    96823434.336         622.175          44.000  
  20673965.826   108642428.559       -1881.825          43.000  
  22856282.086   120110598.581       -3132.021          32.000  
  22320584.574   117295438.836       -4077.378          36.000  
  18912838.467    99387631.325       -1952.057          45.000  
  22896492.845                        2301.667          22.000  
 23 10 29 17 37 55.9940000  0  9G10G25G32G12G19G17G15G24G06
  22407805.524   117753731.9422      -2302.072          27.000  
  20082831.267   105535985.103        2790.043          41.000  
  21390465.992   112407761.265        2424.302          43.000  
  18424767.542    96822812.434         621.431          44.000  
  20674323.824   108644310.857       -1882.584          42.000  
  22856878.284   120113730.320       -3132.404          32.000  
  22321360.274   117299515.738       -4077.392          36.000  
  18913209.832    99389583.602       -1952.472          45.000  
  22896057.299                        2294.149          23.000  
 23 10 29 17 37 56.9940000  0  9G10G25G32G12G19G17G15G24G06
  22408242.641   117756034.2182      -2302.232          26.000  
  20082300.261   105533195.101        2789.768          40.000  
  21390004.563   112405337.026        2423.918          43.000  
  18424649.271    96822191.274         620.888          44.000  
  20674681.939   108646193.954       -1883.489          42.000  
  22857474.383   120116862.578       -3132.618          32.000  
  22322136.176   117303592.917       -4077.220          35.000  
  18913581.511    99391536.514       -1953.143          45.000  
  22895619.669                        2302.379          23.000  
 23 10 29 17 37 57.9940000  0  9G10G25G32G12G19G17G15G24G06
  22408679.774   117758336.6962      -2302.862          26.000  
  20081769.269   105530405.136        2790.194          40.000  
  21389543.391   112402912.947        2423.747          43.000  
  18424531.046    96821570.377         620.686          44.000  
  20675040.615   108648077.374       -1883.837          42.000  
  22858070.441   120119994.822       -3133.098          32.000  
  22322913.288   117307669.911       -4076.392          27.000  
  18913953.207    99393489.600       -1953.418          45.000  
  22895184.018                        2295.831          23.000  
 23 10 29 17 37 58.9940000  0  9G10G25G32G12G19G17G15G24G06
  22409118.527   117760639.2342      -2302.348          25.000  
  20081238.069   105527615.267        2789.566          43.000  
  21389082.317   112400489.048        2423.511          46.000  
  18424412.769    96820949.785         620.185          47.000  
  20675398.692   108649961.170       -1884.338          45.000  
  22858666.992   120123127.098       -3133.308          34.000  
  22323690.988   117311746.611       -4077.041          32.000  
  18914324.936    99395442.863       -1953.601          48.000  
  22894748.940                        2299.785          24.000  
 23 10 29 17 37 59.9940000  0  9G10G25G32G12G19G17G15G24G06
  22409551.953   117762942.0602      -2303.128          24.000  
  20080706.967   105524825.524        2789.546          42.000  
  21388621.110   112398065.383        2423.504          45.000  
  18424294.722    96820329.535         619.948          46.000  
  20675757.246   108651845.364       -1884.430          44.000  
  22859263.349   120126259.421       -3132.324          34.000  
  22324464.940   117315823.340       -4076.834          33.000  
  18914696.403    99397396.369       -1953.668          46.000  
  22894306.941                        2299.158          23.000  
 23 10 29 17 38 00.9940000  0  9G10G25G32G12G19G17G15G24G06
  22409984.747   117765244.3331      -2302.774          23.000  
  20080176.040   105522035.729        2789.819          42.000  
  21388160.040   112395641.769        2423.473          45.000  
  18424176.549    96819709.452         619.934          45.000  
  20676116.077   108653729.796       -1884.626          44.000  
  22859859.823   120129391.704       -3132.102          34.000  
  22325240.814   117319899.677       -4076.094          35.000  
  18915067.796    99399349.948       -1953.650          46.000  
  22893861.335                        2299.219          22.000  
 23 10 29 17 38 01.9940000  0  9G10G25G32G12G19G17G15G24G06
  22410420.378                       -2298.566          23.000  
  20079644.990   105519246.084        2789.357          42.000  
  21387698.719   112393218.391        2422.943          45.000  
  18424058.859    96819089.708         619.239          46.000  
  20676474.842   108655614.653       -1885.349          44.000  
  22860456.281   120132524.079       -3132.582          35.000  
  22326015.697   117323975.930       -4076.489          35.000  
  18915439.256    99401303.786       -1954.303          46.000  
  22893417.530                        2293.216          22.000  
 23 10 29 17 38 02.9940000  0  9G10G25G32G12G19G17G15G24G06
  22410853.739                       -2294.246          23.000  
  20079114.467   105516457.143        2788.941          42.000  
  21387237.384   112390795.840        2422.377          45.000  
  18423940.843    96818470.901         618.624          46.000  
  20676833.662   108657500.495       -1885.979          44.000  
  22861052.707   120135657.169       -3133.409          35.000  
  22326792.858   117328052.609       -4076.238          37.000  
  18915811.107    99403258.437       -1954.809          46.000  
  22892974.292                        2295.212          22.000  
 23 10 29 17 38 03.9940000  0  9G10G25G32G12G19G17G15G24G06
  22411287.881                       -2306.265          23.000  
  20078583.524   105513668.558        2788.194          42.000  
  21386775.932   112388373.765        2421.446          44.000  
  18423823.154    96817852.679         617.589          46.000  
  20677192.644   108659387.009       -1887.172          44.000  
  22861649.271   120138790.530       -3133.892          34.000  
  22327570.101   117332129.402       -4076.860          37.000  
  18916183.035    99405213.577       -1955.701          46.000  
  22892535.360                        2301.076          22.000  
 23 10 29 17 38 04.9940000  0  9G10G25G32G12G19G17G15G24G06
  22411726.527                       -2312.068          22.000  
  20078052.726   105510880.255        2788.031          42.000  
  21386314.247   112385952.065        2421.443          44.000  
  18423705.729    96817234.952         617.427          46.000  
  20677552.096   108661274.064       -1887.385          44.000  
  22862245.604   120141924.140       -3133.677          34.000  
  22328344.538   117336206.230       -4076.883          36.000  
  18916555.076    99407169.119       -1955.811          46.000  
  22892098.736                        2301.240          23.000  
 23 10 29 17 38 05.9940000  0  9G10G25G32G12G19G17G15G24G06
  22412165.535                       -2302.796          22.000  
  20077521.905   105508092.110        2787.998          42.000  
  21385852.746   112383530.635        2421.375          44.000  
  18423588.492    96816617.595         617.288          46.000  
  20677911.218   108663161.564       -1887.611          44.000  
  22862842.159   120145057.893       -3133.611          35.000  
  22329120.503   117340282.958       -4076.437          36.000  
  18916927.256    99409124.925       -1956.024          46.000  
  22891661.375                        2300.987          22.000  
 23 10 29 17 38 06.9940000  0  9G10G25G32G12G19G17G15G24G06
  22412614.614                       -2305.754          25.000  
  20076991.563   105505304.484        2787.252          43.000  
  21385391.362   112381109.839        2420.476          44.000  
  18423471.223    96816000.984         616.122          47.000  
  20678270.587   108665049.868       -1888.830          45.000  
  22863438.582   120148192.109       -3134.359          35.000  
  22329896.078   117344359.950       -4077.470          37.000  
  18917299.471    99411081.366       -1956.769          47.000  
  22891223.176                        2292.637          22.000  
 23 10 29 17 38 07.9940000  0  9G10G25G32G12G19G17G15G24G06
  22413060.897   117781429.0573      -2306.449          26.000  
  20076461.296   105502517.137        2787.321          43.000  
  21384930.290   112378689.427        2420.247          45.000  
  18423354.221    96815384.887         615.845          47.000  
  20678630.406   108666938.765       -1889.113          45.000  
  22864035.037   120151326.598       -3134.176          35.000  
  22330671.974   117348436.930       -4076.647          36.000  
  18917671.619    99413038.227       -1956.995          47.000  
  22890788.639                        2303.495          22.000  
 23 10 29 17 38 08.9940000  0  9G10G25G32G12G19G17G15G24G06
  22413499.690   117783735.4162      -2306.490          25.000  
  20075931.109   105499730.196        2787.074          43.000  
  21384469.157   112376269.506        2420.041          44.000  
  18423237.056    96814769.381         615.622          47.000  
  20678989.918   108668828.317       -1889.743          45.000  
  22864631.799   120154461.430       -3134.332          35.000  
  22331447.754   117352514.064       -4076.695          36.000  
  18918044.039    99414995.573       -1957.257          47.000  
  22890353.449                        2288.839          22.000  
 23 10 29 17 38 09.9940000  0  9G10G25G32G12G19G17G15G24G06
  22413936.883   117786042.3002      -2307.264          26.000  
  20075401.039   105496943.723        2786.195          43.000  
  21384008.210   112373850.177        2418.761          44.000  
  18423120.152    96814154.577         614.453          47.000  
  20679350.125   108670718.632       -1890.708          45.000  
  22865228.407   120157596.667       -3134.782          36.000  
  22332223.518   117356591.441       -4077.893          37.000  
  18918416.506    99416953.514       -1958.209          47.000  
  22889914.680                        2307.764          22.000  
 23 10 29 17 38 10.9940000  0  9G10G25G32G12G19G17G15G24G06
  22414377.228   117788349.6532      -2307.125          26.000  
  20074871.400   105494157.605        2786.183          43.000  
  21383547.744   112371431.289        2418.855          44.000  
  18423003.057    96813540.343         614.187          47.000  
  20679710.342   108672609.585       -1891.126          45.000  
  22865825.235   120160732.294       -3135.955          36.000  
  22332999.575   117360668.872       -4077.267          37.000  
  18918789.059    99418911.929       -1958.539          46.000  
  22889477.971                        2297.834          21.000  
 23 10 29 17 38 11.9940000  0  9G10G25G32G12G19G17G15G24G06
  22414817.015   117790657.3732      -2307.786          26.000  
  20074341.311   105491371.811        2785.917          43.000  
  21383087.157   112369012.837        2418.384          44.000  
  18422886.001    96812926.629         613.809          47.000  
  20680070.300   108674501.131       -1891.581          45.000  
  22866421.963   120163868.130       -3135.846          36.000  
  22333775.462   117364746.362       -4076.677          36.000  
  18919161.580    99420870.759       -1958.746          47.000  
  22889042.285                        2290.717          21.000  
 23 10 29 17 38 12.9940000  0  9G10G25G32G12G19G17G15G24G06
  22415257.860   117792965.2742      -2308.332          26.000  
  20073811.404   105488586.065        2785.566          43.000  
  21382626.840   112366594.546        2417.829          44.000  
  18422769.061    96812313.204         613.063          47.000  
  20680430.285   108676393.032       -1892.477          45.000  
  22867018.745   120167003.984       -3136.404          36.000  
  22334551.327   117368823.670       -4077.034          36.000  
  18919534.397    99422829.785       -1959.442          47.000  
  22888607.155                        2301.731          21.000  
 23 10 29 17 38 13.9940000  0  9G10G25G32G12G19G17G15G24G06
  22415696.055   117795273.5942      -2308.594          27.000  
  20073281.262   105485800.702        2785.008          43.000  
  21382166.403   112364176.734        2417.266          44.000  
  18422652.622    96811700.373         612.410          47.000  
  20680790.628   108678285.585       -1893.127          45.000  
  22867615.642   120170140.208       -3136.482          36.000  
  22335327.131   117372901.078       -4077.164          36.000  
  18919907.308    99424789.287       -1959.943          47.000  
  22888169.412                        2294.335          21.000  
 23 10 29 17 38 14.9940000  0  9G10G25G32G12G19G17G15G24G06
  22416134.166   117797582.4062      -2308.020          26.000  
  20072751.502   105483015.750        2784.949          43.000  
  21381706.478   112361759.437        2417.100          44.000  
  18422536.270    96811088.183         611.986          47.000  
  20681150.990   108680178.855       -1893.640          45.000  
  22868212.527   120173276.760       -3136.333          35.000  
  22336103.169   117376978.689       -4077.460          36.000  
  18920280.363    99426749.330       -1960.217          47.000  
  22887736.149                        2289.835          21.000  
 23 10 29 17 38 15.9940000  0  9G10G25G32G12G19G17G15G24G06
  22416572.908   117799891.5192      -2308.579          25.000  
  20072221.454   105480230.952        2784.854          43.000  
  21381246.767   112359342.414        2416.918          44.000  
  18422419.993    96810476.366         611.640          47.000  
  20681511.546   108682072.559       -1893.821          45.000  
  22868809.346   120176413.468       -3136.274          35.000  
  22336878.933   117381056.193       -4077.397          36.000  
  18920653.543    99428709.645       -1960.474          47.000  
  22887300.125                        2294.386          22.000  
 23 10 29 17 38 16.9940000  0  9G10G25G32G12G19G17G15G24G06
  22417008.854   117802201.0062      -2309.692          25.000  
  20071691.875   105477446.474        2784.328          43.000  
  21380786.952   112356925.818        2416.335          44.000  
  18422303.764    96809865.087         610.701          47.000  
  20681871.996   108683966.884       -1895.000          45.000  
  22869406.198   120179550.430       -3137.061          35.000  
  22337655.143   117385133.735       -4078.059          36.000  
  18921026.823    99430670.389       -1961.066          47.000  
  22886866.260                        2288.724          22.000  
 23 10 29 17 38 17.9940000  0  9G10G25G32G12G19G17G15G24G06
  22417446.484   117804510.9102      -2310.345          25.000  
  20071161.962   105474662.318        2783.993          43.000  
  21380327.265   112354509.621        2415.929          44.000  
  18422187.541    96809254.316         610.481          47.000  
  20682232.164   108685861.758       -1895.205          46.000  
  22870003.029   120182687.702       -3137.624          35.000  
  22338430.801   117389211.284       -4078.103          33.000  
  18921400.002    99432631.535       -1961.352          47.000  
  22886434.520                        2286.361          22.000  
 23 10 29 17 38 18.9940000  0  9G10G25G32G12G19G17G15G24G06
  22417887.209   117806820.7501      -2310.544          25.000  
  20070632.132   105471878.619        2783.277          43.000  
  21379867.655   112352094.004        2415.278          44.000  
  18422071.449    96808644.234         609.730          47.000  
  20682592.843   108687757.408       -1896.401          45.000  
  22870600.053   120185825.347       -3137.900          34.000  
  22339206.469   117393289.071       -4078.498          30.000  
  18921773.428    99434593.288       -1962.225          47.000  
  22886001.255                        2289.723          22.000  
 23 10 29 17 38 19.9940000  0  9G10G25G32G12G19G17G15G24G06
  22418322.890                       -2311.184          24.000  
  20070102.803   105469095.264        2783.134          43.000  
  21379408.175   112349678.817        2415.208          44.000  
  18421955.405    96808034.702         609.378          47.000  
  20682953.434   108689653.657       -1896.526          45.000  
  22871197.047   120188963.315       -3138.024          34.000  
  22339985.493   117397366.915       -4077.781          29.000  
  18922147.111    99436555.462       -1962.189          47.000  
  22885569.340                        2291.655          22.000  
 23 10 29 17 38 20.9940000  0  9G10G25G32G12G19G17G15G24G06
  22418755.972                       -2311.959          23.000  
  20069573.176   105466311.981        2783.260          43.000  
  21378948.703   112347263.840        2414.860          44.000  
  18421839.564    96807425.482         609.075          47.000  
  20683313.923   108691550.280       -1896.816          45.000  
  22871794.333   120192101.313       -3138.109          35.000  
  22340759.185   117401444.524       -4076.586          30.000  
  18922521.017    99438517.865       -1962.524          48.000  
  22885137.417                        2293.852          22.000  
 23 10 29 17 38 21.9940000  0  9G10G25G32G12G19G17G15G24G06
  22419186.798                       -2310.467          22.000  
  20069043.580   105463529.185        2782.137          43.000  
  21378489.489   112344849.422        2413.978          44.000  
  18421723.891    96806816.941         608.007          47.000  
  20683674.728   108693447.648       -1897.939          45.000  
  22872391.798   120195239.750       -3138.701          35.000  
  22341536.235   117405522.618       -4078.717          28.000  
  18922894.559    99440480.841       -1963.470          47.000  
  22884703.317                        2292.508          21.000  
 23 10 29 17 38 22.9940000  0  9G10G25G32G12G19G17G15G24G06
  22419619.623                       -2318.025          21.000  
  20068513.972   105460746.594        2782.479          43.000  
  21378030.202   112342435.346        2414.301          44.000  
  18421608.298    96806208.847         608.092          47.000  
  20684035.666   108695345.534       -1898.041          45.000  
  22872989.149   120198378.384       -3138.958          34.000  
  22342313.852   117409600.592       -4078.441          28.000  
  18923267.956    99442444.157       -1963.281          47.000  
  22884268.994                        2294.620          22.000  
 23 10 29 17 38 23.9940000  0  9G10G25G32G12G19G17G15G24G06
  22420056.142                       -2310.697          20.000  
  20067984.397   105457964.222        2782.095          43.000  
  21377571.073   112340021.579        2413.790          44.000  
  18421493.003    96805601.168         607.562          47.000  
  20684396.783   108697243.899       -1898.429          45.000  
  22873586.542   120201517.150       -3138.662          34.000  
  22343087.701   117413678.341       -4076.846          30.000  
  18923641.570    99444407.787       -1963.672          47.000  
  22883833.820                        2285.750          23.000  
 23 10 29 17 38 24.9940000  0  9G10G25G32G12G19G17G15G24G06
  22420491.754                       -2314.603          18.000  
  20067454.886   105455182.069        2781.859          43.000  
  21377112.047   112337608.150        2413.081          44.000  
  18421377.582    96804993.935         606.862          47.000  
  20684758.155   108699142.774       -1899.215          45.000  
  22874183.571   120204656.114       -3139.743          34.000  
  22343857.901   117417756.099       -4077.574          29.000  
  18924015.305    99446371.770       -1964.398          47.000  
  22883400.407                        2290.439          24.000  
 23 10 29 17 38 25.9940000  0  9G10G25G32G12G19G17G15G24G06
  22420928.468                       -2314.603          16.000  
  20066925.446   105452400.359        2781.416          43.000  
  21376652.790   112335195.275        2412.491          44.000  
  18421262.101    96804387.364         606.124          47.000  
  20685119.822   108701042.389       -1899.926          45.000  
  22874780.981   120207795.454       -3139.266          34.000  
  22344635.980   117421834.044       -4078.510          28.000  
  18924389.181    99448336.315       -1965.033          47.000  
  22882964.315                        2285.524          24.000  
 23 10 29 17 38 26.9940000  0  9G10G25G32G12G19G17G15G24G06
  22421372.700                       -2309.752          15.000  
  20066396.231   105449618.966        2781.266          43.000  
  21376193.826   112332782.809        2412.228          44.000  
  18421146.707    96803781.311         605.820          47.000  
  20685481.283   108702942.579       -1900.399          45.000  
  22875378.271   120210935.067       -3139.896          34.000  
  22345412.751   117425911.988       -4077.726          26.000  
  18924763.126    99450301.260       -1965.088          47.000  
  22882530.697                        2293.573          25.000  
 23 10 29 17 38 27.9940000  0  9G10G25G32G12G19G17G15G24G06
  22421811.431                       -2309.752          15.000  
  20065867.012   105446837.605        2781.086          43.000  
  21375734.924   112330370.477        2411.967          44.000  
  18421031.529    96803175.529         605.388          47.000  
  20685842.985   108704843.111       -1901.052          45.000  
  22875975.457   120214074.686       -3139.886          34.000  
  22346190.507                       -4077.320          26.000  
  18925137.038    99452266.383       -1965.570          47.000  
  22882093.691                        2290.417          25.000  
 23 10 29 17 38 28.9940000  0  9G10G25G32G12G19G17G15G24G06
  22422248.666                       -2309.752          13.000  
  20065337.945   105444056.673        2780.867          43.000  
  21375275.905   112327958.702        2411.568          44.000  
  18420915.878    96802570.401         604.828          47.000  
  20686204.759   108706744.351       -1901.625          45.000  
  22876572.652   120217214.689       -3139.918          34.000  
  22346959.773                       -4078.598          25.000  
  18925510.763    99454232.043       -1965.881          47.000  
  22881658.507                        2289.665          26.000  
 23 10 29 17 38 29.9940000  0  9G10G25G32G12G19G17G15G24G06
  22422689.048                       -2309.752          13.000  
  20064808.682   105441276.187        2780.464          43.000  
  21374816.794   112325547.468        2411.043          44.000  
  18420801.071    96801965.906         604.231          47.000  
  20686566.875   108708646.294       -1902.276          45.000  
  22877169.898   120220355.097       -3140.485          34.000  
  22347737.115                       -4078.313          24.000  
  18925885.005    99456198.256       -1966.571          47.000  
  22881226.494   120241656.0523       2289.819          27.000  
 23 10 29 17 38 30.9940000  0  9G10G25G32G12G19G17G15G24G06
  22423126.887                       -2312.910          14.000  
  20064279.598   105438495.945        2780.117          43.000  
  21374358.039   112323136.576        2410.415          44.000  
  18420685.878    96801361.881         603.715          47.000  
  20686928.901   108710548.751       -1902.837          45.000  
  22877767.462   120223495.716       -3141.094          34.000  
  22348516.156                       -4078.490          25.000  
  18926259.198    99458164.815       -1966.888          47.000  
  22880791.187   120239366.8902       2288.651          28.000  
 23 10 29 17 38 31.9940000  0  9G10G25G32G12G19G17G15G24G06
  22423567.329                       -2312.910          14.000  
  20063750.608   105435715.733        2779.854          43.000  
  21373899.294   112320725.818        2410.280          44.000  
  18420570.837    96800758.099         603.332          47.000  
  20687291.161   108712451.538       -1903.323          45.000  
  22878365.018   120226636.308       -3140.779          35.000  
  22349294.752   117446336.5893      -4077.972          27.000  
  18926633.517    99460131.530       -1967.090          47.000  
  22880359.493   120237077.6762       2289.041          28.000  
 23 10 29 17 38 32.9940000  0  9G10G25G32G12G19G17G15G24G06
  22424008.601                       -2318.479          17.000  
  20063221.548   105432936.009        2779.568          43.000  
  21373440.683   112318315.680        2409.599          44.000  
  18420455.930    96800155.038         602.639          47.000  
  20687653.100   108714355.110       -1904.000          45.000  
  22878962.470   120229777.366       -3141.469          35.000  
  22350064.904   117450414.6202      -4078.462          35.000  
  18927007.647    99462098.864       -1967.767          47.000  
  22879926.671   120234788.9542       2288.403          29.000  
 23 10 29 17 38 33.9940000  0  9G10G25G32G12G19G17G15G24G06
  22424451.317                       -2314.221          20.000  
  20062692.586   105430156.607        2779.208          44.000  
  21372981.790   112315905.936        2409.532          44.000  
  18420341.125    96799552.486         602.187          47.000  
  20688015.552   108716259.255       -1904.499          45.000  
  22879560.371   120232918.700       -3141.510          35.000  
  22350837.402   117454492.7592      -4078.050          31.000  
  18927382.122    99464066.592       -1967.889          47.000  
  22879491.944   120232500.6062       2287.827          29.000  
 23 10 29 17 38 34.9940000  0  9G10G25G32G12G19G17G15G24G06
  22424893.070                       -2316.955          21.000  
  20062163.864   105427377.366        2779.048          43.000  
  21372523.526   112313496.452        2409.553          44.000  
  18420226.699    96798950.309         602.106          47.000  
  20688378.190   108718163.837       -1904.616          45.000  
  22880158.185   120236060.121       -3141.124          36.000  
  22351618.172   117458570.8292      -4077.235          31.000  
  18927756.602    99466034.608       -1967.963          47.000  
  22879056.843   120230212.3252       2288.534          29.000  
 23 10 29 17 38 35.9940000  0  9G10G25G32G12G19G17G15G24G06
  22425333.210                       -2321.093          20.000  
  20061635.026   105424598.287        2778.980          44.000  
  21372065.006   112311087.269        2409.139          44.000  
  18420112.256    96798348.540         601.614          47.000  
  20688740.875   108720068.889       -1905.231          45.000  
  22880756.365   120239201.710       -3141.355          36.000  
  22352392.602   117462648.8062      -4077.501          31.000  
  18928130.736    99468002.916       -1968.298          47.000  
  22878623.667   120227924.3432       2287.678          30.000  
 23 10 29 17 38 36.9940000  0  9G10G25G32G12G19G17G15G24G06
  22425773.464                       -2315.006          18.000  
  20061106.547   105421819.388        2778.718          43.000  
  21371606.613   112308678.356        2408.600          45.000  
  18419997.905    96797747.152         600.991          47.000  
  20689103.353   108721974.379       -1905.831          45.000  
  22881354.408   120242343.450       -3142.308          36.000  
  22353170.083   117466726.6732      -4077.092          31.000  
  18928505.314    99469971.502       -1968.970          47.000  
  22878189.968   120225635.9371       2287.437          29.000  
 23 10 29 17 38 37.9940000  0  9G10G25G32G12G19G17G15G24G06
  22426212.407                       -2315.006          15.000  
  20060577.685   105419040.913        2778.206          43.000  
  21371148.444   112306269.983        2407.983          45.000  
  18419883.735    96797146.398         600.419          47.000  
  20689465.803   108723880.594       -1906.846          44.000  
  22881952.853   120245485.545       -3142.770          36.000  
  22353942.520   117470804.6972      -4077.788          31.000  
  18928879.802    99471940.631       -1969.550          47.000  
  22877746.827   120223348.534        2287.228          28.000  
 23 10 29 17 38 38.9940000  0  9G10G25G32G12G19G17G15G24G06
  22426655.345                       -2315.006          10.000  
  20060049.011   105416262.764        2778.012          43.000  
  21370690.071   112303862.033        2407.825          44.000  
  18419769.645    96796546.188         600.036          47.000  
  20689828.652   108725787.386       -1907.073          44.000  
  22882551.164   120248627.912       -3142.886          36.000  
  22354717.920   117474882.8162      -4077.781          31.000  
  18929254.435    99473910.184       -1969.659          47.000  
  22877312.122   120221061.398        2287.023          27.000  
 23 10 29 17 38 39.9940000  0  8G25G32G12G19G17G15G24G06
  20059520.239   105413484.877        2777.114          43.000  
  21370231.965   112301454.455        2407.092          45.000  
  18419655.732    96795946.459         599.087          47.000  
  20690191.060   108727694.735       -1908.052          44.000  
  22883149.493   120251770.509       -3143.059          37.000  
  22355495.931   117478960.9332      -4078.945          31.000  
  18929629.422    99475880.124       -1970.593          47.000  
  22876880.100   120218774.544        2285.997          26.000  
 23 10 29 17 38 40.9940000  0  8G25G32G12G19G17G15G24G06
  20058991.576   105410707.458        2777.262          43.000  
  21369774.305   112299047.483        2406.393          45.000  
  18419541.715    96795347.435         598.521          47.000  
  20690553.981   108729602.853       -1908.657          44.000  
  22883747.732   120254913.569       -3143.908          37.000  
  22356272.542   117483039.2822      -4078.532          31.000  
  18930004.155    99477850.661       -1970.740          47.000  
  22876442.370   120216488.162        2286.142          25.000  
 23 10 29 17 38 41.9940000  0  9G10G25G32G12G19G17G15G24G06
  22427983.239                       -2315.006          10.000  
  20058463.371   105407930.300        2776.929          43.000  
  21369316.357   112296640.813        2406.855          45.000  
  18419427.942    96794748.854         598.462          47.000  
  20690917.140   108731511.487       -1909.030          44.000  
  22884346.549   120258056.780       -3143.184          37.000  
  22357048.907   117487117.5802      -4078.713          32.000  
  18930379.265    99479821.550       -1970.972          47.000  
  22876007.446                        2287.828          24.000  
 23 10 29 17 38 42.9940000  0  9G10G25G32G12G19G17G15G24G06
  22428436.738                       -2316.938          16.000  
  20057935.033   105405153.094        2777.007          43.000  
  21368858.446   112294234.271        2406.250          45.000  
  18419313.684    96794150.465         598.262          47.000  
  20691279.803   108733420.367       -1909.339          44.000  
  22884944.974   120261199.933       -3143.168          38.000  
  22357825.178   117491195.0431      -4077.823          32.000  
  18930753.945    99481792.522       -1971.155          47.000  
  22875572.006                        2282.733          22.000  
 23 10 29 17 38 43.9940000  0  9G10G25G32G12G19G17G15G24G06
  22428890.485                       -2316.811          20.000  
  20057406.793   105402376.178        2776.557          43.000  
  21368400.713   112291828.085        2405.688          45.000  
  18419199.887    96793552.558         597.400          47.000  
  20691642.707   108735329.788       -1910.004          44.000  
  22885543.505   120264343.342       -3143.799          38.000  
  22358601.529   117495273.045       -4077.972          32.000  
  18931129.340    99483763.874       -1971.777          47.000  
  22875139.099                        2285.607          21.000  
 23 10 29 17 38 44.9940000  0  9G10G25G32G12G19G17G15G24G06
  22429334.785                       -2311.348          21.000  
  20056878.658   105399599.534        2776.489          44.000  
  21367942.643   112289422.280        2405.628          44.000  
  18419086.053    96792955.166         597.137          47.000  
  20692005.918   108737239.790       -1910.457          44.000  
  22886141.655   120267486.979       -3143.728          38.000  
  22359377.719   117499351.096       -4078.260          31.000  
  18931504.398    99485735.628       -1971.820          47.000  
  22874706.294                        2294.553          19.000  
 23 10 29 17 38 45.9940000  0  9G10G25G32G12G19G17G15G24G06
  22429782.056                       -2316.237          23.000  
  20056350.032   105396823.198        2776.198          44.000  
  21367484.594   112287016.908        2405.131          44.000  
  18418972.155    96792358.285         596.756          47.000  
  20692369.456   108739150.361       -1910.734          44.000  
  22886740.370   120270630.880       -3143.826          38.000  
  22360153.556   117503429.193       -4078.292          30.000  
  18931879.866    99487707.803       -1972.302          47.000  
  22874273.756                        2294.553          16.000  
 23 10 29 17 38 46.9940000  0  9G10G25G32G12G19G17G15G24G06
  22430227.839                       -2328.277          23.000  
  20055821.772   105394047.068        2775.918          44.000  
  21367026.938   112284611.840        2404.668          44.000  
  18418858.491    96791761.840         596.177          47.000  
  20692732.798   108741061.451       -1911.425          44.000  
  22887338.882   120273774.962       -3144.547          37.000  
  22360931.284   117507507.246       -4078.195          31.000  
  18932255.329    99489680.287       -1972.607          47.000  
  22873840.587                        2294.553          11.000  
 23 10 29 17 38 47.9940000  0  8G10G25G32G12G19G17G15G24
  22430675.003                       -2324.628          24.000  
  20055293.460   105391271.491        2775.363          44.000  
  21366568.960   112282207.433        2404.083          44.000  
  18418745.003    96791166.145         595.405          47.000  
  20693096.870   108742973.342       -1912.369          44.000  
  22887937.357   120276919.501       -3144.806          37.000  
  22361708.717   117511585.520       -4078.424          31.000  
  18932631.073    99491653.432       -1973.395          47.000  
 23 10 29 17 38 48.9940000  0  8G10G25G32G12G19G17G15G24
  22431122.106                       -2322.083          25.000  
  20054765.277   105388496.042        2774.895          44.000  
  21366111.310   112279803.250        2403.780          44.000  
  18418631.311    96790570.800         594.881          47.000  
  20693460.960   108744885.647       -1912.763          44.000  
  22888535.973   120280064.148       -3144.875          37.000  
  22362481.059   117515663.751       -4078.777          31.000  
  18933006.716    99493626.830       -1973.749          47.000  
 23 10 29 17 38 49.9940000  0  8G10G25G32G12G19G17G15G24
  22431564.500                       -2321.442          26.000  
  20054237.314   105385720.947        2774.959          44.000  
  21365653.912   112277399.541        2403.437          44.000  
  18418517.978    96789976.021         594.523          47.000  
  20693824.963   108746798.589       -1913.425          44.000  
  22889134.466   120283209.116       -3145.287          37.000  
  22363256.200   117519742.004       -4078.758          32.000  
  18933382.628    99495600.676       -1974.139          47.000  
 23 10 29 17 38 50.9940000  0  9G10G25G32G12G19G17G15G24G06
  22432007.757                       -2322.339          26.000  
  20053708.915   105382945.962        2774.994          44.000  
  21365196.838   112274996.056        2403.224          44.000  
  18418404.728    96789381.578         594.204          47.000  
  20694188.986   108748711.924       -1913.445          44.000  
  22889732.934   120286354.162       -3144.950          37.000  
  22364034.744   117523820.100       -4077.965          31.000  
  18933758.683    99497574.770       -1974.390          47.000  
  22872087.481                        2294.553          10.000  
 23 10 29 17 38 51.9940000  0  9G10G25G32G12G19G17G15G24G06
  22432455.074                       -2320.377          26.000  
  20053180.653   105380171.304        2774.700          44.000  
  21364739.677   112272592.997        2402.893          44.000  
  18418291.636    96788787.666         593.862          47.000  
  20694553.368   108750625.864       -1914.117          45.000  
  22890331.455   120289499.484       -3145.665          37.000  
  22364811.948   117527898.248       -4077.927          31.000  
  18934134.277    99499549.278       -1974.646          47.000  
  22871649.033                        2294.553          13.000  
 23 10 29 17 38 52.9940000  0  9G10G25G32G12G19G17G15G24G06
  22432902.512                       -2323.674          26.000  
  20052652.703   105377397.092        2774.368          43.000  
  21364282.652   112270190.478        2402.472          44.000  
  18418178.702    96788194.409         593.325          47.000  
  20694918.060   108752540.510       -1914.506          45.000  
  22890930.468   120292645.183       -3145.605          37.000  
  22365588.330   117531976.630       -4078.495          31.000  
  18934509.917    99501524.343       -1975.165          47.000  
  22871210.804                        2286.094          15.000  
 23 10 29 17 38 53.9940000  0  9G10G25G32G12G19G17G15G24G06
  22433351.334                       -2321.787          26.000  
  20052125.122   105374623.080        2774.287          43.000  
  21363825.402   112267788.260        2402.358          44.000  
  18418066.127    96787601.568         593.073          47.000  
  20695282.929   108754455.652       -1914.982          45.000  
  22891529.111   120295791.043       -3145.470          37.000  
  22366364.717   117536054.957       -4078.451          31.000  
  18934885.587    99503499.731       -1975.238          47.000  
  22870773.194                        2280.124          15.000  
 23 10 29 17 38 54.9940000  0  9G10G25G32G12G19G17G15G24G06
  22433793.370                       -2323.276          26.000  
  20051597.118   105371849.295        2773.830          43.000  
  21363368.249   112265386.394        2401.956          44.000  
  18417953.366    96787009.178         592.388          47.000  
  20695647.562   108756371.280       -1915.684          45.000  
  22892127.822   120298937.076       -3145.767          37.000  
  22367140.922   117540133.154       -4077.865          31.000  
  18935261.521    99505475.455       -1975.696          47.000  
  22870332.517                        2286.213          17.000  
 23 10 29 17 38 55.9940000  0  9G10G25G32G12G19G17G15G24G06
  22434235.827                       -2323.268          25.000  
  20051069.170   105369075.695        2773.490          43.000  
  21362911.193   112262984.818        2401.499          44.000  
  18417840.513    96786417.188         591.949          47.000  
  20696012.102   108758287.403       -1916.408          45.000  
  22892726.277   120302083.259       -3146.243          37.000  
  22367917.256   117544211.396       -4078.620          30.000  
  18935637.268    99507451.481       -1976.013          47.000  
  22869890.113                        2287.011          19.000  
 23 10 29 17 38 56.9940000  0  9G10G25G32G12G19G17G15G24G06
  22434674.739                       -2323.290          25.000  
  20050541.395   105366302.361        2773.332          43.000  
  21362454.063   112260583.621        2401.265          44.000  
  18417728.282    96785825.720         591.288          47.000  
  20696376.534   108760204.067       -1916.842          44.000  
  22893325.040   120305229.697       -3146.207          37.000  
  22368690.290   117548289.535       -4078.137          30.000  
  18936013.190    99509427.892       -1976.294          47.000  
  22869449.054                        2284.425          20.000  
 23 10 29 17 38 57.9940000  0  9G10G25G32G12G19G17G15G24G06
  22435111.466                       -2324.077          23.000  
  20050013.849   105363529.385        2772.772          43.000  
  21361997.602   112258182.873        2400.624          44.000  
  18417616.262    96785234.786         590.568          47.000  
  20696741.355   108762121.343       -1917.651          44.000  
  22893923.632   120308376.389       -3146.698          36.000  
  22369461.803   117552367.806       -4078.364          31.000  
  18936389.021    99511404.747       -1977.026          47.000  
  22869008.517                        2279.693          20.000  
 23 10 29 17 38 58.9940000  0  9G10G25G32G12G19G17G15G24G06
  22435547.715                       -2322.168          22.000  
  20049486.444   105360756.656        2771.999          43.000  
  21361540.642   112255782.474        2399.887          45.000  
  18417504.337    96784644.309         589.782          47.000  
  20697106.710   108764039.126       -1918.306          44.000  
  22894522.399   120311523.304       -3147.462          37.000  
  22370241.099   117556446.035       -4078.839          31.000  
  18936765.307    99513381.975       -1977.783          47.000  
  22868570.680                        2284.661          21.000  
 23 10 29 17 38 59.9940000  0  9G10G25G32G12G19G17G15G24G06
  22435983.198                       -2323.545          21.000  
  20048959.221   105357984.427        2771.937          43.000  
  21361084.282   112253382.722        2399.487          45.000  
  18417392.291    96784054.570         589.504          47.000  
  20697471.740   108765957.753       -1919.064          45.000  
  22895121.223   120314670.708       -3147.920          37.000  
  22371019.475   117560524.556       -4078.421          31.000  
  18937141.649    99515359.819       -1978.064          47.000  
  22868134.014                        2287.812          22.000  
 23 10 29 17 39 00.9940000  0  9G10G25G32G12G19G17G15G24G06
  22436418.108                       -2321.662          19.000  
  20048431.795   105355212.417        2771.904          44.000  
  21360628.240   112250983.259        2399.461          45.000  
  18417280.239    96783465.246         589.249          48.000  
  20697837.316   108767876.828       -1919.362          45.000  
  22895720.298   120317818.211       -3147.177          36.000  
  22371789.091   117564602.976       -4078.472          30.000  
  18937518.094    99517337.996       -1978.381          47.000  
  22867701.722                        2284.640          23.000  
 23 10 29 17 39 01.9940000  0  9G10G25G32G12G19G17G15G24G06
  22436853.711                       -2321.662          17.000  
  20047904.270   105352440.689        2771.213          43.000  
  21360171.863   112248584.226        2398.703          45.000  
  18417168.420    96782876.436         588.475          48.000  
  20698202.845   108769796.492       -1920.089          45.000  
  22896319.010   120320966.007       -3147.771          36.000  
  22372560.510   117568681.471       -4078.700          29.000  
  18937894.672    99519316.564       -1978.760          47.000  
  22867272.569                        2280.761          25.000  
 23 10 29 17 39 02.9940000  0  9G10G25G32G12G19G17G15G24G06
  22437288.500                       -2323.982          17.000  
  20047376.853   105349669.193        2771.168          43.000  
  21359716.074   112246185.478        2398.555          45.000  
  18417056.673    96782288.062         587.963          47.000  
  20698568.179   108771716.642       -1920.463          45.000  
  22896917.876   120324113.975       -3147.843          36.000  
  22373333.845   117572759.902       -4078.838          29.000  
  18938271.320    99521295.460       -1979.034          47.000  
  22866838.052                        2279.468          25.000  
 23 10 29 17 39 03.9940000  0  9G10G25G32G12G19G17G15G24G06
  22437730.174                       -2329.449          19.000  
  20046850.179   105346898.089        2770.769          43.000  
  21359259.646   112243787.294        2397.903          45.000  
  18416944.625    96781700.292         587.511          47.000  
  20698933.759   108773637.478       -1921.093          45.000  
  22897516.922   120327262.318       -3148.577          35.000  
  22374111.309   117576838.423       -4078.141          28.000  
  18938648.297    99523274.886       -1979.675          47.000  
  22866409.174                        2280.446          25.000  
 23 10 29 17 39 04.9940000  0  9G10G25G32G12G19G17G15G24G06
  22438170.199                       -2321.676          20.000  
  20046322.927   105344127.241        2770.917          42.000  
  21358803.325   112241389.444        2397.729          45.000  
  18416832.771    96781113.006         587.098          47.000  
  20699299.738   108775558.847       -1921.521          45.000  
  22898115.700   120330410.822       -3148.813          36.000  
  22374886.129   117580917.004       -4079.130          28.000  
  18939024.872    99525254.673       -1980.035          47.000  
  22865980.505   120161537.8123       2280.212          26.000  
 23 10 29 17 39 05.9940000  0  9G10G25G32G12G19G17G15G24G06
  22438614.885                       -2328.866          20.000  
  20045795.549   105341356.534        2770.791          42.000  
  21358347.130   112238991.863        2397.482          45.000  
  18416720.926    96780526.086         586.857          47.000  
  20699665.846   108777480.641       -1921.868          45.000  
  22898714.517   120333559.464       -3148.539          36.000  
  22375659.128   117584995.397       -4078.409          28.000  
  18939401.636    99527234.721       -1980.127          47.000  
  22865547.203   120159258.2762       2279.571          26.000  
 23 10 29 17 39 06.9940000  0  9G10G25G32G12G19G17G15G24G06
  22439058.341                       -2321.242          19.000  
  20045268.286   105338586.079        2770.096          42.000  
  21357891.017   112236594.619        2396.754          45.000  
  18416609.245    96779939.598         586.179          47.000  
  20700031.742   108779402.937       -1922.810          45.000  
  22899313.666   120336708.254       -3148.972          36.000  
  22376433.431   117589073.717       -4078.223          28.000  
  18939778.556    99529215.103       -1980.798          47.000  
  22865112.540   120156978.9682       2278.801          26.000  
 23 10 29 17 39 07.9940000  0  9G10G25G32G12G19G17G15G24G06
  22439497.369                       -2330.737          20.000  
  20044741.656   105335815.914        2770.195          42.000  
  21357434.877   112234197.772        2396.789          45.000  
  18416497.699    96779353.636         585.851          47.000  
  20700397.640   108781325.823       -1923.157          45.000  
  22899912.765   120339857.343       -3149.069          35.000  
  22377208.930   117593152.190       -4078.242          28.000  
  18940155.721    99531195.907       -1980.823          47.000  
  22864677.543   120154699.9822       2278.670          26.000  
 23 10 29 17 39 08.9940000  0  9G10G25G32G12G19G17G15G24G06
  22439940.997                       -2324.010          21.000  
  20044214.941   105333045.809        2770.041          42.000  
  21356978.643   112231801.087        2396.484          45.000  
  18416386.083    96778767.946         585.313          47.000  
  20700763.429   108783249.027       -1923.389          45.000  
  22900511.964   120343006.383       -3148.486          35.000  
  22377983.320   117597230.330       -4078.230          28.000  
  18940532.905    99533176.867       -1981.116          47.000  
  22864242.225   120152421.0202       2278.194          26.000  
 23 10 29 17 39 09.9940000  0  9G10G25G32G12G19G17G15G24G06
  22440386.595                       -2325.635          21.000  
  20043687.883   105330276.063        2769.223          43.000  
  21356522.677   112229404.880        2395.918          45.000  
  18416274.454    96778182.816         584.673          47.000  
  20701129.504   108785172.882       -1924.323          45.000  
  22901111.137   120346155.793       -3149.908          36.000  
  22378759.829   117601308.664       -4078.268          29.000  
  18940910.316    99535158.298       -1981.836          47.000  
  22863807.431   120150142.3922       2278.719          26.000  
 23 10 29 17 39 10.9940000  0  9G10G25G32G12G19G17G15G24G06
  22440830.179                       -2332.821          23.000  
  20043160.758   105327506.599        2769.086          43.000  
  21356066.649   112227009.045        2395.591          45.000  
  18416163.222    96777598.176         584.492          47.000  
  20701495.416   108787097.278       -1924.671          45.000  
  22901710.905   120349305.403       -3149.764          36.000  
  22379534.854   117605386.920       -4078.251          29.000  
  18941287.631    99537140.110       -1982.031          47.000  
  22863375.676   120147864.0542       2278.537          26.000  
 23 10 29 17 39 11.9940000  0  9G10G25G32G12G19G17G15G24G06
  22441271.445                       -2329.619          23.000  
  20042633.779   105324737.479        2769.144          43.000  
  21355610.168   112224613.708        2395.094          44.000  
  18416052.302    96777014.114         583.891          47.000  
  20701861.401   108789022.323       -1925.461          45.000  
  22902310.787   120352455.324       -3150.018          36.000  
  22380312.196   117609465.323       -4078.623          28.000  
  18941665.241    99539122.397       -1982.446          47.000  
  22862944.570   120145586.1672       2277.826          27.000  
 23 10 29 17 39 12.9940000  0  9G10G25G32G12G19G17G15G24G06
  22441715.160                       -2320.724          24.000  
  20042106.826   105321968.526        2768.752          43.000  
  21355154.251   112222218.587        2395.020          44.000  
  18415941.342    96776430.402         583.613          47.000  
  20702227.374   108790947.748       -1925.665          45.000  
  22902910.287   120355605.326       -3150.232          36.000  
  22381085.334   117613543.611       -4078.475          27.000  
  18942042.661    99541104.932       -1982.611          47.000  
  22862515.659   120143307.8831       2277.223          27.000  
 23 10 29 17 39 13.9940000  0  9G10G25G32G12G19G17G15G24G06
  22442157.731                       -2331.033          24.000  
  20041580.309   105319199.812        2768.466          43.000  
  21354698.259   112219823.835        2394.672          44.000  
  18415830.307    96775847.160         583.056          47.000  
  20702593.929   108792873.739       -1926.312          45.000  
  22903509.824   120358755.553       -3150.638          35.000  
  22381857.044   117617621.972       -4078.934          26.000  
  18942419.959    99543087.836       -1983.014          47.000  
  22862083.516   120141030.341        2277.153          28.000  
 23 10 29 17 39 14.9940000  0  9G10G25G32G12G19G17G15G24G06
  22442602.807                       -2327.331          24.000  
  20041053.145   105316431.271        2768.161          43.000  
  21354242.523   112217429.393        2394.106          44.000  
  18415719.443    96775264.328         582.312          47.000  
  20702960.656   108794800.194       -1926.973          45.000  
  22904109.499   120361905.905       -3150.731          35.000  
  22382632.423   117621700.026       -4077.761          26.000  
  18942797.420    99545071.048       -1983.563          47.000  
  22861650.789   120138752.971        2277.211          28.000  
 23 10 29 17 39 15.9940000  0  9G10G25G32G12G19G17G15G24G06
  22443049.753                       -2334.815          23.000  
  20040526.410   105313663.191        2768.150          43.000  
  21353786.885   112215035.491        2393.778          44.000  
  18415608.580    96774682.135         582.277          47.000  
  20703327.423   108796727.344       -1927.091          45.000  
  22904708.584   120365056.657       -3150.094          35.000  
  22383405.275   117625778.360       -4076.897          25.000  
  18943174.822    99547054.796       -1983.771          47.000  
  22861217.980   120136476.046        2277.397          27.000  
 23 10 29 17 39 16.9940000  0  9G10G25G32G12G19G17G15G24G06
  22443496.418                       -2332.580          23.000  
  20039999.736   105310895.147        2767.628          43.000  
  21353331.248   112212641.738        2393.384          44.000  
  18415497.987    96774100.209         581.481          47.000  
  20703694.169   108798654.832       -1927.783          45.000  
  22905308.069   120368207.446       -3151.132          35.000  
  22384180.061   117629856.656       -4079.088          25.000  
  18943552.648    99549038.697       -1984.259          47.000  
  22860784.977   120134199.229        2276.268          27.000  
 23 10 29 17 39 17.9940000  0  9G10G25G32G12G19G17G15G24G06
  22443948.649                       -2333.330          23.000  
  20039472.899   105308127.328        2767.507          43.000  
  21352875.857   112210248.334        2392.964          44.000  
  18415387.536    96773518.743         580.851          47.000  
  20704061.060   108800582.835       -1928.398          45.000  
  22905907.438   120371358.399       -3151.190          34.000  
  22384959.296   117633934.850       -4079.121          26.000  
  18943930.349    99551022.959       -1984.637          47.000  
  22860353.817   120131922.631        2276.067          27.000  
 23 10 29 17 39 18.9940000  0  9G10G25G32G12G19G17G15G24G06
  22444401.179                       -2326.485          23.000  
  20038946.402   105305360.073        2767.007          43.000  
  21352420.949   112207855.573        2392.464          45.000  
  18415277.678    96772938.015         580.333          48.000  
  20704428.267   108802511.659       -1929.464          45.000  
  22906507.130   120374509.816       -3151.191          34.000  
  22385736.746   117638013.194       -4078.384          25.000  
  18944307.858    99553007.863       -1985.187          47.000  
  22859918.430   120129646.517        2276.447          27.000  
 23 10 29 17 39 19.9940000  0  9G10G25G32G12G19G17G15G24G06
  22444848.312                       -2328.451          21.000  
  20038419.876   105302593.108        2766.981          43.000  
  21351965.488   112205463.244        2392.080          44.000  
  18415167.700    96772357.826         579.883          48.000  
  20704795.407   108804441.063       -1929.755          45.000  
  22907106.273   120377661.521       -3151.537          33.000  
  22386516.848   117642091.601       -4078.063          27.000  
  18944685.762    99554993.203       -1985.516          47.000  
  22859486.033   120127370.854        2275.267          27.000  
 23 10 29 17 39 20.9940000  0  9G10G25G32G12G19G17G15G24G06
  22445289.650                       -2326.889          19.000  
  20037893.200   105299826.413        2766.597          43.000  
  21351510.395   112203071.262        2391.943          44.000  
  18415057.613    96771778.102         579.609          48.000  
  20705162.959   108806370.984       -1929.872          45.000  
  22907705.415   120380813.452       -3151.739          33.000  
  22387310.038   117646170.028       -4078.134          29.000  
  18945063.769    99556978.903       -1986.035          47.000  
  22859054.749   120125095.359        2275.260          27.000  
 23 10 29 17 39 21.9940000  0  9G10G25G32G12G19G17G15G24G06
  22445736.635                       -2329.827          19.000  
  20037366.943   105297060.050        2766.196          44.000  
  21351055.478   112200679.743        2391.235          44.000  
  18414947.203    96771198.946         578.797          48.000  
  20705530.615   108808301.542       -1930.887          46.000  
  22908305.039   120383965.733       -3152.908          33.000  
  22388094.901   117650248.472       -4077.916          30.000  
  18945441.682    99558965.036       -1986.261          47.000  
  22858622.762   120122820.252        2274.637          28.000  
 23 10 29 17 39 22.9940000  0  9G10G25G32G12G19G17G15G24G06
  22446179.591                       -2334.573          19.000  
  20036840.590   105294294.096        2765.593          45.000  
  21350601.129   112198288.676        2390.595          45.000  
  18414837.708    96770620.333         578.251          48.000  
  20705898.077   108810232.705       -1931.594          45.000  
  22908904.518   120387118.171       -3152.366          32.000  
  22388866.879   117654327.231       -4081.983          30.000  
  18945819.407    99560951.644       -1986.963          47.000  
  22858190.562   120120545.422        2274.585          27.000  
 23 10 29 17 39 23.9940000  0  9G10G25G32G12G19G17G15G24G06
  22446622.205                       -2335.473          20.000  
  20036314.237   105291528.194        2765.674          44.000  
  21350146.296   112195897.865        2390.303          44.000  
  18414727.592    96770042.085         577.872          48.000  
  20706265.376   108812164.297       -1932.174          45.000  
  22909504.092   120390270.758       -3153.018          31.000  
  22389649.299   117658405.580       -4078.918          29.000  
  18946197.935    99562938.481       -1987.170          47.000  
  22857756.965   120118270.763        2274.856          27.000  
 23 10 29 17 39 24.9940000  0  9G10G25G32G12G19G17G15G24G06
  22447064.675                       -2335.345          21.000  
  20035787.653   105288762.491        2765.583          44.000  
  21349691.251   112193507.324        2390.262          44.000  
  18414617.820    96769464.208         577.544          48.000  
  20706633.379   108814096.300       -1932.262          46.000  
  22910103.540   120393423.489       -3152.543          31.000  
  22390428.163   117662483.818       -4078.153          29.000  
  18946576.090    99564925.604       -1987.073          48.000  
  22857323.796   120115996.314        2274.692          27.000  
 23 10 29 17 39 25.9940000  0  9G10G25G32G12G19G17G15G24G06
  22447504.178                       -2335.345          19.000  
  20035261.439   105285997.167        2765.366          44.000  
  21349236.269   112191117.273        2389.972          45.000  
  18414507.877    96768886.932         577.036          48.000  
  20707001.274   108816028.992       -1932.834          46.000  
  22910703.160   120396576.478       -3152.504          31.000  
  22391199.450   117666562.355       -4078.581          29.000  
  18946954.197    99566913.251       -1987.921          47.000  
  22856893.640   120113722.297        2273.827          28.000  
 23 10 29 17 39 26.9940000  0  9G10G25G32G12G19G17G15G24G06
  22447943.643                       -2333.664          21.000  
  20034734.868   105283232.303        2764.567          44.000  
  21348781.634   112188727.784        2389.070          45.000  
  18414398.104    96768310.310         576.143          48.000  
  20707369.438   108817962.399       -1933.850          46.000  
  22911303.017   120399729.938       -3152.983          32.000  
  22391984.411   117670640.978       -4079.271          33.000  
  18947332.350    99568901.406       -1988.440          47.000  
  22856462.785   120111448.648        2273.634          28.000  
 23 10 29 17 39 27.9940000  0  9G10G25G32G12G19G17G15G24G06
  22448385.428                       -2333.955          23.000  
  20034208.966   105280467.509        2764.629          44.000  
  21348327.021   112186338.472        2389.391          45.000  
  18414288.137    96767733.990         576.173          48.000  
  20707737.396   108819896.161       -1933.824          46.000  
  22911902.753   120402883.417       -3153.204          32.000  
  22392756.206   117674719.406       -4078.457          33.000  
  18947710.535    99570889.785       -1988.403          47.000  
  22856036.908   120109175.134        2273.665          30.000  
 23 10 29 17 39 28.9940000  0  9G10G25G32G12G19G17G15G24G06
  22448831.959                       -2334.974          24.000  
  20033682.864   105277703.010        2764.395          44.000  
  21347872.827   112183949.578        2388.677          45.000  
  18414178.294    96767158.174         575.580          47.000  
  20708105.694   108821830.479       -1934.478          46.000  
  22912497.358   120406037.092       -3153.178          31.000  
  22393528.557   117678797.643       -4077.602          33.000  
  18948088.810    99572878.546       -1989.075          47.000  
  22855607.303   120106901.929        2273.394          30.000  
 23 10 29 17 39 29.9940000  0  9G10G25G32G12G19G17G15G24G06
  22449275.284   117971737.7973      -2335.594          26.000  
  20033156.629   105274938.818        2764.130          44.000  
  21347418.391   112181561.089        2388.471          45.000  
  18414068.650    96766582.896         575.302          47.000  
  20708473.551   108823765.401       -1935.066          45.000  
  22913094.934   120409191.093       -3153.955          31.000  
  22394303.937                       -4083.315          26.000  
  18948467.065    99574867.733       -1989.185          47.000  
  22855178.368   120104628.985        2273.231          30.000  
 23 10 29 17 39 30.9940000  0  9G10G25G32G12G19G17G15G24G06
  22449723.275   117974073.4292      -2336.553          27.000  
  20032630.186   105272174.912        2763.907          44.000  
  21346963.908   112179173.005        2387.788          45.000  
  18413958.607    96766008.113         574.367          47.000  
  20708841.927   108825700.861       -1935.611          46.000  
  22913696.814   120412345.357       -3154.133          31.000  
  22395087.502   117686979.0103      -4079.024          32.000  
  18948845.576    99576857.317       -1989.947          47.000  
  22854742.311   120102356.385        2271.906          30.000  
 23 10 29 17 39 31.9940000  0  9G10G25G32G12G19G17G15G24G06
  22450172.949   117976409.2062      -2335.453          27.000  
  20032104.470   105269411.109        2763.853          44.000  
  21346510.109   112176785.114        2388.187          45.000  
  18413848.933    96765433.615         574.435          47.000  
  20709210.401   108827636.698       -1935.713          46.000  
  22914299.218   120415499.602       -3154.791          33.000  
  22395863.869   117691057.2762      -4077.488          31.000  
  18949224.322    99578847.096       -1989.661          47.000  
  22854310.689   120100083.844        2273.674          31.000  
 23 10 29 17 39 32.9940000  0  9G10G25G32G12G19G17G15G24G06
  22450617.524   117978745.6672      -2336.440          28.000  
  20031578.878   105266647.784        2762.778          44.000  
  21346056.569   112174397.821        2386.702          45.000  
  18413739.589    96764859.833         573.048          47.000  
  20709579.022   108829573.309       -1937.510          46.000  
  22914901.342   120418654.251       -3154.983          33.000  
  22396632.782   117695135.8942      -4078.935          29.000  
  18949603.227    99580837.487       -1991.193          47.000  
  22853879.773   120097811.827        2271.697          30.000  
 23 10 29 17 39 33.9940000  0  9G10G25G32G12G19G17G15G24G06
  22451058.441   117981082.6022      -2338.014          28.000  
  20031052.647   105263884.808        2762.892          44.000  
  21345602.392   112172011.000        2386.668          45.000  
  18413630.207    96764286.610         573.027          47.000  
  20709947.845   108831510.521       -1937.480          46.000  
  22915502.225   120421809.236       -3154.576          33.000  
  22397410.923   117699214.5032      -4078.156          29.000  
  18949982.231    99582828.330       -1990.967          47.000  
  22853441.670   120095540.155        2272.056          30.000  
 23 10 29 17 39 34.9940000  0 10G10G25G32G23G12G19G17G15G24G06
  22451503.882   117983419.5312      -2337.441          29.000  
  20030526.394   105261121.891        2762.495          44.000  
  21345147.914   112169624.322        2386.230          45.000  
  23574681.951                       -3338.083          20.000  
  18413521.126    96763713.653         572.563          47.000  
  20710316.407   108833448.076       -1938.205          46.000  
  22916104.200   120424964.249       -3155.017          34.000  
  22398191.207   117703292.9702      -4078.307          29.000  
  18950361.160    99584819.308       -1991.186          47.000  
  22853002.289   120093268.533        2271.805          29.000  
 23 10 29 17 39 35.9940000  0 10G10G25G32G23G12G19G17G15G24G06
  22451948.889   117985757.0102      -2338.605          30.000  
  20030000.940   105258359.331        2762.660          44.000  
  21344693.871   112167238.146        2386.077          45.000  
  23575317.819                       -3338.083          20.000  
  18413412.003    96763141.288         572.328          47.000  
  20710685.069   108835386.263       -1938.419          46.000  
  22916704.612   120428119.566       -3154.978          33.000  
  22398962.415   117707371.5482      -4078.030          29.000  
  18950740.131    99586810.796       -1991.553          47.000  
  22852572.058   120090997.309        2271.489          29.000  
 23 10 29 17 39 36.9940000  0 10G10G25G32G23G12G19G17G15G24G06
  22452394.013   117988094.558       -2337.488          30.000  
  20029475.464   105255596.969        2762.219          44.000  
  21344240.108   112164852.255        2385.452          45.000  
  23575951.000                       -3338.083          20.000  
  18413302.893    96762569.317         571.636          47.000  
  20711053.956   108837324.908       -1938.873          46.000  
  22917305.120   120431275.043       -3155.335          33.000  
  22399735.734   117711449.9172      -4077.885          29.000  
  18951119.350    99588802.575       -1992.194          47.000  
  22852146.463   120088726.219        2271.804          30.000  
 23 10 29 17 39 37.9940000  0 10G10G25G32G23G12G19G17G15G24G06
  22452832.277   117990432.729       -2337.333          28.000  
  20028949.785   105252834.908        2762.278          44.000  
  21343785.973   112162466.799        2385.404          45.000  
  23576586.034                       -3338.083          18.000  
  18413193.934    96761997.874         571.373          47.000  
  20711422.511   108839264.166       -1939.471          45.000  
  22917905.870   120434430.784       -3155.791          33.000  
  22400511.394   117715528.3362      -4077.602          29.000  
  18951498.378    99590794.774       -1992.236          47.000  
  22851721.249   120086455.574        2271.154          30.000  
 23 10 29 17 39 38.9940000  0 10G10G25G32G23G12G19G17G15G24G06
  22453273.820   117992771.231       -2339.093          29.000  
  20028424.302   105250073.218        2761.728          44.000  
  21343332.263   112160081.767        2385.228          45.000  
  23577220.942                       -3338.083          17.000  
  18413085.516    96761426.983         570.913          47.000  
  20711791.768   108841204.009       -1939.964          45.000  
  22918506.897   120437586.774       -3156.155          34.000  
  22401289.678   117719606.8982      -4077.759          30.000  
  18951877.257    99592787.424       -1992.609          47.000  
  22851287.354   120084185.248        2270.361          31.000  
 23 10 29 17 39 39.9940000  0 10G10G25G32G23G12G19G17G15G24G06
  22453712.394   117995109.992       -2338.876          29.000  
  20027898.817   105247311.771        2760.831          44.000  
  21342878.579   112157697.138        2384.188          45.000  
  23577855.037                       -3338.083          14.000  
  18412977.261    96760856.578         569.955          47.000  
  20712160.828   108843144.398       -1940.983          45.000  
  22919107.863   120440743.028       -3156.448          34.000  
  22402063.301   117723685.4432      -4078.296          30.000  
  18952256.456    99594780.455       -1993.579          47.000  
  22850855.295   120081915.112        2269.342          31.000  
 23 10 29 17 39 40.9940000  0 10G10G25G32G23G12G19G17G15G24G06
  22454148.770   117997449.116       -2339.510          28.000  
  20027373.149   105244550.541        2760.811          43.000  
  21342424.435   112155312.815        2383.838          45.000  
  23578487.204                       -3338.083          11.000  
  18412869.144    96760286.593         569.433          48.000  
  20712529.937   108845085.281       -1941.448          45.000  
  22919708.855   120443899.410       -3156.717          34.000  
  22402843.718   117727763.9382      -4078.299          30.000  
  18952635.669    99596773.785       -1993.683          47.000  
  22850427.108   120079645.240        2269.192          31.000  
 23 10 29 17 39 41.9940000  0  9G10G25G32G12G19G17G15G24G06
  22454602.809   117999788.500       -2339.318          28.000  
  20026847.836   105241789.531        2760.959          44.000  
  21341970.672   112152928.831        2383.663          45.000  
  18412760.833    96759717.043         569.260          47.000  
  20712899.914   108847026.651       -1941.638          46.000  
  22920310.209   120447055.974       -3156.799          35.000  
  22403617.396   117731842.4232      -4078.775          28.000  
  18953014.921    99598767.457       -1993.732          47.000  
  22849995.111   120077375.593        2269.104          32.000  
 23 10 29 17 39 42.9940000  0 10G10G25G32G23G12G19G17G15G24G06
  22455042.465   118002128.221       -2339.643          28.000  
  20026322.593   105239028.827        2760.780          44.000  
  21341516.729   112150545.246        2383.405          45.000  
  23579747.980                       -3338.083          13.000  
  18412652.657    96759148.010         568.729          48.000  
  20713269.276   108848968.597       -1942.170          45.000  
  22920911.434   120450212.782       -3156.993          36.000  
  22404387.321   117735920.953       -4078.938          28.000  
  18953394.392    99600761.543       -1994.153          47.000  
  22849562.299   120075106.234        2269.562          32.000  
 23 10 29 17 39 43.9940000  0 10G10G25G32G23G12G19G17G15G24G06
  22455479.240                       -2341.439          22.000  
  20025797.050   105236268.435        2760.153          44.000  
  21341062.927   112148162.096        2382.969          45.000  
  23580380.649                       -3338.083          16.000  
  18412545.074    96758579.496         568.172          48.000  
  20713639.166   108850911.146       -1943.005          45.000  
  22921512.407   120453369.904       -3158.603          35.000  
  22405159.724   117739999.402       -4079.139          26.000  
  18953774.095    99602756.058       -1994.812          47.000  
  22849130.428   120072837.218        2268.612          32.000  
 23 10 29 17 39 44.9940000  0  9G10G25G32G12G19G17G15G24G06
  22455915.716                       -2339.141          21.000  
  20025272.304   105233508.410        2759.723          44.000  
  21340609.143   112145779.418        2382.337          45.000  
  18412437.302    96758011.554         567.635          48.000  
  20714009.050   108852854.306       -1943.527          45.000  
  22922113.445   120456527.225       -3157.709          35.000  
  22405943.516   117744027.0503      -4079.155          31.000  
  18954153.814    99604751.032       -1995.361          47.000  
  22848700.014   120070568.596        2268.233          32.000  
 23 10 29 17 39 45.9940000  0  9G10G25G32G12G19G17G15G24G06
  22456368.171                       -2341.503          24.000  
  20024747.216   105230748.644        2759.546          44.000  
  21340155.195   112143397.120        2382.046          44.000  
  18412329.636    96757444.106         567.282          48.000  
  20714378.650   108854798.024       -1944.114          45.000  
  22922714.441   120459684.851       -3158.180          35.000  
  22406723.249   117748105.6002      -4078.713          30.000  
  18954533.738    99606746.389       -1995.550          47.000  
  22848269.373   120068300.227        2268.381          33.000  
 23 10 29 17 39 46.9940000  0  9G10G25G32G12G19G17G15G24G06
  22456821.402   118011352.0533      -2341.469          26.000  
  20024222.449   105227989.154        2759.125          44.000  
  21339701.666   112141015.198        2381.663          44.000  
  18412221.671    96756877.137         566.618          48.000  
  20714748.557   108856742.294       -1944.958          45.000  
  22923315.455   120462842.664       -3158.574          35.000  
  22407496.634   117752184.2712      -4079.022          29.000  
  18954913.457    99608742.122       -1996.149          47.000  
  22847837.884   120066032.131        2267.414          33.000  
 23 10 29 17 39 47.9940000  0  9G10G25G32G12G19G17G15G24G06
  22457259.020   118013693.7132      -2341.613          26.000  
  20023697.581   105225230.010        2758.476          44.000  
  21339248.129   112138633.733        2380.871          44.000  
  18412114.004    96756310.718         565.725          48.000  
  20715118.408   108858687.154       -1945.629          45.000  
  22923916.765   120466000.761       -3159.105          35.000  
  22408271.947   117756262.8622      -4078.548          29.000  
  18955293.178    99610738.302       -1996.985          47.000  
  22847406.430   120063764.383        2267.113          33.000  
 23 10 29 17 39 48.9940000  0  9G10G25G32G12G19G17G15G24G06
  22457707.543   118016035.6682      -2342.209          26.000  
  20023172.565   105222471.056        2758.989          44.000  
  21338794.947   112136252.571        2381.001          44.000  
  18412006.539    96755744.713         565.996          48.000  
  20715488.405   108860632.497       -1945.472          45.000  
  22924518.122   120469158.979       -3157.878          36.000  
  22409051.812   117760341.5612      -4078.638          29.000  
  18955673.261    99612734.793       -1996.570          47.000  
  22846975.104   120061496.813        2267.712          32.000  
 23 10 29 17 39 49.9940000  0  9G10G25G32G12G19G17G15G24G06
  22458152.205   118018377.9122      -2342.610          26.000  
  20022647.704   105219712.325        2758.520          44.000  
  21338341.928   112133871.718        2380.830          44.000  
  18411899.228    96755179.117         565.421          48.000  
  20715858.601   108862578.309       -1946.014          45.000  
  22925119.474   120472317.396       -3158.591          36.000  
  22409825.662   117764420.1142      -4078.396          30.000  
  18956053.436    99614731.583       -1996.985          47.000  
  22846544.042   120059229.475        2267.035          33.000  
 23 10 29 17 39 50.9940000  0  9G10G25G32G12G19G17G15G24G06
  22458604.591                       -2344.361          25.000  
  20022122.867   105216953.770        2758.138          44.000  
  21337888.772   112131491.181        2380.197          44.000  
  18411791.702    96754613.950         564.829          48.000  
  20716228.940   108864524.622       -1946.551          45.000  
  22925720.823   120475475.964       -3158.609          36.000  
  22410608.817   117768498.5512      -4079.492          29.000  
  18956433.399    99616728.683       -1997.260          47.000  
  22846112.729   120056962.384        2266.759          33.000  
 23 10 29 17 39 51.9940000  0  9G10G25G32G12G19G17G15G24G06
  22459050.691                       -2343.175          25.000  
  20021598.106   105214195.511        2758.200          44.000  
  21337436.268   112129111.045        2379.997          44.000  
  18411684.506    96754049.280         564.501          48.000  
  20716599.072   108866471.488       -1947.228          45.000  
  22926322.426   120478634.742       -3158.927          37.000  
  22411379.324   117772577.0442      -4078.751          30.000  
  18956813.629    99618726.193       -1997.662          47.000  
  22845681.358   120054695.558        2266.409          33.000  
 23 10 29 17 39 52.9940000  0  9G10G25G32G12G19G17G15G24G06
  22459497.593                       -2343.355          26.000  
  20021073.258   105211437.524        2757.619          44.000  
  21336983.538   112126731.270        2379.367          45.000  
  18411576.875    96753485.085         563.778          48.000  
  20716969.071   108868418.873       -1948.031          44.000  
  22926924.009   120481793.786       -3159.873          36.000  
  22412158.224   117776655.5482      -4078.413          30.000  
  18957193.889    99620724.056       -1998.273          47.000  
  22845250.148   120052429.010        2266.216          33.000  
 23 10 29 17 39 53.9940000  0  9G10G25G32G12G19G17G15G24G06
  22459938.780                       -2343.927          24.000  
  20020548.170   105208679.801        2757.672          44.000  
  21336531.160   112124351.897        2379.281          45.000  
  18411469.246    96752921.394         563.417          48.000  
  20717339.769   108870366.812       -1947.997          44.000  
  22927525.510   120484952.998       -3159.123          36.000  
  22412924.648   117780734.0452      -4078.985          29.000  
  18957574.153    99622722.324       -1998.419          47.000  
  22844818.977   120050162.708        2266.322          34.000  
 23 10 29 17 39 54.9940000  0  9G10G25G32G12G19G17G15G24G06
  22460381.165                       -2344.169          25.000  
  20020023.824   105205922.376        2756.902          44.000  
  21336078.955   112121972.935        2378.188          45.000  
  18411362.034    96752358.181         562.629          47.000  
  20717710.394   108872315.327       -1949.354          45.000  
  22928126.567   120488112.432       -3159.977          36.000  
  22413698.365   117784812.395       -4078.822          28.000  
  18957954.363    99624720.972       -1999.182          47.000  
  22844387.775   120047896.747        2265.700          33.000  
 23 10 29 17 39 55.9940000  0  9G10G25G32G12G19G17G15G24G06
  22460833.689   118032476.8493      -2343.727          26.000  
  20019499.048   105203165.229        2756.965          44.000  
  21335626.631   112119594.334        2378.444          45.000  
  18411254.755    96751795.470         562.398          47.000  
  20718081.366   108874264.362       -1949.337          45.000  
  22928728.094   120491272.122       -3160.088          36.000  
  22414472.592   117788890.912       -4078.564          27.000  
  18958334.531    99626720.017       -1999.402          47.000  
  22843956.437   120045631.081        2265.332          34.000  
 23 10 29 17 39 56.9940000  0  9G10G25G32G12G19G17G15G24G06
  22461285.525   118034821.5262      -2345.646          25.000  
  20018974.326   105200408.374        2756.554          44.000  
  21335174.508   112117216.145        2378.145          45.000  
  18411147.366    96751233.259         561.854          47.000  
  20718452.776   108876213.964       -1949.998          45.000  
  22929329.869   120494432.020       -3159.895          36.000  
  22415252.095   117792969.311       -4078.479          25.000  
  18958715.295    99628719.445       -1999.628          47.000  
  22843525.141   120043365.711        2264.957          34.000  
 23 10 29 17 39 57.9940000  0  9G10G25G32G12G19G17G15G24G06
  22461733.784   118037166.2702      -2345.474          24.000  
  20018449.483   105197651.689        2756.729          44.000  
  21334722.218   112114838.245        2377.760          45.000  
  18411040.237    96750671.450         561.632          47.000  
  20718824.523   108878164.053       -1950.369          45.000  
  22929931.585   120497592.066       -3160.035          36.000  
  22416032.231   117797047.702       -4078.165          25.000  
  18959096.117    99630719.184       -1999.811          47.000  
  22843094.673   120041100.489        2265.151          35.000  
 23 10 29 17 39 58.9940000  0  9G10G25G32G12G19G17G15G24G06
  22462172.589                       -2345.792          22.000  
  20017924.986   105194895.388        2756.097          44.000  
  21334270.077   112112460.821        2377.396          45.000  
  18410933.437    96750110.208         560.997          47.000  
  20719195.889   108880114.746       -1950.814          45.000  
  22930532.780   120500752.407       -3160.543          36.000  
  22416810.788   117801126.261       -4078.696          25.000  
  18959476.731    99632719.388       -2000.329          47.000  
  22842664.115   120038835.635        2264.858          35.000  
 23 10 29 17 39 59.9940000  0  9G10G25G32G12G19G17G15G24G06
  22462619.265                       -2344.525          23.000  
  20017400.620   105192139.286        2755.960          44.000  
  21333818.291   112110083.747        2376.625          46.000  
  18410826.755    96749549.408         560.540          48.000  
  20719567.570   108882065.947       -1951.477          45.000  
  22931134.003   120503912.912       -3160.747          36.000  
  22417591.456   117805204.704       -4078.475          24.000  
  18959857.132    99634719.923       -2000.800          47.000  
  22842233.369   120036571.044        2264.683          34.000  
 23 10 29 17 40 00.9940000  0  9G10G25G32G12G19G17G15G24G06
  22463068.207                       -2342.705          22.000  
  20016875.674   105189383.624        2755.601          44.000  
  21333366.679   112107707.164        2376.440          46.000  
  18410720.146    96748989.238         560.132          48.000  
  20719939.476   108884017.816       -1951.726          45.000  
  22931735.578   120507073.723       -3160.439          36.000  
  22418370.117   117809283.419       -4078.159          25.000  
  18960238.036    99636720.955       -2001.007          47.000  
  22841802.674   120034306.912        2263.368          34.000  
 23 10 29 17 40 01.9940000  0  9G10G25G32G12G19G17G15G24G06
  22463514.758                       -2342.705          20.000  
  20016351.319   105186628.066        2755.610          44.000  
  21332915.030   112105330.838        2376.046          46.000  
  18410613.610    96748429.390         559.766          48.000  
  20720310.893   108885970.096       -1952.447          45.000  
  22932337.019   120510234.649       -3160.677          35.000  
  22419149.837   117813361.776       -4078.991          26.000  
  18960618.891    99638722.235       -2001.337          47.000  
  22841371.915   120032042.856        2263.563          34.000  
 23 10 29 17 40 02.9940000  0  9G10G25G32G12G19G17G15G24G06
  22463970.810                       -2347.447          24.000  
  20015826.647   105183873.041        2754.792          44.000  
  21332463.030   112102955.122        2375.512          45.000  
  18410507.201    96747870.286         558.862          48.000  
  20720682.452   108887923.161       -1953.402          45.000  
  22932938.528   120513396.085       -3161.684          35.000  
  22419926.925   117817440.453       -4078.503          27.000  
  18960999.602    99640724.130       -2002.063          47.000  
  22840941.903   120029779.307        2263.556          34.000  
 23 10 29 17 40 03.9940000  0  9G10G25G32G12G19G17G15G24G06
  22464425.615                       -2346.812          24.000  
  20015301.819   105181118.125        2754.781          44.000  
  21332011.022   112100579.657        2375.086          45.000  
  18410400.813    96747311.510         558.411          48.000  
  20721054.146   108889876.632       -1953.946          45.000  
  22933540.100   120516557.576       -3161.821          36.000  
  22420701.377   117821518.959       -4078.160          27.000  
  18961380.482    99642726.259       -2002.527          47.000  
  22840511.552   120027515.934        2263.015          34.000  
 23 10 29 17 40 04.9940000  0 10G10G25G32G23G12G19G17G15G24G06
  22464876.874                       -2350.542          21.000  
  20014777.758   105178363.426        2754.700          44.000  
  21331558.956   112098204.499        2375.211          45.000  
  23593701.305                       -3342.053          16.000  
  18410294.513    96746753.157         558.328          48.000  
  20721426.064   108891830.562       -1954.045          45.000  
  22934142.006   120519719.186       -3162.035          36.000  
  22421476.075   117825597.503       -4078.759          27.000  
  18961761.067    99644728.704       -2002.386          47.000  
  22840081.356   120025252.807        2263.216          34.000  
 23 10 29 17 40 05.9940000  0 10G10G25G32G23G12G19G17G15G24G06
  22465324.251                       -2347.600          21.000  
  20014253.593   105175608.997        2753.961          44.000  
  21331107.369   112095829.727        2374.125          46.000  
  23594337.560                       -3342.053          15.000  
  18410188.520    96746195.287         557.180          48.000  
  20721798.474   108893785.043       -1955.194          45.000  
  22934743.469   120522881.049       -3162.641          36.000  
  22422249.752   117829675.933       -4078.609          29.000  
  18962142.203    99646731.529       -2003.479          47.000  
  22839651.084   120022989.944        2261.783          34.000  
 23 10 29 17 40 06.9940000  0 10G10G25G32G23G12G19G17G15G24G06
  22465771.991                       -2352.212          19.000  
  20013729.354   105172854.925        2754.073          44.000  
  21330655.650   112093455.436        2374.301          46.000  
  23594972.676                       -3342.053          10.000  
  18410082.203    96745637.978         557.333          47.000  
  20722170.661   108895740.141       -1955.191          45.000  
  22935344.741   120526043.169       -3162.251          36.000  
  22423029.210   117833754.448       -4079.084          31.000  
  18962523.469    99648734.820       -2003.406          47.000  
  22839220.794   120020727.408        2262.781          33.000  
 23 10 29 17 40 07.9940000  0  9G10G25G32G12G19G17G15G24G06
  22466217.205                       -2365.582          18.000  
  20013205.500   105170101.012        2753.988          44.000  
  21330203.853   112091081.386        2374.221          46.000  
  18409976.487    96745081.041         556.982          48.000  
  20722542.453   108897695.657       -1955.456          45.000  
  22935946.158   120529205.433       -3162.370          35.000  
  22423801.936   117837832.845       -4077.563          31.000  
  18962904.804    99650738.356       -2003.430          47.000  
  22838790.594   120018465.072        2262.205          34.000  
 23 10 29 17 40 08.9940000  0  9G10G25G32G12G19G17G15G24G06
  22466667.430                       -2365.582          15.000  
  20012681.592   105167347.425        2752.982          44.000  
  21329753.042   112088707.789        2373.284          46.000  
  18409870.010    96744524.636         556.016          47.000  
  20722914.454   108899651.806       -1956.698          45.000  
  22936547.824   120532367.963       -3162.637          36.000  
  22424580.277   117841911.391       -4079.371          29.000  
  18963285.836    99652742.344       -2004.486          47.000  
  22838360.311   120016203.032        2261.535          35.000  
 23 10 29 17 40 09.9940000  0  9G10G25G32G12G19G17G15G24G06
  22467119.730                       -2365.582          13.000  
  20012157.857   105164594.138        2753.131          44.000  
  21329301.472   112086334.620        2372.793          46.000  
  18409763.760    96743968.770         555.465          47.000  
  20723286.692   108901608.508       -1957.065          45.000  
  22937149.778   120535530.773       -3163.169          35.000  
  22425352.972   117845989.881       -4079.307          30.000  
  18963667.232    99654746.745       -2004.590          47.000  
  22837929.866   120013941.315        2261.740          34.000  
 23 10 29 17 40 10.9940000  0 10G10G25G32G23G12G19G17G15G24G06
  22467569.019                       -2347.876          13.000  
  20011633.840   105161841.214        2752.847          44.000  
  21328850.146   112083961.898        2372.546          46.000  
  23597536.213                       -3342.053          12.000  
  18409658.405    96743413.455         554.971          47.000  
  20723658.940   108903565.836       -1957.618          45.000  
  22937751.492   120538693.836       -3163.615          35.000  
  22426129.433   117850068.485       -4078.407          29.000  
  18964048.709    99656751.598       -2005.188          47.000  
  22837499.592   120011679.989        2261.340          33.000  
 23 10 29 17 40 11.9940000  0 10G10G25G32G23G12G19G17G15G24G06
  22468015.201                       -2347.876          11.000  
  20011109.980   105159088.524        2752.939          44.000  
  21328398.364   112081589.539        2372.505          46.000  
  23598176.893                       -3342.053          15.000  
  18409552.996    96742858.587         554.755          47.000  
  20724031.266   108905523.669       -1957.831          45.000  
  22938353.300   120541857.077       -3163.488          35.000  
  22426906.046   117854147.039       -4078.292          31.000  
  18964430.176    99658756.800       -2005.298          47.000  
  22837069.169   120009418.919        2261.107          33.000  
 23 10 29 17 40 12.9940000  0 10G10G25G32G23G12G19G17G15G24G06
  22468474.081                       -2348.679          21.000  
  20010585.943   105156336.059        2752.520          44.000  
  21327946.663   112079217.497        2372.149          46.000  
  23598815.475                       -3342.053          16.000  
  18409447.841    96742304.140         554.451          47.000  
  20724404.042   108907481.993       -1958.451          45.000  
  22938954.794   120545020.485       -3163.325          35.000  
  22427683.726   117858225.467       -4078.463          31.000  
  18964811.587    99660762.330       -2005.444          47.000  
  22836638.686   120007158.053        2261.037          33.000  
 23 10 29 17 40 13.9940000  0 10G10G25G32G23G12G19G17G15G24G06
  22468929.082                       -2349.635          22.000  
  20010062.197   105153583.938        2752.049          44.000  
  21327494.779   112076845.916        2371.521          45.000  
  23599452.531                       -3342.053          16.000  
  18409342.172    96741750.264         553.814          47.000  
  20724776.925   108909440.926       -1958.891          45.000  
  22939556.846   120548184.207       -3163.699          35.000  
  22428457.449   117862303.977       -4078.388          32.000  
  18965193.690    99662768.319       -2006.085          47.000  
  22836208.256   120004897.544        2260.632          33.000  
 23 10 29 17 40 14.9940000  0  9G10G25G32G12G19G17G15G24G06
  22469381.167                       -2348.882          21.000  
  20009538.642   105150832.067        2751.728          44.000  
  21327043.449   112074474.690        2371.062          45.000  
  18409237.134    96741196.841         553.155          47.000  
  20725149.921   108911400.390       -1959.877          45.000  
  22940158.682   120551348.107       -3163.814          35.000  
  22429230.886   117866382.456       -4077.925          33.000  
  18965575.377    99664774.633       -2006.482          47.000  
  22835778.178   120002637.314        2259.645          33.000  
 23 10 29 17 40 15.9940000  0  9G10G25G32G12G19G17G15G24G06
  22469829.357                       -2350.973          22.000  
  20009014.865   105148080.393        2751.363          44.000  
  21326592.278   112072103.792        2370.560          46.000  
  18409131.781    96740643.839         552.715          48.000  
  20725522.961   108913360.330       -1960.339          44.000  
  22940760.684   120554512.169       -3164.385          35.000  
  22430004.699   117870460.942       -4079.283          32.000  
  18965957.070    99666781.290       -2007.062          47.000  
  22835347.361   120000377.294        2259.442          32.000  
 23 10 29 17 40 16.9940000  0  9G10G25G32G12G19G17G15G24G06
  22470281.834                       -2346.368          22.000  
  20008491.666   105145329.008        2751.139          44.000  
  21326140.954   112069733.279        2370.164          45.000  
  18409026.702    96740091.332         552.052          48.000  
  20725895.831   108915320.836       -1960.977          45.000  
  22941362.795   120557676.402       -3164.100          36.000  
  22430784.466   117874539.412       -4078.514          32.000  
  18966339.090    99668788.322       -2007.428          47.000  
  22834917.156   119998117.515        2259.551          32.000  
 23 10 29 17 40 17.9940000  0  9G10G25G32G12G19G17G15G24G06
  22470732.501                       -2355.387          22.000  
  20007968.489   105142577.944        2751.109          44.000  
  21325689.735   112067363.222        2369.822          45.000  
  18408921.938    96739539.357         551.712          48.000  
  20726268.888   108917281.917       -1961.364          45.000  
  22941964.836   120560840.979       -3164.562          35.000  
  22431563.330   117878617.955       -4078.335          33.000  
  18966721.420    99670795.781       -2007.684          47.000  
  22834486.821   119995858.173        2258.772          32.000  
 23 10 29 17 40 18.9940000  0  9G10G25G32G12G19G17G15G24G06
  22471183.149                       -2349.602          22.000  
  20007444.697   105139827.296        2750.296          44.000  
  21325238.344   112064993.655        2369.420          45.000  
  18408817.082    96738988.000         550.982          48.000  
  20726641.926   108919243.658       -1962.353          44.000  
  22942567.242   120564005.884       -3164.947          35.000  
  22432334.763   117882696.605       -4079.159          31.000  
  18967103.667    99672803.759       -2008.423          47.000  
  22834056.378   119993599.136        2259.485          31.000  
 23 10 29 17 40 19.9940000  0  9G10G25G32G12G19G17G15G24G06
  22471630.959                       -2355.616          20.000  
  20006921.125   105137076.809        2750.271          44.000  
  21324786.688   112062624.413        2369.001          44.000  
  18408712.079    96738437.043         550.715          48.000  
  20727016.080   108921205.866       -1962.484          45.000  
  22943169.215   120567170.953       -3165.509          35.000  
  22433120.878   117886775.259       -4079.109          31.000  
  18967486.029    99674812.033       -2008.557          47.000  
  22833625.718   119991340.411        2258.577          31.000  
 23 10 29 17 40 20.9940000  0  9G10G25G32G12G19G17G15G24G06
  22472079.368                       -2355.616          18.000  
  20006397.854   105134326.501        2750.123          43.000  
  21324335.705   112060255.412        2368.572          45.000  
  18408607.539    96737886.447         550.209          48.000  
  20727389.785   108923168.496       -1963.310          45.000  
  22943771.425   120570336.073       -3165.888          35.000  
  22433895.877   117890853.572       -4078.457          31.000  
  18967868.660    99676820.542       -2008.777          48.000  
  22833195.463   119989081.764        2258.472          31.000  
 23 10 29 17 40 21.9940000  0  9G10G25G32G12G19G17G15G24G06
  22472526.790                       -2355.616          15.000  
  20005874.738   105131576.546        2749.514          44.000  
  21323884.257   112057886.893        2368.172          44.000  
  18408503.015    96737336.416         549.675          48.000  
  20727763.416   108925131.754       -1963.551          44.000  
  22944373.721   120573501.474       -3165.803          35.000  
  22434668.926   117894932.111       -4079.167          32.000  
  18968251.426    99678829.523       -2009.149          48.000  
  22832765.309   119986823.428        2258.736          31.000  
 23 10 29 17 40 22.9940000  0  9G10G25G32G12G19G17G15G24G06
  22472976.305                       -2355.616          13.000  
  20005351.190   105128826.821        2749.696          44.000  
  21323433.049   112055518.720        2368.075          44.000  
  18408398.082    96736786.855         549.355          48.000  
  20728136.912   108927095.511       -1963.998          45.000  
  22944976.122   120576667.094       -3166.136          34.000  
  22435442.597   117899010.519       -4078.789          31.000  
  18968633.693    99680838.880       -2009.656          47.000  
  22832335.290   119984565.461        2258.300          31.000  
 23 10 29 17 40 23.9940000  0  9G10G25G32G12G19G17G15G24G06
  22473422.378                       -2352.402          13.000  
  20004828.174   105126077.400        2749.431          44.000  
  21322981.856   112053150.970        2367.576          44.000  
  18408293.634    96736237.793         548.802          48.000  
  20728510.691   108929059.846       -1964.417          45.000  
  22945578.347   120579832.943       -3165.516          34.000  
  22436220.436   117903089.135       -4078.585          29.000  
  18969016.069    99682848.594       -2009.894          47.000  
  22831905.336   119982307.826        2257.324          32.000  
 23 10 29 17 40 24.9940000  0  9G10G25G32G12G19G17G15G24G06
  22473868.083                       -2352.402          13.000  
  20004304.921   105123328.311        2748.894          44.000  
  21322531.224   112050783.659        2367.251          44.000  
  18408189.402    96735689.253         548.482          48.000  
  20728884.990   108931024.763       -1965.035          45.000  
  22946180.887   120582998.992       -3165.539          35.000  
  22436995.051   117907167.532       -4078.511          28.000  
  18969398.353    99684858.750       -2010.266          47.000  
  22831475.777   119980050.413        2257.955          32.000  
 23 10 29 17 40 25.9940000  0  9G10G25G32G12G19G17G15G24G06
  22474313.031                       -2352.402          14.000  
  20003781.582   105120579.434        2748.439          44.000  
  21322080.873   112048416.673        2366.586          44.000  
  18408084.835    96735141.166         547.652          48.000  
  20729258.996   108932990.192       -1965.935          45.000  
  22946783.581   120586165.343       -3166.873          35.000  
  22437770.111   117911246.081       -4078.034          31.000  
  18969780.890    99686869.255       -2010.895          47.000  
  22831045.871   119977793.298        2257.338          31.000  
 23 10 29 17 40 26.9940000  0  9G10G25G32G12G19G17G15G24G06
  22474756.807                       -2355.375          14.000  
  20003258.961   105117830.867        2748.353          44.000  
  21321630.140   112046050.091        2366.199          44.000  
  18407980.337    96734593.578         547.155          47.000  
  20729633.172   108934956.174       -1966.313          45.000  
  22947386.309   120589331.878       -3166.962          35.000  
  22438550.365   117915324.548       -4078.171          31.000  
  18970163.791    99688880.158       -2011.127          47.000  
  22830616.149   119975536.514        2255.883          30.000  
 23 10 29 17 40 27.9940000  0  9G10G25G32G12G19G17G15G24G06
  22475201.454                       -2364.508          17.000  
  20002735.751   105115082.461        2748.143          44.000  
  21321180.269   112043683.796        2366.181          45.000  
  18407876.534    96734046.378         547.033          48.000  
  20730007.244   108936922.591       -1966.654          45.000  
  22947989.077   120592498.504       -3166.773          36.000  
  22439325.558   117919403.000       -4077.805          31.000  
  18970546.178    99690891.326       -2011.462          47.000  
  22830178.545   119973279.934        2256.031          30.000  
 23 10 29 17 40 28.9940000  0  9G10G25G32G12G19G17G15G24G06
  22475649.041                       -2354.384          17.000  
  20002212.186   105112334.373        2748.018          44.000  
  21320730.047   112041317.914        2365.776          44.000  
  18407772.645    96733499.696         546.515          48.000  
  20730381.411   108938889.582       -1967.106          46.000  
  22948592.141   120595665.366       -3166.787          36.000  
  22440097.056   117923481.490       -4077.987          32.000  
  18970928.748    99692902.918       -2011.743          47.000  
  22829743.939   119971023.493        2257.187          29.000  
 23 10 29 17 40 29.9940000  0  9G10G25G32G12G19G17G15G24G06
  22476095.106                       -2359.010          17.000  
  20001689.109   105109586.666        2747.144          44.000  
  21320279.437   112038952.547        2364.937          44.000  
  18407668.327    96732953.600         545.548          48.000  
  20730755.830   108940857.245       -1968.355          45.000  
  22949194.739   120598832.600       -3167.816          36.000  
  22440869.547   117927560.040       -4079.584          31.000  
  18971311.486    99694914.978       -2012.457          47.000  
  22829315.052   119968767.587        2255.549          28.000  
 23 10 29 17 40 30.9940000  0  9G10G25G32G12G19G17G15G24G06
  22476542.122                       -2361.885          19.000  
  20001166.868   105106839.217        2747.089          44.000  
  21319829.646   112036587.540        2364.560          44.000  
  18407564.200    96732407.982         545.064          48.000  
  20731130.453   108942825.408       -1968.741          45.000  
  22949797.502   120602000.020       -3167.827          36.000  
  22441646.745   117931638.631       -4079.161          32.000  
  18971694.302    99696927.414       -2012.958          47.000  
  22828878.641   119966511.984        2255.676          26.000  
 23 10 29 17 40 31.9940000  0  9G10G25G32G12G19G17G15G24G06
  22476990.882                       -2356.643          20.000  
  20000644.136   105104092.023        2747.392          44.000  
  21319379.605   112034222.895        2364.740          44.000  
  18407460.678    96731862.813         545.186          48.000  
  20731505.238   108944794.107       -1968.788          45.000  
  22950400.141   120605167.613       -3167.715          35.000  
  22442427.566                       -4076.754          24.000  
  18972077.129    99698940.222       -2012.915          47.000  
  22828442.249                        2254.886          24.000  
 23 10 29 17 40 32.9940000  0  9G10G25G32G12G19G17G15G24G06
  22477439.314                       -2352.428          20.000  
  20000121.502   105101345.080        2746.918          44.000  
  21318929.643   112031858.615        2364.164          44.000  
  18407356.963    96731318.120         544.586          48.000  
  20731879.423   108946763.313       -1969.471          45.000  
  22951003.312   120608335.417       -3168.094          36.000  
  22443199.013                       -4078.424          23.000  
  18972460.028    99700953.365       -2013.245          47.000  
  22828013.693                        2254.361          24.000  
 23 10 29 17 40 33.9940000  0  9G10G25G32G12G19G17G15G24G06
  22477882.748                       -2359.985          19.000  
  19999599.162   105098598.500        2746.360          44.000  
  21318479.855   112029494.810        2363.538          44.000  
  18407253.426    96730773.998         543.805          48.000  
  20732254.073   108948733.162       -1970.369          45.000  
  22951606.221   120611503.543       -3168.536          35.000  
  22443975.886                       -4077.844          26.000  
  18972842.688    99702966.999       -2013.824          46.000  
  22827581.824                        2252.989          23.000  
 23 10 29 17 40 34.9940000  0  9G10G25G32G12G19G17G15G24G06
  22478326.755                       -2347.712          18.000  
  19999076.268   105095852.148        2746.453          43.000  
  21318030.470   112027131.332        2363.492          45.000  
  18407150.071    96730230.293         543.818          48.000  
  20732629.667   108950703.475       -1970.281          45.000  
  22952209.166   120614671.820       -3168.705          35.000  
  22444747.445                       -4078.327          26.000  
  18973225.788    99704980.934       -2013.751          47.000  
  22827152.917                        2254.586          23.000  
 23 10 29 17 40 35.9940000  0  9G10G25G32G12G19G17G15G24G06
  22478772.318                       -2347.712          17.000  
  19998553.737   105093105.996        2745.677          43.000  
  21317581.467   112024768.184        2362.625          45.000  
  18407046.340    96729687.020         542.852          48.000  
  20733004.993   108952674.290       -1971.246          46.000  
  22952812.199   120617840.237       -3169.377          35.000  
  22445513.846                       -4078.132          26.000  
  18973608.999    99706995.198       -2014.600          47.000  
  22826726.650                        2255.041          24.000  
 23 10 29 17 40 36.9940000  0  9G10G25G32G12G19G17G15G24G06
  22479216.834                       -2350.577          18.000  
  19998031.406   105090360.210        2745.899          43.000  
  21317132.142   112022405.516        2362.736          45.000  
  18406943.124    96729144.327         542.847          48.000  
  20733380.410   108954645.733       -1971.435          46.000  
  22953415.458   120621008.937       -3167.882          35.000  
  22446284.851                       -4078.157          25.000  
  18973992.031    99709009.934       -2014.648          47.000  
  22826302.219                        2254.396          24.000  
 23 10 29 17 40 37.9940000  0  9G10G25G32G12G19G17G15G24G06
  22479660.018                       -2351.879          18.000  
  19997509.341   105087614.772        2745.015          43.000  
  21316683.021   112020043.306        2362.026          45.000  
  18406840.247    96728602.197         541.835          48.000  
  20733756.054   108956617.786       -1972.416          46.000  
  22954018.716   120624177.958       -3168.703          36.000  
  22447063.253                       -4078.906          25.000  
  18974375.482    99711025.113       -2015.460          47.000  
  22825874.329                        2253.170          23.000  
 23 10 29 17 40 38.9940000  0  9G10G25G32G12G19G17G15G24G06
  22480104.381                       -2352.499          18.000  
  19996986.860   105084869.475        2745.398          44.000  
  21316233.783   112017681.368        2361.715          45.000  
  18406737.443    96728060.432         541.606          48.000  
  20734131.463   108958590.279       -1972.626          45.000  
  22954621.929   120627347.076       -3169.190          36.000  
  22447840.488                       -4078.727          25.000  
  18974759.108    99713040.567       -2015.619          47.000  
  22825447.835                        2248.021          23.000  
 23 10 29 17 40 39.9940000  0  9G10G25G32G12G19G17G15G24G06
  22480546.903                       -2361.822          18.000  
  19996464.560   105082124.492        2745.345          43.000  
  21315784.775   112015319.822        2361.460          45.000  
  18406634.727    96727519.169         540.986          48.000  
  20734506.922   108960563.310       -1973.029          45.000  
  22955225.187   120630516.456       -3169.472          36.000  
  22448612.773                       -4081.164          23.000  
  18975142.749    99715056.413       -2016.016          47.000  
  22825021.921                        2253.655          22.000  
 23 10 29 17 40 40.9940000  0  9G10G25G32G12G19G17G15G24G06
  22480998.735                       -2359.391          20.000  
  19995942.262   105079379.838        2744.279          43.000  
  21315335.903   112012958.733        2360.761          45.000  
  18406531.685    96726978.432         540.369          48.000  
  20734882.291   108962536.958       -1974.161          45.000  
  22955827.992   120633686.021       -3169.201          35.000  
  22449390.045                       -4078.324          26.000  
  18975526.442    99717072.675       -2016.681          47.000  
  22824596.705                        2256.552          20.000  
 23 10 29 17 40 41.9940000  0  9G10G25G32G12G19G17G15G24G06
  22481449.751                       -2363.595          21.000  
  19995420.088   105076635.358        2744.685          43.000  
  21314886.785   112010597.920        2361.108          46.000  
  18406428.688    96726438.084         540.459          48.000  
  20735258.062   108964511.034       -1973.869          45.000  
  22956431.527   120636855.781       -3169.177          36.000  
  22450166.691                       -4079.724          25.000  
  18975910.543    99719089.229       -2016.229          47.000  
  22824168.051                        2252.303          19.000  
 23 10 29 17 40 42.9940000  0  9G10G25G32G12G19G17G15G24G06
  22481899.275                       -2357.996          24.000  
  19994897.990   105073891.162        2744.191          43.000  
  21314438.312   112008237.515        2360.117          46.000  
  18406325.823    96725898.237         539.573          48.000  
  20735634.016   108966485.661       -1975.021          45.000  
  22957034.506   120640025.713       -3169.554          35.000  
  22450944.530   117980509.8073      -4078.696          27.000  
  18976294.888    99721106.175       -2017.322          47.000  
  22823739.480                        2259.693          17.000  
 23 10 29 17 40 43.9940000  0  9G10G25G32G12G19G17G15G24G06
  22482346.348                       -2353.978          22.000  
  19994376.037   105071147.257        2744.025          44.000  
  21313989.346   112005877.511        2360.130          46.000  
  18406223.381    96725358.911         539.053          48.000  
  20736009.582   108968460.867       -1975.361          45.000  
  22957637.802   120643195.927       -3170.393          36.000  
  22451723.495   117984588.2182      -4078.256          27.000  
  18976678.804    99723123.525       -2017.468          47.000  
  22823315.224                        2253.324          17.000  
 23 10 29 17 40 44.9940000  0  9G10G25G32G12G19G17G15G24G06
  22482792.598                       -2365.297          23.000  
  19993854.121   105068403.638        2743.633          43.000  
  21313540.396   112003517.901        2359.358          45.000  
  18406120.851    96724820.052         538.684          48.000  
  20736385.246   108970436.608       -1976.146          45.000  
  22958241.176   120646366.358       -3170.973          35.000  
  22452500.946   117988666.6922      -4079.121          27.000  
  18977062.726    99725141.239       -2017.944          47.000  
  22822893.629                        2255.423          19.000  
 23 10 29 17 40 45.9940000  0  9G10G25G32G12G19G17G15G24G06
  22483242.752                       -2362.233          24.000  
  19993331.966   105065660.297        2743.037          43.000  
  21313091.411   112001158.696        2358.832          46.000  
  18406018.058    96724281.693         537.803          48.000  
  20736760.803   108972412.888       -1976.750          44.000  
  22958843.900   120649536.960       -3170.902          35.000  
  22453274.084   117992745.0742      -4078.823          27.000  
  18977446.668    99727159.360       -2018.585          47.000  
  22822470.834                        2250.374          21.000  
 23 10 29 17 40 46.9940000  0  9G10G25G32G12G19G17G15G24G06
  22483693.481                       -2362.084          25.000  
  19992810.044   105062917.207        2742.933          44.000  
  21312642.430   111998799.857        2358.558          46.000  
  18405915.736    96723743.794         537.456          48.000  
  20737136.482   108974389.697       -1977.064          44.000  
  22959447.128   120652707.823       -3171.560          35.000  
  22454053.079   117996823.4662      -4078.193          27.000  
  18977830.586    99729177.822       -2018.793          47.000  
  22822046.166                        2251.916          24.000  
 23 10 29 17 40 47.9940000  0  9G10G25G32G12G19G17G15G24G06
  22484146.903                       -2361.795          26.000  
  19992287.959   105060174.391        2742.729          44.000  
  21312193.344   111996441.378        2358.300          46.000  
  18405813.376    96723206.370         537.126          47.000  
  20737512.571   108976367.024       -1977.701          44.000  
  22960050.944   120655878.815       -3170.755          36.000  
  22454836.801   118000901.8542      -4078.103          30.000  
  18978214.543    99731196.650       -2018.945          46.000  
  22821622.518                        2251.119          24.000  
 23 10 29 17 40 48.9940000  0  9G10G25G32G12G19G17G15G24G06
  22484599.806   118157351.6073      -2363.089          26.000  
  19991765.916   105057431.930        2742.554          44.000  
  21311744.239   111994083.392        2358.117          45.000  
  18405711.386    96722669.510         536.986          47.000  
  20737888.484   108978344.983       -1977.738          44.000  
  22960654.179   120659050.200       -3171.660          36.000  
  22455616.752   118004980.3552      -4079.043          25.000  
  18978598.588    99733215.945       -2019.196          46.000  
  22821196.379                        2250.632          23.000  
 23 10 29 17 40 49.9940000  0  9G10G25G32G12G19G17G15G24G06
  22485049.923   118159714.0402      -2362.684          26.000  
  19991244.177   105054689.666        2742.234          44.000  
  21311295.388   111991725.713        2357.450          45.000  
  18405608.905    96722133.071         536.143          47.000  
  20738264.715   108980323.425       -1978.710          44.000  
  22961258.033   120662221.642       -3171.380          36.000  
  22456381.809                       -4075.183          22.000  
  18978982.918    99735235.543       -2019.843          47.000  
  22820767.320                        2249.837          23.000  
 23 10 29 17 40 50.9940000  0  9G10G25G32G12G19G17G15G24G06
  22485501.742   118162076.9062      -2362.527          26.000  
  19990722.197   105051947.756        2741.846          44.000  
  21310846.351   111989368.482        2357.078          45.000  
  18405507.094    96721597.188         535.660          47.000  
  20738640.844   108982302.464       -1979.381          43.000  
  22961861.828   120665393.414       -3172.032          36.000  
  22457151.132                       -4072.251          23.000  
  18979367.372    99737255.591       -2020.105          47.000  
  22820339.654                        2250.953          22.000  
 23 10 29 17 40 51.9940000  0  9G10G25G32G12G19G17G15G24G06
  22485949.613   118164440.3112      -2362.887          26.000  
  19990200.678   105049206.237        2741.529          44.000  
  21310397.810   111987011.762        2356.499          45.000  
  18405405.276    96721061.901         535.189          48.000  
  20739017.446   108984282.170       -1980.217          43.000  
  22962465.732   120668565.492       -3172.178          36.000  
  22457936.427   118017252.0633      -4078.394          26.000  
  18979751.809    99739276.137       -2020.605          47.000  
  22819915.123                        2248.479          22.000  
 23 10 29 17 40 52.9940000  0  9G10G25G32G12G19G17G15G24G06
  22486393.415   118166803.8332      -2363.550          28.000  
  19989679.457   105046464.896        2741.136          44.000  
  21309949.671   111984655.335        2355.984          45.000  
  18405303.668    96720527.018         534.665          48.000  
  20739394.080   108986262.313       -1980.416          43.000  
  22963069.509   120671737.715       -3172.603          37.000  
  22458715.978   118021330.4272      -4078.289          26.000  
  18980136.432    99741296.973       -2021.246          47.000  
  22819491.449                        2247.699          23.000  
 23 10 29 17 40 53.9940000  0  9G10G25G32G12G19G17G15G24G06
  22486842.848   118169167.7362      -2364.186          27.000  
  19989158.175   105043723.736        2740.912          44.000  
  21309501.580   111982299.189        2355.911          45.000  
  18405202.221    96719992.515         534.188          48.000  
  20739770.883   108988242.916       -1981.232          43.000  
  22963672.986   120674910.066       -3172.764          36.000  
  22459490.881   118025420.9113      -4078.731          25.000  
  18980521.087    99743318.091       -2021.411          47.000  
  22819064.264                        2249.133          24.000  
 23 10 29 17 40 54.9940000  0  9G10G25G32G12G19G17G15G24G06
  22487288.025   118171531.7152      -2363.906          26.000  
  19988636.482   105040982.805        2740.675          44.000  
  21309052.920   111979943.405        2355.524          45.000  
  18405100.903    96719458.446         533.626          48.000  
  20740147.572   108990223.976       -1981.502          43.000  
  22964276.872   120678082.545       -3173.007          36.000  
  22460266.330   118029499.1702      -4078.600          25.000  
  18980906.008    99745339.532       -2021.734          47.000  
  22818639.567                        2249.218          24.000  
 23 10 29 17 40 55.9940000  0  9G10G25G32G12G19G17G15G24G06
  22487733.601                       -2362.856          23.000  
  19988114.995   105038242.250        2740.298          44.000  
  21308604.742   111977588.101        2355.114          45.000  
  18404999.153    96718924.964         533.021          48.000  
  20740524.584   108992205.695       -1982.004          43.000  
  22964880.792   120681255.351       -3173.300          37.000  
  22461042.184   118033577.5842      -4078.302          26.000  
  18981290.923    99747361.450       -2022.021          47.000  
  22818217.680                        2247.508          23.000  
 23 10 29 17 40 56.9940000  0  9G10G25G32G12G19G17G15G24G06
  22488185.335                       -2363.613          24.000  
  19987593.776   105035502.098        2739.978          44.000  
  21308156.421   111975233.311        2354.680          45.000  
  18404897.885    96718392.089         532.901          48.000  
  20740901.465   108994188.082       -1982.554          43.000  
  22965484.558   120684428.533       -3173.543          36.000  
  22461822.861   118037656.1492      -4078.127          26.000  
  18981675.615    99749383.890       -2022.430          47.000  
  22817792.280                        2255.567          22.000  
 23 10 29 17 40 57.9940000  0  9G10G25G32G12G19G17G15G24G06
  22488640.142                       -2367.360          25.000  
  19987072.696   105032762.019        2739.838          44.000  
  21307708.184   111972878.716        2354.279          45.000  
  18404796.972    96717859.518         532.297          48.000  
  20741278.154   108996170.812       -1982.952          42.000  
  22966088.111   120687601.657       -3172.809          36.000  
  22462599.659   118041734.4652      -4078.332          28.000  
  18982060.905    99751406.500       -2022.815          47.000  
  22817367.446                        2248.335          23.000  
 23 10 29 17 40 58.9940000  0  9G10G25G32G12G19G17G15G24G06
  22489093.258                       -2366.765          23.000  
  19986551.769   105030022.401        2739.244          44.000  
  21307260.176   111970524.703        2353.547          45.000  
  18404695.922    96717327.602         531.340          48.000  
  20741655.517   108998154.274       -1984.097          42.000  
  22966691.985   120690775.256       -3174.035          36.000  
  22463372.154   118045812.9112      -4077.978          28.000  
  18982446.361    99753429.679       -2023.663          47.000  
  22816942.658                        2245.852          22.000  
 23 10 29 17 40 59.9940000  0  9G10G25G32G12G19G17G15G24G06
  22489541.546                       -2366.890          21.000  
  19986030.335   105027283.057        2739.179          44.000  
  21306812.063   111968171.061        2353.465          45.000  
  18404594.768    96716796.181         531.169          48.000  
  20742032.861   109000138.260       -1984.139          43.000  
  22967295.996   120693949.026       -3173.853          36.000  
  22464145.062   118049891.5272      -4078.950          27.000  
  18982831.345    99755453.238       -2023.889          47.000  
  22816517.361                        2246.354          19.000  
 23 10 29 17 41 00.9940000  0  9G10G25G32G12G19G17G15G24G06
  22489991.118                       -2366.890          17.000  
  19985509.136   105024543.808        2739.190          44.000  
  21306364.160   111965817.630        2353.193          45.000  
  18404493.712    96716265.045         530.985          48.000  
  20742410.158   109002122.573       -1984.397          43.000  
  22967899.945   120697122.835       -3173.657          36.000  
  22464922.233   118053969.2791      -4078.235          28.000  
  18983216.703    99757476.971       -2023.804          47.000  
  22816090.132                        2246.354          17.000  
 23 10 29 17 41 01.9940000  0  9G10G25G32G12G19G17G15G24G06
  22490441.999                       -2360.283          18.000  
  19984987.809   105021804.789        2738.875          44.000  
  21305916.119   111963464.533        2353.045          45.000  
  18404392.886    96715734.346         530.509          48.000  
  20742787.772   109004107.397       -1984.935          43.000  
  22968504.360   120700296.815       -3174.210          37.000  
  22465696.831   118058047.469       -4078.017          28.000  
  18983601.982    99759501.042       -2024.243          47.000  
  22815667.079                        2241.204          17.000  
 23 10 29 17 41 02.9940000  0  9G10G25G32G12G19G17G15G24G06
  22490894.607                       -2368.654          18.000  
  19984466.279   105019065.996        2738.480          44.000  
  21305467.971   111961111.812        2352.215          45.000  
  18404291.943    96715204.109         529.736          48.000  
  20743165.766   109006092.747       -1985.707          43.000  
  22969108.661   120703470.969       -3174.710          37.000  
  22466488.907   118062125.701       -4078.264          32.000  
  18983987.415    99761525.467       -2024.872          47.000  
  22815245.000                        2241.204          14.000  
 23 10 29 17 41 03.9940000  0  9G10G25G32G12G19G17G15G24G06
  22491344.131                       -2368.654          16.000  
  19983945.172   105016327.492        2738.636          44.000  
  21305020.482   111958759.434        2352.325          45.000  
  18404190.610    96714674.339         529.650          48.000  
  20743544.562   109008078.601       -1985.886          43.000  
  22969712.733   120706645.311       -3174.109          37.000  
  22467268.371   118066203.904       -4079.444          30.000  
  18984372.365    99763550.249       -2024.817          47.000  
  22814821.307                        2241.204          14.000  
 23 10 29 17 41 04.9940000  0  9G10G25G32G12G19G17G15G24G06
  22491796.406                       -2365.218          18.000  
  19983424.067   105013589.355        2738.132          44.000  
  21304572.566   111956407.573        2351.926          45.000  
  18404090.060    96714145.150         529.259          48.000  
  20743922.942   109010065.120       -1986.688          44.000  
  22970316.801   120709819.988       -3174.660          37.000  
  22468041.606   118070282.052       -4077.510          28.000  
  18984757.437    99765575.517       -2025.232          47.000  
  22814394.313                        2241.204          10.000  
 23 10 29 17 41 05.9940000  0  8G10G25G32G12G19G17G15G24
  22492248.642                       -2369.620          21.000  
  19982902.901   105010851.437        2738.009          44.000  
  21304124.861   111954056.063        2351.305          44.000  
  18403989.435    96713616.400         528.494          48.000  
  20744301.404   109012052.098       -1987.283          43.000  
  22970920.700   120712994.847       -3175.273          37.000  
  22468816.225   118074360.371       -4078.303          33.000  
  18985142.733    99767601.099       -2025.861          47.000  
 23 10 29 17 41 06.9940000  0  8G10G25G32G12G19G17G15G24
  22492696.316                       -2368.935          21.000  
  19982382.142   105008113.894        2737.633          44.000  
  21303677.396   111951705.009        2350.797          44.000  
  18403888.850    96713088.217         528.083          48.000  
  20744679.936   109014039.699       -1987.775          43.000  
  22971524.851   120716169.969       -3175.227          37.000  
  22469594.383   118078438.601       -4078.000          33.000  
  18985528.315    99769627.139       -2025.983          47.000  
 23 10 29 17 41 07.9940000  0  8G10G25G32G12G19G17G15G24
  22493146.152                       -2370.241          21.000  
  19981861.500   105005376.630        2736.940          44.000  
  21303229.972   111949354.350        2350.298          44.000  
  18403788.175    96712560.528         527.332          48.000  
  20745058.305   109016027.865       -1988.536          44.000  
  22972128.966   120719345.339       -3175.652          37.000  
  22470368.588   118082516.914       -4078.511          35.000  
  18985913.747    99771653.579       -2026.898          47.000  
 23 10 29 17 41 08.9940000  0  8G10G25G32G12G19G17G15G24
  22493592.306                       -2374.323          20.000  
  19981340.467   105002639.609        2736.882          44.000  
  21302782.540   111947004.064        2349.945          44.000  
  18403687.631    96712033.303         526.808          47.000  
  20745436.909   109018016.546       -1989.221          44.000  
  22972733.359   120722520.884       -3176.279          37.000  
  22471143.594   118086595.266       -4079.284          35.000  
  18986299.349    99773680.366       -2027.295          47.000  
 23 10 29 17 41 09.9940000  0  9G10G25G32G12G19G17G15G24G06
  22494041.194                       -2367.193          19.000  
  19980819.938   104999903.036        2736.421          44.000  
  21302335.716   111944654.328        2349.446          44.000  
  18403587.376    96711506.738         526.228          48.000  
  20745815.396   109020005.930       -1989.606          44.000  
  22973337.876   120725696.791       -3176.112          37.000  
  22471918.734   118090673.666       -4078.310          34.000  
  18986685.295    99775707.702       -2027.618          47.000  
  22812262.178                        2241.204          12.000  
 23 10 29 17 41 10.9940000  0  9G10G25G32G12G19G17G15G24G06
  22494488.046                       -2369.333          20.000  
  19980299.446   104997166.909        2735.720          44.000  
  21301888.772   111942305.152        2348.859          44.000  
  18403487.118    96710980.823         525.450          47.000  
  20746194.443   109021996.023       -1990.496          44.000  
  22973942.330   120728873.109       -3176.706          38.000  
  22472693.596   118094752.240       -4078.817          33.000  
  18987071.456    99777735.581       -2028.247          47.000  
  22811833.493                        2241.204          11.000  
 23 10 29 17 41 11.9940000  0  9G10G25G32G12G19G17G15G24G06
  22494935.777                       -2373.129          20.000  
  19979778.867   104994431.078        2735.518          45.000  
  21301441.545   111939956.368        2348.448          44.000  
  18403386.851    96710455.409         525.011          47.000  
  20746573.669   109023986.693       -1991.427          44.000  
  22974546.681   120732049.654       -3177.111          38.000  
  22473470.650   118098830.842       -4078.617          35.000  
  18987457.555    99779763.862       -2028.674          47.000  
  22811403.158                        2241.204          12.000  
 23 10 29 17 41 12.9940000  0  8G10G25G32G12G19G17G15G24
  22495385.988                       -2368.422          21.000  
  19979258.314   104991695.455        2735.366          44.000  
  21300994.671   111937607.918        2348.262          44.000  
  18403286.809    96709930.384         524.838          47.000  
  20746952.594   109025977.782       -1991.411          44.000  
  22975151.444   120735226.319       -3176.852          38.000  
  22474249.017   118102909.354       -4078.182          35.000  
  18987843.837    99781792.431       -2028.815          47.000  
 23 10 29 17 41 13.9940000  0  8G10G25G32G12G19G17G15G24
  22495840.128                       -2375.266          20.000  
  19978737.715   104988960.019        2735.429          44.000  
  21300548.336   111935259.802        2347.989          45.000  
  18403186.673    96709405.811         524.448          47.000  
  20747331.992   109027969.393       -1991.869          44.000  
  22975756.217   120738403.146       -3176.864          38.000  
  22475024.958   118106987.899       -4078.995          32.000  
  18988230.139    99783821.333       -2029.028          47.000  
 23 10 29 17 41 14.9940000  0  8G10G25G32G12G19G17G15G24
  22496295.393                       -2372.780          22.000  
  19978217.061   104986224.850        2735.097          44.000  
  21300101.381   111932912.035        2347.547          45.000  
  18403086.642    96708881.689         523.760          47.000  
  20747711.247   109029961.497       -1992.283          44.000  
  22976360.910   120741580.127       -3176.932          38.000  
  22475801.199   118111066.205       -4078.588          36.000  
  18988616.332    99785850.571       -2029.431          47.000  
 23 10 29 17 41 15.9940000  0  8G10G25G32G12G19G17G15G24
  22496747.266                       -2369.383          22.000  
  19977696.731   104983489.884        2734.947          44.000  
  21299654.902   111930564.586        2347.295          45.000  
  18402986.722    96708357.966         523.428          47.000  
  20748090.684   109031954.067       -1992.677          44.000  
  22976965.643   120744757.303       -3177.110          38.000  
  22476576.913   118115144.591       -4078.842          32.000  
  18989002.226    99787880.134       -2029.712          47.000  
 23 10 29 17 41 16.9940000  0  8G10G25G32G12G19G17G15G24
  22497196.160                       -2367.266          22.000  
  19977176.171   104980755.132        2734.304          44.000  
  21299208.696   111928217.478        2346.642          45.000  
  18402886.987    96707834.678         522.708          47.000  
  20748470.481   109033947.142       -1993.649          45.000  
  22977570.435   120747934.606       -3177.677          38.000  
  22477353.459   118119222.888       -4078.752          32.000  
  18989388.766    99789910.015       -2030.444          47.000  
 23 10 29 17 41 17.9940000  0  8G10G25G32G12G19G17G15G24
  22497647.682                       -2372.395          19.000  
  19976655.494   104978020.708        2734.350          44.000  
  21298762.315   111925870.816        2346.397          45.000  
  18402787.329    96707311.910         522.552          47.000  
  20748850.002   109035940.770       -1993.938          44.000  
  22978174.961   120751112.175       -3177.623          38.000  
  22478129.862   118123301.243       -4078.297          33.000  
  18989775.048    99791940.313       -2030.621          47.000  
 23 10 29 17 41 18.9940000  0  8G10G25G32G12G19G17G15G24
  22498097.787                       -2372.395          17.000  
  19976135.331   104975286.578        2733.652          44.000  
  21298315.914   111923524.543        2345.820          45.000  
  18402687.893    96706789.630         521.790          47.000  
  20749229.466   109037934.941       -1994.805          45.000  
  22978779.894   120754289.969       -3178.424          38.000  
  22478906.805   118127379.388       -4077.274          32.000  
  18990161.326    99793970.997       -2031.219          47.000  
 23 10 29 17 41 19.9940000  0  9G10G25G32G12G19G17G15G24G06
  22498550.989                       -2373.888          18.000  
  19975614.968   104972552.794        2733.394          44.000  
  21297869.850   111921178.725        2345.506          45.000  
  18402588.591    96706267.910         521.510          47.000  
  20749609.071   109039929.723       -1995.076          44.000  
  22979385.070   120757468.025       -3178.336          38.000  
  22479682.199   118131457.790       -4078.527          34.000  
  18990547.722    99796002.129       -2031.482          47.000  
  22807912.166                        2241.406          12.000  
 23 10 29 17 41 20.9940000  0  9G10G25G32G12G19G17G15G24G06
  22499005.394                       -2371.716          18.000  
  19975094.929   104969819.295        2733.318          44.000  
  21297423.515   111918833.334        2345.126          45.000  
  18402489.489    96705746.701         520.920          47.000  
  20749988.943   109041925.068       -1995.667          44.000  
  22979990.071   120760646.312       -3178.426          38.000  
  22480457.743   118135536.272       -4078.742          37.000  
  18990934.301    99798033.641       -2031.830          47.000  
  22807489.329                        2241.406          14.000  
 23 10 29 17 41 21.9940000  0  9G10G25G32G12G19G17G15G24G06
  22499455.322                       -2370.075          17.000  
  19974574.719   104967086.091        2733.232          44.000  
  21296977.151   111916488.331        2345.076          45.000  
  18402390.637    96705225.983         520.802          47.000  
  20750368.718   109043920.962       -1996.030          44.000  
  22980594.955   120763824.849       -3178.720          38.000  
  22481233.685   118139614.585       -4077.499          34.000  
  18991321.251    99800065.566       -2031.989          47.000  
  22807062.789                        2242.145          16.000  
 23 10 29 17 41 22.9940000  0  9G10G25G32G12G19G17G15G24G06
  22499906.068                       -2370.075          14.000  
  19974054.837   104964353.182        2732.932          44.000  
  21296531.150   111914143.739        2344.530          45.000  
  18402291.317    96704705.767         520.122          47.000  
  20750748.319   109045917.408       -1996.591          44.000  
  22981199.662   120767003.574       -3178.726          38.000  
  22482009.604   118143693.030       -4078.427          35.000  
  18991708.286    99802097.868       -2032.391          48.000  
  22806637.833                        2238.817          17.000  
 23 10 29 17 41 23.9940000  0  9G10G25G32G12G19G17G15G24G06
  22500358.414                       -2370.075          12.000  
  19973534.598   104961620.404        2732.764          44.000  
  21296084.760   111911799.404        2344.209          45.000  
  18402192.883    96704185.899         519.658          47.000  
  20751128.176   109047914.243       -1996.921          43.000  
  22981804.824   120770182.404       -3179.023          38.000  
  22482785.644   118147771.255       -4077.959          35.000  
  18992095.205    99804130.418       -2032.574          48.000  
  22806212.839                        2243.944          18.000  
 23 10 29 17 41 24.9940000  0  9G10G25G32G12G19G17G15G24G06
  22500808.344                       -2370.075          12.000  
  19973014.517   104958888.018        2732.189          44.000  
  21295638.530   111909455.547        2343.745          45.000  
  18402094.198    96703666.609         518.973          47.000  
  20751507.836   109049911.733       -1997.804          43.000  
  22982409.714   120773361.512       -3178.981          38.000  
  22483561.657   118151849.551       -4078.080          34.000  
  18992481.996    99806163.446       -2033.099          47.000  
  22805787.894                        2250.793          19.000  
 23 10 29 17 41 25.9940000  0  9G10G25G32G12G19G17G15G24G06
  22501260.170                       -2370.075          12.000  
  19972494.437   104956155.854        2732.346          44.000  
  21295192.517   111907112.060        2343.452          45.000  
  18401995.242    96703147.770         518.893          47.000  
  20751887.548   109051909.719       -1998.044          43.000  
  22983014.805   120776540.844       -3179.131          37.000  
  22484337.463   118155927.882       -4078.409          33.000  
  18992868.839    99808196.814       -2033.276          47.000  
  22805360.171                        2240.865          18.000  
 23 10 29 17 41 26.9940000  0  9G10G25G32G12G19G17G15G24G06
  22501714.205                       -2380.003          13.000  
  19971974.207   104953423.879        2732.032          44.000  
  21294746.712   111904768.858        2343.125          45.000  
  18401896.698    96702629.318         518.407          47.000  
  20752267.457   109053908.135       -1998.543          43.000  
  22983619.913   120779720.256       -3179.629          38.000  
  22485113.943   118160006.042       -4077.842          35.000  
  18993255.747    99810230.462       -2033.673          47.000  
  22804934.316                        2245.918          19.000  
 23 10 29 17 41 27.9940000  0  9G10G25G32G12G19G17G15G24G06
  22502169.206                       -2380.003          13.000  
  19971454.040   104950692.212        2731.093          44.000  
  21294301.184   111902426.054        2342.586          45.000  
  18401798.168    96702111.373         517.540          47.000  
  20752647.983   109055907.079       -1999.261          43.000  
  22984224.735   120782899.905       -3179.898          38.000  
  22485890.273   118164084.244       -4078.733          35.000  
  18993642.689    99812264.501       -2034.387          47.000  
  22804506.692                        2244.523          20.000  
 23 10 29 17 41 28.9940000  0  9G10G25G32G12G19G17G15G24G06
  22502623.911                       -2368.010          14.000  
  19970934.222   104947960.984        2730.739          44.000  
  21293855.785   111900083.836        2342.048          45.000  
  18401699.816    96701594.096         516.967          47.000  
  20753028.498   109057906.795       -2000.157          43.000  
  22984829.601   120786079.924       -3179.741          38.000  
  22486665.992   118168162.598       -4078.348          35.000  
  18994029.922    99814299.119       -2035.034          47.000  
  22804081.354                        2243.611          20.000  
 23 10 29 17 41 29.9940000  0  9G10G25G32G12G19G17G15G24G06
  22503082.201                       -2378.992          15.000  
  19970414.406   104945230.115        2731.082          44.000  
  21293410.398   111897742.108        2341.920          45.000  
  18401601.454    96701077.383         516.790          47.000  
  20753409.277   109059907.106       -2000.202          43.000  
  22985434.644   120789260.282       -3179.950          37.000  
  22487442.123   118172241.054       -4078.125          35.000  
  18994417.009    99816334.175       -2035.034          47.000  
  22803650.454                        2241.465          19.000  
 23 10 29 17 41 30.9940000  0  9G10G25G32G12G19G17G15G24G06
  22503536.668                       -2378.992          15.000  
  19969894.442   104942499.411        2730.946          43.000  
  21292965.082   111895400.644        2341.750          46.000  
  18401502.936    96700561.044         516.554          47.000  
  20753789.995   109061907.845       -2000.391          43.000  
  22986039.791   120792440.710       -3180.284          37.000  
  22488218.014   118176319.399       -4078.071          31.000  
  18994804.164    99818369.497       -2035.022          47.000  
  22803223.325                        2237.925          19.000  
 23 10 29 17 41 31.9940000  0  9G10G25G32G12G19G17G15G24G06
  22503990.237                       -2377.740          16.000  
  19969374.768   104939768.979        2730.144          44.000  
  21292519.434   111893059.538        2341.057          45.000  
  18401404.988    96700045.140         515.663          47.000  
  20754171.101   109063909.095       -2001.436          44.000  
  22986644.873   120795621.312       -3180.622          38.000  
  22488993.943   118180397.662       -4078.870          32.000  
  18995191.334    99820405.173       -2035.809          47.000  
  22802797.051                        2242.500          20.000  
 23 10 29 17 41 32.9940000  0  9G10G25G32G12G19G17G15G24G06
  22504444.363                       -2373.610          18.000  
  19968855.312   104937038.885        2729.939          43.000  
  21292073.991   111890718.920        2340.271          46.000  
  18401307.025    96699529.814         515.135          47.000  
  20754552.109   109065910.969       -2002.202          44.000  
  22987250.424   120798802.190       -3180.742          38.000  
  22489769.378   118184475.919       -4078.137          39.000  
  18995578.906    99822441.310       -2036.359          47.000  
  22802370.535                        2233.070          20.000  
 23 10 29 17 41 33.9940000  0  9G10G25G32G12G19G17G15G24G06
  22504897.266                       -2384.221          20.000  
  19968335.764   104934309.048        2729.769          43.000  
  21291628.552   111888378.678        2339.964          45.000  
  18401209.160    96699014.975         514.542          46.000  
  20754933.257   109067913.378       -2002.645          43.000  
  22987855.905   120801983.329       -3181.464          38.000  
  22490544.912   118188554.205       -4078.265          33.000  
  18995966.355    99824477.824       -2036.792          47.000  
  22801946.303                        2233.070          20.000  
 23 10 29 17 41 34.9940000  0  9G10G25G32G12G19G17G15G24G06
  22505352.119                       -2387.389          21.000  
  19967816.328   104931579.617        2728.997          43.000  
  21291183.325   111886038.937        2339.340          45.000  
  18401111.362    96698500.736         513.816          46.000  
  20755314.234   109069916.444       -2003.657          43.000  
  22988461.107   120805164.746       -3181.579          37.000  
  22491320.748   118192632.775       -4078.512          28.000  
  18996354.254    99826514.807       -2037.427          46.000  
  22801519.010                        2239.593          17.000  
 23 10 29 17 41 35.9940000  0  9G10G25G32G12G19G17G15G24G06
  22505807.356                       -2379.425          21.000  
  19967296.872   104928850.778        2728.919          43.000  
  21290738.273   111883699.935        2338.891          45.000  
  18401013.737    96697987.327         513.305          46.000  
  20755695.559   109071920.361       -2004.195          43.000  
  22989066.525   120808346.739       -3181.817          37.000  
  22492094.862   118196711.532       -4078.970          28.000  
  18996742.094    99828552.520       -2037.970          46.000  
  22801091.879                        2239.593          16.000  
 23 10 29 17 41 36.9940000  0  9G10G25G32G12G19G17G15G24G06
  22506262.545                       -2377.884          21.000  
  19966777.519   104926122.068        2728.842          42.000  
  21290293.292   111881361.147        2338.397          44.000  
  18400916.277    96697474.245         512.801          46.000  
  20756076.911   109073924.649       -2004.581          42.000  
  22989671.790   120811528.769       -3182.376          37.000  
  22492869.769                       -4080.379          26.000  
  18997130.128    99830590.430       -2038.269          46.000  
  22800666.100                        2239.593          13.000  
 23 10 29 17 41 37.9940000  0  9G10G25G32G12G19G17G15G24G06
  22506715.708                       -2379.357          21.000  
  19966258.276   104923393.423        2728.453          42.000  
  21289848.094   111879022.532        2338.300          44.000  
  18400818.831    96696961.416         512.336          46.000  
  20756458.323   109075929.280       -2005.191          42.000  
  22990277.346   120814710.778       -3182.280          36.000  
  22493644.031                       -4078.262          26.000  
  18997518.033    99832628.496       -2038.556          46.000  
  22800240.398                        2239.593          12.000  
 23 10 29 17 41 38.9940000  0  9G10G25G32G12G19G17G15G24G06
  22507171.686                       -2381.895          22.000  
  19965738.947   104920664.858        2728.699          42.000  
  21289403.002   111876684.119        2338.238          44.000  
  18400721.457    96696448.891         512.407          46.000  
  20756839.822   109077934.248       -2005.381          42.000  
  22990882.872   120817892.827       -3182.583          36.000  
  22494420.917                       -4078.238          26.000  
  18997905.991    99834666.755       -2038.184          46.000  
  22799818.536                        2239.593          10.000  
 23 10 29 17 41 39.9940000  0  9G10G25G32G12G19G17G15G24G06
  22507628.206                       -2379.001          25.000  
  19965219.858   104917936.460        2728.429          42.000  
  21288958.026   111874345.979        2338.114          44.000  
  18400624.115    96695936.720         511.928          46.000  
  20757221.543   109079939.641       -2005.731          42.000  
  22991488.452   120821074.953       -3182.361          36.000  
  22495195.881   118213052.1333      -4079.067          26.000  
  18998293.854    99836705.268       -2038.684          46.000  
  22799396.313                        2239.593          11.000  
 23 10 29 17 41 40.9940000  0  9G10G25G32G12G19G17G15G24G06
  22508082.542                       -2381.135          25.000  
  19964700.592   104915208.165        2727.960          42.000  
  21288513.196   111872008.061        2337.375          44.000  
  18400526.841    96695424.866         511.389          46.000  
  20757602.972   109081945.377       -2006.219          42.000  
  22992093.996   120824257.145       -3182.509          36.000  
  22495970.448   118217129.9682      -4078.129          26.000  
  18998682.017    99838743.984       -2039.069          46.000  
  22798976.371                        2239.593          10.000  
 23 10 29 17 41 41.9940000  0  9G10G25G32G12G19G17G15G24G06
  22508536.588                       -2380.689          25.000  
  19964181.463   104912480.295        2727.651          41.000  
  21288068.765   111869670.669        2337.204          43.000  
  18400429.479    96694913.623         511.057          46.000  
  20757984.430   109083951.789       -2006.597          42.000  
  22992699.682   120827439.639       -3182.735          35.000  
  22496747.188   118221207.9482      -4077.559          27.000  
  18999070.238    99840783.216       -2039.459          45.000  
  22798552.490                        2239.750          10.000  
 23 10 29 17 41 42.9940000  0  9G10G25G32G12G19G17G15G24G06
  22508989.759                       -2379.489          26.000  
  19963662.469   104909752.526        2727.734          41.000  
  21287624.343   111867333.524        2337.255          44.000  
  18400332.349    96694402.717         510.928          46.000  
  20758366.166   109085958.587       -2007.003          42.000  
  22993305.139   120830622.213       -3182.561          35.000  
  22497521.753   118225285.7702      -4078.487          28.000  
  18999458.152    99842822.675       -2039.618          45.000  
  22798127.665                        2239.750          10.000  
 23 10 29 17 41 43.9940000  0  9G10G25G32G12G19G17G15G24G06
  22509442.237                       -2380.268          26.000  
  19963143.454   104907025.078        2727.410          41.000  
  21287179.491   111864996.811        2336.448          43.000  
  18400235.178    96693892.335         510.149          46.000  
  20758748.285   109087965.955       -2007.518          42.000  
  22993910.701   120833805.040       -3183.206          35.000  
  22498296.593   118229363.4402      -4077.768          28.000  
  18999846.016    99844862.547       -2040.045          45.000  
  22797699.443                        2239.750          10.000  
 23 10 29 17 41 44.9940000  0  8G10G25G32G12G19G17G15G24
  22509897.635   118290310.1573      -2380.867          26.000  
  19962624.526   104904297.917        2726.675          41.000  
  21286735.012   111862660.457        2335.918          43.000  
  18400138.238    96693382.419         509.390          46.000  
  20759130.468   109089973.852       -2008.428          42.000  
  22994516.673   120836988.034       -3183.436          36.000  
  22499075.950   118233441.2422      -4077.529          31.000  
  19000234.506    99846902.776       -2040.723          45.000  
 23 10 29 17 41 45.9940000  0  8G10G25G32G12G19G17G15G24
  22510352.187   118292690.8932      -2380.644          27.000  
  19962105.847   104901570.877        2727.052          41.000  
  21286290.533   111860324.379        2336.126          43.000  
  18400041.408    96692872.845         509.413          46.000  
  20759512.683   109091982.140       -2008.289          41.000  
  22995122.298   120840171.108       -3182.971          35.000  
  22499852.428   118237518.8412      -4075.909          32.000  
  19000622.660    99848943.253       -2040.558          45.000  
 23 10 29 17 41 46.9940000  0  9G10G25G32G12G19G17G15G24G06
  22510806.796   118295071.9352      -2380.611          27.000  
  19961586.877   104898844.016        2726.888          41.000  
  21285845.823   111857988.598        2335.740          43.000  
  18399944.664    96692363.664         509.092          46.000  
  20759894.888   109093990.874       -2008.816          42.000  
  22995727.784   120843354.320       -3183.160          35.000  
  22500624.860   118241596.4752      -4076.972          32.000  
  19001010.766    99850984.007       -2040.851          45.000  
  22796444.391                        2239.750          10.000  
 23 10 29 17 41 47.9940000  0  9G10G25G32G12G19G17G15G24G06
  22511258.658   118297453.3372      -2381.283          26.000  
  19961067.890   104896117.516        2726.692          41.000  
  21285401.466   111855653.325        2335.236          43.000  
  18399847.744    96691855.073         508.402          46.000  
  20760277.185   109096000.246       -2009.603          42.000  
  22996333.756   120846537.843       -3183.766          35.000  
  22501403.650   118245674.0692      -4077.010          31.000  
  19001399.310    99853025.240       -2041.278          45.000  
  22796032.432                        2227.461          15.000  
 23 10 29 17 41 48.9940000  0  9G10G25G32G12G19G17G15G24G06
  22511710.712                       -2374.665          24.000  
  19960549.054   104893391.121        2726.484          42.000  
  21284956.835   111853318.217        2335.076          43.000  
  18399751.091    96691346.758         508.274          46.000  
  20760659.596   109098009.965       -2009.729          42.000  
  22996939.368   120849721.346       -3183.423          35.000  
  22502177.316   118249751.1271      -4078.116          30.000  
  19001787.471    99855066.637       -2041.186          45.000  
  22795619.868                        2238.095          18.000  
 23 10 29 17 41 49.9940000  0  9G10G25G32G12G19G17G15G24G06
  22512160.634                       -2382.891          22.000  
  19960030.364   104890664.980        2726.050          42.000  
  21284512.373   111850983.502        2334.384          43.000  
  18399654.587    96690838.923         507.425          46.000  
  20761042.042   109100020.196       -2010.618          42.000  
  22997545.058   120852905.093       -3184.161          35.000  
  22502949.833   118253828.544       -4078.192          34.000  
  19002175.862    99857108.410       -2042.053          45.000  
  22795204.974                        2233.596          20.000  
 23 10 29 17 41 50.9940000  0  9G10G25G32G12G19G17G15G24G06
  22512609.379                       -2383.540          20.000  
  19959512.105   104887939.125        2725.991          42.000  
  21284067.838   111848649.168        2334.154          43.000  
  18399558.046    96690331.562         507.174          46.000  
  20761424.954   109102030.985       -2010.972          42.000  
  22998150.609   120856088.973       -3184.043          34.000  
  22503730.584   118257905.915       -4076.924          33.000  
  19002564.623    99859150.564       -2042.090          45.000  
  22794786.101                        2231.335          21.000  
 23 10 29 17 41 51.9940000  0  9G10G25G32G12G19G17G15G24G06
  22513059.867                       -2378.512          20.000  
  19958993.336   104885213.329        2725.828          42.000  
  21283623.998   111846315.031        2334.156          43.000  
  18399461.490    96689824.484         507.038          46.000  
  20761808.071   109104042.083       -2011.049          42.000  
  22998756.317   120859272.900       -3183.847          35.000  
  22504503.681   118261983.096       -4076.987          30.000  
  19002953.357    99861192.883       -2042.456          45.000  
  22794371.004                        2235.398          22.000  
 23 10 29 17 41 52.9940000  0  9G10G25G32G12G19G17G15G24G06
  22513513.135                       -2382.570          19.000  
  19958474.681   104882487.842        2725.746          42.000  
  21283179.888   111843981.318        2333.943          43.000  
  18399365.298    96689317.927         506.709          46.000  
  20762190.957   109106053.747       -2011.338          42.000  
  22999362.461   120862457.075       -3183.842          35.000  
  22505278.026   118266060.273       -4076.754          31.000  
  19003342.281    99863235.605       -2042.511          45.000  
  22793951.786                        2230.743          22.000  
 23 10 29 17 41 53.9940000  0  9G10G25G32G12G19G17G15G24G06
  22513965.647                       -2385.106          19.000  
  19957956.191   104879762.417        2725.322          42.000  
  21282735.815   111841647.765        2333.208          43.000  
  18399268.828    96688811.613         506.078          46.000  
  20762573.979   109108065.733       -2012.363          43.000  
  22999968.505   120865641.220       -3184.551          35.000  
  22506058.611   118270137.286       -4078.483          31.000  
  19003730.893    99865278.468       -2043.207          45.000  
  22793530.699                        2237.892          21.000  
 23 10 29 17 41 54.9940000  0  9G10G25G32G12G19G17G15G24G06
  22514419.649                       -2385.106          17.000  
  19957437.837   104877037.227        2725.283          42.000  
  21282291.936   111839314.588        2333.076          43.000  
  18399172.525    96688305.765         505.773          46.000  
  20762956.980   109110078.223       -2012.963          43.000  
  23000574.187   120868825.523       -3184.336          35.000  
  22506838.383   118274214.129       -4076.613          31.000  
  19004119.657    99867321.699       -2043.335          45.000  
  22793109.401                        2239.023          20.000  
 23 10 29 17 41 55.9940000  0  9G10G25G32G12G19G17G15G24G06
  22514873.194                       -2385.106          15.000  
  19956919.747   104874312.354        2724.949          42.000  
  21281847.764   111836981.819        2332.519          43.000  
  18399076.331    96687800.432         505.214          46.000  
  20763340.235   109112091.272       -2013.419          43.000  
  23001180.006   120872010.077       -3184.317          35.000  
  22507606.476   118278291.071       -4076.461          30.000  
  19004508.337    99869365.315       -2043.689          45.000  
  22792686.203                        2232.950          19.000  
 23 10 29 17 41 56.9940000  0  9G10G25G32G12G19G17G15G24G06
  22515326.869                       -2385.106          12.000  
  19956401.593   104871587.549        2724.874          42.000  
  21281403.857   111834649.226        2332.889          43.000  
  18398980.001    96687295.368         505.060          45.000  
  20763723.263   109114104.649       -2013.529          43.000  
  23001786.142   120875194.660       -3184.478          35.000  
  22508386.387   118282367.781       -4075.409          31.000  
  19004897.156    99871409.104       -2043.726          45.000  
  22792261.951                        2237.325          17.000  
 23 10 29 17 41 57.9940000  0  9G10G25G32G12G19G17G15G24G06
  22515779.698                       -2385.106          11.000  
  19955883.215   104868862.987        2724.292          42.000  
  21280960.061   111832317.007        2331.853          43.000  
  18398883.872    96686790.762         504.234          45.000  
  20764106.712   109116118.545       -2014.295          43.000  
  23002392.116   120878379.373       -3184.825          35.000  
  22509161.223   118286444.470       -4076.541          31.000  
  19005286.185    99873453.225       -2044.324          45.000  
  22791840.094                        2228.687          17.000  
 23 10 29 17 41 58.9940000  0  8G25G32G12G19G17G15G24G06
  19955365.183   104866138.731        2724.222          43.000  
  21280516.520   111829985.222        2331.639          43.000  
  18398788.033    96686286.674         503.815          45.000  
  20764490.207   109118132.994       -2014.666          43.000  
  23002998.037   120881564.360       -3184.850          35.000  
  22509936.601   118290521.255       -4077.889          31.000  
  19005674.930    99875497.764       -2044.452          45.000  
  22791419.483                        2232.925          17.000  
 23 10 29 17 41 59.9940000  0  9G10G25G32G12G19G17G15G24G06
  22516690.728                       -2383.285          13.000  
  19954846.964   104863414.674        2723.657          43.000  
  21280072.658   111827653.728        2331.318          43.000  
  18398691.857    96685782.978         503.353          45.000  
  20764873.906   109120147.901       -2015.363          43.000  
  23003604.302   120884749.484       -3185.706          35.000  
  22510712.946   118294597.817       -4076.664          31.000  
  19006064.233    99877542.606       -2045.239          45.000  
  22790998.117                        2228.450          17.000  
 23 10 29 17 42 00.9940000  0  9G10G25G32G12G19G17G15G24G06
  22517143.602                       -2388.037          15.000  
  19954328.928   104860690.887        2723.555          43.000  
  21279629.056   111825322.642        2330.802          43.000  
  18398595.885    96685279.756         503.210          45.000  
  20765257.248   109122163.313       -2015.413          42.000  
  23004210.546   120887934.753       -3184.686          35.000  
  22511488.805   118298674.445       -4076.377          32.000  
  19006453.295    99879587.809       -2045.441          45.000  
  22790574.665                        2228.450          16.000  
 23 10 29 17 42 01.9940000  0  9G10G25G32G12G19G17G15G24G06
  22517595.502                       -2387.852          17.000  
  19953810.921   104857967.375        2723.467          43.000  
  21279185.710   111822991.950        2330.493          43.000  
  18398500.258    96684777.049         502.528          45.000  
  20765640.852   109124179.285       -2016.029          43.000  
  23004816.533   120891120.296       -3185.822          35.000  
  22512268.105   118302751.039       -4076.878          31.000  
  19006842.546    99881633.390       -2045.630          45.000  
  22790154.019                        2227.156          17.000  
 23 10 29 17 42 02.9940000  0  9G10G25G32G12G19G17G15G24G06
  22518049.689                       -2381.428          18.000  
  19953293.005   104855243.995        2723.499          43.000  
  21278741.911   111820661.495        2330.232          43.000  
  18398404.696    96684274.683         502.201          45.000  
  20766024.801   109126195.647       -2016.378          43.000  
  23005422.723   120894305.861       -3185.930          35.000  
  22513041.063                       -4075.049          31.000  
  19007231.732    99883679.187       -2045.715          45.000  
  22789731.124                        2231.422          16.000  
 23 10 29 17 42 03.9940000  0  9G10G25G32G12G19G17G15G24G06
  22518506.220                       -2382.163          19.000  
  19952774.875   104852521.061        2722.932          42.000  
  21278298.743   111818331.594        2329.803          43.000  
  18398309.062    96683772.957         501.612          45.000  
  20766408.900   109128212.691       -2017.059          43.000  
  23006029.260   120897491.801       -3185.532          36.000  
  22513816.699   118310904.5143      -4075.918          35.000  
  19007621.377    99885725.532       -2046.509          45.000  
  22789308.205                        2231.422          15.000  
 23 10 29 17 42 04.9940000  0  9G10G25G32G12G19G17G15G24G06
  22518965.261                       -2389.912          20.000  
  19952256.723   104849798.310        2722.687          42.000  
  21277855.534   111816002.003        2329.458          43.000  
  18398213.810    96683271.641         501.202          45.000  
  20766792.778   109130230.203       -2017.743          43.000  
  23006635.450   120900677.861       -3185.567          35.000  
  22514596.898   118314980.8852      -4075.619          35.000  
  19008010.515    99887772.155       -2046.570          45.000  
  22788882.849                        2231.422          13.000  
 23 10 29 17 42 05.9940000  0  9G10G25G32G12G19G17G15G24G06
  22519423.532                       -2383.665          20.000  
  19951738.620   104847075.671        2722.133          42.000  
  21277412.098   111813672.637        2328.702          43.000  
  18398118.294    96682770.648         500.471          45.000  
  20767176.748   109132248.057       -2018.316          43.000  
  23007242.046   120903863.965       -3186.377          35.000  
  22515366.758   118319057.3602      -4076.807          29.000  
  19008399.915    99889818.993       -2047.290          45.000  
  22788457.808                        2231.422          12.000  
 23 10 29 17 42 06.9940000  0  9G10G25G32G12G19G17G15G24G06
  22519882.889                       -2386.350          21.000  
  19951220.490   104844353.347        2722.205          42.000  
  21276968.827   111811343.714        2328.588          43.000  
  18398022.759    96682270.193         500.346          45.000  
  20767560.788   109134266.488       -2018.594          43.000  
  23007848.192   120907050.332       -3186.628          35.000  
  22516137.826   118323133.6882      -4076.388          29.000  
  19008789.663    99891866.256       -2047.528          45.000  
  22788033.429                        2231.422          12.000  
 23 10 29 17 42 07.9940000  0  9G10G25G32G12G19G17G15G24G06
  22520341.978                       -2386.159          20.000  
  19950702.712   104841631.101        2722.340          42.000  
  21276525.697   111809014.962        2328.665          43.000  
  18397927.574    96681769.994         499.995          45.000  
  20767945.136   109136285.238       -2018.592          43.000  
  23008454.638   120910236.666       -3186.491          35.000  
  22516915.432   118327209.7492      -4075.246          30.000  
  19009179.198    99893913.674       -2047.522          45.000  
  22787608.157                        2231.422          10.000  
 23 10 29 17 42 08.9940000  0  8G10G25G32G12G19G17G15G24
  22520802.108                       -2385.870          21.000  
  19950184.462   104838909.048        2721.496          42.000  
  21276082.915   111806686.512        2328.219          43.000  
  18397832.466    96681270.182         499.514          45.000  
  20768329.333   109138304.458       -2019.927          43.000  
  23009061.209   120913423.135       -3186.883          35.000  
  22517695.823   118331285.7812      -4076.115          29.000  
  19009568.857    99895961.379       -2048.041          44.000  
 23 10 29 17 42 09.9940000  0  8G10G25G32G12G19G17G15G24
  22521263.219                       -2385.188          21.000  
  19949666.452   104836187.518        2721.157          42.000  
  21275640.133   111804358.733        2327.524          43.000  
  18397737.605    96680771.128         498.708          45.000  
  20768713.574   109140324.434       -2020.245          43.000  
  23009667.504   120916610.053       -3187.035          35.000  
  22518465.103   118335361.9722      -4076.526          28.000  
  19009958.481    99898009.727       -2048.798          44.000  
 23 10 29 17 42 10.9940000  0  9G10G25G32G12G19G17G15G24G06
  22521722.206                       -2377.600          20.000  
  19949148.290   104833466.322        2720.920          42.000  
  21275197.161   111802031.397        2326.973          43.000  
  18397642.512    96680272.610         498.129          45.000  
  20769098.122   109142345.043       -2020.943          43.000  
  23010273.735   120919797.240       -3187.223          35.000  
  22519244.536                       -4076.378          27.000  
  19010348.151    99900058.499       -2049.146          44.000  
  22786327.051                        2229.162          12.000  
 23 10 29 17 42 11.9940000  0  9G10G25G32G12G19G17G15G24G06
  22522183.199                       -2383.001          20.000  
  19948630.337   104830745.370        2720.801          42.000  
  21274754.528   111799704.413        2326.473          43.000  
  18397547.735    96679774.529         497.765          45.000  
  20769482.540   109144366.127       -2021.610          43.000  
  23010880.063   120922984.601       -3187.686          35.000  
  22520023.652   118343522.9203      -4076.610          34.000  
  19010737.947    99902107.597       -2049.249          44.000  
  22785899.780                        2229.162          13.000  
 23 10 29 17 42 12.9940000  0  9G10G25G32G12G19G17G15G24G06
  22522645.001                       -2395.224          18.000  
  19948112.340   104828024.586        2720.790          41.000  
  21274311.936   111797377.707        2326.467          44.000  
  18397453.312    96679276.801         497.562          45.000  
  20769867.352   109146387.613       -2021.546          43.000  
  23011486.410   120926172.037       -3187.169          34.000  
  22520798.640   118347599.0252      -4076.075          33.000  
  19011127.859    99904156.964       -2049.463          44.000  
  22785470.956                        2229.162          13.000  
 23 10 29 17 42 13.9940000  0  9G10G25G32G12G19G17G15G24G06
  22523104.834                       -2394.691          17.000  
  19947594.318   104825303.886        2720.207          41.000  
  21273869.298   111795051.201        2325.895          44.000  
  18397358.710    96678779.366         497.019          45.000  
  20770251.865   109148409.438       -2022.151          42.000  
  23012092.973   120929359.498       -3187.759          34.000  
  22521568.037   118351674.8592      -4075.426          32.000  
  19011517.926    99906206.518       -2050.128          44.000  
  22785041.430                        2227.259          15.000  
 23 10 29 17 42 14.9940000  0  9G10G25G32G12G19G17G15G24G06
  22523561.192                       -2394.691          16.000  
  19947076.251   104822583.532        2720.400          41.000  
  21273426.852   111792725.161        2325.879          44.000  
  18397264.119    96678282.502         496.726          45.000  
  20770636.551   109150431.896       -2022.667          42.000  
  23012699.287   120932547.241       -3187.900          34.000  
  22522340.936   118355750.8232      -4075.629          31.000  
  19011908.292    99908256.521       -2050.256          44.000  
  22784611.773                        2224.191          18.000  
 23 10 29 17 42 15.9940000  0  9G10G25G32G12G19G17G15G24G06
  22524017.980                       -2391.762          15.000  
  19946558.279   104819863.379        2720.006          41.000  
  21272984.312   111790399.445        2325.495          44.000  
  18397169.816    96677786.034         496.315          45.000  
  20771021.208   109152454.826       -2023.558          42.000  
  23013306.136   120935735.141       -3188.720          34.000  
  22523123.460   118359826.6592      -4075.592          32.000  
  19012298.417    99910306.814       -2050.543          44.000  
  22784186.121                        2220.234          19.000  
 23 10 29 17 42 16.9940000  0  9G10G25G32G12G19G17G15G24G06
  22524472.253                       -2391.762          14.000  
  19946040.454   104817143.513        2719.504          41.000  
  21272541.947   111788074.129        2325.027          44.000  
  18397075.380    96677290.053         495.633          45.000  
  20771406.025   109154478.242       -2023.876          42.000  
  23013912.553   120938923.176       -3188.234          34.000  
  22523898.739   118363902.5282      -4075.780          31.000  
  19012688.347    99912357.493       -2051.160          44.000  
  22783758.431                        2216.428          20.000  
 23 10 29 17 42 17.9940000  0  9G10G25G32G12G19G17G15G24G06
  22524927.257                       -2391.762          13.000  
  19945522.676   104814424.112        2719.195          41.000  
  21272099.776   111785749.398        2324.357          44.000  
  18396981.306    96676794.763         494.700          45.000  
  20771791.005   109156502.405       -2024.858          42.000  
  23014519.240   120942111.687       -3189.299          34.000  
  22524672.771   118367978.5082      -4075.930          32.000  
  19013078.741    99914408.720       -2051.660          44.000  
  22783327.838                        2236.611          20.000  
 23 10 29 17 42 18.9940000  0  9G10G25G32G12G19G17G15G24G06
  22525382.517                       -2393.089          14.000  
  19945004.801   104811704.937        2719.163          41.000  
  21271657.430   111783425.004        2324.173          44.000  
  18396887.334    96676299.867         494.960          46.000  
  20772176.190   109158527.036       -2024.808          42.000  
  23015125.821   120945300.242       -3188.173          34.000  
  22525447.729   118372054.449       -4075.282          32.000  
  19013468.876    99916460.277       -2051.544          44.000  
  22782897.992                        2226.445          23.000  
 23 10 29 17 42 19.9940000  0  9G10G25G32G12G19G17G15G24G06
  22525833.806                       -2396.467          16.000  
  19944486.894   104808985.874        2719.250          44.000  
  21271215.373   111781100.852        2324.249          47.000  
  18396793.266    96675805.309         494.531          48.000  
  20772561.255   109160552.039       -2024.834          45.000  
  23015732.388   120948488.947       -3187.792          37.000  
  22526222.307   118376130.265       -4075.349          33.000  
  19013859.038    99918512.050       -2051.611          46.000  
  22782469.990   119722687.0733       2225.913          25.000  
 23 10 29 17 42 20.9940000  0  9G10G25G32G12G19G17G15G24G06
  22526292.492                       -2397.374          18.000  
  19943969.569   104806266.894        2718.806          42.000  
  21270772.988   111778776.878        2323.742          45.000  
  18396699.423    96675311.017         493.996          47.000  
  20772946.576   109162577.371       -2025.631          43.000  
  23016338.764   120951677.621       -3188.581          36.000  
  22527004.439   118380205.693       -4075.398          36.000  
  19014249.474    99920564.005       -2052.234          45.000  
  22782045.771   119720461.4342       2225.409          27.000  
 23 10 29 17 42 21.9940000  0  9G10G25G32G12G19G17G15G24G06
  22526749.829                       -2397.374          15.000  
  19943451.904   104803548.042        2718.727          42.000  
  21270330.664   111776453.175        2323.720          45.000  
  18396605.716    96674817.076         493.920          47.000  
  20773331.724   109164603.118       -2025.847          43.000  
  23016945.397   120954866.364       -3188.479          35.000  
  22527777.015   118384281.244       -4075.801          31.000  
  19014639.643    99922616.180       -2052.234          45.000  
  22781621.890   119718236.0722       2225.317          26.000  
 23 10 29 17 42 22.9940000  0  9G10G25G32G12G19G17G15G24G06
  22527206.259                       -2397.374          10.000  
  19942934.080   104800829.581        2718.157          42.000  
  21269888.764   111774129.979        2322.733          45.000  
  18396511.816    96674323.733         492.669          47.000  
  20773717.158   109166629.487       -2026.907          43.000  
  23017552.069   120958055.419       -3189.672          35.000  
  22528554.439   118388356.761       -4076.388          31.000  
  19015030.308    99924668.848       -2053.113          45.000  
  22781199.876   119716010.9792       2224.293          26.000  
 23 10 29 17 42 23.9940000  0  8G25G32G12G19G17G15G24G06
  19942416.485   104798111.343        2718.338          43.000  
  21269446.531   111771807.096        2322.820          45.000  
  18396418.226    96673830.792         492.713          47.000  
  20774102.733   109168656.336       -2027.000          44.000  
  23018158.858   120961244.615       -3189.690          36.000  
  22529327.460   118392432.088       -4075.458          34.000  
  19015420.802    99926721.801       -2053.033          46.000  
  22780775.866   119713786.1222       2224.993          27.000  
 23 10 29 17 42 24.9940000  0  9G10G25G32G12G19G17G15G24G06
  22528114.508                       -2397.374          12.000  
  19941899.520   104795393.441        2717.953          43.000  
  21269004.225   111769484.702        2322.222          45.000  
  18396325.042    96673338.409         492.215          48.000  
  20774488.800   109170683.783       -2027.803          44.000  
  23018765.949   120964434.103       -3189.654          36.000  
  22530102.221   118396507.499       -4075.157          33.000  
  19015811.236    99928775.233       -2053.540          46.000  
  22780350.945   119711561.6862       2224.539          27.000  
 23 10 29 17 42 25.9940000  0  9G10G25G32G12G19G17G15G24G06
  22528568.785                       -2397.374          11.000  
  19941382.459   104792676.133        2717.565          43.000  
  21268562.006   111767163.000        2321.724          45.000  
  18396231.851    96672846.799         491.505          48.000  
  20774874.932   109172712.060       -2028.280          44.000  
  23019373.333   120967624.057       -3189.595          36.000  
  22530878.272   118400583.210       -4074.546          33.000  
  19016202.060    99930829.311       -2053.979          46.000  
  22779926.344   119709337.9002       2223.147          26.000  
 23 10 29 17 42 26.9940000  0  9G10G25G32G12G19G17G15G24G06
  22529018.750                       -2397.374          11.000  
  19940865.326   104789959.068        2716.686          43.000  
  21268119.990   111764841.646        2320.859          45.000  
  18396138.680    96672355.639         490.732          48.000  
  20775261.223   109174740.842       -2029.584          44.000  
  23019980.487   120970814.188       -3190.494          37.000  
  22531652.586   118404658.922       -4076.380          33.000  
  19016593.115    99932883.753       -2054.834          46.000  
  22779501.353   119707114.2462       2223.151          26.000  
 23 10 29 17 42 27.9940000  0  9G10G25G32G12G19G17G15G24G06
  22529461.711                       -2399.991          16.000  
  19940348.403   104787242.547        2715.834          43.000  
  21267678.519   111762520.960        2319.954          45.000  
  18396045.455    96671865.237         489.634          48.000  
  20775647.326   109176770.415       -2030.450          44.000  
  23020587.844   120974004.834       -3191.497          36.000  
  22532430.205   118408734.910       -4076.692          33.000  
  19016984.017    99934938.834       -2055.872          45.000  
  22779076.237   119704891.2272       2222.582          27.000  
 23 10 29 17 42 28.9940000  0  9G10G25G32G12G19G17G15G24G06
  22529909.082                       -2389.839          19.000  
  19939831.433   104784526.413        2715.900          42.000  
  21267236.370   111760200.769        2320.053          45.000  
  18395952.057    96671375.431         489.499          48.000  
  20776033.500   109178800.618       -2030.456          44.000  
  23021195.002   120977195.774       -3191.313          36.000  
  22533205.974   118412810.987       -4076.218          33.000  
  19017375.266    99936994.396       -2055.750          46.000  
  22778653.143   119702668.5182       2223.287          26.000  
 23 10 29 17 42 29.9940000  0  9G10G25G32G12G19G17G15G24G06
  22530356.781                       -2396.524          22.000  
  19939314.355   104781810.490        2715.823          42.000  
  21266794.546   111757880.934        2319.865          45.000  
  18395858.757    96670886.036         489.381          48.000  
  20776419.810   109180831.319       -2030.798          43.000  
  23021802.313   120980386.869       -3190.752          35.000  
  22533983.130   118416886.961       -4075.801          32.000  
  19017766.179    99939050.276       -2055.920          45.000  
  22778228.590   119700446.1602       2222.442          26.000  
 23 10 29 17 42 30.9940000  0  9G10G25G32G12G19G17G15G24G06
  22530804.322                       -2394.497          23.000  
  19938797.903   104779094.786        2715.945          43.000  
  21266353.096   111755561.420        2319.651          45.000  
  18395765.588    96670397.071         489.009          48.000  
  20776805.713   109182862.456       -2030.913          43.000  
  23022409.212   120983578.075       -3190.747          35.000  
  22534756.013   118420962.630       -4075.835          30.000  
  19018157.459    99941106.468       -2056.171          46.000  
  22777807.759   119698224.007        2222.498          25.000  
 23 10 29 17 42 31.9940000  0  9G10G25G32G12G19G17G15G24G06
  22531250.753                       -2397.219          23.000  
  19938281.474   104776379.572        2714.935          43.000  
  21265911.876   111753242.510        2318.604          45.000  
  18395672.227    96669908.787         487.832          48.000  
  20777192.116   109184894.366       -2032.594          43.000  
  23023016.587   120986769.734       -3191.942          36.000  
  22535531.115   118425038.783       -4075.967          35.000  
  19018549.085    99943163.239       -2057.239          46.000  
  22777384.955                        2221.541          24.000  
 23 10 29 17 42 32.9940000  0  9G10G25G32G12G19G17G15G24G06
  22531698.028                       -2394.213          22.000  
  19937765.070   104773664.678        2714.914          43.000  
  21265470.443   111750924.033        2318.369          45.000  
  18395578.986    96669421.033         487.723          47.000  
  20777579.072   109186926.833       -2032.727          43.000  
  23023623.926   120989961.578       -3191.239          35.000  
  22536308.640   118429114.925       -4076.074          33.000  
  19018940.697    99945220.420       -2057.141          46.000  
  22776962.963                        2220.649          24.000  
 23 10 29 17 42 33.9940000  0  9G10G25G32G12G19G17G15G24G06
  22532148.580                       -2394.047          22.000  
  19937248.795   104770950.114        2714.485          43.000  
  21265028.919   111748606.024        2317.870          45.000  
  18395486.232    96668933.818         487.054          47.000  
  20777966.253   109188959.886       -2033.262          43.000  
  23024231.172   120993153.710       -3192.051          35.000  
  22537079.501   118433190.989       -4075.915          32.000  
  19019332.402    99947278.021       -2057.782          46.000  
  22776543.434                        2221.062          23.000  
 23 10 29 17 42 34.9940000  0  9G10G25G32G12G19G17G15G24G06
  22532602.353                       -2395.640          20.000  
  19936732.368   104768235.825        2714.474          43.000  
  21264587.869   111746288.397        2317.514          45.000  
  18395393.539    96668447.082         486.611          47.000  
  20778353.598   109190993.477       -2033.818          43.000  
  23024838.043   120996346.078       -3192.319          34.000  
  22537850.921   118437267.175       -4076.445          31.000  
  19019724.236    99949336.005       -2058.124          46.000  
  22776119.164                        2217.154          21.000  
 23 10 29 17 42 35.9940000  0  9G10G25G32G12G19G17G15G24G06
  22533059.017                       -2390.451          18.000  
  19936215.938   104765521.816        2713.830          43.000  
  21264146.287   111743971.154        2317.301          44.000  
  18395300.697    96667960.820         486.119          47.000  
  20778741.016   109193027.591       -2034.150          43.000  
  23025444.820   120999538.569       -3192.388          34.000  
  22538630.186   118441343.272       -4075.870          31.000  
  19020116.043    99951394.349       -2058.398          46.000  
  22775692.751                        2216.943          22.000  
 23 10 29 17 42 36.9940000  0  9G10G25G32G12G19G17G15G24G06
  22533513.702                       -2390.451          16.000  
  19935699.765   104762808.115        2713.347          43.000  
  21263704.974   111741654.365        2316.347          44.000  
  18395208.200    96667475.077         485.474          47.000  
  20779128.313   109195062.269       -2035.120          43.000  
  23026052.384   121002731.382       -3192.784          34.000  
  22539404.396   118445419.372       -4076.022          31.000  
  19020508.128    99953453.098       -2058.929          46.000  
  22775270.004                        2219.634          24.000  
 23 10 29 17 42 37.9940000  0  9G10G25G32G12G19G17G15G24G06
  22533957.315                       -2392.346          16.000  
  19935183.803   104760094.926        2712.800          44.000  
  21263263.889   111739338.198        2315.728          44.000  
  18395115.613    96666990.069         484.668          47.000  
  20779515.734   109197097.738       -2035.958          44.000  
  23026660.380   121005924.613       -3193.599          35.000  
  22540182.320   118449495.743       -4077.196          31.000  
  19020900.166    99955512.490       -2059.839          46.000  
  22774842.965   119682607.4313       2219.302          26.000  
 23 10 29 17 42 38.9940000  0  9G10G25G32G12G19G17G15G24G06
  22534418.002                       -2392.346          15.000  
  19934667.947   104757382.050        2712.527          44.000  
  21262822.682   111737022.445        2315.098          44.000  
  18395023.725    96666505.557         483.940          47.000  
  20779903.033   109199133.754       -2036.846          44.000  
  23027268.623   121009118.028       -3193.909          36.000  
  22540960.309   118453572.045       -4076.228          32.000  
  19021292.140    99957572.248       -2060.284          46.000  
  22774420.216   119680388.2392       2218.875          27.000  
 23 10 29 17 42 39.9940000  0  9G10G25G32G12G19G17G15G24G06
  22534885.579                       -2399.824          17.000  
  19934151.741   104754669.438        2712.555          44.000  
  21262382.025   111734707.058        2315.422          44.000  
  18394931.723    96666021.506         483.934          47.000  
  20780290.788   109201170.256       -2036.826          44.000  
  23027876.398   121012311.657       -3193.093          35.000  
  22541734.909   118457648.336       -4076.213          32.000  
  19021684.414    99959632.369       -2060.144          46.000  
  22773996.472   119678169.3202       2219.049          27.000  
 23 10 29 17 42 40.9940000  0  9G10G25G32G12G19G17G15G24G06
  22535354.344                       -2395.587          20.000  
  19933635.790   104751957.133        2712.114          44.000  
  21261941.631   111732392.145        2314.555          45.000  
  18394839.926    96665537.997         482.987          47.000  
  20780678.562   109203207.328       -2037.372          44.000  
  23028484.364   121015505.558       -3194.220          35.000  
  22542510.321   118461724.645       -4076.077          33.000  
  19022076.627    99961692.913       -2060.876          46.000  
  22773573.258   119675950.7362       2218.377          28.000  
 23 10 29 17 42 41.9940000  0  9G10G25G32G12G19G17G15G24G06
  22535818.025                       -2394.272          20.000  
  19933119.578   104749245.328        2711.936          44.000  
  21261501.535   111730077.848        2314.231          45.000  
  18394747.872    96665055.171         482.700          47.000  
  20781066.236   109205245.179       -2037.968          44.000  
  23029092.862   121018699.844       -3194.287          36.000  
  22543284.899   118465801.167       -4076.129          32.000  
  19022468.891    99963754.057       -2061.267          46.000  
  22773149.238   119673732.7472       2217.955          28.000  
 23 10 29 17 42 42.9940000  0  9G10G25G32G12G19G17G15G24G06
  22536276.553                       -2401.749          21.000  
  19932603.610   104746533.762        2711.773          43.000  
  21261061.540   111727763.875        2313.965          45.000  
  18394656.158    96664572.775         482.414          47.000  
  20781454.351   109207283.460       -2038.391          44.000  
  23029701.157   121021894.314       -3194.369          36.000  
  22544061.283   118469877.664       -4076.832          33.000  
  19022861.098    99965815.499       -2061.316          46.000  
  22772729.119   119671514.8562       2218.723          28.000  
 23 10 29 17 42 43.9940000  0  9G10G25G32G12G19G17G15G24G06
  22536734.567                       -2397.226          21.000  
  19932087.640   104743822.346        2711.525          44.000  
  21260621.642   111725450.155        2313.878          45.000  
  18394564.487    96664090.722         482.158          47.000  
  20781842.579   109209322.168       -2038.606          45.000  
  23030309.046   121025088.828       -3194.437          36.000  
  22544838.195   118473953.956       -4076.490          34.000  
  19023253.162    99967877.184       -2061.469          47.000  
  22772304.918   119669297.3542       2217.245          28.000  
 23 10 29 17 42 44.9940000  0  9G10G25G32G12G19G17G15G24G06
  22537193.019                       -2396.420          21.000  
  19931571.639   104741111.227        2711.180          43.000  
  21260181.875   111723136.880        2313.269          45.000  
  18394472.911    96663609.201         481.382          48.000  
  20782230.960   109211361.452       -2039.351          45.000  
  23030917.009   121028283.600       -3195.123          36.000  
  22545613.840   118478030.327       -4076.251          34.000  
  19023645.657    99969939.288       -2062.006          46.000  
  22771882.749   119667080.0212       2217.149          28.000  
 23 10 29 17 42 45.9940000  0  9G10G25G32G12G19G17G15G24G06
  22537650.924                       -2402.471          20.000  
  19931055.376   104738400.402        2710.883          43.000  
  21259742.005   111720824.018        2312.524          45.000  
  18394381.662    96663128.180         480.916          47.000  
  20782619.373   109213401.273       -2040.087          45.000  
  23031525.152   121031478.602       -3195.095          36.000  
  22546389.860   118482106.579       -4076.113          37.000  
  19024038.156    99972001.783       -2062.671          46.000  
  22771459.003   119664863.0522       2216.704          28.000  
 23 10 29 17 42 46.9940000  0  9G10G25G32G12G19G17G15G24G06
  22538106.012                       -2404.463          19.000  
  19930539.450   104735689.858        2710.251          43.000  
  21259302.024   111718511.550        2311.997          45.000  
  18394290.174    96662647.643         480.111          48.000  
  20783008.253   109215441.617       -2040.784          45.000  
  23032133.540   121034673.754       -3195.172          35.000  
  22547165.435   118486182.780       -4076.144          33.000  
  19024430.995    99974064.649       -2063.226          46.000  
  22771032.797   119662646.3602       2216.431          28.000  
 23 10 29 17 42 47.9940000  0  8G10G25G32G12G19G17G24G06
  22538566.087                       -2399.944          19.000  
  19930023.750   104732979.650        2710.028          43.000  
  21258862.074   111716199.525        2311.721          45.000  
  18394198.892    96662167.641         479.636          48.000  
  20783396.626   109217482.547       -2041.314          45.000  
  23032741.495   121037869.218       -3196.123          35.000  
  19024824.035    99976127.934       -2063.599          47.000  
  22770609.075   119660429.9762       2215.940          28.000  
 23 10 29 17 42 48.9940000  0  8G10G25G32G12G19G17G24G06
  22539023.894                       -2405.225          20.000  
  19929508.074   104730269.709        2709.847          43.000  
  21258422.282   111713887.888        2311.552          45.000  
  18394107.602    96661688.103         479.399          47.000  
  20783785.220   109219523.995       -2041.655          45.000  
  23033349.609   121041064.816       -3195.187          35.000  
  19025216.785    99978191.576       -2063.605          47.000  
  22770182.692   119658213.893        2216.448          28.000  
 23 10 29 17 42 49.9940000  0  9G10G25G32G12G19G17G15G24G06
  22539480.821                       -2403.006          20.000  
  19928992.473   104727560.162        2709.394          43.000  
  21257982.894   111711576.767        2310.981          46.000  
  18394016.439    96661209.165         478.843          47.000  
  20784173.930   109221566.104       -2042.401          45.000  
  23033957.503   121044260.784       -3196.791          35.000  
  22549508.373                       -4077.930          33.000  
  19025609.732    99980255.727       -2064.148          47.000  
  22769757.465   119655998.300        2215.093          28.000  
 23 10 29 17 42 50.9940000  0  9G10G25G32G12G19G17G15G24G06
  22539938.477                       -2403.035          20.000  
  19928476.989   104724850.893        2708.854          43.000  
  21257543.271   111709266.055        2310.135          45.000  
  18393925.151    96660730.723         477.895          47.000  
  20784562.523   109223608.751       -2043.200          45.000  
  23034565.743   121047456.920       -3196.882          35.000  
  22550275.561   118502497.3723      -4076.367          32.000  
  19026002.490    99982320.253       -2065.021          47.000  
  22769332.851   119653782.934        2214.676          28.000  
 23 10 29 17 42 51.9940000  0  9G10G25G32G12G19G17G15G24G06
  22540392.974                       -2403.035          18.000  
  19927961.734   104722141.976        2708.623          43.000  
  21257103.962   111706955.783        2310.088          45.000  
  18393834.370    96660252.812         477.504          47.000  
  20784951.224   109225651.982       -2043.693          45.000  
  23035173.973   121050653.340       -3196.890          35.000  
  22551044.873   118506573.8452      -4076.941          31.000  
  19026395.665    99984385.199       -2065.247          47.000  
  22768907.845   119651567.936        2214.649          27.000  
 23 10 29 17 42 52.9940000  0  9G10G25G32G12G19G17G15G24G06
  22540847.359                       -2403.035          15.000  
  19927446.364   104719433.342        2708.876          43.000  
  21256664.596   111704645.932        2310.206          45.000  
  18393743.394    96659775.409         477.460          48.000  
  20785339.960   109227695.753       -2043.660          45.000  
  23035782.372   121053849.982       -3196.463          35.000  
  22551824.030   118510650.1902      -4075.688          32.000  
  19026788.740    99986450.556       -2065.338          47.000  
  22768483.612   119649353.322        2214.512          27.000  
 23 10 29 17 42 53.9940000  0  9G10G25G32G12G19G17G15G24G06
  22541301.212                       -2403.035          14.000  
  19926931.222   104716724.883        2708.635          43.000  
  21256225.136   111702336.385        2309.362          46.000  
  18393652.515    96659298.383         476.743          48.000  
  20785728.751   109229739.961       -2044.374          45.000  
  23036390.421   121057046.715       -3196.835          35.000  
  22552597.814   118514726.5602      -4076.401          34.000  
  19027181.909    99988516.157       -2065.881          47.000  
  22768057.814   119647138.824        2214.054          26.000  
 23 10 29 17 42 54.9940000  0  9G10G25G32G12G19G17G15G24G06
  22541747.434                       -2395.632          18.000  
  19926415.719   104714016.907        2707.982          43.000  
  21255785.960   111700027.406        2308.884          46.000  
  18393561.866    96658822.016         476.224          48.000  
  20786117.634   109231784.878       -2045.047          45.000  
  23036999.054   121060243.822       -3197.117          35.000  
  22553372.569   118518802.9662      -4075.215          35.000  
  19027575.198    99990582.330       -2066.321          47.000  
  22767636.413   119644924.780        2214.478          27.000  
 23 10 29 17 42 55.9940000  0  9G10G25G32G12G19G17G15G24G06
  22542197.144                       -2403.170          18.000  
  19925900.525   104711309.210        2707.285          43.000  
  21255347.081   111697718.847        2308.222          46.000  
  18393471.234    96658346.130         475.576          48.000  
  20786506.501   109233830.331       -2045.866          45.000  
  23037607.630   121063441.138       -3197.775          35.000  
  22554149.271   118522879.4422      -4076.932          33.000  
  19027968.523    99992648.864       -2066.815          47.000  
  22767216.404   119642711.142        2213.222          27.000  
 23 10 29 17 42 56.9940000  0  9G10G25G32G12G19G17G15G24G06
  22542654.110                       -2403.170          16.000  
  19925385.284   104708601.696        2707.316          43.000  
  21254907.970   111695410.596        2308.009          46.000  
  18393380.752    96657870.654         475.238          48.000  
  20786895.833   109235876.247       -2046.199          45.000  
  23038215.696   121066638.579       -3197.342          35.000  
  22554923.361   118526955.8172      -4076.809          32.000  
  19028361.670    99994715.698       -2067.059          47.000  
  22766793.443   119640497.703        2213.701          27.000  
 23 10 29 17 42 57.9940000  0  9G10G25G32G12G19G17G15G24G06
  22543113.490                       -2398.832          16.000  
  19924870.291   104705894.646        2706.796          43.000  
  21254469.075   111693102.912        2307.477          46.000  
  18393290.513    96657395.846         474.536          48.000  
  20787285.356   109237922.872       -2046.996          45.000  
  23038824.237   121069836.428       -3198.370          34.000  
  22555702.343   118531032.3622      -4077.304          32.000  
  19028754.869    99996783.070       -2067.523          47.000  
  22766372.963   119638284.726        2212.748          27.000  
 23 10 29 17 42 58.9940000  0  9G10G25G32G12G19G17G15G24G06
  22543576.165                       -2403.328          17.000  
  19924355.328   104703187.945        2706.923          43.000  
  21254030.527   111690795.733        2307.185          46.000  
  18393200.136    96656921.598         474.091          47.000  
  20787674.926   109239970.100       -2047.213          45.000  
  23039432.698   121073034.496       -3197.833          34.000  
  22556476.144   118535109.0592      -4076.991          32.000  
  19029148.167    99998850.925       -2067.889          47.000  
  22765950.785   119636072.172        2212.243          27.000  
 23 10 29 17 42 59.9940000  0  9G10G25G32G12G19G17G15G24G06
  22544035.594                       -2406.794          20.000  
  19923840.193   104700481.473        2706.111          43.000  
  21253591.414   111688488.834        2306.457          46.000  
  18393109.816    96656447.734         473.647          47.000  
  20788064.703   109242017.766       -2047.999          45.000  
  23040041.370   121076232.729       -3198.662          34.000  
  22557254.029   118539185.5512      -4076.741          24.000  
  19029541.438   100000919.044       -2068.298          46.000  
  22765528.564   119633859.738        2212.211          28.000  
 23 10 29 17 43 00.9940000  0  8G10G25G32G12G19G17G24G06
  22544498.594                       -2407.320          21.000  
  19923324.980   104697775.241        2705.938          43.000  
  21253152.264   111686182.361        2305.898          46.000  
  18393019.840    96655974.362         472.915          47.000  
  20788454.543   109244065.974       -2048.555          45.000  
  23040649.927   121079431.091       -3197.979          33.000  
  19029935.023   100002987.534       -2068.732          46.000  
  22765107.569   119631647.711        2211.519          28.000  
 23 10 29 17 43 01.9940000  0  9G10G25G32G12G19G17G15G24G06
  22544958.636                       -2406.831          24.000  
  19922810.018   104695069.421        2705.689          43.000  
  21252713.295   111683876.386        2305.683          46.000  
  18392929.712    96655501.589         472.319          47.000  
  20788844.304   109246114.825       -2049.082          45.000  
  23041258.504   121082629.858       -3198.659          33.000  
  22558797.165   118547278.8373      -4075.531          37.000  
  19030328.654   100005056.538       -2069.421          47.000  
  22764687.025   119629436.001        2211.721          27.000  
 23 10 29 17 43 02.9940000  0  9G10G25G32G12G19G17G15G24G06
  22545418.914                       -2404.571          24.000  
  19922294.763   104692363.764        2705.651          43.000  
  21252274.437   111681570.678        2305.653          46.000  
  18392839.605    96655029.170         472.292          47.000  
  20789234.223   109248164.067       -2049.338          45.000  
  23041866.984   121085828.694       -3198.814          33.000  
  22559581.319   118551355.3472      -4075.641          31.000  
  19030722.654   100007125.782       -2069.531          47.000  
  22764265.312   119627224.564        2211.273          26.000  
 23 10 29 17 43 03.9940000  0  9G10G25G32G12G19G17G15G24G06
  22545879.046                       -2405.745          24.000  
  19921780.053   104689658.356        2705.685          43.000  
  21251835.822   111679265.350        2305.414          46.000  
  18392749.804    96654557.206         472.011          47.000  
  20789624.209   109250213.842       -2049.920          45.000  
  23042475.861   121089027.645       -3198.664          33.000  
  22560355.190   118555431.6312      -4076.393          34.000  
  19031116.279   100009195.343       -2069.550          47.000  
  22763841.298   119625013.310        2211.234          26.000  
 23 10 29 17 43 04.9940000  0  9G10G25G32G12G19G17G15G24G06
  22546335.794                       -2404.600          24.000  
  19921264.999   104686953.251        2704.505          42.000  
  21251397.025   111676960.453        2304.219          46.000  
  18392660.198    96654085.748         470.725          47.000  
  20790014.762   109252264.129       -2051.075          45.000  
  23043084.780   121092226.854       -3199.792          33.000  
  22561134.654   118559508.0272      -4076.794          34.000  
  19031510.431   100011265.338       -2070.654          47.000  
  22763419.051                        2210.630          25.000  
 23 10 29 17 43 05.9940000  0  9G10G25G32G12G19G17G15G24G06
  22546798.496                       -2405.570          23.000  
  19920749.793   104684248.398        2704.756          43.000  
  21250958.469   111674655.916        2304.576          46.000  
  18392570.722    96653614.743         470.933          47.000  
  20790405.135   109254314.941       -2050.771          45.000  
  23043693.446   121095426.226       -3199.842          33.000  
  22561907.771   118563584.3722      -4075.710          34.000  
  19031904.413   100013335.664       -2070.239          47.000  
  22762998.256                        2212.786          23.000  
 23 10 29 17 43 06.9940000  0  9G10G25G32G12G19G17G15G24G06
  22547255.244                       -2409.076          23.000  
  19920234.869   104681543.720        2704.775          42.000  
  21250519.842   111672351.683        2304.287          46.000  
  18392481.309    96653144.117         470.681          47.000  
  20790795.503   109256366.172       -2051.331          45.000  
  23044301.928   121098625.704       -3199.887          33.000  
  22562685.724   118567660.5672      -4075.845          34.000  
  19032298.500   100015406.267       -2070.654          47.000  
  22762575.771                        2209.761          22.000  
 23 10 29 17 43 07.9940000  0  9G10G25G32G12G19G17G15G24G06
  22547712.377                       -2412.436          22.000  
  19919720.001   104678839.458        2703.936          42.000  
  21250081.362   111670047.983        2303.395          46.000  
  18392392.020    96652674.114         469.582          48.000  
  20791185.875   109258418.076       -2052.474          45.000  
  23044911.028   121101825.469       -3200.062          33.000  
  22563462.815   118571736.9582      -4076.642          34.000  
  19032692.762   100017477.371       -2071.252          47.000  
  22762156.763                        2212.847          21.000  
 23 10 29 17 43 08.9940000  0  9G10G25G32G12G19G17G15G24G06
  22548170.905                       -2407.312          21.000  
  19919205.112   104676135.336        2704.656          42.000  
  21249642.548   111667744.557        2303.345          46.000  
  18392302.512    96652204.462         469.621          48.000  
  20791576.234   109260470.352       -2052.138          45.000  
  23045520.276   121105025.348       -3199.165          33.000  
  22564236.771   118575813.0772      -4076.269          30.000  
  19033087.132   100019548.716       -2071.161          47.000  
  22761735.679                        2214.740          21.000  
 23 10 29 17 43 09.9940000  0  9G10G25G32G12G19G17G15G24G06
  22548631.700                       -2404.125          18.000  
  19918690.772   104673431.557        2703.383          42.000  
  21249204.089   111665441.556        2302.503          45.000  
  18392213.256    96651735.326         468.682          48.000  
  20791966.794   109262523.226       -2053.455          45.000  
  23046129.184   121108225.452       -3200.425          34.000  
  22565013.170   118579889.2752      -4076.198          37.000  
  19033481.586   100021620.487       -2072.382          47.000  
  22761317.067                        2207.646          19.000  
 23 10 29 17 43 10.9940000  0  9G10G25G32G12G19G17G15G24G06
  22549091.158                       -2411.906          18.000  
  19918175.748   104670728.309        2702.963          42.000  
  21248765.358   111663139.216        2302.305          45.000  
  18392124.033    96651266.926         468.246          48.000  
  20792357.546   109264576.858       -2053.818          45.000  
  23046738.140   121111426.039       -3200.849          33.000  
  22565787.554   118583965.6942      -4076.858          37.000  
  19033875.882   100023692.854       -2072.437          47.000  
  22760903.377                        2208.162          19.000  
 23 10 29 17 43 11.9940000  0  9G10G25G32G12G19G17G15G24G06
  22549553.311                       -2411.906          15.000  
  19917660.875   104668025.253        2702.927          42.000  
  21248327.004   111660837.231        2301.528          45.000  
  18392035.231    96650798.960         467.561          48.000  
  20792748.446   109266630.968       -2054.526          45.000  
  23047347.260   121114626.739       -3201.069          34.000  
  22566565.930   118588042.0702      -4077.200          37.000  
  19034270.549   100025765.553       -2072.992          47.000  
  22760488.826                        2207.579          18.000  
 23 10 29 17 43 12.9940000  0  9G10G25G32G12G19G17G15G24G06
  22550018.787                       -2414.148          15.000  
  19917146.528   104665322.610        2702.332          42.000  
  21247889.289   111658535.739        2301.148          45.000  
  18391945.967    96650331.576         467.131          47.000  
  20793139.433   109268685.699       -2055.027          45.000  
  23047956.595   121117827.756       -3201.170          34.000  
  22567341.130   118592118.4152      -4076.365          39.000  
  19034665.310   100027838.729       -2073.401          47.000  
  22760073.975                        2210.093          17.000  
 23 10 29 17 43 13.9940000  0  9G10G25G32G12G19G17G15G24G06
  22550477.473                       -2414.148          14.000  
  19916632.658   104662620.330        2701.961          42.000  
  21247451.285   111656234.745        2300.884          45.000  
  18391856.947    96649864.775         466.616          47.000  
  20793530.364   109270741.087       -2055.649          45.000  
  23048565.950   121121029.079       -3200.974          34.000  
  22568116.707   118596194.9012      -4077.094          36.000  
  19035060.285   100029912.371       -2073.602          47.000  
  22759657.944                        2208.029          19.000  
 23 10 29 17 43 14.9940000  0  8G10G25G32G12G19G17G24G06
  22550940.128                       -2414.148          13.000  
  19916118.690   104659918.249        2702.042          42.000  
  21247013.149   111653934.046        2300.775          45.000  
  18391768.169    96649398.368         466.386          47.000  
  20793921.502   109272796.889       -2055.809          45.000  
  23049175.482   121124230.501       -3201.323          34.000  
  19035454.887   100031986.305       -2073.914          47.000  
  22759238.928                        2211.766          19.000  
 23 10 29 17 43 15.9940000  0  7G25G32G12G19G17G24G06
  19915604.744   104657216.531        2701.531          43.000  
  21246575.209   111651633.876        2299.881          45.000  
  18391679.620    96648932.538         465.631          47.000  
  20794313.085   109274853.335       -2056.933          45.000  
  23049784.708   121127432.236       -3201.426          34.000  
  19035849.598   100034060.704       -2074.457          47.000  
  22758818.107                        2207.707          20.000  
 23 10 29 17 43 16.9940000  0  8G25G32G12G19G17G15G24G06
  19915090.667   104654515.105        2701.344          42.000  
  21246137.608   111649334.059        2299.686          45.000  
  18391590.942    96648467.189         465.004          47.000  
  20794704.314   109276910.278       -2057.187          45.000  
  23050393.712   121130634.182       -3201.946          34.000  
  22570451.212   118608521.2933      -4076.345          33.000  
  19036244.472   100036135.464       -2074.872          47.000  
  22758396.970                        2216.769          22.000  
