     2.11           OBSERVATION DATA    M (MIXED)           RINEX VERSION / TYPE
teqc  2019Feb25                         20240206 22:55:03UTCPGM / RUN BY / DATE
Linux 2.6.32-573.12.1.x86_64|x86_64|gcc|Linux 64|=+         COMMENT
teqc  2019Feb25                         20240206 22:55:03UTCCOMMENT
teqc  2019Feb25     IGN-RGP             20240206 20:02:22UTCCOMMENT
teqc  2019Feb25     Administrateur RGP  20240206 20:02:22UTCCOMMENT
teqc  2019Feb25     IGN-RGP             20240206 20:02:19UTCCOMMENT
teqc  2019Feb25     IGN-RGP             20240206 20:02:17UTCCOMMENT
BIT 2 OF LLI FLAGS DATA COLLECTED UNDER A/S CONDITION       COMMENT
IGNF                                                        MARKER NAME
10001M009                                                   MARKER NUMBER
Automatic           IGN                                     OBSERVER / AGENCY
1834194             LEICA GR50          4.51                REC # / TYPE / VERS
5000113963          TRM57971.00     NONE                    ANT # / TYPE
  4201694.1440   177888.8370  4779371.7670                  APPROX POSITION XYZ
        0.0000        0.0000        0.0000                  ANTENNA: DELTA H/E/N
     1     1                                                WAVELENGTH FACT L1/2
    21    L1    L2    C1    P1    P2    D1    D2    S1    S2# / TYPES OF OBSERV
          L5    C5    D5    S5    L7    C7    D7    S7    L8# / TYPES OF OBSERV
          C8    D8    S8                                    # / TYPES OF OBSERV
    30.0000                                                 INTERVAL
DefaultJobName                                              COMMENT
DefaultUserDiscription                                      COMMENT
Project creator:                                            COMMENT
 SNR is mapped to RINEX snr flag value [0-9]                COMMENT
  L1 & L2: min(max(int(snr_dBHz/6), 0), 9)                  COMMENT
    18                                                      LEAP SECONDS
Forced Modulo Decimation to 30 seconds                      COMMENT
teqc_2019 edited: all GLONASS satellites excluded           COMMENT
teqc_2019 edited: all SBAS satellites excluded              COMMENT
  2024     2     6    19     0    0.0000000     GPS         TIME OF FIRST OBS
                                                            END OF HEADER
 24  2  6 19  0  0.0000000  0 21G02G07G08G10G15G16G18G21G23G26G27G30
                                E02E07E10E11E12E24E25E31E33
 127059019.874 7  99007077.17346  24178510.740                    24178511.380
      2906.900        2265.121          43.500          40.550



 129104929.726 7 100601274.36347  24567841.040                    24567839.880
      -900.077        -701.359          42.750          42.850



 110881676.628 8  86401373.89948  21100055.100                    21100055.060
      1899.141        1479.851          50.850          50.900    82801339.590 9
  21100055.600        1418.196          54.650


 111554996.340 8  86926042.36948  21228174.880                    21228175.380
       891.955         695.031          52.200          52.200    83304135.007 9
  21228174.800         666.070          54.350


 129391338.059 6 100824423.73046  24622348.040                    24622345.420
     -1160.160        -904.012          41.550          41.900



 117179475.584 7  91308731.27247  22298487.600                    22298485.560
     -3222.121       -2510.745          47.900          43.650



 128870231.040 6 100418468.70446  24523139.800                    24523137.920
     -3313.541       -2581.980          41.650          37.350    96234410.393 7
  24523144.080       -2474.244          44.400


 117315590.599 7  91414807.39746  22324386.460                    22324383.980
      2487.860        1938.597          47.000          41.200



 115026858.009 8  89631392.22647  21888847.940                    21888846.660
     -1593.315       -1241.544          48.200          47.900    85896798.180 8
  21888851.700       -1189.898          53.450


 128972370.211 6 100498011.10846  24542606.920                    24542610.520
     -3751.460       -2923.219          39.900          40.100    96310604.812 7
  24542610.620       -2801.399          43.200


 105751677.431 8  82403947.76848  20123860.140                    20123859.720
      -596.400        -464.728          52.200          52.150    78970568.006 9
  20123860.280        -445.390          57.050


 132217176.938 6 103026378.77146  25160092.560                    25160095.820
       376.500         293.376          41.350          41.050    98733620.506 7
  25160098.100         281.046          46.800


 150428211.687 6                  28625537.080
      2894.126                          39.600                   112332781.854 7
  28625543.240        2161.022          42.050   115263185.413 6  28625538.960
      2217.446          41.150   113797972.793 7  28625541.860        2189.158
        44.400
 150117266.982 6                  28566362.720
     -1002.821                          38.450                   112100583.101 6
  28566366.280        -749.121          40.900   115024934.735 6  28566363.600
      -768.478          40.650   113562751.060 7  28566365.460        -758.673
        43.800
 124564609.274 8                  23703831.680
       810.767                          52.650                    93019250.063 9
  23703834.240         605.394          54.050    95445685.281 9  23703831.760
       621.208          55.050    94232549.326 9  23703833.200         613.289
        57.400
 126242022.736 7                  24023032.880
      1972.693                          46.650                    94271706.829 7
  24023033.420        1473.057          46.400    96730937.768 7  24023030.620
      1511.480          46.950    95501330.449 8  24023032.820        1492.267
        49.550
 123886666.384 7                  23574818.800
      -466.807                          47.100                    92512855.366 8
  23574818.900        -348.654          50.950    94926208.242 8  23574816.960
      -357.736          52.500    93719529.960 9  23574818.540        -353.210
        54.600
 128203939.081 8                  24396372.840
     -1749.247                          51.900                    95736791.536 8
  24396374.800       -1306.273          51.450    98234255.770 8  24396372.260
     -1340.323          52.850    96985530.806 9  24396374.580       -1323.305
        54.950
 130731317.007 8                  24877314.260
      1203.684                          49.350                    97624126.373 8
  24877319.240         898.842          51.050   100170835.211 8  24877316.300
       922.294          50.850    98897475.946 8  24877318.240         910.550
        53.850
 143396013.755 7                  27287332.520
     -3220.370                          44.950                   107081547.104 7
  27287338.360       -2404.819          42.800   109874946.597 7  27287334.420
     -2467.532          43.100   108478234.504 7  27287337.640       -2436.145
        45.800
 138585307.024 7                  26371865.480
     -2467.898                          47.150                   103489163.874 7
  26371866.500       -1842.966          45.900   106188867.800 7  26371863.280
     -1891.040          46.600   104839011.490 8  26371866.220       -1866.950
        49.050
 24  2  6 19  0 30.0000000  0 21G02G07G08G10G15G16G18G21G23G26G27G30
                                E02E07E10E11E12E24E25E31E33
 126971902.485 7  98939193.60846  24161932.640                    24161933.260
      2901.174        2260.660          42.250          41.800



 129132166.777 7 100622498.02347  24573024.180                    24573022.940
      -915.690        -713.525          44.300          43.500



 110824871.171 8  86357109.94148  21089245.380                    21089245.500
      1887.916        1471.104          50.700          50.550    82758919.982 9
  21089245.820        1409.755          54.550


 111528522.175 8  86905413.17648  21223137.060                    21223137.560
       873.028         680.282          52.850          52.900    83284365.376 9
  21223136.740         651.870          54.100


 129426443.320 6 100851778.52445  24629028.100                    24629026.040
     -1180.042        -919.515          36.800          35.900



 117276300.932 8  91384179.55247  22316913.040                    22316910.880
     -3232.919       -2519.158          48.200          44.100



 128969661.096 7 100495946.66846  24542060.740                    24542058.160
     -3315.372       -2583.403          42.000          37.750    96308660.100 7
  24542065.140       -2475.685          43.950


 117241103.989 7  91356765.97947  22310212.000                    22310209.580
      2477.953        1930.877          47.150          42.100



 115074930.461 8  89668851.29248  21897995.780                    21897994.640
     -1611.408       -1255.642          48.600          48.100    85932696.449 8
  21897999.480       -1203.357          52.900


 129084932.811 6 100585722.14546  24564027.040                    24564030.200
     -3752.488       -2924.019          38.900          38.500    96394661.218 7
  24564030.880       -2802.434          42.950


 105769794.460 8  82418064.94048  20127307.760                    20127307.260
      -611.335        -476.364          51.900          51.900    78984096.957 9
  20127308.060        -456.553          56.800


 132206154.485 6 103017789.85146  25157995.300                    25157998.140
       358.670         279.484          40.850          40.800    98725389.442 7
  25158001.160         267.728          46.600


 150341453.251 6                  28609027.560
      2889.929                          41.950                   112267994.645 6
  28609033.520        2157.821          40.050   115196708.087 6  28609029.140
      2214.413          40.500   113732340.522 7  28609032.140        2186.035
        43.350
 150147561.718 6                  28572127.620
     -1016.352                          38.950                   112123205.864 7
  28572131.040        -759.229          42.600   115048147.641 7  28572128.860
      -778.962          42.100   113585668.912 7  28572130.340        -769.119
        45.450
 124540419.626 8                  23699228.520
       801.956                          52.750                    93001186.394 8
  23699231.280         598.845          53.850    95427150.382 9  23699228.720
       614.451          54.900    94214250.042 9  23699230.040         606.638
        57.350
 126182948.239 7                  24011791.200
      1965.683                          46.900                    94227592.822 7
  24011791.960        1467.911          46.100    96685672.948 7  24011789.000
      1506.126          46.700    95456641.032 8  24011791.200        1487.073
        49.400
 123900801.439 7                  23577508.660
      -475.370                          47.550                    92523410.772 8
  23577508.700        -355.009          50.700    94937039.011 8  23577506.800
      -364.303          52.400    93730223.045 9  23577508.360        -359.687
        54.550
 128256600.714 8                  24406394.300
     -1761.552                          52.200                    95776116.755 8
  24406396.060       -1315.457          51.350    98274606.875 8  24406393.340
     -1349.790          52.750    97025368.969 9  24406395.740       -1332.637
        55.000
 130695403.109 8                  24870480.140
      1190.563                          49.700                    97597307.588 8
  24870485.160         889.042          50.750   100143316.799 8  24870482.080
       912.279          50.850    98870307.349 8  24870483.960         900.616
        53.850
 143492659.359 7                  27305723.660
     -3222.724                          45.000                   107153717.425 7
  27305729.640       -2406.606          42.500   109948999.658 7  27305725.280
     -2469.401          42.750   108551346.196 7  27305728.820       -2438.028
        45.700
 138659374.053 7                  26385959.420
     -2469.794                          46.100                   103544473.633 7
  26385961.100       -1844.393          46.000   106245620.432 7  26385957.920
     -1892.591          45.850   104895042.684 8  26385960.540       -1868.502
        49.050
 24  2  6 19  1  0.0000000  0 21G02G07G08G10G15G16G18G21G23G26G27G30
                                E02E07E10E11E12E24E25E31E33
 126884945.936 7  98871435.35046  24145385.320                    24145385.560
      2896.208        2256.786          43.350          41.550



 129159864.664 7 100644080.75747  24578295.160                    24578294.040
      -930.844        -725.334          44.850          44.300



 110768399.330 8  86313105.94248  21078499.040                    21078499.420
      1876.841        1462.475          50.600          50.550    82716749.487 9
  21078499.560        1401.733          54.750


 111502613.471 8  86885224.61048  21218206.980                    21218207.340
       854.313         665.699          53.200          53.400    83265018.006 9
  21218206.360         638.044          54.300


 129462128.702 6 100879585.29146  24635818.360                    24635816.880
     -1198.818        -934.142          39.650          39.700



 117373445.402 8  91459876.49947  22335399.180                    22335396.940
     -3243.102       -2527.094          48.000          43.750



 129069140.155 6 100573462.83046  24560991.060                    24560988.300
     -3316.930       -2584.623          41.650          37.500    96382946.412 7
  24560995.280       -2476.663          43.800


 117166911.107 7  91298953.44047  22296093.420                    22296091.120
      2468.384        1923.418          47.000          42.600



 115123537.127 8  89706726.61648  21907245.340                    21907244.280
     -1629.161       -1269.476          48.800          48.300    85968993.629 8
  21907248.800       -1216.364          52.900


 129197523.036 6 100673454.69646  24585452.080                    24585454.680
     -3753.066       -2924.469          39.200          38.950    96478738.193 7
  24585456.400       -2802.729          43.050


 105788356.512 8  82432528.87648  20130840.060                    20130839.440
      -625.979        -487.775          52.150          52.200    78997958.235 9
  20130840.380        -467.441          56.850


 132195657.539 6 103009610.41046  25155998.040                    25156000.380
       341.536         266.133          40.650          39.750    98717550.799 7
  25156003.800         254.874          46.050


 150254810.468 7                  28592540.280
      2886.281                          42.000                   112203293.814 6
  28592546.040        2155.459          41.200   115130319.436 6  28592541.740
      2211.709          40.900   113666795.773 7  28592544.620        2183.643
        44.150
 150178256.422 6                  28577968.100
     -1029.183                          36.150                   112146127.289 6
  28577972.140        -768.729          40.950   115071667.044 6  28577970.020
      -789.029          41.100   113608889.308 7  28577971.200        -778.754
        44.050
 124516489.225 8                  23694674.720
       793.576                          52.800                    92983316.316 9
  23694677.620         592.596          54.050    95408814.128 9  23694674.960
       608.063          54.750    94196146.878 9  23694676.220         600.324
        57.300
 126124071.468 7                  24000587.180
      1959.460                          47.150                    94183626.478 7
  24000588.020        1463.222          46.500    96640559.634 7  24000585.020
      1501.360          46.500    95412101.206 8  24000587.200        1482.353
        49.400
 123915187.030 7                  23580246.240
      -483.386                          47.650                    92534153.277 8
  23580246.200        -361.028          50.850    94948061.757 8  23580244.360
      -370.465          52.200    93741105.669 9  23580245.840        -365.738
        54.450
 128309625.619 8                  24416484.880
     -1773.290                          52.700                    95815713.258 8
  24416486.360       -1324.222          51.400    98315236.324 8  24416483.840
     -1358.778          52.550    97065481.944 9  24416486.040       -1341.508
        54.850
 130659876.255 8                  24863719.700
      1177.971                          49.950                    97570777.828 8
  24863724.740         879.646          51.000   100116094.954 8  24863721.520
       902.634          50.850    98843431.547 8  24863723.360         891.122
        53.850
 143589370.525 7                  27324127.240
     -3224.610                          44.950                   107225936.729 7
  27324133.500       -2407.974          42.600   110023102.947 7  27324128.860
     -2470.799          42.750   108624507.496 7  27324132.460       -2439.413
        45.600
 138733495.940 7                  26400064.180
     -2471.463                          47.000                   103599824.389 7
  26400066.000       -1845.513          45.600   106302415.121 7  26400062.660
     -1893.640          45.000   104951115.410 8  26400065.500       -1869.621
        48.350
 24  2  6 19  1 30.0000000  0 21G02G07G08G10G15G16G18G21G23G26G27G30
                                E02E07E10E11E12E24E25E31E33
 126798147.916 7  98803800.62846  24128868.120                    24128868.320
      2891.176        2252.867          43.300          41.900



 129188018.761 7 100666018.97347  24583652.860                    24583652.020
      -945.528        -736.777          44.500          44.200



 110712260.086 8  86269361.12048  21067815.960                    21067816.600
      1866.364        1454.312          50.650          50.400    82674827.392 9
  21067816.580        1393.608          54.400


 111477267.820 8  86865474.78948  21213384.040                    21213384.300
       835.948         651.390          53.350          53.250    83246091.106 9
  21213383.100         624.246          54.100


 129498389.637 6 100907840.63646  24642718.340                    24642717.280
     -1218.167        -949.223          37.400          37.850



 117470903.366 8  91535817.73347  22353945.000                    22353942.960
     -3253.198       -2534.961          48.250          43.400



 129168663.811 6 100651013.72646  24579929.740                    24579927.440
     -3317.818       -2585.315          40.500          38.350    96457266.028 7
  24579934.060       -2477.563          44.300


 117093009.173 7  91241367.61947  22282030.120                    22282028.100
      2459.061        1916.154          46.650          42.100



 115172672.965 8  89745014.29647  21916595.600                    21916594.460
     -1646.098       -1282.673          49.150          47.700    86005685.997 8
  21916598.800       -1229.262          52.400


 129310135.380 6 100761204.46446  24606881.380                    24606883.620
     -3753.654       -2924.933          38.300          38.500    96562831.677 7
  24606885.780       -2802.916          42.350


 105807360.512 8  82447337.19648  20134456.420                    20134455.760
      -640.327        -498.956          52.350          52.250    79012149.538 9
  20134456.620        -478.186          56.450


 132185683.050 6 103001838.07346  25154100.020                    25154102.360
       324.130         252.567          40.750          41.100    98710102.298 7
  25154105.700         242.087          45.400


 150168281.973 6                  28576074.560
      2882.902                          39.850                   112138678.390 6
  28576080.360        2152.858          41.350   115064018.368 6  28576076.300
      2208.971          41.700   113601337.533 7  28576078.760        2180.946
        44.150
 150209347.072 6                  28583884.240
     -1042.518                          39.600                   112169344.402 6
  28583888.240        -778.439          41.350   115095489.762 6  28583886.540
      -798.767          40.500   113632409.231 7  28583887.340        -788.534
        43.700
 124492814.607 8                  23690169.560
       785.465                          52.800                    92965637.254 9
  23690172.520         586.523          54.000    95390673.871 9  23690169.820
       601.804          54.750    94178237.217 9  23690171.080         594.162
        57.000
 126065389.491 7                  23989420.380
      1953.336                          47.500                    94139805.568 7
  23989421.340        1458.731          46.250    96595595.568 7  23989418.260
      1496.757          46.600    95367708.717 8  23989420.220        1477.744
        49.100
 123929819.269 7                  23583030.780
      -491.322                          47.600                    92545079.966 8
  23583030.620        -366.898          50.700    94959273.488 8  23583028.900
      -376.496          52.350    93752174.879 9  23583030.260        -371.715
        54.150
 128363009.654 8                  24426643.780
     -1784.906                          52.650                    95855577.933 8
  24426645.160       -1332.914          51.450    98356140.949 8  24426642.600
     -1367.669          52.600    97105866.596 9  24426644.660       -1350.306
        54.650
 130624734.483 8                  24857032.620
      1165.568                          50.100                    97544535.619 8
  24857037.560         870.324          50.700   100089168.165 8  24857034.220
       893.035          51.050    98816847.048 8  24857036.060         881.627
        53.550
 143686142.634 7                  27342542.400
     -3226.217                          45.000                   107298201.516 6
  27342548.780       -2409.168          41.800   110097252.923 7  27342544.120
     -2472.037          42.600   108697714.876 7  27342547.680       -2440.681
        44.950
 138807668.808 7                  26414178.760
     -2472.765                          45.350                   103655213.244 7
  26414180.320       -1846.514          45.200   106359248.899 7  26414177.220
     -1894.738          45.200   105007226.727 7  26414180.180       -1870.646
        47.850
 24  2  6 19  2  0.0000000  0 22G02G07G08G10G15G16G18G21G23G26G27G30
                                G32E02E07E10E11E12E24E25E31E33
 126711507.886 7  98736288.98046  24112381.180                    24112381.100
      2885.354        2248.329          43.450          40.900



 129216626.322 7 100688310.55147  24589096.720                    24589096.200
      -960.911        -748.763          43.400          43.400



 110656453.490 8  86225875.49448  21057196.320                    21057196.940
      1854.659        1445.189          51.100          51.050    82633153.665 9
  21057196.740        1385.007          54.050


 111452484.553 8  86846163.18948  21208668.100                    21208668.220
       816.696         636.388          52.850          52.850    83227584.160 9
  21208666.860         609.928          54.050


 129535224.590 6 100936543.24446  24649727.860                    24649726.960
     -1237.290        -964.123          39.800          38.650



 117568671.315 8  91612000.51747  22372549.780                    22372547.580
     -3264.016       -2543.391          48.100          43.500



 129268229.691 6 100728597.56245  24598876.340                    24598874.600
     -3319.654       -2586.742          40.700          34.850    96531617.174 7
  24598880.940       -2478.932          44.550


 117019397.611 7  91184008.06947  22268021.940                    22268020.320
      2448.935        1908.265          45.700          42.750



 115222335.058 8  89783712.04547  21926046.060                    21926044.780
     -1664.165       -1296.752          48.600          47.650    86042771.345 8
  21926048.920       -1242.723          52.150


 129422766.403 6 100848968.84446  24628314.600                    24628316.340
     -3754.514       -2925.596          39.700          40.500    96646939.198 7
  24628318.840       -2803.671          42.000


 105826805.326 8  82462488.99348  20138156.600                    20138156.020
      -655.462        -510.750          52.000          51.850    79026670.010 9
  20138156.560        -489.440          56.350


 132176229.869 6 102994471.93246  25152301.140                    25152303.520
       306.318         238.688          41.250          41.200    98703043.071 7
  25152306.420         228.918          45.450


                                  26026860.280
      2963.384                          39.650                   102134998.34917
  26026862.600        2212.827          42.100


 150081868.328 6                  28559630.420
      2878.391                          39.900                   112074148.758 6
  28559636.540        2149.516          41.750   114997805.371 7  28559632.700
      2205.711          42.500   113535966.221 7  28559634.820        2177.557
        44.900
 150240831.653 6                  28589875.600
     -1055.920                          38.700                   112192855.648 7
  28589879.840        -788.575          42.000   115119614.376 6  28589877.640
      -809.263          41.500   113656227.165 7  28589878.540        -798.898
        44.650
 124469394.411 8                  23685712.740
       776.493                          52.100                    92948148.174 9
  23685715.700         579.801          54.000    95372728.548 9  23685713.020
       594.951          54.900    94160520.015 9  23685714.360         587.365
        57.300
 126006901.327 7                  23978290.460
      1946.372                          47.500                    94096129.401 7
  23978291.320        1453.415          46.350    96550779.994 7  23978288.400
      1491.362          47.100    95323462.849 8  23978290.180        1472.440
        49.600
 123944696.314 7                  23585861.840
      -499.841                          47.650                    92556189.471 8
  23585861.680        -373.414          50.700    94970672.796 8  23585860.000
      -383.098          52.650    93763429.286 9  23585861.260        -378.262
        54.450
 128416750.710 8                  24436870.620
     -1797.282                          52.600                    95895709.218 8
  24436871.960       -1342.123          51.550    98397319.141 8  24436869.400
     -1377.113          52.800    97146521.334 9  24436871.260       -1359.616
        54.950
 130589977.780 8                  24850418.760
      1152.215                          50.200                    97518580.972 8
  24850423.560         860.355          50.600   100062536.428 8  24850420.120
       882.819          51.300    98790553.854 8  24850422.040         871.608
        53.750
 143782972.981 7                  27360968.680
     -3228.605                          44.850                   107370509.829 6
  27360974.740       -2411.062          41.500   110171447.525 7  27360970.460
     -2473.925          42.700   108770966.330 7  27360973.920       -2442.483
        44.900
 138881890.816 7                  26428302.280
     -2474.902                          45.050                   103710638.764 7
  26428304.480       -1848.165          46.450   106416120.279 7  26428301.360
     -1896.252          45.250   105063375.180 8  26428304.020       -1872.294
        48.900
 24  2  6 19  2 30.0000000  0 22G02G07G08G10G15G16G18G21G23G26G27G30
                                G32E02E07E10E11E12E24E25E31E33
 126625028.663 7  98668902.62346  24095924.920                    24095924.440
      2879.604        2243.850          43.750          40.650



 129245687.924 7 100710955.89647  24594626.920                    24594626.600
      -976.696        -761.063          43.100          43.350



 110600983.630 8  86182652.24648  21046640.780                    21046641.140
      1843.052        1436.145          50.850          50.900    82591731.398 8
  21046640.820        1376.316          53.800


 111428266.961 8  86827292.37948  21204059.740                    21204059.780
       797.495         621.427          52.650          52.600    83209499.643 9
  21204058.340         595.534          54.100


 129572634.323 6 100965693.73146  24656846.640                    24656845.560
     -1257.448        -979.824          38.600          38.850



 117666748.856 7  91688424.53647  22391213.420                    22391211.460
     -3274.764       -2551.766          47.650          43.800



 129367838.922 6 100806215.08546  24617831.160                    24617830.120
     -3321.313       -2588.037          40.950          38.750    96606000.640 7
  24617836.040       -2480.233          44.400


 116946079.114 7  91126876.89447  22254069.480                    22254068.500
      2438.699        1900.290          45.050          43.050



 115272523.839 8  89822820.20647  21935596.740                    21935595.240
     -1681.976       -1310.630          48.950          47.200    86080250.004 8
  21935599.360       -1256.052          51.950


 129535416.202 6 100936747.78346  24649751.380                    24649753.140
     -3755.587       -2926.435          39.300          39.150    96731060.684 7
  24649755.820       -2804.502          42.850


 105846693.281 8  82477986.09748  20141941.160                    20141940.520
      -670.738        -522.653          52.050          52.050    79041521.399 9
  20141940.860        -500.816          56.250


 132167300.266 6 102987513.80346  25150602.060                    25150604.620
       288.357         224.693          41.100          41.650    98696374.869 7
  25150606.880         215.549          45.050


 136683143.446 7 106506362.10047  26009937.940                    26009939.340
      2965.087        2310.439          42.750          42.700   102068586.529 6
  26009939.380        2213.994          40.050


 149995573.441 6                  28543208.900
      2874.030                          40.950                   112009707.852 6
  28543215.360        2146.230          41.000   114931683.381 6  28543211.480
      2202.411          41.100   113470684.776 7  28543213.480        2174.152
        43.700
 150272711.625 6                  28595942.300
     -1069.668                          39.650                   112216662.150 6
  28595946.540        -798.763          41.550   115144041.929 7  28595944.260
      -819.718          42.000   113680344.181 7  28595945.360        -809.125
        44.550
 124446230.662 8                  23681304.620
       767.441                          52.000                    92930850.591 9
  23681307.640         573.118          54.050    95354979.727 9  23681304.960
       588.029          54.650    94142996.811 9  23681306.420         580.589
        57.050
 125948609.447 7                  23967197.940
      1939.537                          47.500                    94052599.805 7
  23967198.920        1448.313          46.400    96506114.838 7  23967196.020
      1486.168          47.100    95279365.473 8  23967197.500        1467.226
        49.400
 123959819.710 7                  23588739.720
      -508.566                          47.750                    92567482.926 8
  23588739.680        -379.792          50.850    94982260.867 8  23588737.980
      -389.681          52.450    93774870.047 9  23588739.120        -384.710
        54.350
 128470850.042 8                  24447165.560
     -1809.580                          52.850                    95936108.046 8
  24447166.900       -1351.316          51.700    98438771.856 8  24447164.220
     -1386.605          52.650    97187447.105 9  24447166.040       -1368.928
        54.850
 130555609.578 8                  24843878.780
      1138.724                          50.250                    97492916.429 8
  24843883.360         850.331          50.600   100036202.371 8  24843879.920
       872.535          51.200    98764554.552 8  24843881.960         861.451
        53.600
 143879862.393 7                  27379406.100
     -3231.031                          45.050                   107442862.216 6
  27379412.200       -2412.698          41.650   110245687.385 7  27379408.060
     -2475.710          42.200   108844262.445 7  27379411.340       -2444.084
        44.750
 138956163.469 7                  26442435.880
     -2476.907                          45.300                   103766102.103 7
  26442438.600       -1849.650          46.650   106473030.514 7  26442434.960
     -1897.849          44.500   105119561.960 8  26442437.660       -1873.785
        48.600
 24  2  6 19  3  0.0000000  0 22G02G07G08G10G15G16G18G21G23G26G27G30
                                G32E02E07E10E11E12E24E25E31E33
 126538709.238 7  98601640.79747  24079499.020                    24079498.280
      2874.370        2239.772          44.000          42.200



 129275199.980 7 100733952.27047  24600242.920                    24600242.620
      -991.620        -772.690          43.200          43.400



 110545849.542 8  86139690.66248  21036149.000                    21036149.280
      1831.759        1427.346          50.950          50.950    82550559.877 8
  21036148.900        1367.933          53.900


 111404613.762 8  86808861.34848  21199558.640                    21199558.700
       778.713         606.791          52.750          52.650    83191836.578 9
  21199557.240         581.458          54.200


 129610615.728 6 100995289.67346  24664074.060                    24664072.980
     -1276.700        -994.830          37.150          36.900



 117765131.651 8  91765086.42247  22409935.080                    22409933.020
     -3284.774       -2559.565          48.100          43.250



 129467488.352 6 100883863.96346  24636793.880                    24636793.280
     -3322.738       -2589.146          41.850          38.550    96680414.159 7
  24636798.740       -2481.187          43.900


 116873052.737 7  91069973.34647  22240172.700                    22240172.160
      2429.086        1892.798          45.900          43.600



 115323235.590 8  89862335.87147  21945246.900                    21945245.300
     -1699.360       -1324.177          49.000          47.400    86118119.181 8
  21945249.360       -1269.024          51.800


 129648080.597 6 101024538.13946  24671190.840                    24671192.180
     -3755.926       -2926.698          40.200          40.500    96815193.053 7
  24671195.680       -2804.854          43.900


 105867022.585 8  82493827.11748  20145809.700                    20145808.980
      -685.389        -534.068          52.350          52.250    79056702.383 9
  20145809.220        -511.791          56.400


 132158892.483 6 102980962.30046  25149002.160                    25149004.760
       271.200         211.324          40.350          40.200    98690096.368 7
  25149006.480         202.579          44.500


 136594149.749 6 106437016.61646  25993002.480                    25993005.100
      2966.976        2311.944          36.800          36.750   102002130.401 6
  25993004.960        2215.466          36.800


 149909396.973 6                  28526809.940
      2870.311                          40.750                   111945355.358 7
  28526816.640        2143.390          42.550   114865652.157 7  28526812.720
      2199.224          42.450   113405492.908 7  28526814.620        2171.335
        45.100
 150304984.406 6                  28602083.760
     -1082.676                          39.950                   112240762.026 6
  28602088.260        -808.455          41.650   115168770.458 6  28602085.400
      -829.492          40.900   113704758.394 7  28602086.500        -818.929
        44.050
 124423321.277 8                  23676944.920
       759.091                          52.550                    92913742.963 9
  23676948.080         566.870          54.300    95337425.803 9  23676945.320
       581.640          54.750    94125666.038 9  23676946.880         574.251
        57.250
 125890512.229 7                  23956142.440
      1932.808                          47.850                    94009215.544 7
  23956143.300        1443.428          46.550    96461598.818 7  23956140.640
      1481.005          47.600    95235415.331 8  23956141.860        1462.232
        49.800
 123975186.926 7                  23591664.120
      -516.610                          47.900                    92578958.460 8
  23591664.060        -385.831          50.950    94994035.761 8  23591662.200
      -395.854          52.600    93786495.266 9  23591663.400        -390.870
        54.450
 128525304.793 8                  24457528.080
     -1821.414                          52.600                    95976772.283 8
  24457529.640       -1360.146          51.950    98480496.908 8  24457526.740
     -1395.679          52.700    97228641.748 9  24457528.440       -1377.904
        55.000
 130521629.178 8                  24837412.520
      1125.903                          50.250                    97467541.475 8
  24837416.900         840.758          50.650   100010165.464 8  24837413.540
       862.648          51.400    98738848.623 8  24837415.680         851.687
        53.700
 143976807.448 7                  27397854.180
     -3232.636                          44.650                   107515256.176 6
  27397860.480       -2414.081          41.850   110319969.885 7  27397855.960
     -2476.925          42.200   108917600.682 7  27397859.480       -2445.490
        44.750
 139030484.256 7                  26456578.460
     -2478.531                          44.550                   103821601.390 7
  26456581.640       -1850.816          46.600   106529977.629 7  26456577.740
     -1899.155          45.200   105175785.165 8  26456580.660       -1874.976
        48.900
 24  2  6 19  3 30.0000000  0 21G02G07G08G10G15G16G18G21G23G26G27G30
                                G32E02E10E11E12E24E25E31E33
 126452553.380 7  98534506.41646  24063104.220                    24063103.180
      2869.173        2235.721          44.550          39.900



 129305164.610 7 100757301.27947  24605945.040                    24605944.740
     -1006.226        -784.073          42.600          42.550



 110491056.070 8  86096994.48548  21025722.100                    21025722.360
      1821.011        1418.971          51.600          51.700    82509642.717 8
  21025721.980        1359.748          53.650


 111381528.331 8  86790872.72948  21195165.520                    21195165.620
       760.221         592.381          52.750          52.800    83174597.491 9
  21195164.340         567.607          54.250


 129649170.712 6 101025332.52646  24671410.780                    24671410.140
     -1294.479       -1008.683          39.700          39.950



 117863820.258 7  91841986.60047  22428714.900                    22428713.140
     -3294.462       -2567.115          47.550          44.150



 129567179.799 7 100961545.59946  24655764.840                    24655764.280
     -3323.647       -2589.854          42.200          38.900    96754859.088 7
  24655769.340       -2481.995          44.150


 116800322.287 7  91013300.38547  22226332.420                    22226332.200
      2419.442        1885.284          46.700          43.650



 115374471.327 8  89902259.83047  21954996.640                    21954995.100
     -1716.448       -1337.492          48.750          47.250    86156379.648 8
  21954999.060       -1281.761          51.300


 129760760.218 6 101112340.34946  24692633.280                    24692634.580
     -3756.133       -2926.858          41.050          40.700    96899336.779 7
  24692638.060       -2804.783          42.800


 105887796.132 8  82510014.29848  20149762.740                    20149762.000
      -699.669        -545.197          51.950          51.950    79072215.098 9
  20149762.240        -522.553          56.300


 132151009.399 6 102974819.65846  25147501.820                    25147504.360
       254.211         198.088          40.550          40.650    98684209.658 7
  25147505.880         189.812          44.350


 136505097.713 6 106367625.51946  25976056.000                    25976058.940
      2969.619        2313.978          38.700          38.650   101935630.729 5
  25976058.460        2216.946          34.950


 149823343.479 6                  28510434.300
      2866.451                          40.000                   111881094.743 7
  28510441.220        2140.523          43.050   114799715.148 7  28510437.080
      2196.377          42.550   113340394.098 7  28510439.180        2168.514
        45.550
 124400668.900 8                  23672634.280
       750.889                          52.650                    92896827.266 9
  23672637.480         560.688          54.200    95320068.815 9  23672634.580
       575.382          54.800    94108529.692 9  23672636.200         568.048
        57.100
 125832612.700 7                  23945124.500
      1927.029                          47.550                    93965978.934 7
  23945125.500        1438.963          46.250    96417234.296 7  23945122.860
      1476.446          47.700    95191614.771 8  23945123.940        1457.675
        49.650
 123990800.228 7                  23594635.360
      -524.437                          47.950                    92590617.769 8
  23594635.240        -391.649          50.850    95005999.220 8  23594633.160
      -401.824          52.600    93798306.647 9  23594634.500        -396.755
        54.400
 128580116.907 8                  24467958.500
     -1832.874                          52.450                    96017703.391 8
  24467960.180       -1368.728          51.800    98522495.783 8  24467957.120
     -1404.440          52.750    97270106.741 9  24467958.880       -1386.621
        54.900
 130488040.629 8                  24831020.720
      1113.177                          50.000                    97442459.138 8
  24831025.060         831.248          50.400    99984428.803 8  24831021.860
       852.944          51.650    98713439.123 8  24831023.960         842.065
        53.650
 144073809.622 7                  27416313.040
     -3234.175                          44.600                   107587692.786 6
  27416319.460       -2415.215          41.200   110394296.152 7  27416315.120
     -2478.050          42.450   108990982.127 7  27416318.500       -2446.734
        44.550
 139104855.320 7                  26470730.680
     -2479.664                          45.800                   103877138.204 7
  26470734.240       -1851.742          47.250   106586963.230 7  26470730.300
     -1900.153          45.600   105232046.374 8  26470733.020       -1875.977
        49.300
 24  2  6 19  4  0.0000000  0 21G02G07G08G10G15G16G18G21G23G26G27G30
                                G32E02E10E11E12E24E25E31E33
 126366555.973 7  98467495.50246  24046739.520                    24046738.240
      2863.545        2231.334          44.550          41.300



 129335574.108 7 100780996.96747  24611731.920                    24611731.360
     -1021.601        -796.054          42.600          42.650



 110436599.331 8  86054560.70148  21015359.380                    21015359.540
      1809.269        1409.820          51.250          51.350    82468976.999 8
  21015359.160        1351.068          53.700


 111359005.567 8  86773322.54848  21190879.480                    21190879.620
       741.021         577.419          52.650          52.800    83157778.573 9
  21190878.580         553.359          54.400


 129688292.154 6 101055816.84546  24678855.540                    24678854.240
     -1314.155       -1024.015          40.250          40.800



 117962806.758 7  91919118.92347  22447551.360                    22447549.740
     -3304.846       -2575.204          46.800          43.800



 129666906.520 6 101039254.73146  24674742.300                    24674741.700
     -3325.187       -2591.055          40.850          39.000    96829330.347 7
  24674746.920       -2483.105          44.650


 116727882.456 7  90956853.87047  22212547.680                    22212547.520
      2409.358        1877.426          47.050          44.350



 115426223.670 8  89942586.34047  21964844.660                    21964843.340
     -1733.921       -1351.107          48.100          47.850    86195025.892 8
  21964847.140       -1294.899          51.250


 129873447.302 6 101200148.35846  24714077.080                    24714078.860
     -3756.595       -2927.224          40.350          41.200    96983486.140 7
  24714082.120       -2805.372          44.000


 105909008.451 8  82526543.38648  20153799.240                    20153798.600
      -714.789        -556.979          51.800          51.850    79088055.466 9
  20153798.880        -533.784          56.500


 132143645.457 6 102969081.51946  25146100.200                    25146102.480
       236.208         184.057          39.000          38.500    98678710.612 7
  25146104.240         176.554          44.550


 136415983.773 6 106298186.16546  25959097.900                    25959100.360
      2971.301        2315.309          39.100          39.600   101869084.676 5
  25959100.160        2218.596          34.500


 149737409.163 6                  28494081.400
      2862.149                          40.100                   111816923.197 7
  28494088.420        2137.328          43.350   114733869.551 7  28494084.160
      2193.136          43.000   113275385.529 7  28494086.260        2165.197
        45.650
 124378267.777 8                  23668371.580
       742.120                          52.450                    92880099.182 9
  23668374.640         554.172          54.300    95302904.340 9  23668371.700
       568.629          54.750    94091583.413 9  23668373.340         561.409
        56.950
 125774905.532 7                  23934143.180
      1919.850                          47.150                    93922885.948 7
  23934144.100        1433.762          46.300    96373017.151 7  23934141.560
      1471.050          47.900    95147959.703 8  23934142.640        1452.389
        49.550
 124006653.319 7                  23597652.200
      -532.749                          47.800                    92602456.142 8
  23597652.000        -397.900          50.850    95018146.420 8  23597649.680
      -408.239          52.550    93810299.436 9  23597651.240        -403.072
        54.150
 128635279.831 8                  24478455.540
     -1844.979                          51.750                    96058896.460 8
  24478457.560       -1377.750          52.000    98564763.446 8  24478454.240
     -1413.622          52.600    97311837.107 9  24478456.020       -1395.696
        54.750
 130454839.535 8                  24824702.620
      1099.826                          49.600                    97417666.131 8
  24824706.980         821.301          50.550    99958989.016 8  24824703.980
       842.717          51.700    98688322.725 8  24824705.980         832.045
        53.550
 144170861.832 7                  27434781.420
     -3236.167                          44.400                   107660166.727 6
  27434787.860       -2416.569          41.550   110468660.764 6  27434783.540
     -2479.724          41.850   109064401.409 7  27434787.000       -2448.194
        44.300
 139179270.451 7                  26484891.520
     -2481.675                          44.900                   103932707.948 7
  26484895.440       -1853.102          47.900   106643982.636 7  26484891.160
     -1901.529          45.650   105288340.945 8  26484893.800       -1877.323
        49.500
 24  2  6 19  4 30.0000000  0 22G02G07G08G10G15G16G18G21G23G26G27G30
                                G32E02E07E10E11E12E24E25E31E33
 126280724.060 7  98400613.60346  24030406.080                    24030404.840
      2857.906        2226.944          44.100          39.000



 129366433.374 7 100805043.11847  24617604.340                    24617603.400
     -1036.001        -807.274          43.700          43.650



 110382486.509 8  86012394.90748  21005062.160                    21005062.140
      1798.092        1401.111          51.450          51.450    82428568.116 8
  21005061.780        1342.712          53.550


 111337052.567 8  86756216.34148  21186701.960                    21186702.040
       722.325         562.852          53.250          53.100    83141385.130 9
  21186701.300         539.335          54.300


 129727985.140 6 101086746.47946  24686409.160                    24686407.500
     -1332.241       -1038.107          39.300          38.350



 118062095.295 7  91996486.57447  22466445.300                    22466443.980
     -3314.510       -2582.736          47.150          44.850



 129766673.604 6 101116995.29646  24693727.360                    24693726.920
     -3326.291       -2591.918          39.750          38.500    96903831.720 7
  24693732.260       -2483.856          44.850


 116655739.965 7  90900639.05547  22198819.620                    22198819.400
      2399.828        1870.000          47.700          44.100



 115478497.006 8  89983318.81347  21974791.800                    21974790.640
     -1751.075       -1364.474          48.400          47.700    86234061.183 8
  21974794.160       -1307.661          50.600


 129986145.852 6 101287965.32846  24735523.080                    24735525.000
     -3756.503       -2927.147          39.400          39.900    97067644.054 7
  24735528.680       -2805.370          42.200


 105930665.847 8  82543419.27948  20157920.420                    20157919.800
      -729.253        -568.249          51.950          51.900    79104228.201 9
  20157920.300        -544.622          56.300


 132136806.930 6 102963752.81146  25144798.560                    25144800.860
       219.104         170.730          39.300          38.850    98673603.922 7
  25144802.700         163.752          44.550


 136326816.822 5 106228705.57045  25942129.940                    25942132.380
      2973.569        2317.074          35.150          35.250   101802499.139 6
  25942132.420        2220.316          37.700


 149651602.154 6                  28477753.100
      2858.038                          41.500                   111752846.697 7
  28477759.700        2134.385          42.750   114668121.462 6  28477755.200
      2190.009          41.750   113210473.234 7  28477757.580        2162.127
        45.100
 150404140.819 6                  28620955.460
     -1121.595                          38.250                   112314791.244 6
  28620959.280        -837.549          39.350   115244734.603 6  28620958.100
      -859.273          39.600   113779761.566 7  28620958.440        -848.390
        42.300
 124356123.932 8                  23664157.860
       733.904                          52.700                    92863563.223 9
  23664160.760         548.052          54.000    95285937.011 9  23664157.780
       562.307          54.750    94074831.771 9  23664159.460         555.183
        57.100
 125717397.238 7                  23923199.700
      1913.857                          47.700                    93879941.480 7
  23923200.720        1429.100          46.150    96328952.395 7  23923198.040
      1466.363          47.850    95104455.088 8  23923199.260        1447.724
        49.700
 124022751.813 7                  23600715.680
      -540.739                          47.850                    92614477.755 8
  23600715.400        -403.770          50.600    95030481.638 8  23600713.000
      -414.293          52.550    93822477.848 9  23600714.660        -409.037
        54.300
 128690798.795 8                  24489020.280
     -1856.688                          51.650                    96100355.409 8
  24489022.560       -1386.491          51.600    98607303.942 8  24489019.040
     -1422.691          52.600    97353836.831 9  24489020.960       -1404.573
        54.750
 130422033.290 8                  24818459.720
      1086.994                          49.750                    97393167.980 8
  24818464.000         811.677          50.200    99933851.777 8  24818461.300
       832.911          51.800    98663505.035 8  24818463.160         822.266
        53.700
 144267968.928 7                  27453260.160
     -3237.715                          44.250                   107732681.678 6
  27453266.300       -2417.894          40.500   110543067.399 7  27453262.760
     -2480.959          42.600   109137862.191 7  27453266.020       -2449.383
        44.250
 139253735.223 7                  26499061.680
     -2482.863                          45.550                   103988314.739 7
  26499066.080       -1854.139          47.700   106701040.054 7  26499061.460
     -1902.631          46.000   105344673.048 8  26499064.120       -1878.324
        49.800
 24  2  6 19  5  0.0000000  0 22G02G07G08G10G15G16G18G21G23G26G27G30
                                G32E02E07E10E11E12E24E25E31E33
 126195052.988 7  98333857.01546  24014103.320                    24014101.860
      2853.002        2223.122          43.950          38.850



 129397735.381 7 100829434.28047  24623560.900                    24623559.460
     -1050.832        -818.831          43.150          42.800



 110328714.425 8  85970494.61048  20994829.680                    20994829.560
      1786.771        1392.290          50.700          50.900    82388413.672 8
  20994829.380        1334.256          53.950


 111315664.927 8  86739550.68048  21182632.080                    21182632.080
       703.495         548.179          53.550          53.550    83125413.876 9
  21182631.580         525.343          54.650


 129768243.399 6 101118116.60446  24694070.160                    24694068.160
     -1351.660       -1053.240          39.300          40.000



 118161677.224 7  92074082.85147  22485395.020                    22485393.980
     -3324.198       -2590.285          46.800          44.300



 129866474.597 6 101194762.29546  24712718.720                    24712718.440
     -3326.960       -2592.439          40.000          38.750    96978358.431 7
  24712724.000       -2484.635          45.450


 116583890.335 7  90844652.42447  22185147.320                    22185146.860
      2390.164        1862.469          47.600          44.000



 115531284.174 8  90024451.66747  21984836.760                    21984835.820
     -1768.136       -1377.768          48.450          47.650    86273480.173 8
  21984839.000       -1320.313          50.600


 130098848.464 6 101375785.39146  24756969.800                    24756971.840
     -3756.890       -2927.451          40.850          41.300    97151804.939 7
  24756976.000       -2805.443          44.600


 105952763.074 8  82560637.90048  20162125.400                    20162124.600
      -743.960        -579.709          51.700          51.750    79120729.375 9
  20162125.380        -555.494          56.550


 132130488.501 6 102958829.39146  25143595.920                    25143598.300
       201.979         157.390          39.450          38.800    98668885.630 7
  25143599.900         150.745          45.050


 136237594.470 6 106159181.90346  25925151.200                    25925153.980
      2975.186        2318.337          39.300          39.450   101735872.230 6
  25925154.300        2221.567          41.800


 149565918.638 6                  28461448.000
      2854.204                          37.650                   111688862.512 6
  28461454.460        2131.247          41.800   114602468.060 6  28461449.920
      2186.707          40.050   113145654.447 7  28461452.200        2159.036
        43.650
 150437978.265 6                  28627394.820
     -1134.104                          38.600                   112340059.581 6
  28627398.680        -847.099          40.500   115270662.081 6  28627396.760
      -869.026          39.250   113805359.484 7  28627397.380        -858.069
        42.550
 124334231.880 8                  23659992.080
       725.511                          52.850                    92847215.290 9
  23659994.760         541.840          54.250    95269162.602 9  23659991.820
       555.958          54.450    94058270.597 9  23659993.500         548.895
        57.000
 125660082.741 7                  23912293.140
      1907.095                          47.650                    93837141.723 7
  23912294.080        1424.202          46.500    96285036.119 7  23912291.280
      1461.399          47.700    95061097.073 8  23912292.760        1442.785
        49.700
 124039089.810 7                  23603824.600
      -548.556                          47.750                    92626678.221 8
  23603824.280        -409.621          50.700    95043000.377 8  23603822.000
      -420.323          52.350    93834837.450 9  23603823.640        -414.957
        54.050
 128746667.557 8                  24499651.500
     -1868.082                          51.050                    96142075.579 8
  24499654.100       -1395.025          51.950    98650112.457 8  24499650.420
     -1431.392          52.250    97396101.167 9  24499652.420       -1413.182
        54.700
 130389617.782 8                  24812291.200
      1073.960                          49.800                    97368961.601 8
  24812295.420         802.052          50.400    99909013.935 8  24812293.000
       822.924          51.600    98638982.918 8  24812294.700         812.519
        53.600
 144365124.108 7                  27471748.220
     -3239.223                          44.000                   107805232.543 6
  27471754.120       -2418.840          41.250   110617510.892 6  27471750.760
     -2482.004          41.650   109211359.372 7  27471753.940       -2450.371
        44.050
 139328243.736 7                  26513240.320
     -2484.361                          46.350                   104043954.189 7
  26513244.820       -1855.210          47.550   106758130.962 7  26513240.040
     -1903.520          46.200   105401038.234 8  26513242.760       -1879.337
        49.650
 24  2  6 19  5 30.0000000  0 22G02G07G08G10G15G16G18G21G23G26G27G30
                                G32E02E07E10E11E12E24E25E31E33
 126109545.491 7  98267227.95146  23997831.440                    23997830.140
      2847.402        2218.762          43.850          40.100



 129429480.953 7 100854171.06147  24629601.820                    24629599.880
     -1065.456        -830.229          43.400          42.600



 110275286.555 8  85928862.54148  20984662.560                    20984662.580
      1775.007        1383.123          50.000          49.950    82348516.280 8
  20984662.420        1325.440          53.600


 111294844.979 8  86723327.37448  21178670.240                    21178670.160
       684.385         533.288          53.700          53.700    83109866.557 9
  21178669.840         511.028          54.450


 129809067.534 6 101149927.63046  24701838.500                    24701836.220
     -1370.556       -1067.964          39.300          39.100



 118261552.552 7  92151907.75047  22504400.580                    22504399.840
     -3334.203       -2598.082          46.700          43.700



 129966310.352 6 101272556.38446  24731716.640                    24731716.580
     -3329.103       -2594.104          39.200          37.350    97052911.055 7
  24731722.160       -2485.691          45.350


 116512336.125 7  90788895.99147  22171531.120                    22171530.340
      2379.972        1854.526          47.250          43.900



 115584585.236 8  90065984.97347  21994979.580                    21994978.620
     -1785.397       -1391.219          48.400          47.400    86313282.939 8
  21994981.680       -1333.242          50.400


 130211554.754 6 101463608.40146  24778417.220                    24778419.260
     -3757.081       -2927.600          40.200          39.800    97235968.592 7
  24778423.620       -2805.640          43.400


 105975302.058 8  82578200.74848  20166414.420                    20166413.580
      -758.834        -591.299          51.850          51.800    79137560.448 9
  20166414.400        -566.656          56.400


 132124692.010 6 102954312.63346  25142492.940                    25142495.380
       184.485         143.755          40.200          40.300    98664557.058 7
  25142496.700         137.738          44.650


 136148320.956 6 106089618.20746  25908162.820                    25908165.800
      2976.243        2319.148          37.100          36.850   101669207.093 6
  25908166.340        2222.547          38.200


 149480362.532 6                  28445167.040
      2849.578                          41.300                   111624973.363 7
  28445173.480        2127.953          42.750   114536912.244 7  28445169.280
      2183.428          43.100   113080931.958 7  28445171.060        2155.664
        45.650
 150472204.603 6                  28633907.700
     -1147.441                          39.350                   112365618.211 7
  28633912.360        -857.005          42.350   115296887.501 6  28633909.520
      -879.344          41.350   113831251.502 7  28633910.420        -868.062
        44.700
 124312593.297 8                  23655874.500
       716.945                          52.750                    92831056.645 9
  23655876.940         535.336          54.000    95252582.421 9  23655874.120
       549.320          54.650    94041901.183 9  23655875.780         542.326
        57.000
 125602964.197 7                  23901423.900
      1900.490                          47.750                    93794488.289 7
  23901424.880        1419.175          46.350    96241269.998 7  23901421.780
      1456.290          47.650    95017887.299 8  23901423.540        1437.725
        49.700
 124055668.506 7                  23606979.240
      -556.799                          47.600                    92639058.434 8
  23606978.920        -415.736          50.450    95055703.542 8  23606976.800
      -426.646          52.350    93847379.142 9  23606978.420        -421.203
        54.100
 128802887.014 8                  24510349.340
     -1879.929                          50.600                    96184057.624 8
  24510352.340       -1403.893          51.600    98693189.687 8  24510348.480
     -1440.509          52.200    97438630.809 9  24510350.620       -1422.227
        54.650
 130357596.084 8                  24806197.740
      1060.587                          50.000                    97345049.310 8
  24806201.840         792.080          50.250    99884477.845 8  24806199.580
       812.695          51.700    98614758.731 8  24806201.180         802.380
        53.700
 144462327.865 7                  27490245.620
     -3241.170                          44.050                   107877819.661 6
  27490251.560       -2420.148          40.800   110691991.625 7  27490248.020
     -2483.483          42.100   109284893.298 7  27490251.340       -2451.858
        44.100
 139402797.189 7                  26527427.780
     -2485.954                          46.600                   104099627.227 7
  26527431.840       -1856.497          47.000   106815256.358 7  26527427.200
     -1904.990          46.750   105457437.449 8  26527429.900       -1880.723
        49.750
 24  2  6 19  6  0.0000000  0 22G02G07G08G10G15G16G18G21G23G26G27G30
                                G32E02E07E10E11E12E24E25E31E33
 126024205.121 7  98200729.09046  23981591.560                    23981590.220
      2841.800        2214.396          43.750          38.650



 129461670.734 7 100879253.96947  24635727.160                    24635725.460
     -1080.465        -841.921          42.900          42.400



 110222207.447 8  85887502.24248  20974561.820                    20974561.980
      1763.494        1374.152          50.750          50.600    82308879.319 8
  20974561.560        1316.844          53.500


 111274595.982 8  86707548.96448  21174817.040                    21174816.900
       665.327         518.438          53.600          53.700    83094745.582 9
  21174816.600         496.886          54.600


 129850459.065 6 101182180.80646  24709715.180                    24709712.220
     -1389.102       -1082.415          39.650          39.700



 118361721.702 7  92229961.61647  22523462.020                    22523461.500
     -3343.740       -2605.513          47.000          42.900



 130066182.546 6 101350378.83146  24750721.440                    24750721.760
     -3329.247       -2594.221          39.800          38.000    97127490.947 7
  24750727.080       -2486.449          45.550


 116441080.763 7  90733372.43147  22157971.700                    22157970.540
      2370.230        1846.937          47.900          42.650



 115638401.114 8  90107919.43147  22005220.460                    22005219.340
     -1802.519       -1404.560          48.950          46.900    86353470.132 8
  22005222.520       -1345.983          50.650


 130324265.375 6 101551434.75546  24799865.520                    24799867.920
     -3757.133       -2927.640          40.600          40.650    97320135.494 7
  24799872.140       -2805.578          44.850


 105998285.710 8  82596110.08348  20170788.040                    20170787.260
      -773.681        -602.868          51.900          51.850    79154723.560 9
  20170788.120        -577.676          56.700


 132119420.274 6 102950204.77246  25141489.820                    25141492.420
       166.694         129.891          40.100          39.800    98660620.349 7
  25141493.380         124.664          44.650


 136059001.940 6 106020019.12246  25891165.760                    25891169.080
      2977.825        2320.390          37.400          37.700   101602508.002 6
  25891169.620        2223.703          37.700


 149394938.187 6                  28428911.180
      2845.186                          40.750                   111561182.687 6
  28428917.700        2124.772          41.800   114471457.409 6  28428913.500
      2179.956          41.800   113016309.210 7  28428915.120        2152.412
        44.350
 150506821.598 6                  28640495.060
     -1160.470                          40.250                   112391468.606 7
  28640499.620        -866.533          44.150   115323412.274 7  28640496.820
      -889.196          43.300   113857439.091 7  28640498.040        -877.799
        46.650
 124291210.857 8                  23651805.600
       708.393                          53.050                    92815089.258 9
  23651807.900         529.036          54.050    95236198.488 9  23651805.200
       542.816          54.600    94025725.526 9  23651806.800         535.914
        57.000
 125546044.664 8                  23890592.540
      1893.875                          48.300                    93751983.464 7
  23890593.440        1414.337          46.750    96197656.352 7  23890590.120
      1451.230          47.550    94974828.062 8  23890592.180        1432.787
        49.850
 124072490.156 7                  23610180.200
      -564.786                          47.750                    92651620.073 8
  23610179.820        -421.781          50.600    95068592.872 8  23610177.760
      -432.791          52.300    93860104.623 9  23610179.420        -427.281
        54.050
 128859459.021 8                  24521114.280
     -1891.687                          50.650                    96226302.934 8
  24521117.580       -1412.570          51.800    98736537.047 8  24521113.740
     -1449.479          52.200    97481427.142 9  24521115.880       -1431.024
        54.700
 130325972.177 8                  24800180.060
      1047.411                          50.650                    97321434.072 8
  24800184.040         782.187          50.350    99860246.557 8  24800181.800
       802.566          51.600    98590835.469 8  24800183.360         792.385
        53.600
 144559581.601 7                  27508752.360
     -3242.639                          43.750                   107950444.135 6
  27508758.080       -2421.545          40.050   110766510.616 6  27508755.040
     -2484.717          41.500   109358465.020 7  27508758.100       -2452.999
        43.600
 139477397.830 7                  26541624.160
     -2487.579                          46.350                   104155335.468 7
  26541627.500       -1857.514          46.750   106872417.856 7  26541623.300
     -1906.026          46.750   105513872.322 8  26541625.980       -1881.823
        49.550
 24  2  6 19  6 30.0000000  0 22G02G07G08G10G15G16G18G21G23G26G27G30
                                G32E02E07E10E11E12E24E25E31E33
 125939027.541 7  98134357.12046  23965382.700                    23965381.280
      2836.740        2210.452          44.900          38.050



 129494298.531 7 100904678.17847  24641935.860                    24641934.680
     -1094.790        -853.083          42.950          42.850



 110169472.598 8  85846410.18148  20964526.540                    20964526.800
      1752.335        1365.456          50.550          50.650    82269499.437 8
  20964526.140        1308.459          53.300


 111254913.945 8  86692212.33548  21171071.620                    21171071.500
       646.929         504.101          53.550          53.450    83080047.995 9
  21171071.140         483.002          54.350


 129892412.034 6 101214871.47246  24717698.320                    24717695.100
     -1407.652       -1096.872          37.950          38.550



 118462177.341 7  92308238.71747  22542578.020                    22542577.720
     -3353.038       -2612.757          47.400          42.400



 130166085.376 6 101428225.19246  24769732.460                    24769732.360
     -3330.511       -2595.202          41.500          36.950    97202093.639 7
  24769737.540       -2486.889          44.600


 116370119.912 8  90678078.34747  22144468.280                    22144466.820
      2360.589        1839.424          48.300          42.150



 115692725.056 8  90150249.78647  22015558.100                    22015556.580
     -1819.034       -1417.430          49.650          46.200    86394036.732 8
  22015560.220       -1358.344          50.550


 130436973.363 6 101639259.05946  24821313.140                    24821316.020
     -3756.290       -2926.985          40.800          40.250    97404300.415 7
  24821319.940       -2805.313          43.050


 106021709.200 8  82614362.15648  20175245.340                    20175244.700
      -787.931        -613.972          51.600          51.450    79172215.134 9
  20175245.660        -588.362          56.550


 132114668.380 6 102946501.98146  25140585.600                    25140588.480
       150.276         117.099          41.300          41.750    98657071.860 7
  25140589.320         111.982          44.700


 135969635.101 6 105950382.69645  25874159.540                    25874163.120
      2980.008        2322.091          36.350          35.800   101535773.127 6
  25874163.840        2225.161          39.100


 149309642.608 6                  28412679.900
      2841.087                          41.000                   111497488.111 7
  28412686.160        2121.679          43.000   114406101.246 7  28412682.260
      2177.061          43.050   112951783.833 7  28412683.840        2149.304
        45.600
 150541823.807 6                  28647155.760
     -1172.873                          40.300                   112417606.635 7
  28647160.180        -875.835          42.100   115350232.126 7  28647157.420
      -898.769          43.000   113883918.037 7  28647158.760        -887.287
        45.250
 124270079.508 8                  23647784.440
       700.443                          53.000                    92799309.392 8
  23647786.660         523.048          53.850    95220006.973 9  23647784.100
       536.671          54.750    94009739.834 9  23647785.620         529.863
        56.900
 125489319.505 8                  23879798.260
      1887.945                          48.800                    93709623.808 7
  23879799.140        1409.717          46.800    96154191.659 7  23879795.620
      1446.552          47.500    94931915.893 8  23879797.760        1428.096
        49.850
 124089549.296 7                  23613426.420
      -572.344                          47.900                    92664359.055 8
  23613425.980        -427.407          50.400    95081664.173 8  23613423.960
      -438.565          52.250    93873009.764 8  23613425.620        -432.979
        53.950
 128916377.753 8                  24531945.280
     -1902.812                          50.700                    96268807.166 8
  24531948.820       -1420.967          51.550    98780150.085 8  24531945.000
     -1458.052          52.350    97524485.777 9  24531947.120       -1439.498
        54.600
 130294742.376 8                  24794237.440
      1034.641                          51.200                    97298113.130 8
  24794241.280         772.666          50.300    99836317.243 8  24794238.980
       792.780          51.850    98567210.341 8  24794240.540         782.716
        53.750
 144656879.003 7                  27527267.460
     -3243.672                          44.400                   108023101.188 6
  27527273.060       -2422.224          40.950   110841063.118 6  27527269.840
     -2485.606          40.550   109432069.807 7  27527273.180       -2453.906
        43.400
 139552040.241 7                  26555828.240
     -2488.621                          46.300                   104211074.941 7
  26555830.960       -1858.417          45.750   106929611.388 7  26555827.560
     -1906.884          47.600   105570338.819 8  26555829.960       -1882.687
        49.300
 24  2  6 19  7  0.0000000  0 22G02G07G08G10G15G16G18G21G23G26G27G30
                                G32E02E07E10E11E12E24E25E31E33
 125854014.050 7  98068113.02746  23949205.040                    23949203.720
      2830.873        2205.881          45.000          38.300



 129527363.057 7 100930442.70947  24648227.940                    24648227.240
     -1109.744        -864.735          43.200          42.950



 110117085.533 8  85805589.13048  20954557.460                    20954557.820
      1740.215        1356.013          50.550          50.700    82230379.263 8
  20954557.060        1299.596          53.650


 111235799.495 8  86677317.98048  21167434.140                    21167434.080
       627.448         488.922          53.150          53.000    83065774.239 9
  21167433.660         468.608          54.400


 129934925.223 6 101247998.64546  24725788.120                    24725785.220
     -1426.914       -1111.881          38.950          39.000



 118562917.443 7  92386737.47147  22561748.160                    22561747.840
     -3363.086       -2620.587          46.650          43.400



 130266018.152 7 101506094.87046  24788749.420                    24788748.740
     -3331.854       -2596.250          42.050          36.950    97276718.782 7
  24788753.540       -2487.924          43.900


 116299454.769 7  90623014.68347  22131021.040                    22131019.300
      2350.432        1831.508          47.500          42.650



 115747555.713 8  90192974.97547  22025992.100                    22025990.320
     -1836.371       -1430.938          49.150          46.500    86434981.718 8
  22025994.340       -1371.295          50.550


 130549677.129 6 101727080.00746  24842759.740                    24842763.440
     -3757.045       -2927.572          38.700          38.550    97488462.133 7
  24842766.880       -2805.322          42.850


 106045573.146 8  82632957.43748  20179786.440                    20179786.100
      -803.093        -625.786          51.400          51.450    79190035.617 9
  20179786.920        -599.604          56.450


 132110436.828 6 102943204.64546  25139780.640                    25139783.360
       131.964         102.829          40.800          40.950    98653911.900 7
  25139784.520          98.695          44.850


 135880223.973 6 105880711.67046  25857144.980                    25857148.700
      2980.586        2322.532          37.250          37.750   101469005.118 6
  25857149.420        2225.905          40.750


 149224478.079 6                  28396473.520
      2836.218                          41.600                   111433891.417 6
  28396479.620        2118.212          41.150   114340845.465 6  28396475.880
      2173.276          41.700   112887357.601 7  28396477.360        2145.685
        44.150
 150577210.696 6                  28653889.760
     -1186.280                          39.350                   112444032.001 7
  28653893.960        -885.750          42.000   115377346.830 7  28653890.860
      -908.901          42.300   113910688.068 7  28653892.420        -897.271
        44.900
 124249199.626 8                  23643811.040
       691.645                          52.650                    92783717.298 8
  23643813.280         516.488          53.950    95204008.126 9  23643810.840
       529.950          54.750    93993944.364 9  23643812.280         523.232
        57.050
 125432789.609 8                  23869041.100
      1881.033                          48.650                    93667409.947 7
  23869041.860        1404.612          46.900    96110876.567 7  23869038.200
      1441.231          47.500    94889151.412 8  23869040.480        1422.875
        50.000
 124106845.783 7                  23616717.780
      -580.658                          47.700                    92677275.279 8
  23616717.380        -433.629          50.400    95094917.330 8  23616715.380
      -444.927          52.200    93886094.458 9  23616716.980        -439.306
        54.000
 128973642.692 8                  24542842.320
     -1914.771                          50.600                    96311569.927 8
  24542845.880       -1429.847          51.650    98824028.396 8  24542842.320
     -1467.195          52.450    97567806.313 9  24542844.240       -1448.498
        54.700
 130263908.366 8                  24788370.180
      1020.891                          51.350                    97275087.745 8
  24788373.920         762.467          50.550    99812691.198 8  24788371.500
       782.277          51.800    98543884.627 8  24788373.020         772.359
        53.800
 144754219.236 7                  27545790.840
     -3245.605                          44.650                   108095790.217 6
  27545796.240       -2423.610          40.400   110915648.381 6  27545793.140
     -2486.772          41.650   109505706.960 7  27545796.760       -2455.221
        44.000
 139626724.319 7                  26570040.340
     -2490.393                          46.800                   104266845.512 7
  26570042.580       -1859.678          46.050   106986836.830 7  26570039.980
     -1908.125          47.750   105626836.827 8  26570041.680       -1883.893
        49.600
 24  2  6 19  7 30.0000000  0 22G02G07G08G10G15G16G18G21G23G26G27G30
                                G32E02E07E10E11E12E24E25E31E33
 125769169.209 7  98002000.33446  23933059.620                    23933058.280
      2825.144        2201.414          44.750          37.500



 129560866.370 7 100956549.13647  24654603.580                    24654603.260
     -1124.539        -876.267          42.350          42.750



 110065050.745 8  85765042.58548  20944655.660                    20944656.040
      1728.315        1346.740          51.250          51.150    82191522.163 9
  20944655.280        1290.633          54.150


 111217256.971 8  86662869.28748  21163905.480                    21163905.440
       608.219         473.938          53.150          53.200    83051927.580 9
  21163904.980         454.203          54.650


 129978001.298 6 101281564.44746  24733985.160                    24733983.000
     -1445.290       -1126.198          38.950          38.650



 118663943.280 7  92465458.88847  22580972.720                    22580972.360
     -3372.740       -2628.110          46.350          43.650



 130365983.580 7 101583990.01946  24807772.520                    24807771.400
     -3332.919       -2597.079          42.950          36.300    97351368.304 7
  24807775.980       -2488.958          45.000


 116229089.902 7  90568185.00947  22117630.960                    22117629.000
      2340.256        1823.579          47.400          42.250



 115802894.883 8  90236096.41947  22036522.800                    22036520.880
     -1853.400       -1444.208          48.950          46.600    86476306.431 8
  22036525.260       -1384.046          50.700


 130662378.091 6 101814898.82446  24864206.080                    24864209.880
     -3756.788       -2927.370          39.850          39.700    97572621.854 7
  24864213.100       -2805.629          42.550


 106069881.243 8  82651898.81948  20184412.080                    20184411.920
      -817.971        -637.379          51.750          51.850    79208187.779 9
  20184412.540        -610.812          56.700


 132106729.111 6 102940315.49146  25139075.300                    25139077.880
       114.858          89.497          40.600          39.900    98651143.150 7
  25139079.400          85.565          44.900


 135790774.698 6 105811010.99646  25840123.580                    25840127.460
      2981.993        2323.631          41.000          40.700   101402208.607 7
  25840127.740        2226.853          42.350


 149139450.102 6                  28380293.260
      2831.536                          40.300                   111370396.641 7
  28380298.860        2114.574          42.550   114275694.311 7  28380295.620
      2169.646          42.850   112823034.628 7  28380296.980        2142.051
        45.300
 150612985.193 6                  28660697.280
     -1199.438                          38.500                   112470746.772 6
  28660701.160        -895.403          39.750   115404758.532 6  28660697.880
      -918.942          39.950   113937751.315 7  28660700.100        -907.310
        42.750
 124228574.681 8                  23639886.100
       682.960                          52.750                    92768315.584 9
  23639888.440         509.998          54.200    95188204.623 9  23639886.100
       523.255          54.800    93978341.753 9  23639887.460         516.634
        57.250
 125376458.779 8                  23858321.760
      1874.121                          48.700                    93625344.750 7
  23858322.520        1399.437          47.150    96067714.009 7  23858318.820
      1435.921          47.700    94846537.532 8  23858321.040        1417.722
        50.300
 124124382.711 7                  23620054.940
      -588.761                          47.700                    92690371.054 8
  23620054.560        -439.710          50.600    95108354.738 8  23620052.560
      -451.209          52.300    93899361.050 9  23620054.140        -445.484
        54.150
 129031256.596 8                  24553805.920
     -1926.527                          50.950                    96354593.280 8
  24553809.380       -1438.646          51.700    98868174.097 8  24553806.080
     -1476.197          52.600    97611390.840 9  24553807.780       -1457.388
        54.800
 130233474.952 8                  24782579.060
      1007.404                          51.550                    97252361.508 8
  24782582.780         752.321          50.800    99789372.105 8  24782580.160
       771.928          51.850    98520861.961 9  24782581.740         762.129
        54.050
 144851604.500 7                  27564322.920
     -3247.122                          44.650                   108168512.896 6
  27564328.000       -2424.766          40.050   110990268.182 6  27564325.020
     -2488.182          41.800   109579378.206 7  27564328.620       -2456.662
        43.600
 139701453.125 7                  26584261.020
     -2491.875                          46.750                   104322649.513 7
  26584262.840       -1861.020          45.950   107044096.568 7  26584260.860
     -1909.376          47.950   105683368.694 8  26584261.960       -1885.250
        49.600
 24  2  6 19  8  0.0000000  0 22G02G07G08G10G15G16G18G21G23G26G27G30
                                G32E02E07E10E11E12E24E25E31E33
 125684490.011 7  97936016.75446  23916945.580                    23916944.480
      2819.669        2197.153          45.800          38.350



 129594803.379 7 100982993.51147  24661061.680                    24661061.740
     -1138.461        -887.115          43.050          42.900



 110013366.150 8  85724768.90748  20934820.520                    20934820.900
      1716.811        1337.775          51.300          51.300    82152926.571 9
  20934820.260        1282.019          54.700


 111199283.428 8  86648863.95548  21160485.140                    21160485.040
       589.513         459.361          53.250          53.400    83038505.810 9
  21160484.660         440.175          54.900


 130021635.269 6 101315564.98846  24742288.680                    24742286.700
     -1463.917       -1140.711          40.850          41.050



 118765248.643 7  92544398.10947  22600250.480                    22600250.040
     -3381.638       -2635.044          46.200          42.900



 130465976.847 7 101661906.87745  24826800.920                    24826799.340
     -3333.767       -2597.738          42.300          35.550    97426038.585 7
  24826804.200       -2489.488          46.100


 116159021.495 7  90513586.35347  22104297.260                    22104295.200
      2330.457        1815.944          47.600          42.850



 115858736.908 8  90279609.69347  22047149.160                    22047147.180
     -1869.964       -1457.114          48.350          46.600    86518006.660 8
  22047151.700       -1396.379          50.750


 130775070.377 6 101902710.87446  24885650.960                    24885654.780
     -3756.449       -2927.104          40.000          40.600    97656775.006 7
  24885658.020       -2805.129          44.400


 106094629.793 8  82671183.39948  20189121.560                    20189121.360
      -832.380        -648.607          51.700          51.750    79226668.831 9
  20189122.000        -621.630          56.750


 132103541.431 6 102937831.55746  25138469.000                    25138471.420
        97.379          75.879          41.400          41.550    98648762.702 7
  25138473.100          72.731          44.950


 135701286.481 6 105741279.95946  25823094.820                    25823098.460
      2984.083        2325.264          36.850          37.800   101335383.050 6
  25823099.040        2227.829          39.300


 149054556.562 7                  28364138.680
      2827.280                          42.050                   111307002.242 7
  28364143.980        2111.285          43.100   114210646.135 7  28364140.900
      2166.454          43.100   112758813.342 7  28364142.260        2138.785
        45.700
 150649142.551 6                  28667577.900
     -1211.936                          39.750                   112497747.491 6
  28667581.340        -904.959          41.350   115432463.571 6  28667577.760
      -928.590          39.200   113965104.193 7  28667580.340        -916.818
        43.100
 124208200.735 8                  23636008.960
       674.819                          52.650                    92753101.304 9
  23636011.400         503.901          54.400    95172593.440 9  23636009.100
       517.080          54.800    93962929.025 9  23636010.380         510.497
        57.150
 125320323.563 8                  23847639.580
      1867.711                          49.000                    93583425.616 7
  23847640.220        1394.781          47.350    96024701.329 7  23847636.660
      1431.224          47.850    94804071.626 8  23847638.840        1412.986
        50.200
 124142155.804 7                  23623437.060
      -596.585                          47.800                    92703643.177 8
  23623436.660        -445.449          50.600    95121973.090 8  23623434.720
      -457.096          52.200    93912806.285 8  23623436.220        -451.271
        53.950
 129089214.669 8                  24564835.120
     -1937.855                          51.600                    96397873.633 8
  24564838.340       -1447.046          52.000    98912583.505 8  24564835.400
     -1484.837          52.800    97655235.717 9  24564836.820       -1465.915
        54.850
 130203439.563 8                  24776863.600
       994.402                          51.750                    97229932.504 8
  24776867.360         742.526          51.050    99766357.992 8  24776864.480
       761.908          51.700    98498140.402 8  24776866.220         752.220
        53.950
 144949029.633 7                  27582862.580
     -3248.448                          44.250                   108241265.341 6
  27582867.760       -2425.761          40.700   111064918.535 6  27582864.360
     -2489.005          40.850   109653079.600 7  27582867.960       -2457.491
        43.550
 139776222.382 7                  26598489.140
     -2493.118                          46.100                   104378483.696 7
  26598490.800       -1861.756          46.250   107101387.284 7  26598489.120
     -1910.326          47.600   105739931.141 8  26598489.900       -1885.996
        49.400
 24  2  6 19  8 30.0000000  0 22G02G07G08G10G15G16G18G21G23G26G27G30
                                G32E02E07E10E11E12E24E25E31E33
 125599975.990 7  97870161.86746  23900863.100                    23900862.120
      2814.323        2192.988          45.250          40.550



 129629171.263 7 101009773.63347  24667601.820                    24667602.180
     -1152.781        -898.272          44.000          44.050



 109962032.207 8  85684768.46548  20925052.060                    20925052.480
      1705.159        1328.697          51.350          51.450    82114592.820 9
  20925052.000        1273.433          54.900


 111181877.746 8  86635301.11748  21157172.940                    21157172.700
       570.684         444.689          53.400          53.400    83025508.096 9
  21157172.400         426.228          54.900


 130065824.560 6 101349998.18046  24750697.840                    24750696.120
     -1481.906       -1154.728          39.700          39.300



 118866829.960 7  92623552.37447  22619580.760                    22619580.240
     -3390.366       -2641.844          46.100          43.050



 130565995.801 7 101739843.74046  24845834.020                    24845832.160
     -3334.216       -2598.089          42.650          38.150    97500728.053 7
  24845837.360       -2489.907          46.000


 116089249.441 7  90459218.61847  22091019.940                    22091017.860
      2320.761        1808.390          47.900          42.600



 115915078.684 8  90323512.37647  22057870.560                    22057868.640
     -1886.352       -1469.884          48.800          46.350    86560080.074 8
  22057873.200       -1408.643          50.600


 130887750.679 6 101990513.60646  24907093.240                    24907097.380
     -3755.629       -2926.471          37.950          38.050    97740919.238 7
  24907100.340       -2804.556          43.600


 106119817.619 8  82690810.27948  20193914.700                    20193914.340
      -846.896        -659.920          51.800          51.950    79245477.925 9
  20193915.040        -632.437          56.600


 132100872.461 6 102935751.81846  25137961.200                    25137963.660
        80.218          62.506          41.100          40.650    98646769.631 7
  25137965.580          59.990          45.800


 135611761.032 6 105671519.85445  25806059.040                    25806062.480
      2984.260        2325.407          37.500          35.800   101268529.646 6
  25806063.280        2228.561          36.200


 148969798.155 6                  28348009.760
      2822.917                          40.900                   111243708.717 6
  28348014.940        2108.102          41.750   114145701.434 6  28348011.720
      2163.253          41.400   112694694.225 7  28348013.120        2135.697
        44.350
 150685680.973 6                  28674530.880
     -1224.340                          38.800                   112525032.617 6
  28674534.320        -914.302          41.200   115460460.520 7  28674530.580
      -937.936          42.000   113992745.226 7  28674533.580        -926.167
        44.600
 124188076.442 8                  23632179.380
       666.670                          52.750                    92738073.445 9
  23632181.900         497.817          54.450    95157173.552 9  23632179.580
       510.795          54.850    93947705.151 9  23632180.820         504.314
        57.550
 125264382.980 8                  23836994.400
      1861.214                          48.600                    93541651.838 7
  23836995.020        1390.007          47.400    95981837.803 7  23836991.660
      1426.165          47.950    94761752.978 8  23836993.640        1408.084
        50.650
 124160163.155 7                  23626863.700
      -604.051                          47.750                    92717090.240 8
  23626863.260        -451.125          50.550    95135770.941 8  23626861.500
      -462.903          52.350    93926428.741 9  23626862.880        -457.002
        54.350
 129147514.710 8                  24575929.580
     -1948.979                          51.900                    96441409.363 8
  24575932.420       -1455.377          51.900    98957254.945 8  24575929.920
     -1493.327          52.750    97699339.306 9  24575930.960       -1474.347
        55.100
 130173802.128 8                  24771223.780
       981.261                          51.550                    97207800.664 8
  24771227.660         732.819          51.200    99743648.808 8  24771224.440
       751.832          51.550    98475719.888 9  24771226.420         742.360
        54.300
 145046492.086 7                  27601409.020
     -3249.309                          44.500                   108314045.651 6
  27601414.340       -2426.514          39.850   111139597.462 6  27601411.040
     -2489.637          41.350   109726809.215 7  27601414.700       -2458.127
        43.750
 139851030.287 7                  26612724.600
     -2494.191                          46.600                   104434346.744 7
  26612726.180       -1862.519          46.350   107158707.632 7  26612724.300
     -1911.135          46.850   105796522.840 8  26612725.260       -1886.823
        49.550
 24  2  6 19  9  0.0000000  0 22G02G07G08G10G15G16G18G21G23G26G27G30
                                G32E02E07E10E11E12E24E25E31E33
 125515635.248 7  97804442.00546  23884813.540                    23884812.500
      2808.025        2188.077          45.550          40.000



 129663975.631 7 101036893.86947  24674224.980                    24674225.400
     -1167.682        -909.884          44.300          44.400



 109911058.040 8  85645048.36548  20915351.960                    20915352.460
      1692.765        1319.038          51.250          51.200    82076527.738 9
  20915352.260        1264.115          54.950


 111165048.080 8  86622187.11848  21153970.340                    21153970.080
       551.099         429.428          53.200          53.200    83012940.525 9
  21153969.760         411.511          54.750


 130110575.391 6 101384868.98646  24759213.680                    24759212.280
     -1501.370       -1169.894          39.800          39.850



 118968692.359 7  92702925.63547  22638964.560                    22638963.740
     -3400.267       -2649.561          46.550          42.050



 130666046.805 6 101817805.52246  24864873.040                    24864871.300
     -3336.366       -2599.769          41.300          37.750    97575441.444 7
  24864876.500       -2491.104          45.700


 116019781.642 7  90405087.95847  22077800.480                    22077798.400
      2310.151        1800.121          47.500          42.750



 115971925.713 7  90367808.76447  22068688.100                    22068686.200
     -1903.549       -1483.284          47.850          46.300    86602530.794 8
  22068690.740       -1421.526          50.250


 131000424.310 6 102078311.09546  24928534.120                    24928538.880
     -3756.064       -2926.807          37.800          38.500    97825058.457 7
  24928541.360       -2804.758          44.200


 106145452.124 8  82710785.22048  20198792.840                    20198792.340
      -862.290        -671.915          51.900          52.000    79264620.570 9
  20198793.060        -643.946          56.250


 132098729.534 6 102934081.96646  25137553.380                    25137555.960
        62.879          48.995          40.900          41.500    98645169.365 7
  25137558.140          46.472          45.650


 135522208.612 6 105601738.78246  25789017.940                    25789021.200
      2985.471        2326.347          38.050          37.200   101201656.154 6
  25789022.260        2229.157          38.250


 148885184.034 6                  28331908.020
      2817.920                          40.850                   111180522.962 6
  28331913.360        2104.210          41.750   114080867.344 6  28331910.000
      2158.984          40.950   112630684.304 7  28331911.480        2131.662
        44.200
 150722606.838 6                  28681557.720
     -1237.464                          41.250                   112552607.239 6
  28681560.920        -924.266          41.000   115488754.445 6  28681557.520
      -948.257          41.150   114020679.503 7  28681560.300        -936.323
        44.000
 124168209.035 8                  23628398.640
       657.646                          52.350                    92723237.425 9
  23628401.320         491.064          54.300    95141950.495 9  23628398.940
       503.917          54.850    93932675.613 9  23628400.120         497.480
        57.350
 125208644.729 8                  23826387.700
      1854.397                          48.250                    93500029.149 7
  23826388.220        1384.793          47.100    95939129.293 8  23826385.080
      1420.921          48.050    94719587.375 8  23826386.960        1402.861
        50.450
 124178411.615 7                  23630336.260
      -612.564                          47.750                    92730717.347 8
  23630335.820        -457.483          50.300    95149753.537 8  23630334.160
      -469.400          52.200    93940233.595 9  23630335.440        -463.503
        54.100
 129206163.176 8                  24587090.380
     -1961.090                          52.350                    96485205.266 8
  24587092.800       -1464.426          51.700    99002193.358 8  24587090.580
     -1502.633          52.900    97743706.466 9  24587091.440       -1483.564
        55.000
 130144571.208 8                  24765661.240
       967.282                          51.550                    97185972.400 8
  24765665.280         722.289          51.000    99721251.101 8  24765661.700
       741.166          51.250    98453606.907 8  24765663.980         731.710
        53.950
 145143997.792 7                  27619963.900
     -3251.277                          44.050                   108386858.280 6
  27619968.820       -2427.804          39.100   111214309.554 6  27619966.080
     -2491.195          40.700   109800571.575 7  27619969.400       -2459.526
        42.900
 139925883.719 7                  26626968.780
     -2496.154                          46.100                   104490243.779 7
  26626970.360       -1864.060          46.350   107216062.872 7  26626968.120
     -1912.675          46.900   105853148.977 8  26626969.500       -1888.331
        49.350
 24  2  6 19  9 30.0000000  0 22G02G07G08G10G15G16G18G21G23G26G27G30
                                G32E02E07E10E11E12E24E25E31E33
 125431461.225 7  97738852.03647  23868795.640                    23868794.500
      2803.228        2184.340          44.700          42.250



 129699207.743 7 101064347.44047  24680929.620                    24680929.860
     -1181.493        -920.646          44.200          44.100



 109860437.975 8  85605604.20048  20905719.260                    20905719.660
      1681.578        1310.321          51.350          51.200    82038727.095 9
  20905719.960        1255.806          54.900


 111148787.957 8  86609516.91548  21150876.180                    21150875.960
       532.713         415.102          53.100          53.050    83000798.251 9
  21150875.520         397.863          54.700


 130155878.812 6 101420170.38846  24767834.380                    24767833.220
     -1518.640       -1183.357          37.900          38.350



 119070826.330 7  92782510.51946  22658400.080                    22658399.020
     -3408.771       -2656.187          46.500          41.750



 130766121.598 6 101895785.88346  24883916.520                    24883914.960
     -3336.022       -2599.495          41.600          36.600    97650172.599 7
  24883920.060       -2491.209          45.100


 115950611.426 7  90351189.18747  22064637.660                    22064635.520
      2300.966        1792.964          47.800          42.550



 116029268.889 8  90412491.76247  22079600.060                    22079598.100
     -1919.548       -1495.752          48.550          45.050    86645351.996 8
  22079602.760       -1433.315          50.100


 131113081.975 6 102166096.10746  24949972.160                    24949977.240
     -3754.897       -2925.901          38.150          39.100    97909185.731 7
  24949979.420       -2803.810          42.400


 106171526.254 8  82731102.72048  20203754.600                    20203753.960
      -876.354        -682.872          52.050          52.100    79284091.502 9
  20203754.680        -654.325          56.050


 132097105.315 6 102932816.31446  25137243.900                    25137246.800
        45.642          35.566          39.700          39.000    98643956.414 7
  25137249.200          34.162          45.100


 135432625.121 6 105531933.55146  25771970.520                    25771973.400
      2986.216        2326.922          36.750          36.200   101134759.469 6
  25771975.460        2230.397          40.000


 148800709.128 6                  28315832.980
      2813.651                          41.100                   111117441.068 6
  28315837.920        2101.235          41.350   114016139.849 7  28315834.880
      2155.953          43.000   112566779.609 7  28315836.260        2128.591
        44.850
 150759911.983 6                  28688656.740
     -1249.492                          40.700                   112580465.006 6
  28688659.860        -932.979          38.600   115517338.933 6  28688656.400
      -957.521          37.850   114048900.622 6  28688659.100        -945.164
        41.300
 124148591.207 8                  23624665.360
       650.032                          52.300                    92708587.778 9
  23624668.220         485.406          54.150    95126918.679 9  23624665.760
       498.072          54.700    93917834.882 9  23624666.940         491.733
        57.300
 125153102.020 8                  23815818.140
      1848.224                          48.000                    93458552.496 7
  23815818.700        1380.192          47.100    95896570.641 7  23815815.720
      1416.163          47.950    94677569.722 8  23815817.520        1398.219
        50.550
 124196893.459 7                  23633853.320
      -619.718                          47.900                    92744518.732 8
  23633852.840        -462.803          50.100    95163914.958 8  23633851.240
      -474.820          52.100    93954214.998 8  23633852.420        -468.830
        53.950
 129265151.851 8                  24598315.960
     -1971.754                          52.000                    96529255.224 8
  24598318.020       -1472.406          51.600    99047392.452 8  24598316.100
     -1510.789          52.650    97788330.991 9  24598316.640       -1491.596
        54.900
 130115740.778 8                  24760174.860
       954.533                          51.500                    97164443.188 8
  24760179.100         712.867          51.000    99699160.259 8  24760175.160
       731.458          50.950    98431796.878 8  24760177.720         722.161
        53.950
 145241538.269 7                  27638525.360
     -3251.671                          44.250                   108459696.863 6
  27638529.880       -2428.266          40.750   111289048.298 6  27638527.500
     -2491.474          40.850   109874360.236 7  27638530.780       -2459.862
        43.850
 140000774.967 7                  26641219.960
     -2496.882                          45.200                   104546169.048 7
  26641221.620       -1864.558          45.950   107273447.068 7  26641219.500
     -1913.084          47.200   105909803.713 8  26641221.000       -1888.871
        49.450
 24  2  6 19 10  0.0000000  0 22G02G07G08G10G15G16G18G21G23G26G27G30
                                G32E02E07E10E11E12E24E25E31E33
 125347457.812 7  97673395.02946  23852810.280                    23852808.960
      2797.115        2179.576          44.850          41.300



 129734868.653 7 101092135.12347  24687715.800                    24687715.860
     -1195.800        -931.794          44.100          44.500



 109810176.309 8  85566439.29048  20896154.880                    20896154.960
      1669.302        1300.755          51.450          51.450    82001194.074 9
  20896155.640        1246.491          55.150


 111133100.371 8  86597292.84848  21147890.920                    21147890.880
       513.302         399.976          53.200          53.150    82989083.538 9
  21147890.260         383.261          55.050


 130201736.753 6 101455903.81446  24776560.560                    24776559.780
     -1537.728       -1198.229          38.600          39.050



 119173232.236 7  92862307.31746  22677887.400                    22677885.960
     -3418.194       -2663.527          46.900          41.950



 130866222.278 7 101973786.39445  24902965.020                    24902963.340
     -3337.236       -2600.445          42.400          35.200    97724923.120 7
  24902968.560       -2492.102          45.650


 115881742.492 8  90297525.16447  22051532.300                    22051529.920
      2290.383        1784.717          48.350          42.250



 116087109.241 8  90457562.18747  22090606.660                    22090604.540
     -1936.320       -1508.820          48.150          45.300    86688544.496 8
  22090609.400       -1445.985          50.650


 131225724.520 6 102253869.33646  24971407.580                    24971412.680
     -3754.471       -2925.567          37.300          36.450    97993301.766 7
  24971414.480       -2803.875          43.350


 106198042.963 8  82751765.10148  20208800.540                    20208799.800
      -891.455        -694.640          51.600          51.550    79303892.950 9
  20208800.540        -665.633          56.350


 132096002.638 6 102931957.02846  25137033.920                    25137037.280
        27.757          21.627          40.350          39.900    98643132.939 7
  25137039.240          20.826          45.550


 135343007.980 5 105462095.40345  25754918.160                    25754920.940
      2986.754        2327.343          35.250          35.200   101067843.753 6
  25754923.720        2230.739          38.500


 148716378.035 6                  28299785.220
      2808.780                          41.000                   111054466.666 7
  28299790.300        2097.263          42.700   113951522.625 7  28299787.360
      2152.011          43.150   112502983.792 7  28299788.700        2124.705
        45.450
 150797598.646 6                  28695828.360
     -1262.569                          41.900                   112608607.693 6
  28695831.680        -942.951          39.950   115546215.789 6  28695827.680
      -967.471          39.200   114077410.406 7  28695830.720        -955.274
        42.350
 124129225.757 8                  23620980.220
       641.214                          52.450                    92694126.599 9
  23620983.100         478.792          54.600    95112080.248 9  23620980.600
       491.289          54.700    93903185.075 9  23620981.780         485.049
        57.300
 125097757.889 7                  23805286.380
      1841.518                          47.800                    93417224.134 7
  23805286.880        1375.110          47.350    95854164.143 7  23805284.040
      1410.955          47.950    94635702.288 8  23805285.860        1393.075
        50.300
 124215611.089 7                  23637415.360
      -627.942                          47.750                    92758496.200 8
  23637414.640        -468.953          50.500    95178257.056 8  23637413.160
      -481.174          52.050    93968374.781 8  23637414.280        -475.049
        53.900
 129324482.709 8                  24609606.560
     -1983.493                          52.350                    96573560.720 8
  24609608.360       -1481.235          51.900    99092853.750 8  24609606.420
     -1519.847          52.650    97833214.385 9  24609606.980       -1500.523
        54.800
 130087314.956 8                  24754765.520
       940.724                          51.600                    97143216.143 8
  24754769.880         702.431          51.450    99677379.461 8  24754765.700
       720.762          50.900    98410292.954 8  24754768.460         711.602
        53.950
 145339115.068 7                  27657093.580
     -3253.256                          43.700                   108532562.515 6
  27657098.500       -2429.397          40.250   111363814.820 6  27657096.120
     -2492.802          41.750   109948176.322 7  27657099.300       -2461.127
        43.750
 140075706.504 7                  26655478.800
     -2498.407                          45.250                   104602124.423 7
  26655480.460       -1865.712          46.400   107330862.140 7  26655478.780
     -1914.376          47.150   105966488.933 8  26655480.000       -1890.014
        49.450
 24  2  6 19 10 30.0000000  0 22G02G07G08G10G15G16G18G21G23G26G27G30
                                G32E02E07E10E11E12E24E25E31E33
 125263622.250 7  97608068.78747  23836856.900                    23836855.180
      2791.758        2175.401          45.300          42.000



 129770953.765 7 101120253.35147  24694582.620                    24694582.460
     -1210.129        -942.958          43.850          43.700



 109760272.259 8  85527553.04448  20886658.440                    20886658.420
      1657.405        1291.485          51.200          51.100    81963928.084 9
  20886659.060        1237.796          54.950


 111117982.653 8  86585512.84248  21145014.120                    21145014.260
       494.373         385.228          53.150          53.150    82977794.365 9
  21145013.460         369.209          55.000


 130248144.894 6 101492066.06946  24785391.640                    24785390.640
     -1556.241       -1212.654          38.150          37.850



 119275904.494 7  92942311.65547  22697425.440                    22697423.640
     -3426.895       -2670.307          47.050          42.050



 130966344.729 6 102051803.91745  24922017.660                    24922015.860
     -3337.638       -2600.760          41.100          33.600    97799689.912 7
  24922021.240       -2492.521          45.700


 115813172.054 8  90244093.72847  22038483.860                    22038481.340
      2280.571        1777.070          48.800          43.150



 116145441.672 8  90503016.04547  22101706.980                    22101704.540
     -1952.658       -1521.552          48.750          44.200    86732104.444 8
  22101709.680       -1458.071          50.500


 131338346.693 6 102341626.75946  24992839.160                    24992844.280
     -3753.919       -2925.134          38.200          37.700    98077402.561 7
  24992845.760       -2802.963          42.050


 106224999.138 8  82772769.90848  20213930.060                    20213929.300
      -905.883        -705.883          51.300          51.400    79324022.559 9
  20213930.080        -676.474          56.100


 132095418.068 6 102931501.51546  25136922.600                    25136926.420
        10.588           8.251          40.100          39.550    98642696.368 7
  25136927.700           8.271          44.650



                                                                 101000908.652 6
  25737866.260        2231.400          38.450


 148632189.597 6                  28283764.640
      2803.959                          41.600                   110991598.747 6
  28283769.720        2093.961          41.800   113887014.678 6  28283766.800
      2148.450          41.800   112439295.867 7  28283768.220        2121.210
        44.600
 150835662.886 6                  28703071.700
     -1275.011                          38.800                   112637032.400 6
  28703074.980        -952.211          40.100   115575381.971 6  28703071.480
      -977.076          40.250   114106205.836 7  28703074.100        -964.503
        43.000
 124110109.352 8                  23617342.520
       632.998                          52.550                    92679851.394 9
  23617345.380         472.729          54.450    95097432.643 9  23617342.860
       485.043          54.900    93888723.670 9  23617344.020         478.876
        57.350
 125042609.629 7                  23794791.860
      1834.889                          47.950                    93376042.031 7
  23794792.420        1370.169          47.200    95811907.714 8  23794789.660
      1406.001          48.150    94593983.029 8  23794791.480        1388.076
        50.400
 124234560.763 7                  23641021.460
      -635.560                          47.800                    92772646.948 8
  23641020.580        -474.626          50.250    95192776.952 8  23641019.160
      -486.976          52.300    93982710.100 8  23641020.280        -480.781
        53.900
 129384151.572 8                  24620961.400
     -1994.623                          52.350                    96618118.605 8
  24620963.160       -1489.523          51.900    99138574.021 8  24620961.160
     -1528.371          52.750    97878353.464 9  24620961.660       -1508.893
        54.950
 130059291.702 8                  24749432.820
       927.386                          51.650                    97122289.703 8
  24749437.260         692.561          51.350    99655907.110 8  24749432.960
       710.568          51.100    98389093.560 9  24749435.780         701.619
        54.000
 145436723.634 7                  27675667.960
     -3253.971                          43.650                   108605451.980 6
  27675672.920       -2430.051          39.700   111438605.710 6  27675670.540
     -2493.253          41.500   110022016.507 7  27675673.580       -2461.692
        43.250
 140150674.596 7                  26669744.540
     -2499.515                          45.200                   104658107.088 7
  26669746.300       -1866.562          46.350   107388305.234 7  26669744.760
     -1915.207          46.950   106023201.817 8  26669746.000       -1890.939
        49.400
 24  2  6 19 11  0.0000000  0 22G02G07G08G10G15G16G18G21G23G26G27G30
                                G32E02E07E10E11E12E24E25E31E33
 125179955.052 7  97542873.72947  23820935.420                    23820933.660
      2785.839        2170.787          44.400          42.750



 129807460.546 7 101148700.14947  24701529.740                    24701529.520
     -1224.239        -953.955          43.750          43.650



 109710726.082 8  85488945.66048  20877229.980                    20877230.020
      1645.353        1282.094          50.900          50.950    81926929.359 9
  20877230.480        1228.632          55.050


 111103434.784 8  86574176.86248  21142245.740                    21142246.080
       475.109         370.216          53.200          53.250    82966930.732 9
  21142245.120         354.797          55.200


 130295100.688 6 101528655.09346  24794327.080                    24794325.640
     -1574.580       -1226.944          38.850          39.300



 119378839.934 7  93022521.04846  22717013.540                    22717011.420
     -3435.835       -2677.275          47.150          41.550



 131066487.218 6 102129837.02745  24941073.880                    24941072.060
     -3338.559       -2601.474          40.600          35.600    97874471.609 7
  24941077.900       -2493.215          46.050


 115744900.732 8  90190895.36947  22025492.340                    22025489.740
      2270.430        1769.168          49.100          43.700



 116204263.559 7  90548851.29547  22112900.360                    22112897.720
     -1969.085       -1534.352          47.900          44.200    86776029.889 8
  22112903.140       -1470.484          50.850


 131450945.765 5 102429366.07045  25014265.900                    25014271.280
     -3752.958       -2924.391          35.300          35.200    98161486.085 7
  25014272.780       -2802.686          44.150


 106252394.056 8  82794116.60348  20219143.140                    20219142.420
      -920.648        -717.388          51.650          51.800    79344479.824 9
  20219143.060        -687.614          56.100


 132095350.751 6 102931449.05846  25136909.880                    25136913.620
        -6.882          -5.364          40.500          39.900    98642646.117 7
  25136914.460          -4.961          43.950


 135163711.146 6 105322384.39146  25720798.960                    25720801.400
      2988.539        2328.734          36.350          37.700   100933956.009 6
  25720804.280        2231.796          40.550


 148548144.835 6                  28267771.280
      2798.816                          40.200                   110928838.139 6
  28267776.260        2090.036          41.250   113822616.803 7  28267773.260
      2144.526          42.350   112375716.627 7  28267774.860        2117.245
        44.350
 150874103.063 6                  28710386.320
     -1287.743                          38.400                   112665737.774 7
  28710390.080        -961.772          43.550   115604836.213 6  28710386.300
      -986.865          41.700   114135285.652 7  28710388.960        -974.327
        45.600
 124091241.158 8                  23613752.020
       624.511                          52.100                    92665761.536 9
  23613754.960         466.362          54.650    95082975.226 9  23613752.340
       478.489          54.950    93874450.032 9  23613753.480         472.419
        57.350
 124987656.666 8                  23784334.540
      1828.367                          48.100                    93335005.787 7
  23784335.100        1365.185          47.250    95769800.957 8  23784332.320
      1400.954          48.350    94552411.521 8  23784334.260        1383.042
        50.350
 124253741.235 7                  23644671.340
      -643.596                          47.500                    92786970.034 8
  23644670.460        -480.526          50.250    95207473.683 8  23644669.040
      -493.069          52.350    93997220.011 8  23644670.200        -486.773
        53.800
 129444156.743 8                  24632380.180
     -2006.010                          52.100                    96662927.642 8
  24632381.940       -1498.033          52.000    99184552.005 8  24632379.700
     -1537.130          52.650    97923746.977 9  24632380.360       -1517.607
        54.800
 130031671.432 8                  24744176.820
       913.631                          51.300                    97101664.194 8
  24744181.260         682.248          51.350    99634743.541 8  24744177.020
       700.083          51.350    98368199.020 8  24744179.780         691.191
        53.950
 145534361.930 7                  27694247.780
     -3255.399                          43.150                   108678363.592 6
  27694253.380       -2431.173          39.600   111513419.375 6  27694250.520
     -2494.270          40.900   110095879.138 7  27694253.480       -2462.753
        42.750
 140225678.075 7                  26684016.760
     -2501.009                          44.400                   104714116.156 7
  26684018.740       -1867.607          45.800   107445775.422 7  26684017.280
     -1916.368          47.150   106079941.440 8  26684018.840       -1891.960
        49.100
 24  2  6 19 11 30.0000000  0 22G02G07G08G10G15G16G18G21G23G26G27G30
                                G32E02E07E10E11E12E24E25E31E33
 125096459.850 7  97477812.68746  23805046.720                    23805044.780
      2779.732        2166.029          44.400          41.150



 129844390.558 7 101177476.73047  24708557.280                    24708557.020
     -1238.704        -965.227          43.600          43.700



 109661542.563 8  85450620.86248  20867870.580                    20867870.680
      1632.666        1272.208          51.000          51.100    81890201.436 9
  20867870.920        1219.278          55.100


 111089460.302 8  86563287.68448  21139586.480                    21139586.920
       455.610         355.022          53.600          53.550    82956495.275 9
  21139585.920         340.250          55.200


 130342606.124 6 101565672.37046  24803367.100                    24803365.180
     -1593.173       -1241.432          38.200          37.500



 119482039.377 7  93102936.18846  22736651.980                    22736649.520
     -3444.953       -2684.380          47.150          41.850



 131166651.915 6 102207887.43246  24960134.460                    24960133.040
     -3339.647       -2602.320          40.950          38.050    97949269.896 7
  24960138.880       -2494.033          46.000


 115676932.190 8  90137932.93847  22012558.400                    22012555.880
      2259.944        1760.998          48.850          43.250



 116263576.015 7  90595068.80547  22124187.100                    22124184.380
     -1985.905       -1547.459          47.700          44.200    86820321.666 8
  22124189.880       -1482.929          50.900


 131563522.722 5 102517088.23945  25035688.740                    25035694.420
     -3753.119       -2924.515          35.200          35.550    98245553.024 7
  25035695.780       -2802.350          44.100


 106280230.848 8  82815807.62348  20224440.380                    20224439.740
      -935.818        -729.209          51.950          52.100    79365267.050 9
  20224440.200        -698.820          56.050


 132095803.585 6 102931801.91246  25136996.160                    25136999.720
       -24.352         -18.976          40.350          40.150    98642984.251 7
  25137000.240         -18.086          43.750


 135074034.869 6 105252506.89246  25703734.040                    25703736.180
      2989.132        2329.199          36.550          36.500   100866990.117 6
  25703738.760        2231.799          39.600


 148464248.732 6                  28251806.200
      2793.494                          41.650                   110866188.552 6
  28251811.200        2086.000          41.650   113758332.913 7  28251808.340
      2140.387          42.900   112312249.880 7  28251809.940        2113.159
        45.100
 150912921.230 5                  28717772.740
     -1301.072                          35.800                   112694725.391 7
  28717776.940        -971.487          42.050   115634580.028 6  28717773.300
      -996.847          40.900   114164651.364 7  28717775.880        -984.147
        44.650
 124072624.094 8                  23610209.220
       615.751                          51.950                    92651859.215 9
  23610212.380         459.833          54.650    95068710.231 9  23610209.500
       471.827          54.450    93860366.375 9  23610210.760         465.822
        57.450
 124932902.465 8                  23773915.080
      1821.083                          48.350                    93294117.949 7
  23773915.740        1359.998          47.350    95727846.488 7  23773912.840
      1395.361          47.850    94510990.376 8  23773914.860        1377.714
        50.600
 124273154.962 7                  23648365.520
      -651.546                          47.550                    92801467.328 8
  23648364.720        -486.657          50.000    95222349.163 8  23648363.200
      -499.320          51.900    94011906.395 8  23648364.500        -492.958
        53.800
 129504500.250 8                  24643863.240
     -2017.735                          52.050                    96707989.324 8
  24643865.100       -1506.716          51.950    99230789.211 8  24643862.620
     -1546.023          52.150    97969396.424 9  24643863.440       -1526.380
        54.900
 130004458.363 8                  24738998.300
       899.733                          51.200                    97081342.772 8
  24739002.620         671.852          51.050    99613891.998 8  24738998.660
       689.364          51.000    98347612.537 9  24739001.300         680.634
        54.000
 145632031.622 7                  27712833.760
     -3256.713                          42.700                   108751298.642 6
  27712839.520       -2431.987          39.350   111588257.121 6  27712836.740
     -2495.530          40.900   110169765.541 7  27712839.520       -2463.824
        42.950
 140300719.437 7                  26698296.560
     -2502.578                          45.750                   104770153.545 7
  26698298.120       -1868.827          44.750   107503274.654 7  26698297.080
     -1917.557          47.150   106136709.752 8  26698298.860       -1893.216
        48.900
 24  2  6 19 12  0.0000000  0 22G02G07G08G10G15G16G18G21G23G26G27G30
                                G32E02E10E11E12E19E24E25E31E33
 125013137.787 7  97412886.54946  23789191.020                    23789188.920
      2774.903        2162.267          44.850          41.850



 129881742.504 7 101206582.09547  24715664.980                    24715664.780
     -1251.857        -975.476          43.050          43.100



 109612724.416 8  85412580.77048  20858580.720                    20858581.040
      1621.439        1263.461          51.050          50.900    81853746.361 9
  20858581.080        1210.805          55.350


 111076059.969 8  86552845.89748  21137036.560                    21137036.880
       437.392         340.825          53.700          53.750    82946488.573 9
  21137035.960         326.607          55.250


 130390660.045 6 101603117.03046  24812511.480                    24812508.960
     -1610.595       -1255.007          37.850          37.200



 119585501.178 7  93183555.74446  22756340.280                    22756337.660
     -3452.854       -2690.537          47.500          41.600



 131266838.483 6 102285954.85746  24979199.100                    24979198.280
     -3339.767       -2602.416          41.350          38.850    98024084.511 7
  24979203.960       -2493.926          45.750


 115609266.840 8  90085206.75947  21999682.080                    21999679.720
      2250.646        1753.752          48.000          44.650



 116323377.680 7  90641667.52347  22135566.920                    22135564.140
     -2001.351       -1559.493          47.350          44.650    86864978.759 8
  22135569.840       -1494.411          51.400


 131676076.044 6 102604791.89746  25057107.160                    25057112.660
     -3751.041       -2922.896          38.300          39.050    98329602.382 7
  25057114.240       -2801.230          43.900


 106308510.144 8  82837843.43548  20229821.760                    20229821.200
      -949.881        -740.167          51.800          51.900    79386384.707 9
  20229821.640        -709.292          56.250


 132096776.889 6 102932560.36146  25137181.500                    25137184.720
       -40.546         -31.594          40.000          40.100    98643711.104 7
  25137185.140         -30.557          43.300


 134984344.347 6 105182618.36746  25686666.260                    25686668.140
      2990.143        2329.987          37.500          36.150   100800013.579 6
  25686670.520        2232.996          39.700


 148380503.809 7                  28235869.960
      2789.323                          42.000                   110803651.921 6
  28235875.300        2082.849          41.950   113694164.810 6  28235872.220
      2137.152          41.800   112248897.525 7  28235873.740        2109.952
        44.550
 124054258.630 8                  23606714.260
       608.350                          51.850                    92638144.778 9
  23606717.680         454.189          54.700    95054638.021 9  23606714.460
       466.080          54.250    93846473.055 9  23606715.920         460.109
        57.050
 124878347.830 8                  23763533.600
      1815.535                          48.050                    93253379.172 7
  23763534.400        1355.680          47.550    95686044.941 7  23763531.280
      1391.136          47.650    94469720.215 8  23763533.440        1373.311
        50.250
 124292802.042 7                  23652104.180
      -658.491                          47.550                    92816138.866 8
  23652103.420        -491.784          50.100    95237403.429 8  23652101.680
      -504.601          51.700    94026769.301 8  23652103.160        -498.186
        53.550
 146562219.242 6                  27889863.360
      2523.038                          38.700                   109445818.819 6
  27889864.700        1884.144          36.500   112300923.643 6  27889863.860
      1933.284          37.300   110873375.886 6  27889866.040        1908.619
        39.800
 129565181.695 8                  24655410.500
     -2028.104                          51.800                    96753303.369 8
  24655412.680       -1514.485          52.050    99277285.375 8  24655409.780
     -1553.961          51.850    98015301.525 9  24655410.820       -1534.229
        54.600
 129977654.224 8                  24733897.600
       886.903                          51.100                    97061326.712 8
  24733901.720         662.286          51.050    99593353.778 8  24733898.120
       679.545          50.850    98327335.396 8  24733900.680         670.938
        53.700
 145729731.981 7                  27731425.380
     -3256.989                          43.250                   108824256.590 6
  27731431.120       -2432.172          39.800   111663118.320 6  27731428.820
     -2495.528          40.400   110243675.108 7  27731431.300       -2463.842
        43.000
 140375798.839 7                  26712583.900
     -2502.925                          46.100                   104826219.326 7
  26712585.000       -1869.170          45.050   107560803.012 7  26712584.160
     -1917.893          47.000   106193506.819 8  26712585.880       -1893.519
        48.650
 24  2  6 19 12 30.0000000  0 22G02G07G08G10G15G16G18G21G23G26G27G30
                                G32E02E10E11E12E19E24E25E31E33
 124929987.350 7  97348094.13847  23773367.840                    23773365.640
      2768.198        2157.043          44.000          42.500



 129919512.115 7 101236012.92647  24722852.140                    24722851.960
     -1266.559        -986.930          43.050          42.800



 109564269.917 8  85374824.04948  20849360.080                    20849360.600
      1608.428        1253.322          51.250          51.100    81817562.852 9
  20849360.380        1201.010          55.150


 111063231.631 8  86542849.82748  21134595.500                    21134595.580
       417.303         325.172          53.550          53.650    82936909.009 9
  21134594.860         311.591          55.300


 130439257.851 6 101640985.52446  24821759.560                    24821756.720
     -1629.690       -1269.887          39.150          39.650



 119689220.264 7  93264375.80247  22776077.540                    22776074.640
     -3462.200       -2697.818          47.050          42.000



 131367043.430 7 102364036.64345  24998267.500                    24998266.880
     -3341.064       -2603.427          42.200          35.250    98098912.897 7
  24998272.500       -2495.114          45.550


 115541903.063 7  90032715.56647  21986863.020                    21986860.840
      2239.702        1745.225          47.850          44.000



 116383664.051 7  90688643.92047  22147039.020                    22147036.180
     -2018.254       -1572.664          46.900          44.900    86909997.813 8
  22147041.920       -1507.235          51.450


 131788601.154 6 102692473.64746  25078520.300                    25078525.300
     -3751.315       -2923.107          36.950          37.000    98413630.627 7
  25078527.380       -2801.146          44.200


 106337229.375 8  82860222.05948  20235286.860                    20235286.380
      -965.349        -752.219          51.850          51.900    79407830.892 9
  20235286.920        -720.918          56.350


 132098267.897 6 102933722.16946  25137465.260                    25137468.140
       -59.122         -46.068          40.850          40.800    98644824.495 7
  25137468.460         -44.173          43.100


 134894640.124 6 105112719.08846  25669595.940                    25669598.320
      2989.774        2329.700          36.950          36.300   100733026.803 6
  25669600.000        2232.423          39.700


 148296909.343 6                  28219962.380
      2783.241                          41.450                   110741227.567 6
  28219967.460        2078.303          40.850   113630112.014 7  28219964.500
      2132.658          42.350   112185658.945 7  28219966.040        2105.429
        44.250
 124036142.087 8                  23603266.720
       598.905                          52.200                    92624616.205 9
  23603270.240         447.243          54.700    95040756.526 9  23603266.660
       458.922          54.300    93832768.020 9  23603268.440         453.078
        57.350
 124823990.615 8                  23753189.680
      1807.854                          48.000                    93212787.785 7
  23753190.660        1350.108          47.750    95644394.654 7  23753187.280
      1385.173          47.800    94428599.375 8  23753189.540        1367.652
        50.650
 124312679.311 7                  23655886.720
      -667.168                          47.550                    92830982.301 8
  23655885.860        -498.203          50.050    95252634.082 8  23655884.000
      -511.218          51.850    94041806.342 8  23655885.640        -504.693
        53.750
 146486608.656 6                  27875475.620
      2516.736                          38.900                   109389356.426 6
  27875476.300        1879.523          36.600   112242988.312 6  27875476.000
      1928.641          38.200   110816177.022 6  27875477.740        1903.944
        40.550
 129626197.520 8                  24667021.280
     -2040.219                          51.750                    96798867.117 8
  24667023.700       -1523.529          52.000    99324037.743 8  24667020.440
     -1563.242          51.900    98061459.581 9  24667021.840       -1543.359
        54.700
 129951257.579 8                  24728874.440
       872.284                          50.750                    97041614.945 8
  24728878.340         651.386          50.950    99573127.795 8  24728875.100
       668.376          51.050    98307366.525 8  24728877.580         659.874
        53.900
 145827459.069 7                  27750022.160
     -3258.755                          42.700                   108897234.503 6
  27750027.820       -2433.432          40.200   111738000.040 6  27750026.100
     -2497.096          41.950   110317604.922 7  27750028.320       -2465.280
        43.900
 140450913.249 7                  26726878.000
     -2505.167                          46.200                   104882311.260 7
  26726878.940       -1870.660          44.750   107618358.215 7  26726878.000
     -1919.565          47.250   106250330.387 8  26726879.600       -1895.082
        48.750
 24  2  6 19 13  0.0000000  0 22G02G07G08G10G15G16G18G21G23G26G27G30
                                G32E02E10E11E12E19E24E25E31E33
 124847007.844 7  97283434.94147  23757577.200                    23757575.120
      2763.139        2153.100          44.450          42.150



 129957696.416 7 101265766.87447  24730118.440                    24730118.060
     -1279.492        -997.009          43.650          43.800



 109516179.558 8  85337351.06248  20840208.820                    20840209.280
      1596.980        1244.401          51.550          51.450    81781651.246 9
  20840208.720        1192.547          54.700


 111050974.679 8  86533298.99148  21132263.100                    21132262.900
       399.081         310.974          53.650          53.600    82927756.131 9
  21132262.440         298.013          55.100


 130488397.848 6 101679276.42046  24831110.260                    24831108.180
     -1646.841       -1283.254          36.250          36.950



 119793192.846 7  93345393.36647  22795862.940                    22795860.160
     -3469.920       -2703.835          47.400          42.200



 131467264.705 7 102442131.13446  25017339.080                    25017338.320
     -3340.911       -2603.308          42.250          38.350    98173753.440 7
  25017344.180       -2494.754          44.800


 115474840.326 7  89980458.94147  21974101.260                    21974099.220
      2230.584        1738.118          47.550          44.050



 116444431.936 7  90735995.52547  22158602.760                    22158599.980
     -2033.544       -1584.579          47.050          44.100    86955376.420 8
  22158605.760       -1518.550          51.600


 131901094.828 6 102780130.82146  25099927.480                    25099932.600
     -3749.153       -2921.424          39.350          37.950    98497635.427 7
  25099934.560       -2799.735          42.350


 106366387.355 8  82882942.57348  20240835.500                    20240835.000
      -979.082        -762.921          52.300          52.450    79429604.724 9
  20240835.700        -731.183          56.250


 132100275.140 6 102935286.25046  25137847.260                    25137850.040
       -75.496         -58.827          40.700          40.550    98646323.404 7
  25137850.520         -56.357          43.500


 134804923.644 6 105042810.22446  25652523.440                    25652525.900
      2990.772        2330.478          38.500          37.850   100666030.887 6
  25652527.200        2233.165          38.700


 148213465.967 6                  28204083.420
      2779.001                          41.200                   110678916.096 6
  28204088.560        2075.126          41.300   113566174.982 7  28204085.560
      2129.521          42.300   112122534.688 7  28204087.280        2102.284
        44.550
 124018273.069 8                  23599866.400
       591.541                          52.600                    92611272.476 9
  23599869.760         441.762          54.400    95027064.703 9  23599866.000
       453.297          54.700    93819250.246 9  23599868.100         447.497
        57.400
 124769829.742 7                  23742883.080
      1801.992                          47.900                    93172343.039 7
  23742884.280        1345.712          47.700    95602894.812 8  23742880.740
      1380.846          48.150    94387627.076 8  23742883.000        1363.285
        50.800
 124332785.082 7                  23659712.740
      -673.963                          47.850                    92845996.368 8
  23659711.760        -503.310          49.950    95268039.813 8  23659709.920
      -516.415          52.100    94057016.243 8  23659711.600        -509.890
        53.850
 146411157.010 6                  27861117.740
      2512.485                          39.550                   109333012.754 6
  27861118.460        1875.921          36.900   112185174.803 6  27861118.280
      1924.969          38.600   110759098.427 6  27861119.740        1900.532
        40.950
 129687545.464 8                  24678695.140
     -2050.405                          51.250                    96844678.861 8
  24678698.160       -1531.099          51.900    99371044.587 8  24678694.420
     -1571.036          52.000    98107868.882 9  24678696.020       -1551.100
        54.800
 129925268.284 8                  24723928.740
       859.557                          50.800                    97022207.370 8
  24723932.500         641.878          50.750    99553213.942 8  24723929.580
       658.549          51.350    98287705.810 8  24723932.040         650.213
        53.950
 145925210.316 7                  27768623.640
     -3258.727                          43.500                   108970230.441 6
  27768629.580       -2433.425          40.250   111812900.204 7  27768627.940
     -2496.842          42.000   110391552.984 7  27768629.760       -2465.185
        43.950
 140526061.028 7                  26741178.380
     -2505.455                          46.850                   104938428.112 7
  26741179.340       -1870.906          44.850   107675938.964 7  26741178.240
     -1919.700          47.400   106307179.196 8  26741179.600       -1895.351
        48.900
 24  2  6 19 13 30.0000000  0 22G02G07G08G10G15G16G18G21G23G26G27G30
                                G32E02E10E11E12E19E24E25E31E33
 124764203.026 7  97218911.82046  23741819.720                    23741817.880
      2757.272        2148.527          43.850          41.750



 129996296.662 7 101295844.95147  24737463.840                    24737463.460
     -1293.540       -1007.953          42.550          42.600



 109468458.269 8  85300165.65448  20831127.740                    20831128.100
      1584.491        1234.669          51.250          51.250    81746015.232 9
  20831127.220        1183.190          54.550


 111039292.191 8  86524195.79748  21130039.960                    21130039.580
       379.867         296.001          53.550          53.550    82919032.250 9
  21130039.340         283.589          55.150


 130538081.265 6 101717990.85846  24840564.700                    24840562.680
     -1665.371       -1297.691          39.350          39.050



 119897419.462 7  93426608.88846  22815696.640                    22815693.840
     -3478.497       -2710.518          47.300          41.600



 131567504.155 7 102520239.78446  25036414.140                    25036413.260
     -3341.932       -2604.103          42.600          37.850    98248607.578 7
  25036419.220       -2495.475          45.100


 115408082.050 7  89928439.55047  21961397.400                    21961395.500
      2220.026        1729.892          47.800          43.550



 116505682.167 7  90783722.99547  22170258.380                    22170255.700
     -2049.699       -1597.167          47.650          44.650    87001115.237 8
  22170261.300       -1530.663          51.600


 132013557.858 5 102867764.10145  25121328.660                    25121333.700
     -3748.899       -2921.230          35.600          35.150    98581617.282 7
  25121336.000       -2799.054          43.350


 106395986.896 8  82906007.15948  20246468.160                    20246467.540
      -994.016        -774.558          52.050          52.200    79451708.282 9
  20246468.460        -742.268          56.350


 132102801.170 6 102937254.56046  25138327.900                    25138330.760
       -93.040         -72.499          39.750          40.000    98648209.698 7
  25138331.340         -69.431          43.800


 134715200.803 6 104972896.40646  25635449.880                    25635452.240
      2990.834        2330.519          39.950          40.350   100599030.160 6
  25635453.300        2233.149          37.700


 148130178.474 7                  28188234.120
      2773.427                          42.250                   110616721.008 6
  28188239.360        2071.149          41.500   113502357.414 6  28188236.280
      2125.181          41.800   112059528.364 7  28188238.100        2098.145
        44.300
 124000654.307 8                  23596513.760
       583.033                          52.750                    92598115.643 9
  23596516.720         435.393          54.300    95013564.645 9  23596513.060
       446.766          54.450    93805921.799 9  23596515.360         441.083
        57.150
 124715868.426 7                  23732614.440
      1795.463                          47.550                    93132047.314 7
  23732615.780        1340.752          47.800    95561547.882 7  23732612.180
      1375.635          47.950    94346805.753 8  23732614.420        1358.226
        50.650
 124353121.630 8                  23663582.660
      -681.751                          48.000                    92861182.769 8
  23663581.700        -509.104          50.150    95283622.381 8  23663579.820
      -522.403          51.850    94072400.726 8  23663581.480        -515.731
        53.700
 146335869.075 6                  27846791.000
      2506.637                          39.800                   109276791.266 6
  27846792.140        1871.953          37.050   112127486.668 6  27846791.500
      1920.785          38.100   110702143.624 6  27846792.880        1896.318
        40.500
 129749227.289 8                  24690432.520
     -2061.620                          51.000                    96890739.962 8
  24690435.780       -1539.574          51.650    99418307.288 8  24690431.740
     -1579.751          51.800    98154530.778 9  24690433.760       -1559.660
        54.450
 129899690.294 8                  24719061.320
       845.669                          50.550                    97003106.941 8
  24719065.060         631.516          50.900    99533615.235 8  24719062.320
       647.995          51.150    98268356.241 8  24719064.740         639.770
        53.850
 146022987.214 7                  27787230.100
     -3259.744                          42.300                   109043245.549 6
  27787236.280       -2434.299          39.250   111887820.068 6  27787234.380
     -2497.790          41.700   110465520.463 7  27787236.180       -2466.030
        43.150
 140601244.485 7                  26755485.500
     -2506.766                          46.900                   104994571.598 7
  26755486.760       -1871.978          44.450   107733547.054 7  26755485.060
     -1920.703          46.300   106364054.981 7  26755486.420       -1896.390
        47.950
 24  2  6 19 14  0.0000000  0 22G02G07G08G10G15G16G18G21G23G26G27G30
                                G32E02E10E11E12E19E24E25E31E33
 124681572.496 7  97154524.54247  23726095.360                    23726093.940
      2751.313        2143.884          44.400          42.450



 130035309.906 7 101326244.85147  24744887.780                    24744887.560
     -1307.585       -1018.898          42.100          42.600



 109421106.600 8  85263268.27648  20822116.900                    20822117.440
      1571.954        1224.900          51.000          51.000    81710655.237 9
  20822116.340        1173.898          54.300


 111028182.952 8  86515539.28648  21127925.820                    21127925.440
       360.585         280.977          53.700          53.800    82910736.433 9
  21127925.320         269.229          54.900


 130588305.079 6 101757126.35046  24850121.960                    24850120.260
     -1683.236       -1311.619          37.400          37.850



 120001896.554 7  93508019.57646  22835577.960                    22835575.380
     -3486.870       -2717.042          47.550          41.400



 131667759.692 7 102598360.98845  25055492.260                    25055491.260
     -3342.264       -2604.360          42.250          35.200    98323473.716 7
  25055497.200       -2495.972          44.000


 115341627.518 7  89876656.83547  21948751.400                    21948749.500
      2209.873        1721.980          47.800          43.250



 116567411.519 7  90831823.80647  22182005.200                    22182002.580
     -2065.773       -1609.692          47.750          44.600    87047211.844 8
  22182008.100       -1542.626          51.600


 132125986.869 6 102955370.93246  25142723.320                    25142727.880
     -3747.319       -2919.997          39.350          38.950    98665573.756 7
  25142730.900       -2798.197          42.350


 106426026.750 8  82929414.84348  20252184.540                    20252183.820
     -1008.995        -786.229          51.950          52.000    79474140.641 9
  20252184.860        -753.396          56.000


 132105844.400 6 102939625.88246  25138907.060                    25138910.320
      -110.429         -86.049          39.950          39.650    98650482.201 7
  25138910.980         -82.357          44.500


 134625473.248 6 104902978.87546  25618375.580                    25618377.460
      2990.960        2330.615          40.550          40.000   100532025.872 6
  25618378.860        2233.266          38.150


 148047047.457 6                  28172414.840
      2768.343                          41.900                   110554642.749 6
  28172419.920        2067.248          41.650   113438659.722 6  28172416.640
      2121.055          41.700   111996640.385 7  28172418.700        2094.259
        44.900
 123983284.379 8                  23593208.480
       574.657                          52.700                    92585144.641 8
  23593210.960         429.146          53.900    95000255.261 9  23593207.620
       440.336          54.400    93792781.602 9  23593209.980         434.759
        57.400
 124662105.608 7                  23722383.560
      1788.404                          47.600                    93091899.817 7
  23722384.960        1335.618          47.700    95520353.050 7  23722381.500
      1370.495          47.750    94306134.588 8  23722383.580        1353.004
        50.950
 124373687.094 8                  23667496.100
      -689.486                          48.300                    92876540.113 8
  23667495.260        -514.907          49.850    95299380.351 8  23667493.240
      -528.327          51.550    94087958.383 8  23667494.920        -521.618
        53.850
 146260746.255 6                  27832495.520
      2500.978                          40.350                   109220693.124 6
  27832497.040        1867.772          37.350   112069925.102 6  27832496.120
      1916.269          38.300   110645313.773 6  27832497.400        1892.021
        41.200
 129811240.767 8                  24702232.860
     -2072.893                          51.050                    96937048.693 8
  24702236.720       -1547.896          51.550    99465824.074 8  24702232.480
     -1588.306          51.650    98201443.533 9  24702234.540       -1568.078
        54.750
 129874523.441 8                  24714272.120
       831.785                          50.700                    96984313.529 8
  24714275.980         621.172          50.800    99514331.568 8  24714273.280
       637.346          51.050    98249317.700 9  24714275.640         629.262
        54.250
 146120787.134 7                  27805840.800
     -3260.416                          43.350                   109116277.849 6
  27805847.060       -2434.730          39.250   111962757.556 6  27805845.080
     -2498.315          40.200   110539505.352 7  27805846.720       -2466.454
        42.900
 140676461.928 7                  26769798.940
     -2508.006                          46.800                   105050740.472 7
  26769800.520       -1872.795          43.850   107791181.213 7  26769798.060
     -1921.787          45.700   106420956.496 7  26769799.800       -1897.316
        47.800
 24  2  6 19 14 30.0000000  0 22G02G07G08G10G15G16G18G21G23G26G27G30
                                G32E02E10E11E12E19E24E25E31E33
 124599113.012 7  97090270.54046  23710403.540                    23710402.360
      2745.896        2139.665          44.000          40.950



 130074730.405 7 101356962.07147  24752389.300                    24752389.340
     -1320.681       -1029.103          42.800          43.000



 109374121.737 8  85226656.72648  20813175.820                    20813176.640
      1560.236        1215.770          51.000          50.950    81675569.168 9
  20813175.540        1165.043          54.600


 111017643.781 8  86507326.98248  21125920.120                    21125919.880
       341.946         266.453          53.600          53.400    82902866.316 9
  21125919.740         255.344          55.050


 130639064.281 6 101796679.08246  24859781.160                    24859779.280
     -1700.736       -1325.240          39.550          39.550



 120106617.613 7  93589620.36446  22855505.720                    22855503.320
     -3494.626       -2723.086          47.700          40.750



 131768026.544 7 102676490.98746  25074572.560                    25074571.440
     -3342.456       -2604.514          42.500          36.650    98398348.323 7
  25074577.180       -2495.889          43.350


 115275473.503 7  89825108.29547  21936162.580                    21936160.780
      2200.225        1714.462          47.700          43.900



 116629614.141 8  90880293.38947  22193842.040                    22193839.540
     -2080.979       -1621.543          48.550          43.800    87093661.872 8
  22193844.880       -1554.112          51.600


 132238376.069 6 103042946.70446  25164110.420                    25164114.720
     -3745.493       -2918.577          37.650          37.300    98749500.506 7
  25164118.060       -2796.957          43.750


 106456503.026 8  82953162.58948  20257983.960                    20257983.180
     -1023.027        -797.164          52.200          52.250    79496898.902 9
  20257984.160        -763.931          56.050


 132109400.645 6 102942396.94346  25139583.760                    25139587.100
      -126.882         -98.871          40.250          40.250    98653137.843 7
  25139587.900         -94.904          44.050


 134535740.222 6 104833057.08446  25601300.020                    25601301.840
      2991.289        2330.881          40.850          41.400   100465017.444 6
  25601303.320        2233.871          36.900


 147964070.977 7                  28156624.920
      2763.356                          42.300                   110492679.911 6
  28156629.820        2063.634          40.950   113375080.441 6  28156626.560
      2117.402          41.550   111933869.332 7  28156628.600        2090.472
        44.200
 123966159.322 8                  23589949.660
       566.908                          52.550                    92572356.487 9
  23589951.880         423.323          54.000    94987133.497 9  23589948.940
       434.404          54.650    93779826.643 9  23589951.140         428.857
        57.350
 124608537.766 7                  23712189.760
      1782.648                          47.750                    93051897.947 7
  23712191.180        1331.179          47.850    95479307.637 7  23712187.880
      1365.817          47.850    94265610.946 8  23712189.840        1348.530
        50.900
 124394477.194 8                  23671452.320
      -696.579                          48.250                    92892065.208 8
  23671451.500        -520.202          49.900    95315310.438 8  23671449.400
      -533.707          51.400    94103685.975 8  23671451.120        -526.959
        53.700
 146185786.631 6                  27818230.900
      2495.927                          40.150                   109164716.869 6
  27818233.040        1863.879          37.700   112012488.578 6  27818231.820
      1912.454          38.150   110588607.372 6  27818233.000        1888.216
        41.150
 129873580.932 8                  24714095.480
     -2083.385                          50.600                    96983601.404 8
  24714099.480       -1555.742          51.100    99513591.200 8  24714095.100
     -1596.308          51.450    98248603.460 9  24714097.500       -1576.046
        54.300
 129849764.982 8                  24709560.680
       818.554                          50.800                    96965825.096 8
  24709564.740         611.223          51.100    99495360.819 8  24709562.040
       627.229          51.200    98230588.113 9  24709564.260         619.176
        54.250
 146218604.903 7                  27824454.960
     -3260.610                          42.850                   109189323.475 6
  27824461.540       -2434.906          39.900   112037708.767 6  27824458.860
     -2498.617          40.050   110613503.765 7  27824460.920       -2466.699
        43.050
 140751709.059 7                  26784117.780
     -2508.540                          45.950                   105106931.500 7
  26784119.960       -1873.334          43.550   107848838.098 7  26784116.640
     -1922.343          44.750   106477880.448 7  26784118.840       -1897.753
        47.100
 24  2  6 19 15  0.0000000  0 22G02G07G08G10G15G16G18G21G23G26G27G30
                                G32E02E10E11E12E19E24E25E31E33
 124516831.756 7  97026155.38846  23694745.720                    23694744.880
      2739.930        2135.013          44.250          41.550



 130114562.814 6 101388000.22046  24759969.160                    24759969.640
     -1334.590       -1039.942          40.300          39.550



 109327511.522 8  85190337.09848  20804306.120                    20804306.980
      1547.727        1206.021          50.850          50.850    81640762.866 9
  20804306.160        1155.668          54.950


 111007680.912 8  86499563.74048  21124024.120                    21124024.140
       322.619         251.393          53.650          53.650    82895426.544 9
  21124023.800         240.919          55.150


 130690363.415 6 101836652.47646  24869543.000                    24869541.300
     -1718.888       -1339.393          39.350          38.850



 120211586.926 7  93671414.60146  22875480.600                    22875478.500
     -3502.980       -2729.597          47.800          41.550



 131868310.157 6 102754634.10046  25093655.880                    25093654.660
     -3342.738       -2604.729          41.900          37.300    98473235.453 7
  25093660.340       -2496.324          43.350


 115209627.234 7  89773799.56047  21923632.400                    21923630.620
      2189.994        1706.490          47.900          43.350



 116692294.352 7  90929135.14447  22205769.720                    22205767.320
     -2097.117       -1634.115          47.950          43.800    87140468.533 8
  22205772.740       -1566.039          51.950


 132350729.702 6 103130494.82246  25185490.800                    25185494.960
     -3744.430       -2917.744          39.550          38.800    98833400.660 7
  25185498.500       -2796.102          44.150


 106487422.091 8  82977255.35948  20263867.680                    20263867.080
     -1037.945        -808.789          52.750          52.950    79519987.808 9
  20263867.680        -775.060          56.250


 132113475.988 6 102945572.52346  25140359.160                    25140362.620
      -143.973        -112.188          40.200          40.050    98656181.097 7
  25140363.440        -107.649          44.650


 134446011.127 6 104763138.29746  25584225.220                    25584226.880
      2990.879        2330.551          40.950          41.500   100398011.981 6
  25584228.820        2233.544          40.150


 147881257.241 7                  28140866.040
      2757.813                          42.600                   110430838.579 6
  28140870.740        2059.409          41.300   113311625.848 7  28140867.480
      2113.161          42.350   111871221.366 7  28140869.560        2086.232
        44.650
 123949285.332 8                  23586738.520
       558.432                          52.400                    92559755.815 9
  23586740.740         416.979          54.250    94974204.112 9  23586738.140
       427.853          54.850    93767061.618 9  23586740.080         422.408
        57.400
 124555171.627 7                  23702034.400
      1775.513                          47.300                    93012046.690 8
  23702035.660        1325.865          48.000    95438416.776 8  23702032.720
      1360.415          48.000    94225239.885 8  23702034.500        1343.119
        50.900
 124415497.635 8                  23675452.420
      -704.372                          48.400                    92907762.308 8
  23675451.440        -525.897          50.100    95331417.028 8  23675449.340
      -539.646          51.400    94119587.820 8  23675451.160        -532.793
        53.650
 146110998.869 6                  27803998.820
      2490.267                          39.650                   109108868.941 6
  27804001.500        1859.453          38.350   111955183.706 6  27804000.060
      1908.139          37.800   110532030.979 6  27804001.280        1883.848
        41.150
 129936253.108 8                  24726021.380
     -2094.454                          50.650                    97030402.049 8
  24726025.520       -1564.054          51.550    99561612.723 8  24726021.280
     -1604.842          51.850    98296014.540 9  24726023.560       -1584.467
        54.550
 129825422.326 8                  24704928.400
       804.615                          51.000                    96947647.155 8
  24704932.680         600.842          51.450    99476708.672 8  24704929.960
       616.536          51.400    98212173.071 9  24704931.980         608.665
        54.350
 146316445.555 7                  27843073.300
     -3261.479                          42.700                   109262386.208 6
  27843079.940       -2435.596          40.200   112112677.456 6  27843076.840
     -2499.084          39.600   110687519.492 7  27843079.520       -2467.336
        42.900
 140826991.783 7                  26798443.240
     -2509.827                          45.750                   105163149.118 7
  26798446.100       -1874.318          43.350   107906522.241 7  26798442.180
     -1923.107          44.550   106534831.328 7  26798444.640       -1898.665
        46.800
 24  2  6 19 15 30.0000000  0 22G02G07G08G10G15G16G18G21G23G26G27G30
                                G32E02E10E11E12E19E24E25E31E33
 124434723.968 7  96962175.41046  23679121.020                    23679120.220
      2734.095        2130.468          44.300          41.800



 130154799.678 6 101419353.55746  24767625.960                    24767627.020
     -1348.082       -1050.456          40.850          41.500



 109281272.760 8  85154306.91048  20795507.160                    20795507.920
      1534.920        1196.043          51.000          51.000    81606233.936 9
  20795507.500        1146.151          55.000


 110998289.472 8  86492245.77048  21122236.960                    21122237.140
       303.374         236.396          53.800          53.700    82888413.502 9
  21122236.580         226.486          55.050


 130742195.130 6 101877040.98346  24879406.320                    24879404.540
     -1736.888       -1353.413          38.650          37.700



 120316796.648 7  93753396.17846  22895501.260                    22895499.560
     -3511.039       -2735.876          47.150          41.900



 131968604.327 6 102832785.41246  25112741.300                    25112740.180
     -3343.434       -2605.271          41.850          38.900    98548130.471 7
  25112745.540       -2496.899          43.000


 115144084.679 8  89722727.46247  21911160.080                    21911158.160
      2179.538        1698.342          48.300          43.750



 116755444.809 8  90978343.29547  22217786.820                    22217784.600
     -2112.930       -1646.439          48.550          44.100    87187626.356 8
  22217790.040       -1577.939          51.700


 132463040.512 6 103218009.44046  25206863.020                    25206867.260
     -3743.042       -2916.668          37.150          36.750    98917268.816 6
  25206870.700       -2795.295          41.950


 106518778.496 8  83001688.92148  20269834.740                    20269834.260
     -1052.546        -820.165          52.950          53.100    79543403.313 9
  20269834.600        -786.152          56.150


 132118064.762 6 102949148.16446  25141232.220                    25141235.520
      -161.725        -126.021          39.850          40.500    98659607.748 7
  25141236.700        -120.758          44.650


 134356283.443 6 104693220.68746  25567150.540                    25567152.240
      2990.859        2330.544          41.550          41.000   100331007.579 6
  25567154.280        2233.267          38.550


 147798602.843 7                  28125137.440
      2752.215                          43.100                   110369116.204 6
  28125141.820        2055.330          41.150   113248293.346 7  28125138.840
      2108.819          42.450   111808693.924 7  28125140.940        2082.052
        44.700
 123932656.899 8                  23583574.120
       549.976                          52.350                    92547338.509 9
  23583576.480         410.700          54.200    94961462.872 9  23583574.120
       421.407          55.050    93754482.342 9  23583575.780         416.082
        57.450
 124502001.983 7                  23691916.460
      1768.939                          47.200                    92972342.157 7
  23691917.520        1321.005          47.850    95397676.457 8  23691914.960
      1355.315          48.050    94185017.459 8  23691916.520        1338.168
        50.900
 124436742.566 8                  23679495.220
      -712.101                          48.450                    92923627.063 8
  23679494.000        -531.792          49.950    95347695.644 8  23679492.000
      -545.666          51.400    94135659.502 8  23679493.920        -538.699
        53.600
 146036380.132 6                  27789798.880
      2484.207                          39.700                   109053147.247 6
  27789802.380        1855.107          38.050   111898008.400 6  27789800.520
      1903.440          37.950   110475582.481 6  27789801.640        1879.261
        40.950
 129999250.888 8                  24738009.320
     -2105.604                          50.550                    97077445.828 8
  24738013.400       -1572.350          50.900    99609883.735 8  24738009.220
     -1613.364          51.850    98343671.935 9  24738011.600       -1592.854
        54.250
 129801491.176 8                  24700374.540
       790.688                          51.100                    96929776.515 8
  24700378.920         590.387          51.400    99458371.839 8  24700376.120
       605.777          51.600    98194069.329 9  24700378.020         598.068
        54.400
 146414302.366 7                  27861694.700
     -3262.469                          42.150                   109335460.940 6
  27861701.880       -2436.190          41.250   112187658.536 6  27861698.460
     -2499.732          40.550   110761547.391 7  27861701.300       -2467.965
        43.850
 140902304.305 7                  26812774.660
     -2511.045                          46.500                   105219388.971 7
  26812777.760       -1875.137          43.100   107964229.220 7  26812773.580
     -1924.095          44.500   106591804.750 7  26812776.080       -1899.575
        46.550
 24  2  6 19 16  0.0000000  0 22G02G07G08G10G15G16G18G21G23G26G27G30
                                G32E02E10E11E12E19E24E25E31E33
 124352792.713 7  96898332.97047  23663529.980                    23663529.240
      2728.477        2126.089          44.250          42.400



 130195441.972 6 101451022.85546  24775360.020                    24775361.580
     -1361.208       -1060.680          41.200          41.050



 109235409.359 8  85118569.20948  20786779.700                    20786780.300
      1522.818        1186.612          51.050          51.000    81571985.308 9
  20786780.220        1137.142          55.100


 110989472.211 8  86485375.20948  21120559.100                    21120559.380
       284.672         221.823          53.850          53.850    82881829.217 9
  21120558.560         212.589          55.150


 130794560.836 6 101917845.41546  24889371.040                    24889369.440
     -1754.047       -1366.787          39.100          39.150



 120422246.767 7  93835565.07446  22915567.680                    22915566.160
     -3518.654       -2741.810          46.900          41.250



 132068910.589 6 102910946.14846  25131829.020                    25131827.860
     -3343.346       -2605.202          41.650          37.250    98623034.502 7
  25131833.020       -2496.751          42.300


 115078847.087 8  89671893.01547  21898745.860                    21898743.780
      2169.916        1690.844          49.000          43.500



 116819065.876 7  91027918.16247  22229893.460                    22229891.260
     -2128.252       -1658.377          47.800          44.600    87235135.596 8
  22229896.960       -1589.269          52.150


 132575308.787 6 103305490.98146  25228227.240                    25228231.140
     -3740.986       -2915.061          37.650          37.300    99001105.232 7
  25228234.680       -2793.733          42.650


 106550574.629 8  83026465.13348  20275885.460                    20275884.940
     -1066.843        -831.307          52.550          52.450    79567147.179 9
  20275885.160        -796.705          56.250


 132123168.812 6 102953125.36046  25142203.400                    25142206.000
      -178.542        -139.121          39.850          39.750    98663419.236 7
  25142208.140        -133.312          45.350


 134266562.815 6 104623308.51046  25550077.080                    25550078.980
      2990.911        2330.582          38.400          38.250   100264008.486 6
  25550080.940        2233.473          40.200


 147716112.000 7                  28109439.960
      2747.200                          42.800                   110307516.001 7
  28109444.320        2051.513          42.400   113185086.131 6  28109441.220
      2105.042          41.500   111746290.212 7  28109443.400        2078.377
        44.800
 123916276.312 8                  23580456.940
       542.128                          52.200                    92535106.284 9
  23580459.400         404.867          54.350    94948911.547 9  23580457.140
       415.440          54.900    93742090.566 9  23580458.640         410.155
        57.400
 124449031.577 7                  23681836.480
      1762.523                          47.600                    92932786.412 8
  23681837.400        1316.180          48.050    95357088.805 8  23681835.140
      1350.527          48.000    94144945.761 8  23681836.480        1333.370
        50.850
 124458213.858 8                  23683581.080
      -719.120                          48.350                    92939660.841 8
  23683579.700        -537.016          50.200    95364147.697 8  23683577.820
      -551.100          51.100    94151902.419 8  23683579.760        -544.038
        53.500
 145961934.751 6                  27775632.020
      2478.915                          39.600                   108997555.017 6
  27775636.060        1851.109          38.200   111840965.910 6  27775633.800
      1899.400          36.900   110419265.125 6  27775635.040        1875.217
        40.650
 130062575.595 8                  24750059.640
     -2115.943                          50.100                    97124733.755 8
  24750063.400       -1580.066          51.350    99658405.246 8  24750059.700
     -1621.259          51.750    98391576.653 9  24750061.820       -1600.658
        54.300
 129777974.994 8                  24695899.700
       777.201                          51.100                    96912215.748 8
  24695904.060         580.436          51.650    99440352.959 8  24695901.180
       595.591          51.450    98176279.510 9  24695903.000         587.973
        54.400
 146512176.359 7                  27880319.560
     -3262.593                          42.300                   109408548.493 6
  27880327.060       -2436.129          41.750   112262652.767 6  27880323.520
     -2499.747          41.850   110835588.285 7  27880326.480       -2467.925
        44.650
 140977648.589 7                  26827112.320
     -2511.679                          46.350                   105275652.558 7
  26827115.340       -1875.579          43.600   108021960.557 7  26827111.100
     -1924.590          43.450   106648802.212 7  26827113.540       -1900.054
        46.250
 24  2  6 19 16 30.0000000  0 22G02G07G08G10G15G16G18G21G23G26G27G30
                                G32E02E10E11E12E19E24E25E31E33
 124271038.720 7  96834628.65646  23647972.620                    23647971.820
      2722.162        2121.168          44.350          41.000



 130236487.604 6 101483006.40446  24783170.840                    24783172.720
     -1375.142       -1071.540          41.600          41.900



 109189922.951 8  85083125.27648  20778124.020                    20778124.460
      1509.899        1176.546          50.750          50.750    81538018.207 9
  20778124.440        1127.556          54.900


 110981228.871 8  86478951.85648  21118990.500                    21118990.720
       265.155         206.616          53.650          53.700    82875673.509 9
  21118989.660         198.065          55.100


 130847458.546 6 101959064.42846  24899437.160                    24899435.580
     -1772.093       -1380.848          39.350          39.750



 120527934.598 7  93917919.18347  22935679.300                    22935678.100
     -3527.008       -2748.319          45.900          42.300



 132169227.929 6 102989115.46946  25150918.580                    25150917.660
     -3344.198       -2605.866          40.400          38.650    98697946.785 6
  25150922.540       -2497.043          41.950


 115013915.148 8  89621296.73547  21886389.820                    21886387.660
      2159.235        1682.522          49.550          42.850



 116883155.301 8  91077857.97047  22242089.220                    22242087.120
     -2144.187       -1670.796          48.050          44.350    87282994.584 8
  22242093.060       -1601.102          52.250


 132687532.487 6 103392937.67846  25249582.540                    25249586.980
     -3739.955       -2914.263          36.750          36.800    99084908.242 6
  25249590.260       -2792.819          41.500


 106582810.283 8  83051583.82848  20282019.740                    20282019.100
     -1081.932        -843.063          52.700          52.750    79591219.266 9
  20282019.260        -807.872          56.450


 132128787.627 6 102957503.66246  25143272.580                    25143274.720
      -196.099        -152.804          40.100          39.550    98667615.095 7
  25143277.820        -146.296          45.300


 134176851.976 6 104553404.02446  25533005.520                    25533007.940
      2989.891        2329.788          39.950          40.600   100197016.658 6
  25533009.260        2232.953          38.450


 147633786.491 7                  28093774.040
      2741.240                          42.700                   110246039.213 6
  28093778.260        2047.249          41.700   113122005.615 7  28093775.160
      2100.537          42.400   111684011.561 7  28093777.140        2073.879
        44.600
 123900143.214 8                  23577386.920
       533.634                          52.150                    92523058.880 9
  23577389.420         398.518          54.450    94936549.859 9  23577387.180
       408.895          55.000    93729886.022 9  23577388.600         403.697
        57.300
 124396260.424 7                  23671794.500
      1755.860                          47.500                    92893379.455 8
  23671795.220        1311.203          48.050    95316653.832 8  23671793.240
      1345.365          48.150    94105024.800 8  23671794.360        1328.265
        50.750
 124479910.738 8                  23687709.860
      -726.985                          48.250                    92955863.065 8
  23687708.480        -542.850          50.500    95380772.593 8  23687706.640
      -557.085          51.300    94168315.980 8  23687708.560        -549.965
        53.550
 145887665.004 6                  27761498.800
      2472.711                          39.450                   108942093.925 6
  27761503.260        1846.433          38.200   111784058.007 6  27761500.680
      1894.508          37.800   110363080.611 6  27761501.680        1870.714
        40.750
 130126225.969 8                  24762172.020
     -2127.124                          50.750                    97172264.864 8
  24762175.480       -1588.421          51.200    99707176.303 8  24762172.000
     -1629.855          51.700    98439727.736 9  24762174.040       -1609.098
        54.000
 129754874.639 8                  24691503.960
       763.053                          50.950                    96894965.496 8
  24691508.320         569.867          51.750    99422652.702 8  24691505.340
       584.675          51.550    98158804.249 9  24691507.080         577.308
        54.300
 146610065.996 6                  27898947.480
     -3263.078                          41.900                   109481647.781 6
  27898954.960       -2436.872          41.100   112337658.989 7  27898952.020
     -2500.487          42.000   110909641.041 7  27898954.420       -2468.650
        44.150
 141053024.001 7                  26841455.920
     -2513.120                          46.100                   105331939.392 7
  26841458.740       -1876.531          43.650   108079715.749 7  26841454.440
     -1925.585          43.100   106705823.227 7  26841457.040       -1901.081
        46.150
 24  2  6 19 17  0.0000000  0 22G02G07G08G10G15G16G18G21G23G26G27G30
                                G32E02E10E11E12E19E24E25E31E33
 124189460.724 7  96771061.48946  23632448.860                    23632447.920
      2716.617        2116.849          43.300          40.600



 130277932.453 6 101515301.04146  24791057.520                    24791059.620
     -1387.547       -1081.208          41.000          41.100



 109144812.211 8  85047974.06648  20769539.780                    20769540.160
      1497.834        1167.145          50.950          50.900    81504331.637 9
  20769539.960        1118.499          54.550


 110973557.917 8  86472974.51848  21117530.780                    21117530.880
       246.638         192.187          53.000          52.950    82869945.236 9
  21117529.600         184.114          54.700


 130900884.781 5 102000695.31646  24909603.740                    24909602.200
     -1789.767       -1394.627          35.850          36.850



 120633855.984 7  94000455.30147  22955835.460                    22955834.460
     -3534.030       -2753.790          45.700          42.050



 132269553.453 6 103067291.19646  25170009.680                    25170008.960
     -3344.021       -2605.728          39.350          37.100    98772865.200 6
  25170013.740       -2497.202          41.650


 114949288.494 8  89570938.36447  21874091.860                    21874089.620
      2149.487        1674.928          49.400          43.350



 116947709.042 7  91128159.60447  22254373.360                    22254371.260
     -2159.052       -1682.377          47.250          45.300    87331200.320 8
  22254377.480       -1612.350          52.250


 132799707.391 6 103480346.39646  25270928.940                    25270933.760
     -3737.870       -2912.635          38.500          38.250    99168674.953 6
  25270936.160       -2791.240          39.800


 106615483.325 8  83077043.35748  20288237.240                    20288236.500
     -1095.945        -853.982          51.800          51.950    79615617.989 9
  20288236.740        -818.423          56.350


 132134918.730 6 102962281.15946  25144439.400                    25144441.300
      -212.506        -165.588          40.500          40.350    98672193.533 7
  25144444.700        -158.802          45.300


 134087151.792 6 104483507.82646  25515935.700                    25515938.400
      2990.377        2330.165          39.000          39.200   100130032.917 6
  25515939.800        2232.967          38.500


 147551626.205 6                  28078139.480
      2736.256                          41.800                   110184685.831 6
  28078143.480        2043.335          41.350   113059051.682 6  28078140.380
      2096.612          41.950   111621857.900 7  28078142.540        2070.071
        44.550
 123884255.466 8                  23574363.620
       525.998                          51.900                    92511194.693 9
  23574366.120         392.711          54.050    94924376.162 9  23574363.840
       402.991          55.150    93717867.080 9  23574365.220         397.854
        57.600
 124343686.879 7                  23661790.120
      1749.383                          47.550                    92854120.060 7
  23661790.760        1306.411          47.850    95276370.265 8  23661788.840
      1340.518          48.300    94065253.316 8  23661789.860        1323.431
        51.050
 124501830.766 7                  23691881.100
      -733.925                          47.850                    92972231.938 8
  23691879.800        -548.107          50.300    95397568.472 8  23691878.000
      -562.451          51.500    94184898.358 8  23691879.800        -555.267
        53.850
 145813571.042 6                  27747399.140
      2467.344                          39.100                   108886764.081 6
  27747403.720        1842.398          38.000   111727284.742 6  27747401.100
      1890.728          38.000   110307029.074 6  27747401.920        1866.464
        41.000
 130190198.908 8                  24774345.860
     -2137.270                          50.550                    97220036.847 8
  24774348.780       -1596.082          51.000    99756194.503 8  24774345.880
     -1637.745          51.850    98488122.827 9  24774347.640       -1616.881
        54.350
 129732189.124 8                  24687187.100
       749.638                          50.600                    96878025.035 8
  24687191.440         559.810          51.200    99405270.305 8  24687188.400
       574.392          51.700    98141642.820 9  24687190.120         567.095
        54.450
 146707967.945 7                  27917577.760
     -3263.136                          42.400                   109554756.238 6
  27917585.140       -2436.855          39.850   112412674.617 6  27917582.480
     -2500.351          41.250   110983703.087 7  27917584.540       -2468.659
        43.650
 141128428.140 7                  26855804.940
     -2513.563                          45.300                   105388247.700 7
  26855807.280       -1877.044          42.900   108137492.970 7  26855803.320
     -1926.049          43.200   106762865.987 7  26855806.080       -1901.478
        46.200
 24  2  6 19 17 30.0000000  0 22G02G07G08G10G15G16G18G21G23G26G27G30
                                G32E02E10E11E12E19E24E25E31E33
 124108062.077 7  96707634.04147  23616959.200                    23616957.940
      2710.348        2111.962          43.550          42.250



 130319777.299 6 101547907.33746  24799020.280                    24799022.420
     -1401.185       -1091.832          40.750          41.000



 109100081.914 8  85013119.29748  20761027.960                    20761028.280
      1484.806        1156.992          51.650          51.700    81470929.146 9
  20761027.900        1108.807          54.500


 110966462.032 8  86467445.27548  21116180.380                    21116180.380
       227.104         176.965          53.050          53.000    82864646.385 9
  21116178.880         169.645          54.600


 130954839.520 6 102042738.09946  24919871.160                    24919868.760
     -1807.409       -1408.373          38.850          39.050



 120740010.572 7  94083173.12947  22976035.960                    22976035.120
     -3542.258       -2760.202          45.550          42.800



 132369888.920 6 103145474.64846  25189102.740                    25189102.100
     -3344.738       -2606.291          38.800          38.100    98847791.030 6
  25189106.940       -2497.387          41.550


 114884969.403 8  89520819.66647  21861852.420                    21861850.300
      2139.008        1666.762          50.000          43.300



 117012727.610 8  91178823.42747  22266745.940                    22266743.880
     -2174.858       -1694.695          48.300          44.600    87379753.140 8
  22266750.360       -1624.071          52.350


 132911834.141 6 103567717.63746  25292266.140                    25292271.140
     -3736.475       -2911.548          36.650          36.650    99252405.638 6
  25292272.500       -2790.269          41.650


 106648596.275 8  83102845.65748  20294538.320                    20294537.640
     -1111.028        -865.736          52.100          52.050    79640345.187 9
  20294538.140        -829.562          56.550


 132141564.179 6 102967459.41146  25145704.080                    25145706.160
      -229.869        -179.117          40.400          40.150    98677156.013 7
  25145709.340        -171.709          45.550


 133997467.796 6 104413624.26446  25498869.160                    25498872.460
      2989.708        2329.643          39.900          39.750   100063061.160 6
  25498873.060        2232.301          36.800


 147469635.587 7                  28062537.240
      2730.375                          43.200                   110123459.129 7
  28062541.140        2038.839          42.350   112996227.774 7  28062538.240
      2092.087          42.900   111559832.599 7  28062540.280        2065.503
        45.350
 123868615.435 8                  23571387.440
       517.334                          52.250                    92499515.473 9
  23571389.900         386.363          54.150    94912392.262 9  23571387.620
       396.445          55.250    93706035.519 9  23571388.960         391.402
        57.400
 124291313.635 8                  23651823.900
      1742.844                          48.250                    92815010.244 7
  23651824.460        1301.395          47.850    95236240.189 8  23651822.620
      1335.356          48.550    94025633.369 8  23651823.480        1318.423
        50.900
 124523975.940 7                  23696095.080
      -741.659                          47.650                    92988768.926 8
  23696093.980        -553.899          50.500    95414536.865 8  23696092.200
      -568.334          51.550    94201651.044 8  23696093.900        -561.099
        53.700
 145739657.607 6                  27733333.940
      2461.061                          39.850                   108831569.078 6
  27733338.640        1837.790          38.300   111670649.869 6  27733335.720
      1885.498          38.650   110251114.124 6  27733336.480        1861.648
        41.300
 130254495.817 8                  24786581.420
     -2148.453                          50.600                    97268050.759 8
  24786583.940       -1604.344          51.050    99805460.954 8  24786581.240
     -1646.185          51.650    98536763.009 9  24786582.920       -1625.260
        54.050
 129709922.012 8                  24682949.800
       735.402                          50.650                    96861397.013 8
  24682954.040         549.243          51.150    99388208.504 8  24682951.100
       563.520          51.850    98124797.911 9  24682952.760         556.376
        54.250
 146805883.400 6                  27936210.400
     -3263.925                          41.450                   109627874.795 6
  27936217.600       -2437.298          40.050   112487700.620 6  27936215.060
     -2500.928          39.800   111057775.361 7  27936217.140       -2469.145
        42.850
 141203863.078 7                  26870159.740
     -2514.793                          45.000                   105444578.996 7
  26870161.620       -1877.871          43.100   108195293.763 7  26870158.140
     -1926.794          43.250   106819932.036 7  26870160.900       -1902.372
        46.050
 24  2  6 19 18  0.0000000  0 22G02G07G08G10G15G16G18G21G23G26G27G30
                                G32E02E10E11E12E19E24E25E31E33
 124026839.169 7  96644343.55846  23601502.900                    23601501.520
      2704.518        2107.419          44.500          41.450



 130362016.323 6 101580820.82746  24807058.080                    24807060.140
     -1414.612       -1102.298          40.200          40.150



 109055729.669 8  84978559.11348  20752588.140                    20752588.320
      1472.064        1147.063          51.850          51.800    81437808.979 9
  20752587.640        1099.194          54.050


 110959937.122 8  86462360.94748  21114938.640                    21114938.480
       207.842         161.955          52.900          52.950    82859773.915 9
  21114936.840         155.192          54.350


 131009318.604 6 102085189.34946  24930238.180                    24930235.940
     -1825.086       -1422.144          38.200          38.650



 120846392.194 7  94166067.85847  22996279.720                    22996279.000
     -3550.098       -2766.311          46.000          42.700



 132470229.484 6 103223662.08845  25208197.020                    25208196.260
     -3345.211       -2606.659          40.050          35.200    98922720.627 6
  25208201.080       -2497.727          40.900


 114820954.660 8  89470938.12247  21849670.920                    21849668.820
      2128.680        1658.715          49.600          44.900



 117078204.808 7  91229844.62947  22279205.900                    22279203.700
     -2190.309       -1706.733          47.600          45.250    87428648.458 8
  22279210.400       -1635.609          52.450


 133023906.632 6 103655046.54846  25313593.340                    25313598.520
     -3734.882       -2910.311          37.650          38.600    99336095.730 6
  25313599.160       -2789.105          41.800


 106682144.937 8  83128987.46948  20300922.300                    20300921.700
     -1125.665        -877.142          52.000          51.900    79665397.765 9
  20300922.340        -840.608          56.350


 132148719.604 6 102973035.08546  25147065.820                    25147067.840
      -247.199        -192.625          40.850          41.100    98682499.336 7
  25147070.600        -184.485          44.800


 133907799.092 6 104343752.62546  25481805.900                    25481809.220
      2988.481        2328.686          41.100          41.750    99996100.845 6
  25481809.300        2231.898          37.550


 147387812.480 7                  28046966.800
      2724.500                          42.300                   110062357.533 6
  28046970.740        2034.472          41.900   112933532.187 7  28046967.700
      2087.639          42.050   111497934.014 7  28046969.820        2061.086
        44.900
 123853218.909 8                  23568457.620
       509.055                          52.250                    92488018.090 9
  23568460.000         380.118          54.050    94900594.944 9  23568457.720
       390.052          55.400    93694388.169 9  23568459.060         385.070
        57.500
 124239137.016 8                  23641895.120
      1735.587                          48.300                    92776047.247 7
  23641895.720        1296.137          47.850    95196260.760 8  23641893.660
      1329.899          48.550    93986162.155 8  23641894.540        1313.026
        50.950
 124546341.641 7                  23700350.940
      -749.320                          47.700                    93005470.597 8
  23700350.240        -559.573          50.400    95431674.228 8  23700348.260
      -574.183          51.650    94218570.568 8  23700349.960        -566.895
        53.850
 145665922.867 6                  27719302.620
      2454.703                          39.700                   108776507.514 6
  27719307.620        1832.812          38.450   111614151.892 6  27719304.420
      1880.803          39.250   110195334.349 6  27719305.140        1856.938
        41.550
 130319111.589 8                  24798877.600
     -2159.299                          51.200                    97316302.770 8
  24798879.620       -1612.428          50.950    99854971.722 8  24798877.400
     -1654.569          51.900    98585644.399 9  24798878.920       -1633.480
        54.250
 129688070.250 8                  24678791.440
       721.280                          50.450                    96845079.159 8
  24678795.520         538.638          50.750    99371464.960 8  24678792.880
       552.699          52.000    98108267.213 9  24678794.480         545.658
        54.200
 146903806.963 6                  27954844.600
     -3264.406                          41.150                   109700999.380 6
  27954851.720       -2437.641          40.800   112562732.846 6  27954848.820
     -2501.265          39.750   111131853.760 7  27954851.560       -2469.427
        43.350
 141279324.358 7                  26884519.440
     -2515.835                          44.850                   105500929.931 7
  26884521.280       -1878.744          43.400   108253114.735 7  26884518.140
     -1927.862          43.550   106877017.982 7  26884520.680       -1903.271
        46.300
 24  2  6 19 18 30.0000000  0 22G02G07G08G10G15G16G18G21G23G26G27G30
                                G32E02E10E11E12E19E24E25E31E33
 123945796.201 7  96581193.28146  23586080.860                    23586079.300
      2698.444        2102.686          44.950          41.700



 130404651.067 6 101614042.64646  24815171.040                    24815173.040
     -1427.711       -1112.505          39.350          39.200



 109011760.420 8  84944297.37048  20744221.140                    20744221.260
      1459.331        1137.142          51.700          51.350    81404974.807 8
  20744220.140        1089.770          53.850


 110953986.630 8  86457724.21848  21113806.200                    21113805.960
       188.838         147.147          53.050          53.000    82855330.389 9
  21113804.200         141.043          54.050


 131064322.853 6 102128049.89746  24940705.000                    24940702.640
     -1842.011       -1435.328          39.850          40.550



 120953001.881 7  94249140.30547  23016566.960                    23016566.220
     -3557.416       -2772.014          46.350          42.000



 132570577.516 6 103301855.39045  25227292.820                    25227292.040
     -3345.111       -2606.579          41.200          33.700    98997655.930 6
  25227296.780       -2497.829          41.550


 114757247.715 8  89421296.42447  21837547.960                    21837545.880
      2118.420        1650.721          49.900          44.950



 117144141.937 8  91281224.22647  22291753.400                    22291751.080
     -2205.475       -1718.552          48.750          45.200    87477887.239 8
  22291757.980       -1646.932          52.350


 133135926.297 6 103742334.24046  25334910.220                    25334915.760
     -3733.148       -2908.959          36.500          37.100    99419746.391 6
  25334916.120       -2787.612          40.300


 106716132.627 8  83155471.39448  20307389.820                    20307389.320
     -1140.193        -888.463          51.750          51.750    79690778.193 9
  20307389.980        -851.399          56.150


 132156387.757 6 102979010.26746  25148524.920                    25148527.140
      -264.069        -205.769          40.650          40.250    98688225.556 7
  25148529.520        -197.186          44.950


 133818151.889 6 104273897.79746  25464746.600                    25464750.100
      2988.059        2328.361          39.750          39.750    99929156.672 6
  25464749.500        2231.154          36.000


 147306162.198 7                  28031429.220
      2718.835                          42.850                   110001384.959 6
  28031433.000        2030.212          41.350   112870969.018 7  28031430.020
      2083.325          42.850   111436166.139 7  28031432.100        2056.743
        44.850
 123838069.119 8                  23565574.760
       500.926                          52.350                    92476704.962 8
  23565577.040         374.086          53.850    94888986.684 9  23565574.840
       383.865          55.400    93682927.474 9  23565576.100         378.973
        57.450
 124187160.537 8                  23632004.440
      1729.442                          48.750                    92737233.708 7
  23632005.060        1291.441          47.600    95156434.693 8  23632002.800
      1325.173          48.550    93946842.352 8  23632003.720        1308.260
        50.900
 124568930.653 7                  23704649.320
      -756.571                          47.700                    93022339.030 8
  23704648.960        -565.003          50.150    95448982.710 8  23704646.720
      -579.760          51.450    94235659.021 8  23704648.500        -572.371
        53.700
 145592372.400 6                  27705306.440
      2448.632                          40.100                   108721583.519 6
  27705311.440        1828.633          38.650   111557795.113 6  27705308.100
      1876.070          39.700   110139693.964 6  27705308.900        1852.373
        41.900
 130384048.422 8                  24811234.820
     -2169.834                          50.800                    97364794.534 8
  24811236.620       -1620.289          50.800    99904728.490 8  24811234.520
     -1662.555          51.450    98634768.668 9  24811236.020       -1641.427
        54.000
 129666638.192 8                  24674712.920
       707.453                          50.550                    96829074.721 8
  24674716.780         528.284          50.300    99355043.012 8  24674714.560
       542.103          52.000    98092054.016 9  24674716.080         535.209
        54.000
 147001740.676 6                  27973480.680
     -3264.640                          40.700                   109774131.526 6
  27973487.960       -2437.827          40.750   112637772.805 6  27973484.700
     -2501.278          40.200   111205939.817 7  27973488.040       -2469.543
        43.350
 141354814.913 7                  26898884.820
     -2516.802                          44.400                   105557302.737 7
  26898886.780       -1879.429          43.800   108310958.129 7  26898883.700
     -1928.383          43.050   106934126.086 7  26898886.040       -1903.947
        46.500
 24  2  6 19 19  0.0000000  0 22G02G07G08G10G15G16G18G21G23G26G27G30
                                G32E02E10E11E12E19E24E25E31E33
 123864930.866 7  96518181.42246  23570692.800                    23570690.920
      2692.565        2098.105          45.400          41.250



 130447676.302 6 101647568.75446  24823358.340                    24823360.160
     -1440.397       -1122.390          39.900          39.800



 108968172.179 8  84910332.52848  20735926.620                    20735926.560
      1446.537        1127.172          51.950          51.850    81372425.168 9
  20735925.400        1080.251          54.000


 110948607.847 8  86453532.98348  21112782.620                    21112782.300
       169.817         132.326          53.300          53.300    82851313.800 9
  21112780.540         126.815          54.050


 131119847.424 6 102171315.86046  24951270.880                    24951268.480
     -1859.531       -1448.981          40.300          41.350



 121059833.959 7  94332386.02947  23036896.500                    23036895.780
     -3564.843       -2777.802          46.200          42.600



 132670929.234 6 103380051.57346  25246389.140                    25246388.340
     -3345.146       -2606.604          40.700          38.050    99072593.917 6
  25246393.280       -2497.913          41.950


 114693846.595 8  89371893.02847  21825483.160                    21825481.040
      2108.278        1642.816          49.750          44.600



 117210533.784 8  91332958.14047  22304387.380                    22304385.040
     -2220.528       -1730.281          48.600          45.400    87527465.573 8
  22304392.020       -1658.199          52.200


 133247888.004 6 103829576.79746  25356216.100                    25356221.620
     -3731.144       -2907.395          38.650          38.700    99503353.741 6
  25356222.000       -2786.136          41.600


 106750556.110 8  83182294.88348  20313940.240                    20313939.880
     -1154.754        -899.809          51.350          51.400    79716484.044 9
  20313940.540        -862.244          56.000


 132164565.036 6 102985382.14846  25150080.800                    25150083.460
      -281.313        -219.207          39.050          38.850    98694331.932 7
  25150085.540        -209.896          43.900


 133728526.210 6 104204059.66946  25447691.320                    25447694.700
      2987.511        2327.936          40.050          40.200    99862228.496 6
  25447694.180        2230.667          39.400


 147224683.493 7                  28015924.180
      2713.119                          43.000                   109940540.537 6
  28015927.940        2026.037          41.900   112808537.360 7  28015925.280
      2078.903          43.700   111374528.102 7  28015927.240        2052.455
        45.650
 123823162.783 8                  23562738.220
       492.863                          52.250                    92465573.630 8
  23562740.500         368.054          53.950    94877564.970 9  23562738.360
       377.636          55.750    93671650.953 9  23562739.480         372.837
        57.700
 124135381.440 8                  23622151.340
      1722.537                          48.650                    92698567.558 7
  23622152.020        1286.335          47.600    95116759.859 8  23622149.380
      1319.863          48.700    93907671.861 8  23622150.480        1303.146
        50.900
 124591739.367 7                  23708989.580
      -763.824                          47.800                    93039371.529 8
  23708989.380        -570.472          50.100    95466459.533 8  23708987.000
      -585.359          51.750    94252913.685 8  23708988.860        -577.936
        53.850
 145519005.350 6                  27691344.980
      2442.614                          39.650                   108666796.524 6
  27691350.300        1823.960          38.700   111501578.866 6  27691346.820
      1871.766          40.050   110084192.346 7  27691347.540        1847.727
        42.100
 130449302.052 8                  24823652.300
     -2180.361                          50.900                    97413522.879 8
  24823653.880       -1628.200          50.750    99954728.017 8  24823652.000
     -1670.692          52.000    98684132.600 9  24823653.460       -1649.440
        54.250
 129645623.718 8                  24670713.860
       693.542                          50.550                    96813382.102 8
  24670717.460         517.894          50.050    99338941.020 8  24670715.720
       531.481          52.400    98076156.715 9  24670717.180         524.673
        54.050
 147099679.915 7                  27992118.020
     -3264.625                          42.400                   109847267.780 6
  27992125.500       -2437.811          41.000   112712817.008 6  27992121.940
     -2501.474          41.200   111280030.052 7  27992125.560       -2469.652
        44.050
 141430331.249 7                  26913254.840
     -2517.546                          43.000                   105613694.777 7
  26913257.160       -1880.019          43.850   108368821.284 7  26913253.980
     -1928.953          42.850   106991253.681 7  26913256.400       -1904.488
        46.400
 24  2  6 19 19 30.0000000  0 22G02G07G08G10G15G16G18G21G23G26G27G30
                                G32E02E10E11E12E19E24E25E31E33
 123784246.318 7  96455310.43047  23555339.120                    23555337.060
      2686.399        2093.302          45.900          42.350



 130491092.769 6 101681399.71646  24831620.180                    24831621.600
     -1453.747       -1132.790          39.050          38.700



 108924969.665 8  84876668.25648  20727705.360                    20727705.200
      1433.647        1117.129          51.300          51.250    81340163.582 9
  20727704.220        1070.542          54.450


 110943803.010 8  86449788.98348  21111868.300                    21111867.940
       150.661         117.399          53.250          53.100    82847725.816 9
  21111866.360         112.385          54.700


 131175892.913 6 102214987.73346  24961935.980                    24961933.460
     -1876.759       -1462.409          38.800          38.300



 121166888.599 7  94415805.19447  23057268.360                    23057267.560
     -3572.227       -2783.555          46.150          42.050



 132771286.294 6 103458251.88146  25265486.460                    25265485.820
     -3345.330       -2606.753          39.600          36.200    99147535.899 7
  25265490.740       -2498.177          43.150


 114630754.235 8  89322730.22547  21813477.040                    21813474.840
      2097.940        1634.761          49.250          45.050



 117277380.839 8  91385046.77447  22317108.060                    22317105.720
     -2235.921       -1742.274          48.250          46.150    87577383.847 8
  22317112.580       -1669.628          52.400


 133359792.237 6 103916774.53946  25377511.180                    25377516.860
     -3729.052       -2905.768          37.350          37.600    99586918.151 6
  25377516.840       -2784.735          41.850


 106785417.845 8  83209459.87348  20320574.120                    20320573.880
     -1169.250        -911.104          51.700          51.900    79742517.168 9
  20320574.460        -873.229          56.150


 132173253.470 6 102992152.31546  25151734.140                    25151736.880
      -298.115        -232.300          39.400          38.900    98700820.048 7
  25151739.000        -222.703          43.850


 133638927.606 6 104134242.67346  25430641.260                    25430644.500
      2986.165        2326.883          40.550          40.050    99795320.502 6
  25430644.140        2229.903          39.700


 147143380.900 7                  28000452.640
      2706.938                          42.800                   109879827.642 7
  28000456.360        2021.445          42.600   112746240.644 7  28000453.840
      2074.202          42.650   111313023.300 7  28000455.980        2047.826
        45.650
 123808502.322 8                  23559948.440
       484.556                          52.300                    92454625.907 9
  23559950.920         361.835          54.500    94866331.656 9  23559948.680
       371.241          55.650    93660560.433 9  23559949.660         366.532
        57.900
 124083802.495 8                  23612336.320
      1716.105                          48.650                    92660050.864 8
  23612337.000        1281.441          48.000    95077238.372 8  23612334.040
      1314.900          48.450    93868652.771 8  23612335.340        1298.170
        51.050
 124614769.849 7                  23713372.140
      -771.496                          47.650                    93056569.630 8
  23713371.880        -576.086          50.350    95484106.274 8  23713369.580
      -591.077          51.650    94270336.107 8  23713371.400        -583.581
        53.850
 145445826.616 6                  27677419.400
      2436.415                          39.200                   108612150.145 6
  27677424.800        1819.009          39.400   111445506.918 6  27677421.160
      1866.521          39.950   110028833.183 7  27677422.040        1842.823
        42.500
 130514874.043 8                  24836130.260
     -2191.103                          50.850                    97462488.942 8
  24836131.800       -1636.230          51.050   100004971.460 8  24836130.020
     -1678.876          51.650    98733737.353 9  24836131.440       -1657.539
        54.300
 129625030.379 8                  24666795.040
       679.347                          50.850                    96798003.976 8
  24666798.340         507.267          50.200    99323161.729 8  24666797.040
       520.559          52.250    98060578.004 9  24666798.440         513.904
        54.050
 147197626.078 7                  28010756.720
     -3264.985                          42.000                   109920409.227 6
  28010764.440       -2438.333          41.750   112787866.506 6  28010761.160
     -2501.851          41.500   111354125.521 7  28010764.280       -2469.983
        44.700
 141505875.550 7                  26927630.080
     -2518.472                          42.600                   105670107.693 7
  26927632.840       -1880.838          44.300   108426705.868 7  26927629.260
     -1929.853          42.750   107048402.436 7  26927632.200       -1905.385
        46.700
 24  2  6 19 20  0.0000000  0 22G02G07G08G10G15G16G18G21G23G26G27G30
                                G32E02E10E11E12E19E24E25E31E33
 123703740.907 7  96392579.04447  23540019.480                    23540017.320
      2680.584        2088.771          45.650          42.750



 130534896.101 6 101715532.15046  24839955.800                    24839956.540
     -1466.414       -1142.660          39.350          39.100



 108882151.518 8  84843303.49448  20719557.120                    20719557.060
      1420.873        1107.175          50.750          50.850    81308189.017 9
  20719556.260        1061.144          54.500


 110939570.089 8  86446490.63648  21111062.800                    21111062.400
       131.790         102.694          53.050          52.800    82844564.895 9
  21111061.260          98.396          54.900


 131232455.813 6 102259062.77546  24972699.400                    24972696.900
     -1894.105       -1475.925          37.150          37.400



 121274160.949 7  94499393.99347  23077681.640                    23077680.920
     -3579.394       -2789.140          45.950          42.050



 132871645.424 6 103536453.80346  25284584.120                    25284583.660
     -3344.904       -2606.416          40.050          37.200    99222479.407 7
  25284588.620       -2498.050          43.150


 114567968.808 8  89273806.59447  21801529.180                    21801527.100
      2087.723        1626.799          48.600          45.250



 117344678.486 8  91437486.50747  22329914.400                    22329912.180
     -2250.631       -1753.737          48.750          45.750    87627638.590 8
  22329918.780       -1680.583          52.150


 133471634.713 6 104003924.07646  25398794.360                    25398800.340
     -3727.331       -2904.433          37.250          37.000    99670436.383 6
  25398800.000       -2782.923          38.550


 106820715.230 8  83236964.33948  20327291.000                    20327290.780
     -1183.859        -922.487          51.500          51.350    79768875.606 9
  20327291.280        -883.952          56.000


 132182449.982 6 102999318.42446  25153484.220                    25153486.880
      -315.060        -245.502          41.000          40.900    98707687.546 7
  25153489.240        -235.084          43.150


 133549356.599 6 104064447.16346  25413596.440                    25413599.440
      2985.151        2326.095          40.500          40.600    99728433.159 6
  25413599.520        2229.408          39.200


 147062253.742 7                  27985014.480
      2701.384                          43.100                   109819245.789 6
  27985018.300        2017.274          41.400   112684078.377 7  27985015.560
      2069.878          43.300   111251651.234 7  27985017.740        2043.612
        45.450
 123794085.080 8                  23557204.940
       476.616                          52.250                    92443859.810 9
  23557207.700         355.968          54.450    94855284.700 9  23557205.240
       365.220          55.600    93649653.907 9  23557206.140         360.604
        58.000
 124032421.483 8                  23602558.940
      1709.396                          48.400                    92621681.971 7
  23602559.640        1276.513          47.750    95037868.550 8  23602556.260
      1309.839          48.250    93829783.415 8  23602557.860        1293.213
        51.050
 124638018.972 7                  23717796.320
      -778.433                          47.600                    93073931.010 8
  23717795.940        -581.307          50.250    95501920.557 8  23717793.880
      -596.492          51.750    94287923.936 9  23717795.520        -588.893
        54.050
 145372835.847 6                  27663529.600
      2429.925                          39.300                   108557644.108 6
  27663535.120        1814.630          39.050   111389578.962 6  27663531.460
      1861.940          40.100   109973616.182 7  27663532.220        1838.290
        42.550
 130580760.630 8                  24848668.020
     -2201.265                          50.500                    97511689.943 8
  24848669.720       -1643.836          50.950   100055455.972 8  24848667.900
     -1686.678          51.800    98783580.110 9  24848669.320       -1665.269
        54.450
 129604856.642 8                  24662956.200
       665.596                          51.300                    96782939.178 8
  24662959.280         497.039          50.200    99307703.939 8  24662958.180
       510.029          52.200    98045316.711 9  24662959.540         503.563
        54.300
 147295575.246 7                  28029396.100
     -3264.905                          42.300                   109993552.864 6
  28029404.160       -2437.930          41.700   112862918.291 6  28029400.760
     -2501.689          41.650   111428223.226 7  28029403.620       -2469.670
        44.850
 141581444.849 7                  26942010.360
     -2519.162                          43.000                   105726539.279 7
  26942013.220       -1881.226          43.650   108484609.607 7  26942009.520
     -1930.321          43.250   107105570.096 7  26942012.900       -1905.762
        46.800
 24  2  6 19 20 30.0000000  0 22G02G07G08G10G15G16G18G21G23G26G27G30
                                G32E02E10E11E12E19E24E25E31E33
 123623418.076 7  96329989.92646  23524734.480                    23524732.260
      2674.687        2084.176          45.700          41.300



 130579086.704 6 101749966.32046  24848365.100                    24848365.460
     -1479.200       -1152.627          39.350          39.300



 108839721.807 8  84810241.41148  20711482.900                    20711482.980
      1408.071        1097.200          51.100          51.200    81276504.538 9
  20711482.460        1051.416          54.900


 110935911.602 8  86443639.89348  21110366.580                    21110366.160
       112.528          87.686          52.800          52.750    82841832.937 9
  21110365.580          84.039          55.150


 131289536.439 6 102303541.19846  24983561.400                    24983558.800
     -1910.807       -1488.938          38.050          38.650



 121381650.902 7  94583152.35546  23098136.340                    23098135.380
     -3586.433       -2794.625          45.900          41.600



 132972008.375 6 103614658.69246  25303682.440                    25303681.960
     -3345.304       -2606.731          38.000          37.250    99297425.768 7
  25303687.160       -2498.176          43.850


 114505493.856 8  89225124.89747  21789640.320                    21789638.440
      2077.545        1618.868          48.400          45.500



 117412427.121 8  91490277.66447  22342806.560                    22342804.500
     -2265.645       -1765.437          48.050          46.450    87678230.126 8
  22342810.680       -1691.906          52.000


 133583415.842 6 104091025.86146  25420066.040                    25420071.880
     -3724.792       -2902.448          39.000          39.050    99753908.926 6
  25420071.100       -2781.626          37.950


 106856450.614 8  83264810.09948  20334091.240                    20334090.980
     -1198.395        -933.813          51.900          51.950    79795561.130 9
  20334091.500        -894.885          56.050


 132192156.587 6 103006881.99446  25155331.460                    25155333.880
      -331.892        -258.615          40.550          40.800    98714935.995 7
  25155336.320        -247.913          42.650


 133459818.748 6 103994677.48046  25396558.040                    25396560.580
      2984.413        2325.519          41.150          41.350    99661570.547 6
  25396561.140        2228.437          39.300


 146981306.631 7                  27969610.640
      2695.236                          42.000                   109758798.351 6
  27969614.480        2012.799          41.700   112622054.052 7  27969612.000
      2065.215          43.150   111190415.352 7  27969613.960        2039.070
        45.350
 123779913.439 8                  23554508.160
       468.433                          52.400                    92433277.121 9
  23554511.140         349.812          54.450    94844425.935 9  23554508.440
       358.938          55.550    93638933.181 9  23554509.340         354.365
        57.800
 123981241.118 8                  23592819.620
      1702.894                          48.700                    92583462.915 7
  23592820.380        1271.627          47.800    94998652.473 7  23592816.620
      1304.841          47.950    93791065.849 8  23592818.540        1288.231
        50.850
 124661488.872 8                  23722262.460
      -785.832                          48.000                    93091457.253 8
  23722262.080        -586.910          50.250    95519903.995 8  23722260.180
      -602.126          51.700    94305678.774 8  23722261.640        -594.529
        53.850
 145300037.849 6                  27649676.440
      2423.418                          39.750                   108503282.063 6
  27649681.920        1809.826          38.950   111333798.772 6  27649678.320
      1856.938          40.100   109918545.068 7  27649679.160        1833.214
        42.350
 130646963.235 8                  24861265.920
     -2211.833                          50.850                    97561126.928 8
  24861267.760       -1651.743          50.850   100106182.625 8  24861265.920
     -1694.792          51.700    98833661.933 9  24861267.320       -1673.292
        54.200
 129585105.973 8                  24659198.020
       651.416                          52.000                    96768190.311 8
  24659200.880         486.447          50.300    99292570.323 8  24659199.780
       499.181          52.150    98030375.467 9  24659201.140         492.822
        54.100
 147393528.639 6                  28048036.340
     -3265.191                          41.000                   110066699.696 6
  28048044.220       -2438.287          40.350   112937973.293 6  28048041.340
     -2501.674          41.600   111502324.151 7  28048043.800       -2469.978
        43.950
 141657041.349 7                  26956395.940
     -2520.196                          42.250                   105782991.197 7
  26956398.380       -1882.056          43.050   108542534.165 7  26956395.340
     -1931.080          43.550   107162758.341 7  26956398.520       -1906.640
        46.300
 24  2  6 19 21  0.0000000  0 22G02G07G08G10G15G16G18G21G23G26G27G30
                                G32E02E10E11E12E19E24E25E31E33
 123543273.498 7  96267539.72747  23509483.260                    23509481.240
      2668.585        2079.421          45.100          42.700



 130623658.233 6 101784697.35146  24856846.920                    24856846.820
     -1491.871       -1162.498          40.300          40.050



 108797678.213 8  84777480.20348  20703482.260                    20703482.600
      1395.162        1087.140          51.150          51.300    81245108.393 9
  20703482.320        1041.806          55.250


 110932822.787 8  86441233.05148  21109778.700                    21109778.320
        93.501          72.859          52.400          52.600    82839526.377 9
  21109778.320          69.923          55.400


 131347128.664 6 102348418.30346  24994520.880                    24994518.200
     -1927.997       -1502.334          40.400          40.000



 121489351.861 7  94667075.13146  23118631.120                    23118630.220
     -3593.702       -2800.289          45.750          41.350



 133072369.838 6 103692862.44045  25322780.660                    25322780.240
     -3345.538       -2606.912          38.550          35.400    99372370.995 7
  25322785.580       -2498.022          44.550


 114443324.227 7  89176681.11347  21777809.480                    21777807.820
      2067.199        1610.807          47.950          45.200



 117480620.174 8  91543415.11847  22355783.280                    22355781.360
     -2280.570       -1777.067          48.750          45.750    87729153.518 8
  22355787.140       -1702.887          51.900


 133695129.304 6 104178074.92546  25441324.800                    25441330.540
     -3722.483       -2900.649          38.600          38.350    99837330.823 6
  25441329.700       -2779.786          39.650


 106892619.441 8  83292993.60148  20340973.940                    20340973.600
     -1212.817        -945.052          51.650          51.650    79822570.314 9
  20340974.180        -905.590          55.950


 132202368.164 6 103014839.04146  25157274.940                    25157277.040
      -348.708        -271.719          40.100          41.000    98722561.493 7
  25157279.580        -260.353          43.000


 133370312.669 7 103924932.51947  25379525.540                    25379527.560
      2982.699        2324.183          42.300          42.100    99594731.604 6
  25379528.580        2227.576          40.400


 146900536.888 7                  27954240.480
      2689.333                          42.400                   109698483.370 7
  27954244.340        2008.519          42.200   112560165.636 7  27954242.040
      2060.784          43.300   111129313.650 7  27954243.980        2034.762
        45.650
 123765982.726 8                  23551857.200
       460.524                          52.250                    92422874.343 9
  23551860.220         343.875          54.400    94833751.783 9  23551857.500
       352.854          55.600    93628394.711 9  23551858.400         348.372
        57.700
 123930257.227 8                  23583117.640
      1696.254                          48.400                    92545390.556 7
  23583118.380        1266.777          47.700    94959586.916 7  23583114.380
      1299.711          47.850    93752496.888 8  23583116.600        1283.288
        50.650
 124685174.463 8                  23726769.680
      -792.889                          48.050                    93109144.557 8
  23726769.240        -592.157          50.200    95538052.713 8  23726767.400
      -607.628          51.600    94323596.788 8  23726768.820        -599.933
        53.750
 145227430.093 6                  27635859.560
      2417.159                          39.100                   108449062.070 6
  27635865.080        1805.048          39.000   111278164.343 6  27635861.500
      1852.086          40.800   109863617.862 7  27635862.240        1828.480
        42.700
 130713476.227 8                  24873922.840
     -2222.150                          50.750                    97610795.697 8
  24873924.940       -1659.338          50.950   100157147.107 8  24873922.960
     -1702.632          51.800    98883978.558 9  24873924.360       -1680.990
        54.250
 129565774.875 8                  24655519.740
       637.522                          52.200                    96753754.757 8
  24655522.420         476.083          50.550    99277758.185 8  24655521.180
       488.487          51.950    98015751.622 9  24655522.540         482.323
        54.100
 147491480.401 7                  28066676.160
     -3264.837                          42.100                   110139845.290 6
  28066683.520       -2438.167          39.450   113013027.051 6  28066681.520
     -2501.651          40.650   111576423.824 7  28066683.420       -2469.918
        42.950
 141732660.153 7                  26970785.820
     -2520.756                          42.800                   105839459.765 7
  26970787.800       -1882.389          42.950   108600475.832 7  26970785.360
     -1931.562          43.950   107219963.454 7  26970788.240       -1906.986
        46.400
 24  2  6 19 21 30.0000000  0 22G02G07G08G10G15G16G18G21G23G26G27G30
                                G32E02E10E11E12E19E24E25E31E33
 123463313.483 7  96205233.34847  23494267.080                    23494265.420
      2662.282        2074.509          45.600          42.550



 130668614.165 6 101819727.88046  24865401.980                    24865401.540
     -1504.842       -1172.604          41.250          41.350



 108756027.096 8  84745024.82848  20695556.360                    20695556.860
      1381.928        1076.828          51.950          52.000    81214005.327 9
  20695556.760        1031.949          55.400


 110930308.967 8  86439274.25748  21109300.180                    21109299.860
        74.327          57.918          52.450          52.400    82837649.204 9
  21109300.340          55.499          55.600


 131405235.593 6 102393696.45546  25005578.160                    25005575.520
     -1944.974       -1515.565          38.300          38.100



 121597266.652 7  94751164.53846  23139166.620                    23139165.640
     -3600.656       -2805.708          45.600          40.300



 133172734.339 6 103771068.56346  25341879.420                    25341878.880
     -3345.745       -2607.068          38.700          36.850    99447318.516 7
  25341884.460       -2498.335          44.100


 114381465.418 8  89128479.52147  21766037.920                    21766036.340
      2056.864        1602.753          48.350          45.200



 117549260.727 8  91596901.26547  22368845.080                    22368843.440
     -2295.250       -1788.506          48.800          45.850    87780411.095 8
  22368848.760       -1714.104          51.650


 133806778.376 6 104265073.74946  25462571.320                    25462577.140
     -3720.257       -2898.917          38.500          38.650    99920704.592 6
  25462576.180       -2778.209          39.550


 106929226.775 8  83321518.80048  20347940.140                    20347939.680
     -1227.543        -956.526          51.800          51.800    79849906.961 9
  20347940.160        -916.622          55.850


 132213089.340 6 103023193.19646  25159315.280                    25159317.020
      -365.448        -284.764          40.650          40.750    98730567.600 7
  25159319.840        -273.146          43.400


 133280846.570 6 103855218.69246  25362500.660                    25362502.300
      2981.706        2323.407          41.000          41.350    99527922.538 6
  25362504.020        2226.482          41.050


 146819951.694 7                  27938905.460
      2683.285                          43.100                   109638306.270 6
  27938909.600        2003.746          41.900   112498418.652 7  27938907.000
      2055.954          43.300   111068351.619 7  27938908.980        2029.793
        45.550
 123752298.075 8                  23549253.020
       452.180                          52.150                    92412655.317 9
  23549255.980         337.601          54.350    94823266.167 9  23549253.440
       346.448          55.650    93618042.395 9  23549254.300         342.015
        57.800
 123879475.352 8                  23573454.060
      1689.471                          48.900                    92507469.077 7
  23573454.740        1261.675          47.650    94920676.165 7  23573450.640
      1294.671          47.900    93714080.779 8  23573453.080        1278.095
        50.700
 124709080.486 8                  23731318.900
      -800.408                          48.250                    93126996.467 8
  23731318.340        -597.707          50.200    95556370.317 8  23731316.440
      -613.311          51.650    94341681.545 8  23731317.960        -605.515
        53.750
 145155020.305 6                  27622080.400
      2410.275                          39.050                   108394989.871 6
  27622085.740        1800.103          39.200   111222681.554 6  27622082.240
      1847.023          41.150   109808840.358 7  27622083.100        1823.615
        42.950
 130780303.762 8                  24886639.700
     -2232.654                          50.900                    97660699.364 8
  24886642.080       -1667.241          50.850   100208352.607 8  24886639.900
     -1710.771          51.800    98934533.140 9  24886641.220       -1688.996
        54.200
 129546869.512 8                  24651922.420
       623.168                          52.400                    96739637.134 8
  24651925.080         465.368          50.750    99263272.278 8  24651923.500
       477.458          51.950    98001449.857 9  24651924.940         471.438
        54.300
 147589434.462 6                  28085316.520
     -3264.978                          41.950                   110212992.619 6
  28085323.120       -2438.375          38.600   113088082.595 6  28085321.700
     -2501.769          40.050   111650525.256 7  28085323.600       -2470.052
        42.250
 141808306.128 7                  26985180.980
     -2521.896                          43.650                   105895948.621 7
  26985182.580       -1883.258          43.300   108658438.287 7  26985180.520
     -1932.354          44.150   107277189.105 7  26985183.040       -1907.757
        46.750
 24  2  6 19 22  0.0000000  0 22G02G07G08G10G15G16G18G21G23G26G27G30
                                G32E02E10E11E12E19E24E25E31E33
 123383535.523 7  96143068.84947  23479085.620                    23479084.300
      2656.218        2069.786          45.450          43.600



 130713949.367 6 101855053.94446  24874029.140                    24874028.740
     -1517.354       -1182.357          41.250          41.700



 108714767.426 8  84712874.47648  20687704.900                    20687705.480
      1368.715        1066.532          51.700          51.650    81183194.584 9
  20687705.380        1022.122          55.150


 110928367.478 8  86437761.42348  21108930.540                    21108930.340
        55.271          43.068          52.200          52.400    82836199.418 9
  21108931.080          41.177          55.400


 131463852.947 6 102439372.37046  25016732.700                    25016730.000
     -1962.044       -1528.863          37.650          37.350



 121705389.785 7  94835416.29946  23159741.740                    23159740.680
     -3607.548       -2811.077          45.600          41.450



 133273098.007 6 103849273.99646  25360977.960                    25360977.480
     -3345.400       -2606.804          38.300          38.100    99522265.386 7
  25360983.080       -2498.276          43.950


 114319916.225 8  89080519.18247  21754325.360                    21754323.760
      2046.519        1594.691          49.050          45.650



 117618343.536 8  91650732.04047  22381991.060                    22381989.600
     -2310.049       -1800.038          48.650          45.650    87831998.925 8
  22381994.560       -1725.129          51.400


 133918357.974 6 104352018.39546  25483804.660                    25483810.540
     -3718.204       -2897.320          38.800          38.850   100004026.472 6
  25483809.300       -2776.603          38.850


 106966269.391 8  83350383.17448  20354989.180                    20354988.760
     -1241.921        -967.730          52.150          52.200    79877568.671 9
  20354988.980        -927.455          55.750


 132224316.445 6 103031941.58146  25161451.920                    25161453.580
      -382.377        -297.956          41.600          41.750    98738951.463 7
  25161456.360        -285.777          43.750


 133191420.525 6 103785536.11946  25345483.280                    25345484.960
      2980.156        2322.202          40.850          40.850    99461143.374 6
  25345487.120        2225.401          41.600


 146739549.849 7                  27923605.340
      2676.948                          42.850                   109578266.039 6
  27923609.340        1998.946          41.900   112436812.154 7  27923606.940
      2051.235          43.500   111007528.244 7  27923608.920        2025.095
        45.550
 123738856.218 8                  23546695.020
       444.042                          52.050                    92402617.586 9
  23546697.880         331.576          54.200    94812966.584 9  23546695.560
       340.208          55.650    93607873.733 9  23546696.400         335.902
        57.700
 123828892.682 8                  23563828.360
      1682.762                          48.850                    92469696.355 7
  23563828.860        1256.613          47.450    94881918.063 8  23563824.940
      1289.326          48.050    93675815.364 8  23563827.440        1272.974
        50.650
 124733203.277 8                  23735909.360
      -807.672                          48.400                    93145010.257 8
  23735908.760        -603.187          50.100    95574854.036 8  23735906.720
      -618.925          51.600    94359930.300 8  23735908.360        -611.046
        53.650
 145082807.741 6                  27608338.800
      2403.916                          39.350                   108341065.012 6
  27608344.020        1794.896          39.400   111167349.948 6  27608340.660
      1841.841          41.800   109754212.121 7  27608341.500        1818.508
        43.250
 130847441.506 8                  24899415.600
     -2243.106                          51.150                    97710834.673 8
  24899418.140       -1675.023          50.950   100259795.800 8  24899415.780
     -1718.745          51.950    98985322.390 9  24899417.120       -1696.888
        54.250
 129528387.710 8                  24648405.560
       608.964                          52.300                    96725835.800 8
  24648408.340         454.729          50.800    99249110.899 8  24648406.320
       466.577          51.850    97987468.506 9  24648407.900         460.634
        54.100
 147687386.434 6                  28103956.300
     -3265.236                          41.600                   110286138.358 6
  28103962.240       -2438.278          38.600   113163136.494 6  28103961.240
     -2501.825          40.850   111724625.078 7  28103963.420       -2469.958
        42.650
 141883975.783 7                  26999580.700
     -2522.848                          44.100                   105952455.150 7
  26999581.980       -1883.816          43.650   108716418.907 7  26999580.080
     -1932.969          44.350   107334432.680 7  26999582.380       -1908.355
        46.950
 24  2  6 19 22 30.0000000  0 22G02G07G08G10G15G16G18G21G23G26G27G30
                                G32E02E10E11E12E19E24E25E31E33
 123303939.153 7  96081045.83347  23463938.780                    23463937.680
      2650.237        2065.125          45.300          43.100



 130759660.214 6 101890672.72446  24882727.660                    24882727.580
     -1530.112       -1192.299          41.650          41.750



 108673898.842 8  84681028.86948  20679927.780                    20679928.460
      1355.706        1056.396          50.950          51.050    81152675.877 9
  20679928.080        1012.424          55.150


 110926996.327 8  86436693.01348  21108669.540                    21108669.400
        36.073          28.109          52.250          52.250    82835175.520 9
  21108670.100          26.998          55.450


 131522977.104 6 102485443.16446  25027983.580                    25027981.060
     -1979.376       -1542.371          41.050          41.450



 121813717.002 7  94919827.06847  23180355.680                    23180354.780
     -3614.255       -2816.303          44.900          42.900



 133373458.556 6 103927476.99746  25380076.080                    25380075.640
     -3345.341       -2606.754          39.050          38.600    99597209.948 7
  25380080.940       -2498.191          44.650


 114258674.828 8  89032798.69547  21742671.460                    21742669.740
      2036.123        1586.592          48.650          46.050



 117687865.049 8  91704904.64147  22395220.480                    22395219.260
     -2324.833       -1811.559          48.250          46.250    87883914.337 8
  22395223.940       -1736.004          51.250


 134029864.700 6 104438906.29246  25505024.100                    25505030.320
     -3715.774       -2895.425          38.450          38.650   100087293.903 6
  25505028.800       -2774.735          40.200


 107003745.669 8  83379585.47048  20362120.720                    20362120.300
     -1256.551        -979.130          51.900          51.800    79905554.203 9
  20362120.440        -938.295          56.050


 132236047.305 7 103041082.52547  25163684.460                    25163685.960
      -399.296        -311.143          42.300          42.150    98747711.523 7
  25163688.680        -298.229          44.600


 133102036.156 6 103715886.00646  25328474.040                    25328475.860
      2978.750        2321.105          40.350          40.650    99394395.341 7
  25328478.080        2224.372          42.000


 146659331.851 7                  27908340.260
      2670.735                          42.600                   109518363.116 6
  27908344.280        1994.409          41.650   112375346.536 7  27908342.100
      2046.528          44.550   110946843.969 7  27908343.820        2020.590
        45.700
 123725655.503 8                  23544182.960
       435.895                          51.950                    92392759.931 9
  23544185.700         325.533          54.350    94802851.760 9  23544183.500
       334.044          55.650    93597887.498 9  23544184.360         329.786
        57.600
 123778507.851 8                  23554240.280
      1676.185                          48.450                    92432071.362 7
  23554240.620        1251.664          47.450    94843311.539 8  23554237.000
      1284.478          48.400    93637699.608 8  23554239.480        1267.999
        50.500
 124757540.954 8                  23740540.760
      -814.835                          48.550                    93163184.517 8
  23740540.080        -608.496          50.200    95593502.404 8  23740537.900
      -624.379          51.650    94378341.613 8  23740539.680        -616.427
        53.550
 145010792.951 6                  27594634.780
      2396.922                          38.750                   108287287.777 6
  27594639.880        1790.088          40.000   111112169.836 7  27594636.600
      1836.761          42.100   109699733.455 7  27594637.580        1813.408
        43.550
 130914886.812 8                  24912250.000
     -2253.270                          50.900                    97761199.653 8
  24912252.880       -1682.634          51.000   100311474.642 8  24912250.240
     -1726.532          52.000    99036344.298 9  24912251.520       -1704.580
        54.000
 129510328.899 8                  24644969.040
       594.835                          51.850                    96712350.341 8
  24644972.040         444.182          51.050    99235273.632 8  24644969.580
       455.766          51.800    97973807.144 9  24644971.340         449.955
        54.050
 147785333.448 7                  28122595.140
     -3264.912                          42.000                   110359280.375 6
  28122601.060       -2437.840          39.900   113238186.596 6  28122600.000
     -2501.623          40.250   111798721.134 7  28122602.080       -2469.645
        42.900
 141959667.317 7                  27013984.500
     -2523.431                          43.650                   106008978.039 7
  27013985.720       -1884.353          44.300   108774416.298 7  27013983.840
     -1933.460          44.800   107391692.818 7  27013985.940       -1908.884
        47.250
 24  2  6 19 23  0.0000000  0 22G02G07G08G10G15G16G18G21G23G26G27G30
                                G32E02E10E11E12E19E24E25E31E33
 123224526.303 7  96019165.81747  23448826.960                    23448825.960
      2643.854        2060.150          45.050          43.950



 130805746.394 6 101926583.99146  24891497.640                    24891498.080
     -1542.747       -1202.143          41.600          40.700



 108633423.934 8  84649490.02648  20672225.560                    20672226.220
      1342.411        1046.036          51.300          51.100    81122451.165 9
  20672225.620        1002.390          54.950


 110926196.815 8  86436070.03848  21108517.420                    21108517.300
        16.895          13.166          52.500          52.650    82834578.510 9
  21108517.680          12.611          55.150


 131582607.250 6 102531908.22346  25039330.880                    25039328.380
     -1996.054       -1555.366          38.950          38.600



 121922247.439 7  95004396.19947  23201008.260                    23201007.300
     -3621.334       -2821.819          44.300          42.100



 133473816.604 6 104005678.08146  25399173.840                    25399173.020
     -3345.564       -2606.934          39.750          36.400    99672152.642 7
  25399178.280       -2498.387          43.750


 114197743.091 8  88985319.50147  21731076.500                    21731074.720
      2025.804        1578.553          49.100          44.950



 117757824.325 8  91759418.37547  22408533.260                    22408532.100
     -2339.406       -1822.913          48.600          46.200    87936156.674 8
  22408536.620       -1747.032          50.850


 134141297.861 6 104525736.82746  25526229.560                    25526235.840
     -3713.503       -2893.656          39.550          39.900   100170506.338 6
  25526234.580       -2772.940          41.250


 107041656.719 8  83409126.55748  20369334.940                    20369334.480
     -1271.223        -990.563          51.650          51.600    79933864.410 9
  20369334.700        -949.281          56.050


 132248282.580 6 103050616.46546  25166012.720                    25166014.580
      -416.411        -324.479          41.850          41.900    98756848.227 7
  25166017.020        -310.979          44.750


 133012697.770 6 103646271.68846  25311473.600                    25311475.280
      2977.190        2319.889          41.100          40.750    99327681.680 6
  25311477.620        2223.076          41.150


 146579300.905 7                  27893110.860
      2664.413                          43.250                   109458599.865 7
  27893114.760        1989.712          42.750   112314024.240 7  27893112.540
      2041.447          43.350   110886301.214 7  27893114.540        2015.445
        46.000
 123712697.116 8                  23541717.000
       427.732                          51.850                    92383083.235 9
  23541719.740         319.343          54.300    94792922.625 9  23541717.480
       327.725          55.350    93588084.582 9  23541718.420         323.541
        57.600
 123728322.557 8                  23544690.160
      1669.360                          48.450                    92394595.347 7
  23544690.320        1246.535          47.300    94804857.898 8  23544687.120
      1278.938          48.350    93599734.775 8  23544689.500        1262.773
        50.600
 124782094.217 8                  23745213.260
      -822.241                          48.700                    93181519.763 8
  23745212.440        -614.040          50.150    95612315.957 8  23745210.160
      -630.052          51.600    94396916.012 8  23745212.020        -622.077
        53.700
 144938979.457 6                  27580968.940
      2390.062                          38.050                   108233660.894 6
  27580974.220        1784.743          40.200   111057143.995 7  27580970.900
      1831.353          42.400   109645407.105 7  27580971.980        1807.931
        44.000
 130982639.874 8                  24925143.020
     -2263.789                          50.800                    97811794.462 8
  24925146.040       -1690.520          51.050   100363389.322 8  24925143.160
     -1734.604          51.900    99087599.044 9  24925144.500       -1712.567
        54.250
 129492695.320 8                  24641613.280
       580.460                          51.400                    96699182.425 8
  24641616.600         433.400          50.950    99221762.196 8  24641613.700
       444.753          51.450    97960467.462 9  24641615.680         439.072
        54.000
 147883275.511 6                  28141233.040
     -3265.018                          41.700                   110432418.688 6
  28141239.360       -2437.945          40.600   113313232.911 6  28141237.480
     -2501.687          40.750   111872813.452 7  28141240.160       -2469.790
        43.500
 142035381.668 7                  27028392.620
     -2524.479                          44.050                   106065517.955 7
  27028393.980       -1885.088          44.850   108832431.176 7  27028391.860
     -1934.317          44.600   107448970.219 7  27028393.840       -1909.731
        47.600
 24  2  6 19 23 30.0000000  0 22G02G07G08G10G15G16G18G21G23G26G27G30
                                G32E02E10E11E12E19E24E25E31E33
 123145297.465 7  95957429.17947  23433750.160                    23433749.080
      2637.632        2055.301          45.000          43.750



 130852205.446 7 101962785.79647  24900338.580                    24900339.440
     -1554.810       -1211.541          42.100          42.050



 108593344.879 8  84618259.63948  20664598.760                    20664599.160
      1329.313        1035.830          51.200          51.150    81092522.052 9
  20664598.580         992.608          55.000


 110925968.938 8  86435892.49848  21108474.160                    21108474.100
        -1.975          -1.538          52.700          52.700    82834408.383 9
  21108473.920          -1.542          55.000


 131642742.095 6 102578766.58346  25050774.080                    25050771.900
     -2013.212       -1568.735          37.250          37.900



 122030978.971 7  95089122.01046  23221699.200                    23221698.380
     -3627.773       -2826.839          44.050          41.850



 133574171.520 6 104083876.68446  25418270.960                    25418269.860
     -3345.366       -2606.779          39.850          38.500    99747092.966 7
  25418274.960       -2498.006          43.600


 114137121.456 8  88938081.93947  21719540.560                    21719538.640
      2015.563        1570.570          49.250          45.350



 117828219.379 8  91814271.66447  22421929.000                    22421927.800
     -2353.840       -1834.160          48.700          45.700    87988724.414 8
  22421932.260       -1757.732          50.600


 134252655.621 6 104612508.55346  25547420.720                    25547427.180
     -3710.535       -2891.346          38.550          38.200   100253662.490 6
  25547425.860       -2771.057          38.850


 107080002.450 8  83439006.34948  20376631.840                    20376631.360
     -1285.433       -1001.636          51.600          51.450    79962499.215 9
  20376631.760        -959.970          56.150


 132261021.627 7 103060543.00147  25168436.980                    25168439.180
      -433.070        -337.456          42.400          42.450    98766361.130 7
  25168441.260        -323.454          45.050


 132923408.556 6 103576695.73646  25294482.480                    25294484.240
      2975.457        2318.539          40.500          40.400    99261004.748 6
  25294486.400        2221.846          40.800


 146499459.049 7                  27877917.560
      2658.286                          42.650                   109398977.863 7
  27877921.380        1984.898          42.250   112252846.853 7  27877918.960
      2036.694          43.600   110825901.515 7  27877920.900        2010.749
        45.950
 123699980.986 8                  23539296.980
       419.719                          51.450                    92373587.439 9
  23539299.960         313.428          54.400    94783179.113 9  23539297.500
       321.592          55.350    93578464.929 9  23539298.560         317.494
        57.750
 123678337.103 8                  23535178.020
      1662.710                          48.100                    92357268.586 7
  23535178.100        1241.605          47.100    94766557.384 8  23535175.340
      1274.062          48.600    93561921.142 8  23535177.600        1257.782
        50.800
 124806862.655 8                  23749926.660
      -829.340                          48.750                    93200015.692 8
  23749925.720        -619.333          50.100    95631294.393 8  23749923.460
      -635.450          51.700    94415653.198 8  23749925.320        -627.422
        53.750
 144867369.601 6                  27567341.680
      2383.541                          37.950                   108180186.089 6
  27567347.200        1779.938          40.650   111002274.200 7  27567343.780
      1826.258          42.400   109591234.792 7  27567345.120        1803.143
        44.250
 131050699.565 8                  24938094.360
     -2273.858                          50.800                    97862618.232 8
  24938097.620       -1698.023          51.050   100415538.927 8  24938094.460
     -1742.332          51.850    99139085.732 9  24938095.820       -1720.170
        54.300
 129475487.959 8                  24638338.540
       566.379                          51.250                    96686332.793 8
  24638342.220         422.946          50.900    99208577.349 8  24638339.020
       433.990          51.550    97947450.225 9  24638341.120         428.451
        54.100
 147981211.358 6                  28159869.780
     -3264.426                          41.550                   110505552.354 6
  28159876.700       -2437.959          40.400   113388274.434 6  28159874.580
     -2501.389          41.800   111946901.046 7  28159877.120       -2469.662
        44.000
 142111118.561 7                  27042804.860
     -2525.176                          43.150                   106122074.702 7
  27042806.520       -1885.605          45.100   108890463.323 7  27042804.140
     -1934.832          45.300   107506264.663 8  27042806.160       -1910.207
        48.100
 24  2  6 19 24  0.0000000  0 22G02G07G08G10G15G16G18G21G23G26G27G30
                                G32E02E10E11E12E19E24E25E31E33
 123066250.896 7  95895834.57147  23418708.040                    23418706.880
      2631.840        2050.788          45.000          42.750



 130899033.222 6 101999274.90447  24909249.760                    24909250.980
     -1567.086       -1221.108          41.650          42.000



 108553660.591 8  84587336.85648  20657047.120                    20657047.280
      1316.188        1025.602          51.350          51.050    81062887.728 9
  20657046.860         982.805          54.950


 110926310.355 8  86436158.56048  21108539.280                    21108539.240
       -20.928         -16.307          53.100          53.150    82834663.367 9
  21108538.500         -15.633          54.650


 131703376.996 6 102626014.53146  25062312.700                    25062310.520
     -2029.476       -1581.409          39.150          39.550



 122139906.428 7  95174000.51446  23242427.320                    23242426.580
     -3634.255       -2831.888          43.650          41.950



 133674519.917 6 104162070.23446  25437366.860                    25437365.440
     -3344.728       -2606.281          39.900          36.900    99822028.453 7
  25437370.480       -2497.803          43.550


 114076808.434 8  88891084.84147  21708063.380                    21708061.420
      2005.178        1562.479          49.200          45.650



 117899045.444 8  91869460.81047  22435406.800                    22435405.460
     -2368.020       -1845.210          48.650          46.000    88041614.020 8
  22435409.980       -1768.379          50.050


 134363933.653 6 104699218.09846  25568596.580                    25568603.340
     -3707.668       -2889.113          39.100          39.050   100336759.030 6
  25568601.500       -2768.909          37.650


 107118780.129 8  83469222.72948  20384010.960                    20384010.380
     -1299.759       -1012.799          51.600          51.600    79991456.573 9
  20384011.140        -970.647          55.950


 132274261.211 7 103070859.55647  25170956.520                    25170958.840
      -449.867        -350.544          42.250          42.400    98776247.811 7
  25170960.560        -335.837          44.850


 132834169.078 6 103507158.55446  25277500.820                    25277502.920
      2974.151        2317.523          40.650          40.900    99194364.953 6
  25277504.700        2220.762          41.000


 146419805.668 7                  27862760.200
      2651.838                          42.950                   109339496.550 6
  27862763.540        1980.408          41.550   112191813.849 7  27862761.400
      2032.046          44.800   110765644.359 7  27862763.160        2006.074
        45.900
 123687504.392 8                  23536922.520
       411.785                          51.500                    92364270.531 9
  23536925.760         307.508          54.050    94773619.149 9  23536923.060
       315.543          55.550    93569026.494 9  23536924.300         311.521
        57.600
 123628549.179 8                  23525703.540
      1656.275                          48.050                    92320089.323 7
  23525703.560        1236.750          46.950    94728408.223 8  23525701.160
      1269.035          49.000    93524256.928 8  23525703.280        1252.910
        50.750
 124831843.280 8                  23754680.440
      -836.278                          48.650                    93218670.075 8
  23754679.320        -624.435          49.850    95650435.410 8  23754677.200
      -640.752          52.000    94434550.895 8  23754678.960        -632.607
        53.700
 144795963.165 6                  27553753.000
      2376.994                          36.450                   108126863.209 6
  27553759.000        1774.809          40.850   110947560.280 7  27553755.440
      1821.213          42.600   109537216.398 7  27553756.960        1798.032
        44.400
 131119062.158 8                  24951103.260
     -2283.857                          50.400                    97913668.203 8
  24951106.680       -1705.426          50.900   100467920.634 8  24951103.440
     -1749.931          52.150    99190801.570 9  24951104.780       -1727.679
        54.250
 129458705.133 8                  24635144.620
       552.230                          51.050                    96673800.182 8
  24635148.540         412.400          50.600    99195717.794 8  24635145.280
       423.156          51.850    97934754.140 9  24635147.340         417.754
        54.000
 148079137.142 6                  28178504.640
     -3264.312                          41.150                   110578678.480 6
  28178511.800       -2437.447          39.450   113463308.212 6  28178509.480
     -2501.001          41.350   112020981.001 7  28178511.940       -2469.226
        43.200
 142186875.024 7                  27057220.720
     -2525.662                          43.800                   106178646.057 7
  27057223.060       -1885.998          45.700   108948510.456 7  27057220.440
     -1935.267          45.800   107563573.911 8  27057222.100       -1910.635
        48.600
 24  2  6 19 24 30.0000000  0 22G02G07G08G10G15G16G18G21G23G26G27G30
                                G32E02E10E11E12E19E24E25E31E33
 122987392.738 7  95834386.77847  23403701.780                    23403700.340
      2625.866        2046.135          45.500          42.300



 130946232.973 6 102036053.88046  24918231.620                    24918233.160
     -1579.245       -1230.580          41.250          41.600



 108514378.373 8  84556727.37248  20649572.040                    20649572.100
      1302.916        1015.261          51.200          51.200    81033553.643 9
  20649571.740         972.963          55.550


 110927226.079 8  86436872.14248  21108713.640                    21108713.620
       -39.890         -31.082          53.100          53.150    82835347.224 9
  21108712.440         -29.784          55.000


 131764515.547 6 102673654.99546  25073946.960                    25073944.640
     -2046.105       -1594.366          38.500          38.800



 122249032.960 7  95259034.12246  23263193.440                    23263192.760
     -3640.737       -2836.939          42.800          41.250



 133774866.650 6 104240262.46746  25456462.080                    25456460.740
     -3344.407       -2606.033          40.300          38.300    99896962.692 7
  25456465.720       -2497.527          44.400


 114016810.322 8  88844333.12547  21696646.180                    21696644.100
      1995.071        1554.603          48.950          46.100



 117970305.817 8  91924988.38947  22448967.360                    22448965.720
     -2382.305       -1856.341          48.650          45.450    88094827.960 8
  22448970.380       -1779.028          50.350


 134475135.406 6 104785868.18646  25589757.960                    25589765.000
     -3705.132       -2887.140          38.200          37.550   100419798.617 6
  25589762.640       -2766.832          36.750


 107157995.075 8  83499779.83948  20391473.300                    20391472.620
     -1314.174       -1024.031          51.600          51.350    80020740.467 9
  20391473.620        -981.408          56.150


 132288006.029 6 103081569.80046  25173572.240                    25173574.700
      -466.442        -363.463          41.750          41.700    98786511.761 7
  25173576.180        -348.169          44.750


 132744987.887 6 103437666.76046  25260529.980                    25260532.300
      2971.985        2315.835          40.500          40.350    99127768.673 6
  25260533.860        2219.313          41.400


 146340348.142 7                  27847640.140
      2645.570                          43.100                   109280161.541 7
  27847643.220        1975.507          43.050   112130930.949 7  27847641.160
      2027.088          43.800   110705535.391 7  27847643.000        2001.404
        46.400
 123675272.648 8                  23534594.800
       403.882                          51.650                    92355136.466 9
  23534598.080         301.613          54.300    94764246.804 9  23534595.300
       309.443          55.350    93559773.288 9  23534596.660         305.516
        57.700
 123578964.480 8                  23516267.760
      1649.711                          48.200                    92283061.836 7
  23516267.700        1231.896          47.250    94690414.811 8  23516265.700
      1264.029          48.950    93486746.477 8  23516267.640        1247.956
        50.950
 124857040.942 8                  23759475.400
      -843.298                          48.700                    93237486.534 8
  23759474.280        -629.727          50.250    95669742.729 8  23759472.300
      -646.154          52.000    94453612.782 9  23759473.880        -637.932
        54.050
 144724767.710 6                  27540204.600
      2370.032                          36.550                   108073697.829 6
  27540210.940        1769.647          41.650   110893007.975 7  27540207.240
      1815.891          42.050   109483357.548 7  27540208.900        1792.841
        44.700
 131187731.914 8                  24964170.660
     -2293.905                          50.450                    97964947.550 8
  24964174.320       -1712.939          51.250   100520537.714 8  24964170.760
     -1757.613          51.850    99242749.786 9  24964172.220       -1735.322
        54.400
 129442353.176 8                  24632032.760
       538.157                          51.300                    96661589.332 8
  24632036.820         401.811          50.850    99183188.390 8  24632033.720
       412.287          51.900    97922384.013 9  24632035.560         407.072
        54.250
 148177057.040 6                  28197138.440
     -3263.896                          40.400                   110651800.199 6
  28197145.720       -2437.257          39.250   113538337.489 6  28197143.320
     -2500.855          40.150   112095056.495 7  28197145.620       -2469.125
        42.550
 142262656.272 7                  27071641.460
     -2526.128                          44.750                   106235235.929 7
  27071644.300       -1886.506          46.300   109006576.587 7  27071641.300
     -1935.736          45.950   107620901.909 8  27071642.840       -1911.115
        49.150
 24  2  6 19 25  0.0000000  0 22G02G07G08G10G15G16G18G21G23G26G27G30
                                G32E02E10E11E12E19E24E25E31E33
 122908718.659 7  95773082.40546  23388730.580                    23388728.880
      2619.305        2041.021          45.650          41.250



 130993797.421 6 102073117.01246  24927282.760                    24927284.760
     -1591.724       -1240.309          40.800          40.850



 108475494.106 8  84526427.97848  20642172.660                    20642172.700
      1289.416        1004.741          51.300          51.350    81004516.740 9
  20642172.420         962.836          55.250


 110928710.782 8  86438029.07748  21108996.160                    21108996.240
       -58.994         -45.969          53.000          52.850    82836455.966 9
  21108994.860         -44.127          54.700


 131826150.721 6 102721682.43446  25085675.860                    25085673.400
     -2062.516       -1607.155          37.300          37.200



 122358350.830 7  95344216.82746  23283995.920                    23283995.140
     -3646.961       -2841.788          43.500          41.350



 133875205.677 6 104318448.74946  25475555.840                    25475554.380
     -3344.509       -2606.108          40.700          39.050    99971891.202 7
  25475559.560       -2497.694          43.400


 113957120.897 8  88797821.92547  21685287.720                    21685285.480
      1984.529        1546.387          49.250          44.800



 118041993.090 8  91980848.60647  22462608.960                    22462607.280
     -2396.724       -1867.577          49.150          44.400    88148360.667 8
  22462612.040       -1789.789          49.750


 134586253.806 6 104872453.33446  25610903.600                    25610910.440
     -3702.813       -2885.332          37.850          37.300   100502775.866 6
  25610908.780       -2765.018          36.950


 107197641.782 8  83530673.39248  20399017.840                    20399017.100
     -1328.837       -1035.457          51.950          51.850    80050346.794 9
  20399018.160        -992.358          55.600


 132302250.121 6 103092669.09646  25176282.700                    25176285.120
      -483.200        -376.520          41.250          41.650    98797148.557 7
  25176286.980        -360.844          43.000


 132655862.748 6 103368218.65746  25243569.960                    25243572.400
      2970.382        2314.585          40.650          41.000    99061214.267 6
  25243573.520        2217.681          41.700


 146261083.126 7                  27832556.660
      2638.804                          43.050                   109220970.290 7
  27832559.660        1970.584          42.050   112070195.564 7  27832557.400
      2021.910          44.400   110645572.078 7  27832559.060        1996.198
        46.250
 123663280.326 8                  23532312.840
       395.631                          52.000                    92346181.200 8
  23532315.840         295.446          53.700    94755057.919 9  23532313.180
       303.148          55.400    93550701.213 9  23532314.580         299.296
        57.500
 123529578.038 8                  23506869.860
      1642.826                          48.400                    92246182.391 7
  23506869.640        1226.821          46.950    94652573.288 8  23506867.900
      1258.770          49.050    93449385.995 8  23506869.700        1242.816
        50.950
 124882449.968 8                  23764310.480
      -850.607                          48.600                    93256460.820 8
  23764309.500        -635.202          49.900    95689211.987 8  23764307.540
      -651.748          51.950    94472834.554 8  23764308.980        -643.468
        53.850
 144653780.400 6                  27526695.960
      2362.535                          36.850                   108020687.882 6
  27526702.420        1764.280          41.000   110838615.160 6  27526698.560
      1810.299          41.350   109429656.173 7  27526700.460        1787.309
        44.100
 131256702.368 8                  24977295.180
     -2304.116                          50.700                    98016451.456 8
  24977298.820       -1720.662          50.650   100573385.192 8  24977295.500
     -1765.512          52.150    99294925.473 9  24977296.880       -1743.083
        54.250
 129426427.702 8                  24629002.160
       523.628                          51.400                    96649696.954 8
  24629006.160         390.969          50.250    99170985.770 8  24629003.460
       401.203          52.100    97910336.515 9  24629005.000         396.100
        54.100
 148274964.388 6                  28215769.800
     -3263.581                          41.750                   110724912.549 6
  28215777.600       -2437.037          39.150   113613357.168 6  28215774.840
     -2500.567          40.350   112169122.509 7  28215777.060       -2468.825
        42.800
 142338456.664 7                  27086065.800
     -2527.052                          44.600                   106291840.080 7
  27086068.880       -1887.117          45.750   109064657.367 7  27086065.840
     -1936.350          46.050   107678244.376 8  27086067.220       -1911.750
        48.850
 24  2  6 19 25 30.0000000  0 22G02G07G08G10G15G16G18G21G23G26G27G30
                                G32E02E10E11E12E19E24E25E31E33
 122830229.176 7  95711921.88446  23373794.580                    23373792.640
      2613.222        2036.281          46.700          41.500



 131041724.663 6 102110462.84646  24936402.980                    24936405.180
     -1603.489       -1249.476          41.600          41.250



 108437009.460 8  84496439.98648  20634849.260                    20634849.440
      1276.100         994.364          51.650          51.550    80975778.253 9
  20634849.120         952.951          55.550


 110930764.361 8  86439629.28548  21109386.880                    21109387.040
       -77.935         -60.728          53.050          53.200    82837989.498 9
  21109385.700         -58.193          55.050


 131888280.711 6 102770095.37246  25097498.700                    25097496.280
     -2079.143       -1620.116          39.750          40.050



 122467857.805 7  95429546.90046  23304834.480                    23304833.740
     -3653.389       -2846.798          42.750          41.100



 133975536.486 6 104396628.58345  25494648.080                    25494646.840
     -3343.945       -2605.672          40.950          34.400   100046813.549 7
  25494651.700       -2497.348          43.250


 113897741.886 8  88751552.62447  21673988.260                    21673985.840
      1974.201        1538.340          49.350          44.600



 118114105.193 8  92037039.85747  22476331.420                    22476329.700
     -2410.731       -1878.492          48.350          44.600    88202210.625 8
  22476334.440       -1800.275          49.850


 134697287.044 6 104958972.07246  25632033.060                    25632039.700
     -3699.510       -2882.758          37.650          38.450   100585689.513 6
  25632039.080       -2762.770          38.500


 107237720.193 8  83561903.31448  20406644.500                    20406643.840
     -1343.226       -1046.670          52.000          52.000    80080275.464 9
  20406644.700       -1003.007          55.850


 132316992.876 6 103104156.93946  25179087.900                    25179090.260
      -499.783        -389.444          39.800          39.800    98808157.714 7
  25179092.740        -372.993          42.950


 132566796.962 6 103298816.81546  25226621.340                    25226623.900
      2967.854        2312.615          41.250          41.250    98994704.157 6
  25226624.460        2216.275          41.350


 146182012.757 7                  27817510.220
      2632.388                          43.200                   109161924.364 7
  27817512.700        1965.976          42.350   112009609.312 7  27817510.780
      2016.961          44.600   110585755.987 7  27817512.380        1991.486
        46.250
 123651527.442 8                  23530076.540
       387.802                          52.500                    92337404.727 8
  23530079.100         289.625          53.950    94746052.490 9  23530076.660
       297.169          55.300    93541810.262 9  23530078.060         293.389
        57.400
 123480390.194 8                  23497509.840
      1636.274                          48.950                    92209451.265 7
  23497509.380        1221.854          47.200    94614883.953 8  23497507.960
      1253.835          49.000    93412175.757 8  23497509.560        1237.883
        50.950
 124908069.961 8                  23769185.640
      -857.498                          48.650                    93275592.645 8
  23769184.920        -640.353          50.200    95708842.899 8  23769182.860
      -657.059          51.800    94492215.922 8  23769184.260        -648.734
        53.750
 144583003.247 6                  27513227.440
      2355.391                          36.100                   107967834.899 6
  27513233.860        1759.131          41.050   110784383.393 6  27513229.860
      1804.954          40.850   109376113.803 7  27513231.980        1782.031
        43.900
 131325972.511 8                  24990476.760
     -2314.000                          50.600                    98068179.131 8
  24990480.700       -1727.954          51.000   100626462.295 8  24990477.180
     -1773.029          51.650    99347327.865 9  24990478.520       -1750.484
        54.050
 129410929.745 8                  24626052.960
       509.459                          51.600                    96638123.817 8
  24626056.820         380.522          50.300    99159110.735 8  24626054.620
       390.378          52.200    97898612.427 8  24626055.840         385.445
        53.950
 148372858.011 7                  28234398.440
     -3262.998                          42.000                   110798014.645 6
  28234406.180       -2436.528          38.250   113688366.315 6  28234403.840
     -2500.064          40.200   112243178.132 7  28234405.920       -2468.281
        42.200
 142414275.966 7                  27100493.720
     -2527.662                          45.250                   106348458.363 7
  27100496.920       -1887.483          46.200   109122752.656 7  27100493.800
     -1936.712          45.550   107735601.160 8  27100495.160       -1912.093
        48.800
 24  2  6 19 26  0.0000000  0 22G02G07G08G10G15G16G18G21G23G26G27G30
                                G32E02E10E11E12E19E24E25E31E33
 122751928.175 7  95650908.23046  23358894.400                    23358892.320
      2606.916        2031.368          46.900          41.500



 131090015.683 6 102148092.13646  24945592.360                    24945594.640
     -1615.978       -1259.207          40.850          40.400



 108398929.679 8  84466767.47448  20627602.860                    20627603.180
      1262.585         983.834          51.450          51.550    80947342.111 9
  20627602.820         942.755          55.250


 110933390.233 8  86441675.43648  21109886.560                    21109886.720
       -97.028         -75.605          53.000          53.000    82839950.408 9
  21109885.600         -72.576          55.050


 131950907.133 6 102818895.27446  25109415.920                    25109413.680
     -2095.765       -1633.060          38.900          39.000



 122577554.742 7  95515024.95946  23325709.120                    23325708.320
     -3659.712       -2851.726          43.550          41.100



 134075861.640 6 104474804.03346  25513739.160                    25513737.980
     -3343.987       -2605.703          41.900          39.350   100121731.678 7
  25513742.720       -2497.230          43.550


 113838677.090 8  88705528.16547  21662748.520                    21662746.040
      1963.720        1530.173          48.550          45.850



 118186643.136 8  92093562.94247  22490134.880                    22490133.320
     -2425.046       -1889.645          48.050          44.800    88256378.577 8
  22490137.900       -1810.934          49.550


 134808236.636 6 105045425.57546  25653146.480                    25653153.340
     -3697.300       -2881.038          38.050          38.250   100668540.611 6
  25653153.020       -2760.577          38.600


 107278233.297 8  83593471.96748  20414353.920                    20414353.280
     -1357.671       -1057.925          51.800          51.700    80110528.760 9
  20414353.960       -1013.932          55.650


 132332236.704 6 103116035.23046  25181988.380                    25181990.480
      -516.467        -402.444          40.950          40.550    98819541.081 7
  25181993.580        -385.656          42.200


 132477796.759 7 103229466.07346  25209685.200                    25209687.720
      2965.372        2310.681          42.400          41.850    98928243.047 7
  25209687.920        2214.434          42.300


 146103142.110 7                  27802501.580
      2625.740                          42.250                   109103027.631 7
  27802504.000        1960.546          42.500   111949176.104 7  27802502.060
      2011.801          43.950   110526091.022 7  27802503.760        1986.164
        46.350
 123640017.017 8                  23527886.320
       379.592                          52.450                    92328809.325 8
  23527888.580         283.387          53.700    94737232.850 9  23527886.260
       290.799          55.000    93533102.738 9  23527887.660         287.102
        57.350
 123431404.369 8                  23488188.360
      1629.490                          49.000                    92172870.981 7
  23488187.560        1216.743          47.050    94577349.398 8  23488186.340
      1248.474          48.750    93375118.340 8  23488187.820        1232.657
        50.950
 124933903.655 8                  23774101.460
      -864.781                          48.350                    93294884.040 8
  23774101.060        -645.742          50.100    95728637.551 8  23774098.840
      -662.616          51.550    94511758.948 8  23774100.200        -654.202
        53.800
 144512441.804 6                  27499800.000
      2348.475                          36.700                   107915143.033 6
  27499806.200        1753.586          40.500   110730316.942 6  27499802.340
      1799.262          40.200   109322734.646 7  27499804.520        1776.376
        43.350
 131395544.262 8                  25003715.820
     -2324.209                          50.350                    98120132.062 8
  25003719.440       -1735.582          50.400   100679770.516 8  25003716.240
     -1780.862          51.800    99399958.443 9  25003717.640       -1758.220
        54.000
 129395863.309 8                  24623185.880
       494.896                          51.300                    96626872.928 8
  24623189.540         369.605          50.000    99147566.345 8  24623187.820
       379.194          52.050    97887214.790 9  24623188.840         374.391
        54.000
 148470739.844 6                  28253024.580
     -3262.782                          40.700                   110871107.941 6
  28253032.140       -2436.306          38.550   113763366.385 6  28253031.020
     -2499.808          39.750   112317224.815 7  28253032.280       -2468.032
        42.250
 142490117.095 7                  27114925.740
     -2528.528                          44.750                   106405092.939 7
  27114929.040       -1888.152          46.200   109180864.680 7  27114925.880
     -1937.421          45.400   107792974.461 8  27114927.400       -1912.786
        48.950
 24  2  6 19 26 30.0000000  0 22G02G07G08G10G15G16G18G21G23G26G27G30
                                G32E02E10E11E12E19E24E25E31E33
 122673808.801 7  95590036.10547  23344028.800                    23344026.460
      2600.779        2026.586          46.700          42.000



 131138660.787 6 102185997.31446  24954849.240                    24954851.340
     -1627.604       -1268.267          41.500          41.150



 108361247.698 8  84437404.93048  20620432.100                    20620432.500
      1249.406         973.564          51.450          51.450    80919203.021 9
  20620432.140         932.854          55.200


 110936579.938 8  86444160.94048  21110493.580                    21110493.680
      -115.843         -90.267          53.100          52.900    82842332.344 9
  21110492.880         -86.565          55.450


 132014019.573 6 102868073.82846  25121425.560                    25121423.600
     -2111.595       -1645.403          39.050          38.300



 122687430.881 7  95600642.69346  23346617.920                    23346616.980
     -3665.547       -2856.272          42.250          41.350



 134176172.258 6 104552968.16046  25532827.520                    25532826.180
     -3343.536       -2605.351          41.350          37.300   100196638.968 7
  25532830.940       -2496.852          42.800


 113779918.282 8  88659742.14147  21651566.920                    21651564.580
      1953.416        1522.145          48.900          45.550



 118259596.794 7  92150409.94047  22504017.380                    22504015.980
     -2438.796       -1900.361          47.350          45.350    88310856.961 8
  22504020.400       -1821.229          49.700


 134919092.508 6 105131805.97646  25674242.260                    25674249.600
     -3693.521       -2878.099          38.200          37.550   100751321.702 6
  25674249.240       -2758.177          37.800


 107319172.911 8  83625372.97148  20422144.460                    20422143.780
     -1371.941       -1069.045          51.800          51.600    80141100.552 9
  20422144.440       -1024.557          55.800


 132347972.781 6 103128297.06446  25184982.780                    25184984.740
      -532.738        -415.122          41.100          41.300    98831292.024 7
  25184987.840        -397.958          42.200


 132388857.349 7 103160162.68047  25192760.760                    25192763.080
      2963.436        2309.174          42.550          42.950    98861827.338 7
  25192763.160        2212.899          42.600


 146024465.243 7                  27787529.880
      2619.135                          43.150                   109044275.565 7
  27787532.140        1955.820          42.750   111888891.361 7  27787530.200
      2006.804          44.000   110466572.614 7  27787531.920        1981.316
        46.350
 123628740.946 8                  23525740.640
       371.756                          52.600                    92320388.916 8
  23525742.760         277.602          53.850    94728592.776 9  23525740.420
       284.863          55.150    93524572.499 9  23525741.880         281.229
        57.450
 123382612.991 8                  23478903.900
      1622.879                          49.150                    92136435.902 7
  23478902.720        1211.875          47.300    94539963.835 8  23478901.680
      1243.523          48.850    93338208.023 8  23478903.100        1227.665
        51.050
 124959942.563 8                  23779056.340
      -871.565                          48.400                    93314328.681 8
  23779056.280        -650.857          50.400    95748589.440 8  23779053.860
      -667.764          51.750    94531457.215 9  23779055.260        -659.384
        54.000
 144442090.408 6                  27486412.840
      2341.418                          37.650                   107862607.986 6
  27486418.500        1748.398          40.400   110676411.410 6  27486414.640
      1793.888          39.400   109269514.353 7  27486417.020        1771.178
        42.900
 131465408.501 8                  25017010.540
     -2333.798                          50.500                    98172303.395 8
  25017014.200       -1742.827          50.800   100733302.836 8  25017011.120
     -1788.264          51.600    99452810.271 9  25017012.300       -1765.584
        54.000
 129381221.296 8                  24620399.580
       480.830                          51.300                    96615938.975 8
  24620403.060         359.022          50.200    99136347.162 8  24620401.700
       368.387          52.200    97876138.222 9  24620402.620         363.697
        54.100
 148568600.549 6                  28271646.840
     -3261.741                          40.550                   110944185.401 6
  28271654.960       -2435.832          40.350   113838350.296 6  28271653.500
     -2499.461          40.750   112391255.495 7  28271654.780       -2467.556
        43.550
 142565971.808 7                  27129360.260
     -2528.894                          44.900                   106461737.667 7
  27129363.600       -1888.508          46.100   109238987.107 7  27129360.700
     -1937.782          46.100   107850358.042 8  27129362.240       -1913.184
        49.100
 24  2  6 19 27  0.0000000  0 22G02G07G08G10G15G16G18G21G23G26G27G30
                                G32E02E10E11E12E19E24E25E31E33
 122595882.600 7  95529314.49247  23329199.920                    23329197.400
      2594.311        2021.545          46.250          42.200



 131187668.785 6 102224185.29546  24964175.060                    24964176.900
     -1639.734       -1277.716          41.300          40.950



 108323976.580 8  84408362.54148  20613339.500                    20613339.900
      1235.470         962.705          50.800          50.700    80891370.733 9
  20613339.520         922.573          55.150


 110940344.419 8  86447094.32148  21111210.020                    21111210.000
      -135.175        -105.331          53.600          53.650    82845143.504 9
  21111209.540        -100.923          55.700


 132077627.114 6 102917638.19646  25133529.540                    25133527.300
     -2127.996       -1658.185          37.300          37.400



 122797495.378 7  95686407.16746  23367562.520                    23367561.660
     -3672.053       -2861.341          43.950          40.750



 134276478.946 6 104631129.22746  25551915.020                    25551913.940
     -3343.654       -2605.443          41.000          37.650   100271543.312 7
  25551918.380       -2496.912          43.050


 113721477.164 8  88614203.65347  21640445.900                    21640443.680
      1942.673        1513.773          49.050          46.250



 118332975.124 7  92207587.85747  22517980.780                    22517979.440
     -2453.148       -1911.544          47.150          44.800    88365652.466 8
  22517983.820       -1831.888          49.900


 135029864.165 6 105218120.78746  25695321.980                    25695329.600
     -3691.128       -2876.228          37.150          37.200   100834039.943 6
  25695329.580       -2756.248          37.250


 107360549.978 8  83657614.84348  20430018.300                    20430017.520
     -1386.544       -1080.424          52.250          52.150    80171999.014 9
  20430018.320       -1035.483          55.950


 132364211.456 6 103140950.53946  25188072.920                    25188074.840
      -549.448        -428.143          40.800          41.050    98843418.268 7
  25188077.600        -410.459          42.800


 132299993.060 7 103090917.82247  25175850.640                    25175852.900
      2960.868        2307.170          43.300          43.500    98795467.706 7
  25175852.640        2210.981          42.350


 145945995.225 7                  27772597.340
      2612.254                          42.650                   108985677.969 7
  27772599.680        1950.707          42.500   111828765.130 7  27772597.740
      2001.494          44.550   110407210.698 7  27772599.400        1976.129
        46.550
 123617710.224 8                  23523641.660
       363.527                          52.550                    92312151.728 8
  23523643.680         271.458          53.950    94720140.699 9  23523641.240
       278.569          55.300    93516227.866 9  23523642.780         275.018
        57.700
 123334027.340 8                  23469658.560
      1616.163                          49.100                    92100154.451 7
  23469657.080        1206.837          47.500    94502735.913 8  23469656.000
      1238.234          48.950    93301453.333 8  23469657.500        1222.580
        51.350
 124986197.325 8                  23784052.420
      -878.849                          48.650                    93333934.509 8
  23784052.380        -656.295          50.500    95768706.727 8  23784049.980
      -673.407          51.950    94551318.769 9  23784051.360        -664.860
        54.250
 144371962.441 6                  27473068.420
      2333.962                          38.200                   107810239.773 6
  27473073.460        1742.874          40.250   110622677.060 6  27473069.360
      1788.284          38.400   109216463.070 7  27473072.020        1765.599
        42.600
 131535575.142 8                  25030362.920
     -2343.995                          50.350                    98224700.555 8
  25030366.220       -1750.390          50.350   100787066.884 8  25030363.180
     -1796.058          52.050    99505890.872 9  25030364.640       -1773.247
        54.150
 129367015.695 8                  24617696.280
       466.120                          51.000                    96605330.914 8
  24617699.720         348.084          50.500    99125462.373 8  24617698.500
       357.167          52.350    97865391.799 9  24617699.440         352.589
        54.450
 148666450.121 6                  28290266.920
     -3261.640                          39.100                   111017254.506 6
  28290275.800       -2435.607          40.550   113913325.590 6  28290273.760
     -2499.203          41.600   112465277.705 7  28290275.420       -2467.491
        44.050
 142641850.937 7                  27143799.500
     -2529.839                          44.950                   106518400.617 7
  27143802.640       -1889.047          45.650   109297128.233 7  27143800.220
     -1938.396          46.800   107907760.088 8  27143801.700       -1913.822
        49.250
 24  2  6 19 27 30.0000000  0 22G02G07G08G10G15G16G18G21G23G26G27G30
                                G32E02E10E11E12E19E24E25E31E33
 122518140.625 7  95468736.44047  23314406.000                    23314403.280
      2588.778        2017.234          46.250          42.650



 131237028.051 6 102262646.99746  24973567.800                    24973569.180
     -1651.100       -1286.574          41.750          41.800



 108287108.567 8  84379634.24648  20606323.640                    20606324.000
      1222.377         952.503          50.950          50.900    80863839.451 9
  20606323.540         912.876          54.750


 110944673.943 8  86450467.99848  21112033.980                    21112033.880
      -153.448        -119.570          53.550          53.450    82848376.620 9
  21112033.600        -114.589          55.400


 132141718.830 6 102967579.81346  25145725.720                    25145723.820
     -2144.441       -1670.990          39.850          40.150



 122907736.464 7  95772309.25646  23388540.820                    23388539.780
     -3677.317       -2865.445          43.600          39.900



 134376771.587 6 104709279.29845  25570999.720                    25570998.720
     -3342.696       -2604.700          39.000          35.600   100346437.156 7
  25571003.360       -2496.044          42.100


 113663344.839 8  88568905.79347  21629383.660                    21629381.580
      1932.741        1506.034          49.700          45.550



 118406766.335 7  92265087.49047  22532022.700                    22532021.460
     -2466.392       -1921.864          47.200          43.900    88420756.282 8
  22532025.860       -1841.743          49.600


 135140540.060 6 105304360.91946  25716383.460                    25716390.880
     -3687.033       -2873.044          38.950          39.300   100916686.503 6
  25716392.220       -2753.553          40.250


 107402354.647 8  83690189.90848  20437973.560                    20437972.600
     -1400.421       -1091.237          52.600          52.700    80203216.781 9
  20437973.540       -1045.731          55.550


 132380942.385 6 103153987.61546  25191256.820                    25191258.680
      -565.495        -440.647          41.350          41.550    98855912.142 6
  25191260.740        -422.429          41.500


 132211197.314 7 103021726.40847  25158953.440                    25158955.880
      2958.823        2305.580          42.750          43.000    98729159.266 7
  25158954.840        2209.482          42.050


 145867724.383 7                  27757702.620
      2605.966                          43.050                   108927229.119 7
  27757705.040        1946.067          42.550   111768791.489 7  27757703.020
      1996.788          44.700   110347999.459 7  27757704.800        1971.374
        46.400
 123606915.133 8                  23521587.520
       356.172                          52.750                    92304090.494 8
  23521589.440         265.921          53.750    94711869.176 9  23521586.940
       272.869          55.150    93508061.485 9  23521588.540         269.394
        57.350
 123285638.159 8                  23460450.460
      1609.823                          49.050                    92064019.720 7
  23460448.840        1202.166          47.250    94465658.519 8  23460447.600
      1233.586          48.600    93264847.274 8  23460449.320        1217.830
        50.850
 125012657.978 8                  23789087.820
      -885.209                          48.850                    93353694.100 8
  23789087.480        -661.070          50.100    95788981.781 8  23789085.240
      -678.330          51.750    94571336.092 8  23789086.660        -669.666
        53.750
 144302050.540 6                  27459765.100
      2327.150                          40.000                   107758032.922 6
  27459769.340        1737.921          39.200   110569108.275 6  27459765.160
      1783.084          37.600   109163575.247 6  27459768.100        1760.591
        41.650
 131606033.378 8                  25043770.760
     -2353.153                          50.700                    98277315.468 8
  25043773.760       -1757.241          50.400   100841054.352 8  25043771.220
     -1803.122          51.750    99559192.064 8  25043772.340       -1780.203
        53.850
 129353237.688 8                  24615074.260
       452.329                          50.750                    96595042.176 8
  24615077.900         337.812          50.250    99114905.233 8  24615076.480
       346.585          52.100    97854968.858 9  24615077.620         342.185
        54.000
 148764277.520 6                  28308882.960
     -3260.284                          40.050                   111090307.061 6
  28308891.920       -2434.550          38.850   113988283.892 6  28308890.280
     -2498.231          41.650   112539283.123 7  28308891.680       -2466.354
        43.150
 142717744.564 7                  27158241.580
     -2529.812                          45.400                   106575074.427 7
  27158244.340       -1889.132          44.800   109355280.474 7  27158242.540
     -1938.347          46.800   107965173.102 8  27158243.780       -1913.678
        48.700
 24  2  6 19 28  0.0000000  0 22G02G07G08G10G15G16G18G21G23G26G27G30
                                G32E02E10E11E12E19E24E25E31E33
 122440587.697 7  95408305.69446  23299648.140                    23299645.160
      2581.991        2011.944          46.950          40.950



 131286740.526 7 102301383.93146  24983027.800                    24983028.800
     -1663.094       -1295.918          42.100          41.550



 108250648.574 8  84351223.89548  20599385.520                    20599385.860
      1208.621         941.784          51.100          51.050    80836612.876 9
  20599385.300         902.510          55.000


 110949571.878 8  86454284.59748  21112966.080                    21112965.880
      -172.646        -134.528          53.000          52.900    82852034.198 9
  21112965.700        -128.925          55.600


 132206296.221 5 103017899.78345  25158014.380                    25158012.460
     -2160.028       -1683.146          35.700          34.600



 123018155.243 7  95858349.79146  23409552.880                    23409551.660
     -3683.557       -2870.307          44.300          40.000



 134477053.476 6 104787421.02246  25590082.520                    25590081.700
     -3342.600       -2604.623          41.700          36.900   100421322.982 7
  25590086.400       -2495.992          43.550


 113605526.283 8  88523852.41547  21618381.140                    21618379.120
      1922.305        1497.901          49.300          44.650



 118480972.176 7  92322910.21547  22546143.580                    22546142.300
     -2480.461       -1932.828          46.550          43.850    88476169.723 8
  22546146.900       -1852.201          50.050


 135251122.116 6 105390527.76346  25737427.120                    25737434.480
     -3684.479       -2871.061          37.000          36.350   100999262.829 6
  25737436.860       -2751.220          40.400


 107444590.655 8  83723101.09148  20446010.880                    20446009.800
     -1414.922       -1102.536          51.950          52.000    80234756.668 9
  20446010.720       -1056.628          55.450


 132398168.646 6 103167410.64546  25194534.860                    25194537.320
      -582.116        -453.599          41.100          40.950    98868775.900 7
  25194538.540        -435.043          42.250


 132122477.273 6 102952593.98246  25142070.520                    25142073.140
      2956.344        2303.646          41.950          41.900    98662907.371 7
  25142071.300        2207.638          42.650


 145789658.647 7                  27742846.920
      2598.805                          43.000                   108868933.387 7
  27742849.220        1940.684          43.200   111708975.003 7  27742847.560
      1991.320          44.400   110288943.346 7  27742849.400        1966.028
        46.550
 123596359.478 8                  23519578.880
       348.019                          52.550                    92296208.047 9
  23519580.740         259.836          54.000    94703781.102 9  23519578.200
       266.605          55.400    93500076.226 9  23519579.880         263.204
        57.450
 123237449.596 8                  23451280.480
      1603.103                          49.150                    92028034.811 7
  23451278.860        1197.114          47.600    94428734.868 8  23451277.280
      1228.296          48.600    93228392.991 8  23451279.280        1212.737
        50.850
 125039327.909 8                  23794163.040
      -892.488                          48.550                    93373609.969 8
  23794162.400        -666.440          50.250    95809417.195 8  23794160.320
      -683.805          52.050    94591511.733 8  23794161.760        -675.115
        53.800
 144232360.837 6                  27446503.900
      2319.224                          39.800                   107705991.990 6
  27446507.480        1732.114          38.550   110515709.719 6  27446502.960
      1777.115          36.700   109110855.495 6  27446506.380        1754.760
        40.550
 131676785.954 8                  25057234.660
     -2363.267                          50.350                    98330150.169 8
  25057237.520       -1764.746          50.250   100895267.368 8  25057234.680
     -1810.819          51.750    99612715.920 8  25057236.140       -1787.774
        53.650
 129339892.100 8                  24612534.580
       437.766                          50.500                    96585076.340 8
  24612538.440         326.843          50.800    99104679.417 8  24612536.640
       335.367          52.300    97844873.031 9  24612538.060         331.122
        54.300
 148862085.501 6                  28327495.640
     -3259.711                          41.150                   111163345.132 6
  28327504.340       -2434.199          39.100   114063227.319 6  28327502.720
     -2497.899          40.500   112613273.880 7  28327504.020       -2466.123
        42.600
 142793656.347 7                  27172687.220
     -2530.671                          45.150                   106631761.782 7
  27172689.620       -1889.716          45.050   109413446.628 7  27172688.160
     -1939.063          46.850   108022599.859 8  27172689.180       -1914.413
        48.600
