     2.11           OBSERVATION DATA    M (MIXED)           RINEX VERSION / TYPE
teqc  2019Feb25                         20240116 18:52:43UTCPGM / RUN BY / DATE
Linux 2.6.32-573.12.1.x86_64|x86_64|gcc|Linux 64|=+         COMMENT
teqc  2019Feb25                         20240116 18:52:43UTCCOMMENT
teqc  2019Feb25                         20240116 18:52:43UTCCOMMENT
teqc  2019Feb25     IGN-RGP             20240116 13:02:16UTCCOMMENT
teqc  2019Feb25     IGN-RGP             20240116 13:02:15UTCCOMMENT
BIT 2 OF LLI FLAGS DATA COLLECTED UNDER A/S CONDITION       COMMENT
IGNF                                                        MARKER NAME
10001M009                                                   MARKER NUMBER
Automatic           IGN                                     OBSERVER / AGENCY
1834194             LEICA GR50          4.51                REC # / TYPE / VERS
5000113963          TRM57971.00     NONE                    ANT # / TYPE
  4201694.1440   177888.8370  4779371.7670                  APPROX POSITION XYZ
        0.0000        0.0000        0.0000                  ANTENNA: DELTA H/E/N
     1     1                                                WAVELENGTH FACT L1/2
    21    L1    L2    C1    P1    P2    D1    D2    S1    S2# / TYPES OF OBSERV
          L5    C5    D5    S5    L7    C7    D7    S7    L8# / TYPES OF OBSERV
          C8    D8    S8                                    # / TYPES OF OBSERV
    30.0000                                                 INTERVAL
DefaultJobName                                              COMMENT
DefaultUserDiscription                                      COMMENT
Project creator:                                            COMMENT
 SNR is mapped to RINEX snr flag value [0-9]                COMMENT
  L1 & L2: min(max(int(snr_dBHz/6), 0), 9)                  COMMENT
    18                                                      LEAP SECONDS
Forced Modulo Decimation to 30 seconds                      COMMENT
teqc_2019 edited: all GLONASS satellites excluded           COMMENT
teqc_2019 edited: all SBAS satellites excluded              COMMENT
  2024     1    16    12     0    0.0000000     GPS         TIME OF FIRST OBS
                                                            END OF HEADER
 24  1 16 12  0  0.0000000  0 21G06G10G12G13G15G17G19G22G23G24G25G32
                                E03E04E05E09E24E25E26E31E33
 132285612.390 6 103079746.45746  25173113.320                    25173125.200
      2726.656        2124.680          37.750          37.500    98784784.410 7
  25173127.440        2035.872          42.000


 125396689.930 7  97711704.01946  23862211.480                    23862215.960
     -1696.257       -1321.762          46.900          40.050    93640369.644 7
  23862216.760       -1266.714          47.300


 107668141.606 8  83897289.49848  20488550.020                    20488548.460
      1461.063        1138.491          51.650          51.500



 135220899.269 5 105367159.11745  25731724.820                    25731736.340
     -3881.279       -3024.412          35.800          32.100



 124609401.215 7  97098203.41947  23712396.760                    23712401.060
     -3890.653       -3031.684          44.300          44.250



 127586738.621 7  99418295.44747  24278933.100                    24278937.340
     -2748.034       -2141.329          44.000          43.900



 116741437.460 7  90967403.68547  22215130.140                    22215130.760
     -1157.214        -901.727          46.500          46.250



 135218837.106 6 105365278.16445  25731312.000                    25731318.680
     -3282.884       -2558.093          39.050          34.750



 129811871.221 6 101152071.10546  24702398.900                    24702405.340
     -3102.491       -2417.528          40.850          39.300    96937411.096 7
  24702409.980       -2316.748          45.050


 107817841.231 8  84013889.55848  20517055.920                    20517057.500
     -1533.701       -1195.094          51.200          51.000    80513326.454 9
  20517059.920       -1145.317          56.950


 117068892.564 7  91222586.65447  22277450.480                    22277454.780
      3184.965        2481.793          46.450          44.900    87421656.616 8
  22277456.320        2378.442          49.750


 123220829.882 7  96016246.95747  23448142.020                    23448146.920
      2825.455        2201.654          47.350          44.600    92015569.451 8
  23448147.240        2109.878          48.700


 143317264.410 7                  27272367.960
      2637.317                          44.150                   107022676.775 7
  27272379.740        1969.274          44.250   109814561.769 7  27272375.800
      2020.657          45.250   108418622.435 7  27272377.180        1994.864
        47.350
 151051752.383 6                  28744233.740
     -3199.371                          38.950                   112798332.609 6
  28744254.540       -2389.189          40.100   115740898.675 6  28744249.680
     -2451.572          40.200   114269613.791 7  28744252.320       -2420.341
        43.000
 118902419.034 8                  22626385.580
       437.072                          52.550                    88790769.440 8
  22626391.320         326.369          53.050    91107043.933 8  22626388.180
       334.880          53.900    89948904.341 9  22626390.220         330.611
        56.200
 130653586.012 8                  24862557.680
     -2394.133                          51.600                    97565998.631 8
  24862562.780       -1787.805          50.700   100111192.966 8  24862561.200
     -1834.420          51.850    98838590.953 9  24862563.080       -1811.164
        54.000
 125579260.735 8                  23896923.000
      1225.674                          52.350                    93776777.430 8
  23896927.660         915.382          53.350    96223116.735 9  23896924.260
       939.221          54.400    94999950.234 9  23896926.160         927.292
        56.550
 145513934.827 7                  27690370.000
      2708.076                          42.900                   108663085.857 7
  27690382.180        2022.292          44.800   111497758.158 7  27690377.200
      2075.079          43.250   110080423.162 7  27690380.260        2048.708
        46.950
 145609162.633 7                  27708494.420
       849.523                          42.850                   108734186.246 7
  27708506.900         634.354          42.400   111570703.841 7  27708501.880
       650.879          43.600   110152439.193 7  27708503.260         642.580
        45.600
 125486846.340 8                  23879349.320
     -1347.179                          52.200                    93707744.100 8
  23879355.880       -1005.990          53.700    96152286.609 8  23879352.740
     -1032.285          53.200    94930012.507 9  23879354.820       -1019.114
        56.300
 148074961.551 7                  28177725.160
      2538.702                          43.900                   110575513.538 7
  28177736.860        1895.780          42.800   113460085.905 7  28177733.980
      1945.387          42.850   112017799.375 7  28177736.740        1920.600
        45.700
 24  1 16 12  0 30.0000000  0 21G06G10G12G13G15G17G19G22G23G24G25G32
                                E03E04E05E09E24E25E26E31E33
 132203918.901 6 103016089.45946  25157567.280                    25157579.400
      2720.245        2119.682          37.750          37.800    98723779.909 6
  25157581.640        2031.045          41.950


 125447803.692 7  97751532.83046  23871938.360                    23871942.500
     -1711.436       -1333.591          46.850          40.750    93678538.890 7
  23871943.720       -1277.946          47.500


 107624545.650 8  83863318.63848  20480253.980                    20480252.440
      1445.344        1126.243          52.050          52.050



 135337311.088 5 105457870.61645  25753877.980                    25753889.700
     -3879.676       -3023.155          34.850          34.050



 124726177.715 7  97189197.93647  23734618.740                    23734622.620
     -3894.379       -3034.586          44.050          44.200



 127669335.353 7  99482656.38647  24294650.900                    24294655.300
     -2758.709       -2149.648          43.500          43.350



 116776450.952 7  90994686.89447  22221792.980                    22221793.280
     -1177.011        -917.152          46.950          46.700



 135317309.177 6 105442009.65046  25750050.580                    25750057.320
     -3281.808       -2557.252          39.100          37.100



 129905005.889 6 101224643.46546  24720122.020                    24720128.300
     -3106.265       -2420.465          40.600          38.550    97006959.590 7
  24720133.460       -2319.814          44.800


 107864059.982 8  84049904.12648  20525851.040                    20525852.760
     -1547.698       -1206.000          51.450          51.550    80547840.402 9
  20525855.160       -1155.652          57.000


 116973474.216 7  91148234.82147  22259292.800                    22259297.160
      3176.121        2474.904          46.650          44.300    87350402.790 8
  22259298.460        2371.774          49.850


 123136234.623 7  95950328.65947  23432044.180                    23432048.880
      2814.265        2192.937          47.500          44.650    91952397.759 8
  23432049.300        2101.567          48.950


 143238239.384 7                  27257330.000
      2631.173                          44.500                   106963664.663 7
  27257341.700        1964.771          44.300   109754010.200 7  27257337.860
      2016.045          45.650   108358840.590 7  27257339.120        1990.354
        47.600
 151147734.620 6                  28762498.900
     -3199.428                          37.150                   112870006.752 6
  28762520.060       -2388.955          38.900   115814442.683 6  28762515.300
     -2451.354          39.450   114342222.873 6  28762517.880       -2420.149
        41.850
 118889510.677 8                  22623929.320
       423.353                          52.500                    88781130.085 8
  22623934.920         316.209          52.900    91097153.115 9  22623931.840
       324.422          54.050    89939139.254 9  22623933.840         320.299
        56.150
 130725548.510 8                  24876251.740
     -2403.464                          51.650                    97619736.748 8
  24876257.140       -1794.786          50.600   100166332.975 8  24876255.220
     -1841.602          51.650    98893030.012 8  24876257.180       -1818.130
        53.850
 125542623.071 8                  23889950.880
      1216.712                          52.350                    93749418.150 8
  23889955.760         908.536          53.400    96195043.732 9  23889952.360
       932.275          54.550    94972234.096 9  23889954.260         920.404
        56.600
 145432737.834 6                  27674918.440
      2704.966                          41.650                   108602451.845 7
  27674931.160        2019.938          44.350   111435542.401 7  27674926.320
      2072.632          44.650   110018998.272 7  27674928.860        2046.319
        47.200
 145583889.512 7                  27703685.160
       835.308                          43.050                   108715313.436 7
  27703697.400         623.785          42.050   111551338.708 7  27703692.820
       640.105          43.550   110133320.227 7  27703694.100         631.945
        45.350
 125527373.095 8                  23887061.340
     -1354.633                          52.250                    93738007.540 8
  23887068.160       -1011.541          53.700    96183339.539 8  23887065.000
     -1037.930          53.450    94960670.692 9  23887066.840       -1024.728
        56.300
 147998881.165 7                  28163247.500
      2533.135                          43.650                   110518700.401 7
  28163259.020        1891.581          42.400   113401790.708 7  28163256.260
      1940.905          43.100   111960245.206 7  28163259.000        1916.295
        45.600
 24  1 16 12  1  0.0000000  0 21G06G10G12G13G15G17G19G22G23G24G25G32
                                E03E04E05E09E24E25E26E31E33
 132122420.634 6 102952584.59546  25142058.400                    25142070.560
      2713.135        2114.140          38.150          38.250    98662921.079 7
  25142072.820        2026.138          42.250


 125499371.258 7  97791715.28146  23881751.440                    23881755.600
     -1726.443       -1345.283          46.200          41.050    93717047.032 7
  23881757.080       -1289.250          47.500


 107581427.629 8  83829720.18848  20472048.820                    20472047.420
      1429.217        1113.676          51.650          51.700



 135453694.878 5 105548562.24554  25776026.100                    25776036.920
     -3879.060       -3022.664          32.150          26.000



 124843062.545 7  97280276.82947  23756861.360                    23756865.020
     -3897.898       -3037.328          45.200          45.100



 127752251.938 7  99547266.55847  24310429.460                    24310434.080
     -2769.125       -2157.766          44.250          44.150



 116812060.533 7  91022434.58347  22228569.380                    22228569.520
     -1196.968        -932.705          46.700          46.700



 135415746.452 6 105518713.94446  25768782.560                    25768789.600
     -3280.627       -2556.338          40.150          36.300



 129998260.800 6 101297309.48246  24737867.940                    24737874.320
     -3110.396       -2423.690          41.700          39.200    97076597.825 7
  24737879.880       -2322.758          45.050


 107910691.617 8  84086240.42248  20534724.760                    20534726.580
     -1561.178       -1216.504          51.550          51.400    80582662.680 9
  20534729.000       -1165.918          57.000


 116878323.680 7  91074091.64947  22241186.100                    22241190.580
      3167.285        2468.018          46.200          44.800    87279348.938 8
  22241191.720        2365.073          49.950


 123051977.839 7  95884674.09147  23416010.760                    23416015.180
      2802.902        2184.083          47.300          44.950    91889478.808 8
  23416015.780        2093.021          49.150


 143159394.574 7                  27242326.260
      2625.128                          44.200                   106904787.115 7
  27242337.860        1960.271          44.050   109693596.702 7  27242334.180
      2011.490          45.900   108299195.060 7  27242335.340        1985.935
        47.550
 151243925.769 6                  28780762.580
     -3199.336                          36.300                   112941674.865 6
  28780784.040       -2388.727          37.550   115887980.498 6  28780779.460
     -2451.153          37.750   114414825.836 6  28780781.860       -2419.788
        40.300
 118877013.670 8                  22621551.180
       409.722                          52.100                    88771797.920 8
  22621556.700         305.935          52.750    91087577.502 8  22621553.760
       313.909          53.950    89929685.362 9  22621555.760         309.919
        56.100
 130797791.684 8                  24889999.320
     -2412.860                          51.650                    97673684.485 8
  24890004.380       -1801.800          50.350   100221688.050 8  24890002.820
     -1848.809          52.050    98947681.420 8  24890004.760       -1825.315
        53.950
 125506257.164 8                  23883030.600
      1207.631                          52.300                    93722261.791 8
  23883035.580         901.838          53.450    96167178.948 9  23883032.300
       925.363          54.450    94944723.523 9  23883034.040         913.581
        56.650
 145351633.111 6                  27659484.680
      2701.747                          41.650                   108541886.707 7
  27659497.700        2017.582          45.800   111373397.248 7  27659492.540
      2070.311          43.900   109957643.129 7  27659495.120        2043.961
        47.550
 145559038.031 7                  27698956.000
       821.349                          42.900                   108696755.492 7
  27698968.000         613.368          42.050   111532296.667 7  27698963.640
       629.304          43.350   110114520.227 7  27698965.200         621.404
        45.300
 125568122.148 8                  23894815.720
     -1362.050                          52.200                    93768436.989 8
  23894822.620       -1017.098          53.650    96214562.805 8  23894819.500
     -1043.635          53.300    94991497.050 9  23894821.180       -1030.357
        56.300
 147922975.152 7                  28148802.980
      2527.196                          44.200                   110462017.569 7
  28148814.640        1886.999          42.400   113343629.133 7  28148811.680
      1936.419          42.950   111902823.001 7  28148814.440        1911.775
        45.600
 24  1 16 12  1 30.0000000  0 20G06G10G12G15G17G19G22G23G24G25G32E03
                                E04E05E09E24E25E26E31E33
 132041113.706 6 102889228.78446  25126585.880                    25126598.100
      2706.786        2109.191          38.750          38.550    98602205.172 6
  25126600.740        2021.379          41.450


 125551383.460 7  97832244.18046  23891649.040                    23891653.200
     -1741.224       -1356.802          45.300          41.650    93755887.209 7
  23891654.960       -1300.278          47.600


 107538781.056 8  83796489.09948  20463933.420                    20463932.160
      1413.641        1101.538          51.650          51.600



 124960046.502 7  97371432.97847  23779122.840                    23779126.060
     -3901.244       -3039.937          44.050          44.100



 127835478.793 7  99612118.50247  24326267.100                    24326271.820
     -2779.193       -2165.611          43.300          43.050



 116848257.922 7  91050640.30847  22235457.740                    22235457.600
     -1216.319        -947.783          47.550          46.400



 135514140.769 6 105595384.87545  25787506.440                    25787513.480
     -3279.164       -2555.192          40.300          33.700



 130091625.919 7 101370061.38446  24755635.080                    24755641.320
     -3114.406       -2426.815          42.250          38.850    97146318.321 7
  24755647.480       -2325.402          44.750


 107957728.672 8  84122892.63048  20543675.760                    20543677.560
     -1574.739       -1227.071          52.050          52.000    80617787.704 9
  20543679.920       -1175.933          56.950


 116783435.501 7  91000152.90347  22223129.320                    22223133.860
      3158.517        2461.186          46.400          44.550    87208490.994 8
  22223134.900        2358.561          50.150


 122968055.198 7  95819279.89447  23400040.820                    23400045.060
      2791.701        2175.354          47.500          44.300    91826809.396 8
  23400045.880        2084.687          49.350


 143080724.817 7                  27227355.840
      2619.236                          43.850                   106846040.286 7
  27227367.360        1955.870          43.900   109633317.343 7  27227363.800
      2006.922          45.800   108239681.972 7  27227364.920        1981.325
        47.550
 151339883.781 6                  28799023.300
     -3198.440                          37.650                   113013330.933 6
  28799044.980       -2388.272          37.100   115961505.939 6  28799040.520
     -2450.669          37.300   114487416.590 6  28799042.780       -2419.462
        39.800
 118864921.893 8                  22619250.060
       396.189                          52.000                    88762768.356 8
  22619255.520         295.856          52.700    91078312.387 8  22619252.780
       303.554          53.800    89920538.026 9  22619254.780         299.689
        56.100
 130870307.482 8                  24903798.780
     -2421.764                          51.600                    97727835.794 8
  24903804.160       -1808.501          50.750   100277252.019 8  24903802.280
     -1855.692          51.600    99002539.059 8  24903804.100       -1832.092
        53.950
 125470156.195 8                  23876160.860
      1198.855                          52.600                    93695303.283 8
  23876165.840         895.225          53.650    96139517.175 9  23876162.740
       918.586          54.350    94917413.382 9  23876164.260         906.918
        56.800
 145270614.248 7                  27644066.980
      2699.072                          42.550                   108481385.706 7
  27644080.240        2015.543          44.050   111311317.984 7  27644075.540
      2068.183          44.600   109896352.995 7  27644077.500        2041.877
        47.100
 145534602.385 6                  27694306.220
       807.491                          41.750                   108678508.045 7
  27694317.980         603.078          42.850   111513573.215 7  27694313.480
       618.660          43.000   110096034.781 7  27694315.420         610.914
        45.700
 125609085.678 8                  23902610.920
     -1369.153                          52.350                    93799026.598 8
  23902617.820       -1022.433          53.750    96245950.411 8  23902614.780
     -1049.066          53.200    95022485.657 9  23902616.360       -1035.743
        56.350
 147847238.861 7                  28134390.700
      2521.663                          43.600                   110405461.434 7
  28134402.380        1883.019          42.850   113285597.610 7  28134399.360
      1932.110          42.350   111845529.183 7  28134402.120        1907.540
        45.550
 24  1 16 12  2  0.0000000  0 20G06G10G12G15G17G19G22G23G24G25G32E03
                                E04E05E09E24E25E26E31E33
 131960009.115 6 102826030.64546  25111151.920                    25111164.300
      2700.044        2103.940          37.700          36.400    98541640.336 6
  25111167.000        2016.378          41.450


 125603845.567 7  97873123.66247  23901632.120                    23901636.420
     -1756.028       -1368.336          44.650          42.550    93795063.347 7
  23901638.480       -1311.299          47.600


 107496614.189 8  83763631.80248  20455909.260                    20455908.160
      1397.594        1089.033          51.450          51.350



 125077134.544 7  97462670.23747  23801404.060                    23801406.940
     -3904.467       -3042.449          45.350          45.750



 127919021.634 7  99677216.65147  24342164.880                    24342169.640
     -2790.196       -2174.186          42.800          42.900



 116885049.615 7  91079309.11747  22242459.120                    22242458.700
     -1236.158        -963.242          46.300          46.050



 135612499.386 6 105672027.95345  25806223.500                    25806230.740
     -3278.018       -2554.295          39.850          34.650



 130185105.714 7 101442902.60546  24773424.100                    24773430.580
     -3117.839       -2429.495          42.050          40.550    97216124.540 7
  24773436.240       -2328.172          44.600


 108005178.250 8  84159866.28648  20552705.280                    20552707.040
     -1588.428       -1237.737          51.750          51.650    80653220.778 9
  20552709.160       -1186.151          56.600


 116688818.800 7  90926425.69947  22205124.120                    22205128.840
      3149.382        2454.066          46.700          45.050    87137835.768 8
  22205129.840        2351.883          50.300


 122884477.012 7  95754154.11647  23384136.380                    23384140.400
      2780.174        2166.372          47.300          43.600    91764397.208 8
  23384141.480        2076.110          49.250


 143002239.538 7                  27212420.600
      2613.250                          43.600                   106787431.211 7
  27212431.860        1951.339          43.750   109573179.318 7  27212428.520
      2002.351          45.750   108180308.413 7  27212429.640        1976.868
        47.650
 151435832.008 6                  28817282.420
     -3197.906                          37.000                   113084979.684 6
  28817304.380       -2387.891          36.350   116035023.895 5  28817299.460
     -2450.354          35.950   114559999.940 6  28817301.800       -2419.028
        38.900
 118853243.731 8                  22617027.600
       382.540                          52.100                    88754047.670 8
  22617033.080         285.588          52.600    91069364.204 8  22617030.520
       293.105          53.800    89911703.594 9  22617032.500         289.304
        56.200
 130943102.430 8                  24917651.360
     -2430.982                          51.700                    97782195.568 8
  24917656.720       -1815.393          50.150   100333029.879 8  24917654.740
     -1862.731          51.950    99057607.877 9  24917656.680       -1839.104
        54.000
 125434327.847 8                  23869343.060
      1189.831                          52.700                    93668548.350 8
  23869347.940         888.525          53.600    96112064.287 9  23869345.040
       911.709          54.300    94890309.472 9  23869346.340         900.113
        56.900
 145189689.598 7                  27628667.180
      2696.071                          42.050                   108420955.078 7
  27628680.860        2013.335          45.550   111249310.877 7  27628676.080
      2065.771          43.400   109835134.136 7  27628678.120        2039.546
        47.550
 145510591.171 6                  27689736.980
       793.457                          41.600                   108660577.564 7
  27689748.820         592.485          42.500   111495174.976 7  27689744.020
       607.885          42.950   110077870.421 7  27689746.300         600.250
        45.700
 125650270.439 8                  23910448.180
     -1376.391                          52.050                    93829781.409 8
  23910455.020       -1027.793          53.550    96277507.531 8  23910452.060
     -1054.645          53.100    95053641.622 9  23910453.600       -1041.215
        56.400
 147771682.153 7                  28120012.620
      2515.684                          44.400                   110349039.383 6
  28120024.340        1878.596          41.900   113227703.656 6  28120021.340
      1927.610          41.800   111788371.181 7  28120023.860        1902.943
        45.050
 24  1 16 12  2 30.0000000  0 20G06G10G12G15G17G19G22G23G24G25G32E03
                                E04E05E09E24E25E26E31E33
 131879106.375 6 102762989.79146  25095756.460                    25095768.740
      2693.508        2098.845          38.600          37.500    98481226.239 6
  25095772.120        2011.347          41.950


 125656751.306 7  97914348.83047  23911699.660                    23911704.100
     -1770.788       -1379.837          44.350          42.250    93834570.790 7
  23911706.260       -1322.424          47.350


 107454924.364 8  83731146.21948  20447975.860                    20447974.860
      1381.732        1076.675          51.150          51.100



 125194320.595 7  97553983.86547  23823703.980                    23823706.500
     -3907.827       -3045.067          44.500          44.550



 128002874.545 7  99742556.44547  24358121.820                    24358126.220
     -2800.303       -2182.058          43.400          43.400



 116922430.587 7  91108437.09647  22249572.680                    22249572.080
     -1255.786        -978.535          47.050          46.650



 135710817.329 6 105748639.40546  25824932.760                    25824939.980
     -3276.592       -2553.186          39.850          36.650



 130278693.353 7 101515827.92146  24791233.660                    24791240.260
     -3121.335       -2432.209          42.200          38.650    97286011.176 7
  24791246.180       -2330.819          45.200


 108053035.998 8  84197157.99648  20561812.320                    20561814.180
     -1602.064       -1248.363          51.250          51.450    80688958.655 9
  20561816.040       -1196.342          56.300


 116594471.260 7  90852908.20547  22187170.260                    22187175.040
      3140.408        2447.074          45.550          45.650    87067381.526 8
  22187176.020        2345.108          50.200


 122801242.116 7  95689295.81347  23368297.240                    23368301.000
      2768.868        2157.561          47.050          43.300    91702241.376 8
  23368302.360        2067.666          49.000


 142923936.698 7                  27197520.020
      2607.100                          44.100                   106728958.357 7
  27197530.960        1946.878          43.750   109513181.095 7  27197528.020
      1997.725          46.050   108121072.879 7  27197529.120        1972.274
        47.500
 151531765.689 5                  28835538.760
     -3197.553                          35.900                   113156617.487 6
  28835561.100       -2387.641          37.500   116108530.647 6  28835555.300
     -2450.135          36.150   114632572.228 6  28835558.220       -2419.021
        39.550
 118841976.196 8                  22614883.380
       368.861                          52.250                    88745633.608 8
  22614888.880         275.416          52.550    91060730.647 8  22614886.420
       282.604          53.800    89903179.783 9  22614888.360         279.010
        55.950
 131016171.612 8                  24931556.120
     -2440.143                          51.000                    97836760.116 8
  24931561.700       -1822.186          50.600   100389017.861 8  24931559.600
     -1869.737          51.750    99112884.143 8  24931561.260       -1845.960
        53.900
 125398768.409 8                  23862576.480
      1180.882                          52.700                    93641994.228 8
  23862581.200         881.800          53.550    96084817.447 9  23862578.400
       904.809          54.250    94863408.988 9  23862579.600         893.296
        56.600
 145108855.985 7                  27613284.800
      2692.984                          42.800                   108360592.441 7
  27613298.740        2010.995          43.850   111187373.550 7  27613294.120
      2063.461          44.500   109773984.150 7  27613295.640        2037.305
        46.850
 145487001.658 6                  27685247.780
       779.406                          41.850                   108642961.987 7
  27685259.700         581.916          42.800   111477099.861 7  27685254.800
       597.145          42.950   110060025.078 7  27685257.400         589.476
        45.600
 125691671.795 8                  23918326.660
     -1383.580                          52.050                    93860697.957 8
  23918333.420       -1033.213          53.400    96309230.601 8  23918330.420
     -1060.143          53.050    95084961.430 9  23918332.080       -1046.696
        56.100
 147696303.483 7                  28105668.320
      2509.653                          43.800                   110292750.285 6
  28105679.960        1874.242          40.750   113169946.111 6  28105677.080
      1922.958          41.900   111731347.858 7  28105679.420        1898.509
        44.150
 24  1 16 12  3  0.0000000  0 20G06G10G12G15G17G19G22G23G24G25G32E03
                                E04E05E09E24E25E26E31E33
 131798410.100 6 102700109.79846  25080400.260                    25080412.540
      2685.914        2092.925          39.300          38.600    98420966.293 7
  25080416.000        2005.840          42.050


 125710099.906 7  97955919.07746  23921851.480                    23921856.000
     -1785.630       -1391.403          44.950          41.000    93874408.934 7
  23921858.200       -1333.677          47.500


 107413712.968 8  83699033.43348  20440133.440                    20440132.560
      1365.493        1064.021          51.100          51.000



 125311603.236 7  97645372.77047  23846022.340                    23846024.340
     -3911.156       -3047.659          44.950          45.350



 128087036.353 7  99808136.92147  24374137.520                    24374141.380
     -2810.830       -2190.263          43.850          43.950



 116960401.159 7  91138024.50747  22256798.340                    22256797.640
     -1275.659        -994.021          46.950          45.650



 135809094.837 6 105825219.32145  25843634.300                    25843641.400
     -3275.307       -2552.187          40.050          34.100



 130372387.133 7 101588835.85046  24809063.120                    24809069.840
     -3125.304       -2435.308          42.250          38.950    97355977.059 7
  24809075.980       -2333.670          44.000


 108101302.705 8  84234768.37948  20570997.100                    20570999.080
     -1615.983       -1259.209          51.050          51.050    80725001.926 9
  20571000.760       -1206.700          56.200


 116500395.688 7  90779602.63547  22169268.220                    22169273.100
      3131.008        2439.749          46.450          45.450    86997130.372 8
  22169273.980        2338.111          50.400


 122718354.531 7  95624708.15447  23352524.240                    23352527.760
      2756.942        2148.269          47.250          43.350    91640344.893 8
  23352529.300        2058.651          48.850


 142845819.450 7                  27182654.820
      2600.397                          44.650                   106670624.103 7
  27182665.380        1941.814          43.250   109453325.072 7  27182662.740
      1992.568          46.250   108061977.742 7  27182663.880        1967.114
        47.650
 151627684.908 6                  28853792.300
     -3197.380                          36.050                   113228244.498 6
  28853814.980       -2387.614          37.750   116182026.289 5  28853808.740
     -2449.893          35.650   114705133.555 6  28853812.000       -2418.868
        39.650
 118831121.400 8                  22612817.800
       354.634                          52.900                    88737527.765 8
  22612823.380         264.836          52.750    91052413.342 8  22612820.880
       271.733          53.850    89894968.204 9  22612822.740         268.312
        56.150
 131089515.243 8                  24945513.040
     -2449.606                          51.750                    97891529.619 8
  24945519.020       -1829.260          50.250   100445216.144 8  24945516.400
     -1876.963          51.800    99168368.037 8  24945518.200       -1853.113
        53.900
 125363479.343 8                  23855861.380
      1171.527                          53.200                    93615641.999 8
  23855865.840         874.849          53.550    96057777.769 9  23855863.100
       897.685          54.050    94836713.038 9  23855864.300         886.248
        56.650
 145028115.376 7                  27597919.980
      2689.396                          42.550                   108300299.274 7
  27597934.040        2008.315          44.250   111125507.495 7  27597929.580
      2060.833          43.600   109712904.539 7  27597931.260        2034.551
        46.850
 145463836.217 7                  27680839.820
       764.712                          42.550                   108625663.055 7
  27680851.140         571.129          42.700   111459349.663 7  27680846.540
       586.042          43.050   110042500.518 7  27680849.180         578.535
        45.750
 125733290.183 8                  23926246.500
     -1391.120                          52.900                    93891776.578 8
  23926253.160       -1038.857          53.550    96341119.978 8  23926250.060
     -1065.944          53.050    95116445.433 9  23926251.880       -1052.437
        56.250
 147621106.506 7                  28091358.560
      2503.190                          44.150                   110236596.849 6
  28091370.080        1869.237          40.850   113112327.780 6  28091367.440
      1918.099          41.950   111674461.974 7  28091369.720        1893.581
        44.350
 24  1 16 12  3 30.0000000  0 20G06G10G12G15G17G19G22G23G24G25G32E03
                                E04E05E09E24E25E26E31E33
 131717918.470 6 102637389.25246  25065083.100                    25065095.180
      2680.014        2088.327          38.600          38.850    98360859.175 7
  25065098.980        2001.102          42.100


 125763884.196 7  97997828.82346  23932086.300                    23932090.980
     -1799.990       -1402.593          45.400          40.850    93914572.387 7
  23932092.980       -1344.130          47.600


 107372975.470 8  83667289.92248  20432381.200                    20432380.480
      1350.122        1052.043          51.000          50.900



 125428975.373 7  97736831.39547  23868357.660                    23868359.520
     -3913.953       -3049.839          45.350          45.350



 128171499.503 7  99873952.23847  24390210.380                    24390213.720
     -2820.382       -2197.704          42.700          42.450



 116998954.669 7  91168066.14447  22264134.940                    22264134.380
     -1294.812       -1008.946          47.350          45.900



 135907325.888 6 105901763.07946  25862326.940                    25862333.740
     -3273.702       -2550.930          39.700          36.900



 130466178.987 6 101661920.14246  24826910.980                    24826917.900
     -3127.925       -2437.348          40.750          39.000    97426016.172 7
  24826923.940       -2335.841          44.800


 108149972.823 8  84272693.10748  20580258.600                    20580260.560
     -1628.887       -1269.264          50.950          51.000    80761346.442 9
  20580262.180       -1216.373          56.250


 116406588.589 7  90706506.26747  22151417.360                    22151422.200
      3122.455        2433.084          46.450          45.750    86927079.700 8
  22151422.960        2331.708          50.550


 122635811.884 7  95560389.27247  23336816.840                    23336820.200
      2745.694        2139.504          47.300          43.750    91578705.981 8
  23336821.860        2050.355          48.900


 142767884.567 7                  27167824.360
      2594.779                          44.350                   106612426.016 7
  27167834.480        1937.717          43.650   109393608.776 7  27167832.140
      1988.290          46.300   108003020.547 7  27167833.400        1962.985
        47.550
 151723583.690 6                  28872041.980
     -3196.303                          37.650                   113299856.168 6
  28872064.960       -2386.851          38.750   116255506.202 6  28872058.280
     -2449.079          36.400   114777679.341 6  28872061.880       -2417.975
        40.250
 118820675.097 8                  22610830.020
       341.419                          52.650                    88729726.958 8
  22610835.660         254.979          53.050    91044409.033 9  22610833.100
       261.612          54.150    89887065.649 9  22610834.820         258.286
        56.200
 131163127.202 8                  24959520.960
     -2458.109                          50.650                    97946499.502 8
  24959527.180       -1835.634          50.850   100501620.025 8  24959524.500
     -1883.503          51.800    99224054.918 8  24959526.060       -1859.577
        53.850
 125328455.712 8                  23849196.800
      1163.075                          52.950                    93589487.989 8
  23849200.900         868.533          53.650    96030941.475 9  23849198.200
       891.216          54.250    94810217.887 9  23849199.520         879.870
        56.550
 144947463.417 7                  27582572.160
      2687.046                          42.400                   108240072.301 7
  27582585.960        2006.522          43.500   111063709.391 7  27582582.040
      2058.820          44.100   109651892.001 7  27582583.560        2032.700
        46.400
 145441090.784 7                  27676511.600
       751.400                          42.950                   108608677.831 7
  27676522.720         560.884          42.350   111441921.346 7  27676518.320
       575.678          42.900   110025293.743 7  27676521.000         568.180
        45.350
 125775119.753 8                  23934206.580
     -1397.778                          52.400                    93923012.901 8
  23934213.180       -1043.795          53.900    96373171.170 8  23934209.960
     -1071.034          53.300    95148089.192 9  23934211.840       -1057.438
        56.300
 147546088.446 7                  28077082.980
      2497.824                          43.650                   110180577.043 6
  28077094.800        1865.107          41.000   113054846.572 7  28077091.720
      1913.794          42.400   111617711.460 7  28077094.160        1889.488
        44.250
 24  1 16 12  4  0.0000000  0 20G06G10G12G15G17G19G22G23G24G25G32E03
                                E04E05E09E24E25E26E31E33
 131637642.406 6 102574836.64946  25049807.120                    25049819.080
      2672.114        2082.174          38.900          38.950    98300912.950 7
  25049822.640        1995.469          42.300


 125818108.902 7  98040081.72846  23942404.960                    23942409.760
     -1814.773       -1414.113          45.000          41.500    93955064.739 7
  23942411.560       -1355.228          47.500


 107332720.022 8  83635922.03448  20424720.760                    20424720.080
      1333.802        1039.327          51.300          51.100



 125546442.021 7  97828363.65647  23890710.960                    23890713.100
     -3917.169       -3052.345          45.400          45.200



 128256269.345 7  99940006.53347  24406341.740                    24406344.520
     -2830.731       -2205.769          43.500          43.500



 117038097.675 7  91198567.14347  22271583.660                    22271583.060
     -1314.631       -1024.391          47.250          45.400



 136005517.398 6 105978275.99045  25881012.120                    25881019.020
     -3272.178       -2549.740          39.250          35.000



 130560073.336 7 101735084.37546  24844778.560                    24844785.300
     -3131.657       -2440.258          42.350          36.300    97496131.789 7
  24844791.680       -2338.456          44.300


 108199053.288 8  84310937.58248  20589598.200                    20589600.060
     -1642.822       -1280.122          51.100          51.050    80797997.384 9
  20589601.760       -1226.734          56.100


 116313058.934 7  90633626.06847  22133619.240                    22133624.140
      3113.135        2425.820          46.600          45.700    86857236.205 8
  22133624.820        2324.700          50.600


 122553624.354 7  95496347.09047  23321177.000                    23321180.240
      2733.763        2130.207          47.250          43.700    91517332.245 8
  23321181.880        2041.363          48.650


 142690141.384 7                  27153030.380
      2588.170                          44.550                   106554371.104 7
  27153040.160        1932.737          43.750   109334039.384 7  27153038.000
      1983.202          46.300   107944208.395 7  27153039.380        1957.933
        47.600
 151819468.399 6                  28890289.080
     -3195.798                          36.400                   113371457.263 6
  28890312.120       -2386.578          37.300   116328975.291 6  28890305.480
     -2448.616          36.200   114850214.426 6  28890309.260       -2417.546
        39.400
 118810645.525 8                  22608921.520
       327.420                          52.850                    88722237.353 8
  22608927.280         244.533          53.100    91036724.039 9  22608924.640
       250.890          54.250    89879478.348 9  22608926.200         247.757
        56.300
 131237013.847 8                  24973581.080
     -2467.406                          50.800                    98001674.508 8
  24973587.920       -1842.505          50.800   100558234.389 8  24973584.640
     -1890.594          51.700    99279949.600 8  24973586.260       -1866.554
        53.850
 125293705.108 8                  23842584.120
      1153.854                          52.900                    93563537.857 8
  23842587.820         861.621          53.400    96004314.381 9  23842585.240
       884.098          54.200    94783929.273 9  23842586.680         872.858
        56.400
 144866908.256 7                  27567242.960
      2683.561                          43.150                   108179917.636 7
  27567256.340        2003.969          44.000   111001985.437 7  27567252.560
      2056.262          43.700   109590952.695 7  27567254.420        2030.102
        46.700
 145418773.896 7                  27672264.800
       736.933                          42.550                   108592012.580 7
  27672275.440         550.216          42.200   111424821.385 7  27672271.680
       564.479          42.250   110008411.139 7  27672274.400         557.285
        44.950
 125817167.173 8                  23942208.020
     -1405.171                          52.550                    93954411.911 8
  23942214.720       -1049.313          53.950    96405389.291 8  23942211.300
     -1076.669          53.300    95179897.756 9  23942213.280       -1062.971
        56.400
 147471259.119 7                  28062843.240
      2491.154                          42.600                   110124698.143 6
  28062855.100        1860.434          41.250   112997509.957 7  28062852.200
      1908.799          42.250   111561103.701 7  28062854.560        1884.600
        44.500
 24  1 16 12  4 30.0000000  0 20G06G10G12G15G17G19G22G23G24G25G32E03
                                E04E05E09E24E25E26E31E33
 131557581.145 6 102512451.41246  25034571.980                    25034583.700
      2665.111        2076.717          39.650          39.350    98241127.124 7
  25034587.280        1990.091          42.550


 125872768.116 7  98082673.21746  23952806.220                    23952811.520
     -1829.021       -1425.214          44.700          41.850    93995881.553 7
  23952812.740       -1365.966          47.000


 107292943.253 8  83604927.14548  20417151.520                    20417150.740
      1317.743        1026.813          51.050          50.950



 125663996.579 7  97919964.40847  23913081.040                    23913083.320
     -3920.065       -3054.604          44.500          44.200



 128341339.666 7 100006294.97047  24422530.200                    24422532.540
     -2840.632       -2213.482          43.750          43.750



 117077825.108 7  91229523.54147  22279143.540                    22279143.020
     -1333.941       -1039.437          46.800          45.200



 136103664.355 6 106054754.25245  25899688.820                    25899695.860
     -3270.908       -2548.750          38.600          33.600



 130654063.319 6 101808323.05046  24862664.160                    24862670.680
     -3134.909       -2442.798          40.350          37.850    97566318.800 7
  24862677.580       -2340.846          43.900


 108248539.647 8  84349498.33448  20599015.140                    20599016.960
     -1656.428       -1290.725          51.050          50.900    80834951.430 9
  20599018.700       -1236.876          56.200


 116219804.318 7  90560960.19247  22115873.560                    22115878.380
      3103.820        2418.563          47.250          45.300    86787598.068 8
  22115878.920        2317.905          50.650


 122471790.687 7  95432580.65547  23305604.520                    23305607.720
      2721.588        2120.721          47.600          43.350    91456222.747 8
  23305609.240        2032.534          48.750


 142612587.772 7                  27138272.520
      2581.932                          44.900                   106496457.763 7
  27138281.780        1927.995          43.950   109274615.262 7  27138280.040
      1978.364          46.500   107885539.666 7  27138281.440        1953.193
        47.750
 151915334.282 6                  28908532.640
     -3195.392                          38.350                   113443044.357 6
  28908555.460       -2385.907          37.200   116402430.030 5  28908549.280
     -2448.288          35.750   114922735.344 6  28908552.920       -2416.913
        38.950
 118801029.546 8                  22607091.740
       313.635                          52.650                    88715056.603 8
  22607097.500         234.171          53.200    91029355.959 9  22607094.920
       240.299          54.250    89872203.932 9  22607096.280         237.207
        56.200
 131311170.175 8                  24987692.460
     -2476.398                          50.450                    98057050.888 8
  24987699.740       -1849.219          51.100   100615055.377 8  24987696.200
     -1897.470          51.250    99336048.287 8  24987697.760       -1873.371
        53.650
 125259223.704 8                  23836022.540
      1144.891                          52.700                    93537788.743 8
  23836025.920         854.995          53.300    95977893.553 9  23836023.540
       877.257          54.050    94757844.300 9  23836025.080         866.144
        56.250
 144786446.587 7                  27551931.580
      2680.479                          43.000                   108119832.802 7
  27551944.360        2001.600          43.150   110940333.149 7  27551941.000
      2053.854          43.650   109530084.134 7  27551942.860        2027.682
        45.950
 145396882.637 6                  27668098.980
       722.624                          41.950                   108575665.186 7
  27668109.140         539.624          42.250   111408047.535 6  27668105.860
       553.683          41.350   109991850.518 7  27668108.780         546.649
        44.550
 125859427.646 8                  23950250.000
     -1412.240                          52.550                    93985970.007 9
  23950256.800       -1054.565          54.050    96437770.656 8  23950253.240
     -1082.156          53.250    95211867.485 9  23950255.260       -1068.332
        56.250
 147396616.884 7                  28048639.020
      2484.923                          42.550                   110068958.983 6
  28048651.020        1855.632          41.500   112940316.702 7  28048648.240
      1904.124          42.900   111504637.492 7  28048650.400        1879.930
        44.700
 24  1 16 12  5  0.0000000  0 20G06G10G12G15G17G19G22G23G24G25G32E03
                                E04E05E09E24E25E26E31E33
 131477737.074 6 102450235.37046  25019378.280                    25019389.620
      2657.807        2071.021          39.600          39.700    98181503.434 7
  25019393.040        1984.859          43.200


 125927858.455 7  98125600.62947  23963289.620                    23963295.200
     -1843.399       -1436.422          44.650          42.750    94037020.294 7
  23963296.000       -1376.555          46.850


 107253644.892 8  83574305.03348  20409673.400                    20409672.420
      1301.975        1014.525          50.950          51.050



 125781635.798 7  98011631.15147  23935467.200                    23935469.460
     -3922.751       -3056.694          45.050          45.400



 128426707.883 7 100072815.54447  24438775.200                    24438777.440
     -2850.324       -2221.035          43.000          43.000



 117118134.653 7  91260933.52147  22286814.080                    22286813.700
     -1353.185       -1054.430          45.900          45.200



 136201764.877 6 106131196.25145  25918356.820                    25918363.700
     -3269.576       -2547.726          38.800          33.700



 130748144.863 6 101881633.08446  24880567.200                    24880573.500
     -3137.499       -2444.810          41.700          36.800    97636574.178 7
  24880581.140       -2342.890          45.700


 108298430.342 8  84388374.15548  20608509.080                    20608510.900
     -1669.753       -1301.107          51.400          51.550    80872207.417 9
  20608512.720       -1246.887          56.250


 116126825.201 7  90488508.97247  22098180.220                    22098184.900
      3094.813        2411.542          47.050          45.900    86718165.682 8
  22098185.620        2310.979          50.750


 122390312.623 7  95369091.30647  23290099.680                    23290103.000
      2709.940        2111.646          47.800          44.150    91395378.809 8
  23290104.200        2023.663          48.750


 142535224.604 7                  27123550.880
      2575.671                          44.850                   106438686.645 7
  27123559.940        1923.355          43.800   109215337.065 7  27123558.160
      1973.535          46.550   107827015.010 7  27123559.720        1948.425
        47.900
 152011179.001 6                  28926772.180
     -3194.453                          36.950                   113514615.484 6
  28926794.860       -2385.342          36.800   116475868.366 5  28926788.860
     -2447.661          34.700   114995240.080 6  28926792.640       -2416.556
        38.500
 118791826.951 8                  22605340.620
       299.880                          52.700                    88708184.542 8
  22605346.280         223.954          53.150    91022304.628 9  22605343.880
       229.760          54.450    89865242.235 9  22605345.040         226.886
        56.450
 131385594.071 8                  25001854.760
     -2485.284                          50.400                    98112627.082 8
  25001862.500       -1855.809          51.250   100672081.396 8  25001858.560
     -1904.251          51.100    99392349.391 8  25001860.220       -1880.014
        53.850
 125225010.654 8                  23829511.960
      1136.000                          52.750                    93512240.028 8
  23829515.160         848.292          53.200    95951678.349 9  23829513.000
       870.412          54.250    94731962.342 9  23829514.560         859.360
        56.400
 144706078.156 7                  27536638.300
      2677.437                          43.600                   108059817.556 7
  27536649.960        1999.405          42.600   110878752.302 7  27536647.280
      2051.580          43.200   109469286.081 7  27536649.220        2025.438
        45.800
 145375416.997 6                  27664013.940
       708.526                          41.550                   108559635.671 7
  27664023.920         529.051          42.750   111391599.851 6  27664020.600
       542.709          41.100   109975611.926 7  27664024.040         535.797
        44.850
 125901899.392 8                  23958332.140
     -1419.160                          52.600                    94017685.878 8
  23958338.980       -1059.764          53.950    96470313.901 8  23958335.480
     -1087.423          53.350    95243997.047 9  23958337.420       -1073.603
        56.450
 147322163.093 7                  28034470.840
      2478.651                          42.350                   110013360.562 7
  28034482.940        1850.919          42.350   112883267.876 7  28034480.180
      1899.268          43.150   111448313.871 7  28034482.260        1875.097
        45.550
 24  1 16 12  5 30.0000000  0 20G06G10G12G15G17G19G22G23G24G25G32E03
                                E04E05E09E24E25E26E31E33
 131398112.527 6 102388190.37446  25004226.240                    25004237.360
      2650.177        2065.076          39.850          39.950    98122043.653 7
  25004240.440        1979.229          44.600


 125983376.386 7  98168861.23247  23973854.500                    23973860.540
     -1857.845       -1447.676          45.050          42.850    94078478.355 7
  23973860.660       -1387.235          46.350


 107214824.397 8  83544055.28948  20402286.260                    20402285.000
      1286.021        1002.095          51.750          51.850



 125899356.391 7  98103361.27047  23957868.780                    23957871.360
     -3925.322       -3058.699          44.850          44.800



 128512370.274 7 100139565.34847  24455076.240                    24455078.580
     -2860.407       -2228.892          43.500          43.300



 117159024.137 7  91292795.40147  22294595.060                    22294594.760
     -1372.734       -1069.666          46.600          45.400



 136299817.567 6 106207601.03345  25937015.740                    25937022.660
     -3267.583       -2546.165          40.250          30.050



 130842313.974 6 101955011.28946  24898487.020                    24898493.100
     -3139.986       -2446.759          39.400          38.350    97706894.950 7
  24898501.240       -2345.226          43.700


 108348723.827 8  84427563.83348  20618079.720                    20618081.600
     -1683.256       -1311.630          51.550          51.650    80909764.189 9
  20618083.440       -1256.969          56.450


 116034122.093 7  90416272.83947  22080539.360                    22080544.020
      3085.431        2404.234          47.350          44.900    86648939.388 8
  22080544.860        2303.992          50.900


 122309191.736 8  95305880.29347  23274662.900                    23274666.300
      2697.907        2102.268          48.550          43.850    91334801.606 8
  23274667.200        2014.702          48.900


 142458052.653 7                  27108865.560
      2569.069                          44.950                   106381058.330 7
  27108874.460        1918.450          44.300   109156205.395 7  27108872.700
      1968.559          46.800   107768635.012 8  27108874.360        1943.530
        48.300
 152107000.350 6                  28945007.340
     -3193.623                          36.400                   113586515.263 5
  28945030.120       -2384.967          31.950   116549288.885 5  28945023.900
     -2447.289          30.850   115067727.234 5  28945027.960       -2416.113
        34.200
 118783037.421 8                  22603668.040
       286.111                          52.550                    88701620.947 8
  22603673.620         213.582          53.150    91015569.805 9  22603671.440
       219.173          54.850    89858593.026 9  22603672.440         216.367
        56.700
 131460283.364 8                  25016067.600
     -2494.148                          50.750                    98168401.466 8
  25016075.740       -1862.595          51.450   100729310.766 8  25016071.460
     -1911.121          51.050    99448851.268 8  25016073.180       -1886.861
        53.950
 125191064.987 8                  23823052.200
      1126.990                          52.700                    93486890.982 8
  23823055.400         841.579          53.200    95925668.025 9  23823053.420
       863.516          54.700    94706282.656 9  23823054.920         852.547
        56.650
 144625802.539 7                  27521362.600
      2674.173                          44.400                   107999871.671 7
  27521373.380        1996.993          42.800   110817242.553 7  27521370.980
      2049.041          43.950   109408558.261 7  27521373.100        2023.063
        46.150
 145354376.947 6                  27660010.100
       694.188                          41.600                   108543923.947 7
  27660020.280         518.456          42.700   111375478.262 6  27660016.300
       531.803          41.300   109959695.255 7  27660020.160         525.219
        44.950
 125944580.529 8                  23966454.080
     -1426.318                          52.750                    94049558.111 8
  23966460.820       -1065.062          53.800    96503017.592 8  23966457.440
     -1092.840          53.550    95276285.007 9  23966459.440       -1078.968
        56.600
 147247898.992 7                  28020338.700
      2472.290                          42.350                   109957903.802 7
  28020351.100        1846.078          42.450   112826364.387 7  28020348.100
      1894.271          43.900   111392133.746 7  28020350.060        1870.188
        45.900
 24  1 16 12  6  0.0000000  0 20G06G10G12G15G17G19G22G23G24G25G32E03
                                E04E05E09E24E25E26E31E33
 131318712.929 6 102326320.71646  24989116.940                    24989127.960
      2642.751        2059.291          40.100          40.350    98062751.938 7
  24989130.680        1973.370          44.400


 126039321.664 7  98212454.82447  23984500.740                    23984506.980
     -1871.880       -1458.613          45.450          42.050    94120255.546 7
  23984506.660       -1397.991          45.950


 107176484.547 8  83514180.07548  20394990.580                    20394989.100
      1269.815         989.466          51.850          51.800



 126017157.895 7  98195154.44247  23980285.800                    23980288.800
     -3928.258       -3060.988          44.500          44.700



 128598326.453 7 100206544.10947  24471433.240                    24471435.800
     -2870.298       -2236.598          42.900          43.400



 117200494.394 7  91325109.83247  22302486.560                    22302486.460
     -1392.142       -1084.788          46.400          45.550



 136397823.227 6 106283969.12445  25955665.720                    25955672.340
     -3266.053       -2544.979          39.000          33.950



 130936569.848 6 102028457.13845  24916423.640                    24916429.340
     -3143.278       -2449.313          40.800          35.100    97777280.465 7
  24916437.880       -2347.339          44.600


 108399421.729 8  84467068.63648  20627727.340                    20627729.340
     -1696.816       -1322.195          51.300          51.000    80947622.963 9
  20627731.240       -1267.171          56.600


 115941698.699 7  90344254.65547  22062951.720                    22062956.140
      3075.865        2396.780          47.050          45.250    86579921.978 8
  22062957.420        2296.838          50.950


 122228432.961 8  95242951.43947  23259294.980                    23259298.560
      2685.762        2092.804          48.100          44.550    91274494.793 8
  23259299.080        2005.465          48.900


 142381075.942 7                  27094217.420
      2562.433                          45.100                   106323575.821 7
  27094226.260        1913.428          44.600   109097223.336 7  27094224.420
      1963.354          47.100   107710402.734 8  27094226.140        1938.407
        48.600
 152202842.268 6                  28963238.440
     -3193.013                          36.950                   113658055.977 6
  28963261.580       -2384.598          36.400   116623022.923 5  28963254.700
     -2446.541          33.750   115140198.100 6  28963259.040       -2415.554
        38.100
 118774663.956 8                  22602074.580
       271.820                          52.350                    88695368.038 8
  22602080.040         203.018          52.900    91009153.781 9  22602078.080
       208.315          54.950    89852258.560 9  22602079.040         205.662
        56.600
 131535239.172 8                  25030331.140
     -2503.265                          50.100                    98224374.855 8
  25030339.460       -1869.289          51.100   100786744.355 8  25030334.960
     -1918.049          51.300    99505554.758 8  25030336.940       -1893.651
        53.900
 125157389.067 8                  23816643.720
      1117.741                          52.550                    93461743.364 8
  23816647.160         834.667          53.050    95899864.380 9  23816645.180
       856.462          54.850    94680807.025 9  23816646.620         845.567
        56.600
 144545622.661 7                  27506105.180
      2670.736                          44.100                   107939997.245 6
  27506114.760        1994.438          41.800   110755806.184 7  27506113.340
      2046.396          44.750   109347902.867 7  27506115.120        2020.396
        46.100
 145333765.654 7                  27656088.060
       679.672                          43.100                   108528532.447 7
  27656098.320         507.540          43.050   111359685.208 6  27656093.780
       520.728          41.600   109944102.986 7  27656097.780         514.095
        45.300
 125987472.457 8                  23974616.160
     -1433.495                          52.650                    94081587.760 8
  23974622.660       -1070.511          53.400    96535882.803 8  23974619.320
     -1098.395          53.550    95308732.437 9  23974621.580       -1084.479
        56.350
 147173829.086 7                  28006243.540
      2465.494                          42.200                   109902592.085 7
  28006255.920        1841.047          42.550   112769609.729 7  28006252.960
      1889.197          43.950   111336100.562 7  28006254.880        1865.042
        45.900
 24  1 16 12  6 30.0000000  0 20G06G10G12G15G17G19G22G23G24G25G32E03
                                E04E05E09E24E25E26E31E33
 131239542.042 6 102264629.27746  24974051.060                    24974062.000
      2635.151        2053.371          39.600          38.700    98003630.990 7
  24974064.380        1967.771          44.900


 126095692.264 7  98256379.83447  23995228.000                    23995234.440
     -1886.107       -1469.698          45.700          43.300    94162350.333 7
  23995233.780       -1408.542          45.650


 107138625.994 8  83484679.90048  20387786.440                    20387784.900
      1253.779         976.971          51.300          51.400



 126135038.360 7  98287009.15947  24002717.940                    24002720.920
     -3930.661       -3062.858          44.100          44.650



 128684574.786 7 100273750.51047  24487845.720                    24487848.640
     -2879.793       -2243.997          43.100          42.800



 117242544.063 7  91357875.75447  22310488.400                    22310488.380
     -1411.352       -1099.756          46.300          45.550



 136495781.746 6 106360300.45745  25974306.640                    25974313.340
     -3264.440       -2543.723          38.200          34.350



 131030909.787 6 102101968.43146  24934376.300                    24934381.340
     -3145.797       -2451.281          39.450          37.250    97847728.725 7
  24934390.300       -2349.352          44.250


 108450523.759 8  84506888.35548  20637451.820                    20637453.880
     -1710.179       -1332.608          50.900          50.750    80985783.521 9
  20637456.060       -1277.113          56.700


 115849556.734 7  90272455.76247  22045417.600                    22045421.880
      3066.605        2389.563          47.150          45.100    86511114.717 8
  22045423.580        2290.025          51.000


 122148039.268 8  95180307.05847  23243996.500                    23244000.280
      2673.562        2083.297          48.250          44.700    91214460.593 8
  23244000.520        1996.533          48.950


 142304296.574 7                  27079606.800
      2555.838                          44.700                   106266240.665 7
  27079615.660        1908.633          44.550   109038392.476 7  27079613.660
      1958.428          46.800   107652319.727 8  27079615.440        1933.476
        48.500
 152298619.614 6                  28981465.080
     -3192.617                          37.600                   113729576.666 6
  28981488.740       -2383.877          37.150   116696409.544 5  28981481.500
     -2446.093          34.800   115212651.754 6  28981485.980       -2415.009
        39.050
 118766707.506 8                  22600560.440
       258.188                          52.100                    88689426.542 8
  22600565.820         192.800          52.750    91003057.291 9  22600563.980
       197.834          54.450    89846239.565 9  22600565.000         195.313
        56.400
 131610460.609 8                  25044645.360
     -2511.835                          50.150                    98280546.617 8
  25044653.660       -1875.754          51.050   100844381.471 8  25044649.240
     -1924.661          50.700    99562459.197 8  25044651.180       -1900.198
        53.750
 125123983.201 8                  23810286.720
      1109.010                          52.650                    93436797.417 8
  23810290.460         828.104          53.000    95874267.677 9  23810288.340
       849.701          54.600    94655535.699 9  23810289.720         838.906
        56.600
 144465539.399 7                  27490866.120
      2667.841                          45.100                   107880195.000 7
  27490874.780        1992.229          42.000   110694443.870 7  27490874.100
      2044.176          44.450   109287320.590 7  27490875.740        2018.150
        46.100
 145313584.319 6                  27652247.780
       665.464                          41.250                   108513462.033 7
  27652258.280         496.804          42.650   111344221.627 6  27652253.560
       509.851          41.400   109928835.986 7  27652257.140         503.322
        45.000
 126030574.629 8                  23982818.260
     -1440.287                          52.350                    94113774.405 8
  23982824.500       -1075.503          53.150    96568909.104 8  23982821.280
     -1103.555          53.300    95341338.912 9  23982823.720       -1089.542
        56.250
 147099955.970 7                  27992186.020
      2459.109                          42.250                   109847427.345 7
  27992198.140        1836.339          42.350   112713005.901 7  27992195.380
      1884.216          43.300   111280216.272 7  27992197.180        1860.346
        45.800
 24  1 16 12  7  0.0000000  0 20G06G10G12G15G17G19G22G23G24G25G32E03
                                E04E05E09E24E25E26E31E33
 131160601.832 6 102203117.60146  24959029.400                    24959040.200
      2627.564        2047.459          40.650          40.700    97944682.334 7
  24959041.960        1962.259          45.100


 126152484.891 7  98300633.68547  24006035.580                    24006041.860
     -1899.824       -1480.388          45.650          42.100    94204760.247 7
  24006041.300       -1418.674          45.300


 107101248.314 8  83455554.43948  20380673.720                    20380672.340
      1238.304         964.912          51.750          51.700



 126252994.079 7  98378922.50147  24025164.380                    24025167.540
     -3932.860       -3064.571          45.250          45.000



 128771111.654 7 100341181.74647  24504313.080                    24504316.420
     -2889.065       -2251.224          42.750          42.550



 117285170.656 7  91391091.22447  22318600.000                    22318600.380
     -1430.202       -1114.444          46.650          45.000



 136593690.976 5 106436593.48642  25992937.840                    25992944.720
     -3262.451       -2542.150          34.200          17.200



 131125329.608 6 102175541.94646  24952344.080                    24952348.760
     -3148.579       -2453.447          40.850          36.800    97918236.577 7
  24952357.740       -2351.116          43.050


 108502028.133 8  84547021.59048  20647252.800                    20647254.840
     -1723.195       -1342.751          51.300          51.250    81024244.527 9
  20647257.380       -1286.853          56.400


 115757696.499 7  90200876.41147  22027937.160                    22027941.160
      3057.563        2382.520          47.400          44.750    86442517.841 8
  22027943.440        2283.264          51.000


 122068012.073 8  95117948.27847  23228767.700                    23228771.760
      2661.798        2074.132          48.400          44.600    91154700.113 8
  23228771.740        1987.592          48.900


 142227715.121 7                  27065033.780
      2549.765                          44.900                   106209053.295 7
  27065042.700        1903.994          44.650   108979713.256 7  27065040.580
      1953.690          46.850   107594386.429 8  27065042.440        1928.835
        48.900

                                                                 113801078.600 5
  28999710.960       -2383.040          33.750   116769788.895 5  28999703.620
     -2444.809          31.600   115285086.412 6  28999708.180       -2414.224
        36.000
 118759167.621 8                  22599125.500
       244.679                          52.150                    88683796.106 8
  22599130.920         182.733          52.400    90997279.976 9  22599129.020
       187.490          54.200    89840535.695 9  22599130.240         185.081
        56.400
 131685945.350 8                  25059009.660
     -2520.277                          50.250                    98336914.984 8
  25059018.000       -1882.015          50.500   100902220.346 8  25059013.300
     -1931.079          50.750    99619562.820 8  25059015.620       -1906.552
        53.750
 125090846.316 8                  23803981.000
      1100.354                          52.900                    93412052.325 8
  23803985.040         821.719          52.800    95848877.065 9  23803982.640
       843.135          54.450    94630467.848 9  23803984.000         832.428
        56.700
 144385552.281 7                  27475645.180
      2664.859                          44.600                   107820464.532 6
  27475653.340        1990.035          41.800   110633155.174 7  27475653.080
      2041.982          45.050   109226811.009 7  27475654.480        2015.885
        46.650
 145293832.669 6                  27648488.900
       651.297                          41.900                   108498712.466 7
  27648499.900         486.449          42.250   111329087.276 6  27648495.440
       499.101          41.650   109913894.019 7  27648498.280         492.830
        45.200
 126073884.986 8                  23991060.020
     -1446.879                          52.550                    94146116.534 8
  23991066.020       -1080.500          52.800    96602094.943 8  23991063.040
     -1108.666          53.400    95374102.892 9  23991065.440       -1094.592
        56.300
 147026280.796 7                  27978166.080
      2452.713                          42.300                   109792410.430 6
  27978178.140        1831.636          41.800   112656553.741 7  27978175.420
      1879.479          43.200   111224481.735 7  27978177.140        1855.621
        45.650
 24  1 16 12  7 30.0000000  0 19G06G10G12G15G17G19G22G23G24G25G32E03
                                E05E09E24E25E26E31E33
 131081893.758 6 102141786.82346  24944051.760                    24944062.460
      2619.855        2041.452          40.900          41.300    97885907.051 7
  24944063.780        1956.229          45.450


 126209694.791 7  98345212.67247  24016922.420                    24016928.760
     -1913.656       -1491.165          45.050          42.250    94247481.759 7
  24016928.220       -1429.177          45.800


 107064349.946 8  83426802.46648  20373652.180                    20373651.000
      1221.975         952.188          51.900          51.750



 126371020.764 7  98470891.11847  24047624.300                    24047627.740
     -3935.326       -3066.494          44.450          43.950



 128857933.763 7 100408835.25047  24520834.640                    24520838.400
     -2898.887       -2258.875          42.750          43.200



 117328371.181 7  91424753.92847  22326820.800                    22326821.540
     -1449.462       -1129.451          46.350          45.850



 136691548.077 6 106512845.57245  26011559.420                    26011566.100
     -3261.134       -2541.148          37.900          33.400



 131219824.405 6 102249173.81646  24970326.260                    24970331.180
     -3150.927       -2455.286          39.300          36.050    97988800.403 7
  24970339.180       -2353.078          42.700


 108553932.439 8  84587466.45748  20657129.860                    20657131.740
     -1736.728       -1353.296          51.100          50.900    81063004.177 9
  20657134.500       -1296.916          56.300


 115666117.616 7  90129516.28847  22010510.220                    22010513.940
      3047.888        2374.979          47.400          44.900    86374131.066 8
  22010516.760        2276.083          51.050


 121988352.230 7  95055875.74947  23213608.740                    23213613.060
      2649.231        2064.339          47.750          44.950    91095213.950 8
  23213613.000        1978.277          49.150


 142151331.609 7                  27050498.420
      2542.805                          44.750                   106152013.726 7
  27050507.560        1898.889          44.800   108921185.686 7  27050505.060
      1948.479          46.900   107536602.862 8  27050507.040        1923.683
        48.850
 118752043.140 8                  22597769.620
       230.509                          52.050                    88678475.869 8
  22597775.100         172.176          52.550    90991820.949 9  22597773.040
       176.679          54.000    89835146.062 9  22597774.520         174.415
        56.200
 131761690.390 8                  25073423.580
     -2529.106                          49.950                    98393477.751 8
  25073431.380       -1888.638          50.350   100960258.661 8  25073427.400
     -1937.864          50.950    99676863.360 8  25073429.520       -1913.241
        53.600
 125057976.629 8                  23797726.240
      1091.218                          53.150                    93387506.771 8
  23797730.440         814.869          52.950    95823691.195 9  23797727.700
       836.152          54.450    94605602.136 9  23797729.140         825.516
        56.650
 144305660.013 7                  27460442.040
      2661.580                          44.500                   107760804.928 6
  27460450.120        1987.422          41.700   110571939.210 7  27460450.040
      2039.389          44.200   109166373.223 7  27460451.340        2013.357
        46.000
 145274509.764 7                  27644811.640
       637.002                          42.350                   108484283.079 7
  27644822.960         475.666          42.350   111314281.447 7  27644818.880
       488.131          42.300   109899276.421 7  27644820.940         481.794
        45.200
 126117400.879 8                  23999340.880
     -1453.888                          52.450                    94178612.146 8
  23999346.800       -1085.707          52.950    96635438.265 8  23999343.900
     -1114.002          53.550    95407022.358 9  23999346.220       -1099.854
        56.250
 146952803.907 7                  27964183.880
      2446.121                          43.150                   109737541.647 6
  27964195.820        1826.582          41.250   112600253.565 7  27964193.260
      1874.033          43.000   111168897.260 7  27964194.700        1850.316
        45.200
 24  1 16 12  8  0.0000000  0 19G06G10G12G15G17G19G22G23G24G25G32E03
                                E05E09E24E25E26E31E33
 131003423.747 6 102080641.52446  24929119.420                    24929130.060
      2611.608        2035.025          40.600          40.150    97827309.493 7
  24929130.800        1950.304          45.250


 126267322.445 7  98390117.18746  24027888.700                    24027894.980
     -1927.830       -1502.210          44.500          40.750    94290515.204 7
  24027894.620       -1439.589          45.850


 107027934.129 8  83398426.51748  20366722.460                    20366721.460
      1205.932         939.688          51.850          51.800



 126489118.995 7  98562915.49047  24070097.660                    24070101.460
     -3937.643       -3068.300          43.700          43.550



 128945040.209 7 100476710.32447  24537410.440                    24537414.440
     -2908.182       -2266.118          43.050          43.550



 117372146.809 7  91458864.76447  22335151.020                    22335151.960
     -1468.667       -1144.417          46.250          45.600



 136789354.989 5 106589058.67645  26030171.180                    26030178.340
     -3259.019       -2539.510          34.450          30.900



 131314393.800 6 102322863.86246  24988322.640                    24988327.260
     -3153.389       -2457.198          39.450          37.900    98059419.925 6
  24988334.700       -2354.963          40.700


 108606238.666 8  84628224.51748  20667083.420                    20667085.220
     -1750.152       -1363.756          51.200          51.250    81102063.968 9
  20667087.920       -1306.940          56.350


 115574824.176 7  90058378.60247  21993137.700                    21993141.120
      3038.501        2367.665          47.950          44.900    86305957.468 8
  21993144.400        2268.855          51.350


 121909064.967 7  94994093.54847  23198520.700                    23198525.260
      2636.752        2054.615          47.550          44.600    91036006.027 8
  23198525.180        1968.939          49.650


 142075150.453 7                  27036001.580
      2536.029                          44.900                   106095125.279 7
  27036010.760        1893.819          45.400   108862813.192 7  27036008.260
      1943.246          47.000   107478972.393 8  27036010.220        1918.528
        48.850
 118745337.355 8                  22596493.380
       216.588                          51.750                    88673468.300 8
  22596499.000         161.689          52.700    90986682.744 8  22596496.700
       165.931          53.900    89830073.175 9  22596498.460         163.811
        55.900
 131837697.200 8                  25087887.280
     -2537.844                          49.900                    98450235.981 8
  25087895.060       -1895.158          50.550   101018497.558 8  25087890.940
     -1944.551          50.800    99734361.924 8  25087893.220       -1919.855
        53.300
 125025376.827 8                  23791522.860
      1082.210                          53.150                    93363162.760 8
  23791527.140         808.172          53.150    95798712.124 9  23791524.020
       829.262          54.350    94580940.595 9  23791525.640         818.709
        56.300
 144225865.941 7                  27445257.480
      2658.256                          44.250                   107701218.644 6
  27445266.060        1984.962          41.950   110510798.475 7  27445265.700
      2036.772          45.350   109106009.710 7  27445266.720        2010.889
        46.300
 145255619.128 7                  27641216.760
       622.617                          42.400                   108470176.506 7
  27641228.500         464.840          42.350   111299806.852 7  27641224.420
       476.938          42.650   109884985.835 7  27641225.940         470.826
        44.850
 126161124.088 8                  24007661.180
     -1460.857                          52.750                    94211262.577 8
  24007667.240       -1090.874          53.200    96668940.447 8  24007664.260
     -1119.329          53.800    95440098.666 9  24007666.460       -1105.104
        56.150
 146879530.231 7                  27950240.380
      2439.050                          43.400                   109682824.580 6
  27950252.200        1821.453          41.550   112544109.056 7  27950249.520
      1868.872          42.850   111113466.476 7  27950250.860        1845.114
        44.700
 24  1 16 12  8 30.0000000  0 19G06G10G12G15G17G19G22G23G24G25G32E03
                                E05E09E24E25E26E31E33
 130925195.416 6 102019684.56746  24914232.920                    24914243.580
      2603.488        2028.700          40.600          41.050    97768892.454 7
  24914244.120        1943.954          45.100


 126325365.584 7  98435345.45146  24038933.940                    24038940.280
     -1941.909       -1513.182          44.100          41.850    94333858.910 7
  24038940.180       -1450.157          45.850


 106992001.448 8  83370427.02948  20359884.700                    20359883.720
      1189.549         926.922          51.900          52.050



 126607286.365 7  98654993.77447  24092584.260                    24092587.920
     -3940.216       -3070.306          43.200          43.500



 129032429.604 7 100544805.87547  24554040.140                    24554044.120
     -2917.790       -2273.604          42.900          43.550



 117416496.342 7  91493422.79247  22343590.480                    22343591.440
     -1488.144       -1159.595          46.700          45.000



 136887112.280 5                  26048773.500
     -3258.683                          31.250



 131409035.347 6 102396610.09845  25006332.540                    25006337.200
     -3156.264       -2459.436          39.550          35.700    98130093.320 6
  25006343.640       -2356.818          41.850


 108658946.624 8  84669295.60648  20677113.480                    20677115.340
     -1763.769       -1374.367          51.450          51.550    81141423.753 9
  20677117.820       -1317.161          56.000


 115483818.058 7  89987464.79247  21975819.840                    21975823.040
      3028.522        2359.889          47.950          44.650    86237998.398 8
  21975826.500        2261.514          50.900


 121830153.347 7  94932604.07747  23183504.140                    23183508.900
      2623.760        2044.491          47.550          45.000    90977078.620 8
  23183508.920        1959.357          49.500


 141999173.883 7                  27021543.640
      2528.844                          44.850                   106038389.615 7
  27021553.060        1888.466          45.300   108804597.464 7  27021550.320
      1937.665          47.000   107421496.699 8  27021552.320        1912.985
        49.000
 118739051.361 8                  22595297.020
       202.263                          51.900                    88668774.198 8
  22595302.860         151.058          52.450    90981866.184 8  22595300.340
       154.996          53.900    89825317.847 9  22595302.240         152.993
        56.000
 131913965.012 8                  25102400.680
     -2546.807                          49.950                    98507189.127 8
  25102407.900       -1901.852          49.700   101076936.438 8  25102404.480
     -1951.422          51.300    99792057.939 8  25102406.600       -1926.691
        53.300
 124993047.395 8                  23785370.920
      1072.877                          53.250                    93339020.645 8
  23785375.120         801.185          52.800    95773940.223 9  23785371.760
       822.074          54.350    94556483.587 9  23785373.600         811.632
        56.350
 144146171.058 7                  27430091.440
      2654.442                          43.550                   107641706.420 7
  27430100.520        1982.363          42.200   110449733.750 7  27430100.040
      2034.006          44.900   109045721.240 7  27430101.180        2008.165
        46.350
 145237162.054 7                  27637704.620
       607.794                          42.700                   108456393.661 6
  27637716.040         453.828          41.200   111285664.430 7  27637712.460
       465.624          42.650   109871023.192 7  27637713.420         459.785
        44.700
 126205054.192 8                  24016020.820
     -1468.056                          52.550                    94244067.517 8
  24016027.200       -1096.303          53.000    96702601.165 9  24016024.100
     -1124.835          54.000    95473331.495 9  24016026.060       -1110.581
        56.300
 146806462.378 7                  27936336.020
      2431.748                          43.300                   109628261.232 6
  27936347.700        1815.927          41.200   112488122.278 7  27936345.100
      1863.419          42.800   111058191.410 7  27936346.280        1839.685
        44.800
 24  1 16 12  9  0.0000000  0 18G06G10G12G15G17G19G23G24G25G32E03E05
                                E09E24E25E26E31E33
 130847202.476 6 101958911.00946  24899391.020                    24899401.800
      2595.638        2022.580          40.300          40.200    97710651.161 7
  24899402.160        1938.328          45.050


 126383812.401 7  98480888.26146  24050055.960                    24050062.440
     -1954.944       -1523.337          44.100          41.750    94377504.072 7
  24050062.460       -1459.961          45.800


 106956542.717 8  83342796.86248  20353137.080                    20353136.020
      1173.895         914.724          51.750          51.750



 126725510.837 7  98747116.53947  24115081.760                    24115085.480
     -3942.197       -3071.847          43.550          43.250



 129120090.167 7 100613112.75047  24570721.360                    24570725.380
     -2926.751       -2280.585          42.050          42.850



 117461408.847 7  91528419.51847  22352137.020                    22352138.020
     -1506.594       -1173.971          46.850          44.550



 131503736.315 6 102470402.62845  25024353.800                    25024358.880
     -3158.073       -2460.854          38.800          35.850    98200811.011 7
  25024365.420       -2358.086          43.100


 108712045.999 8  84710671.70148  20687217.960                    20687219.940
     -1776.592       -1384.359          51.000          50.750    81181075.834 9
  20687222.160       -1326.779          56.100


 115393090.992 8  89916768.43547  21958555.160                    21958558.040
      3019.452        2352.822          48.450          44.600    86170247.734 8
  21958561.680        2254.640          50.900


 121751610.347 7  94871401.82347  23168557.800                    23168562.540
      2611.773        2035.151          47.200          44.100    90918426.488 8
  23168562.780        1950.313          49.800


 141923394.072 7                  27007123.200
      2522.553                          44.950                   105981800.891 7
  27007132.780        1883.716          45.900   108746532.499 7  27007129.740
      1932.765          46.900   107364169.844 8  27007131.820        1908.307
        49.300
 118733176.139 8                  22594178.880
       188.767                          51.600                    88664386.843 8
  22594185.000         140.920          52.850    90977364.377 9  22594182.260
       144.634          54.000    89820873.262 9  22594184.200         142.769
        56.350
 131990482.987 8                  25116961.640
     -2554.949                          49.950                    98564329.073 8
  25116968.680       -1907.943          50.100   101135566.998 8  25116965.580
     -1957.712          50.950    99849943.185 8  25116967.460       -1932.768
        53.350
 124960978.677 8                  23779268.520
      1064.407                          53.350                    93315073.238 8
  23779272.560         794.843          53.050    95749368.101 9  23779269.100
       815.560          54.300    94532223.823 9  23779271.160         805.192
        56.550
 144066566.299 7                  27414942.400
      2651.960                          42.950                   107582261.559 7
  27414952.360        1980.229          42.000   110388738.129 7  27414951.520
      2031.772          44.850   108985500.995 7  27414952.660        2006.024
        46.350
 145219129.678 7                  27634273.220
       593.802                          43.150                   108442927.947 6
  27634284.220         443.377          41.250   111271847.425 7  27634281.220
       455.068          43.200   109857381.831 7  27634281.840         449.291
        44.950
 126249180.694 8                  24024417.700
     -1474.371                          52.200                    94277019.104 8
  24024424.480       -1101.014          53.100    96736412.366 9  24024421.220
     -1129.721          54.050    95506712.887 9  24024423.040       -1115.381
        56.500
 146733592.964 7                  27922469.300
      2425.431                          43.850                   109573846.066 6
  27922481.040        1811.192          41.850   112432287.562 7  27922478.120
      1858.479          42.850   111003066.468 7  27922479.480        1834.835
        45.200
 24  1 16 12  9 30.0000000  0 18G06G10G12G15G17G19G23G24G25G32E03E05
                                E09E24E25E26E31E33
 130769463.294 6 101898335.20146  24884597.540                    24884608.420
      2587.928        2016.573          41.550          41.300    97652599.357 7
  24884608.700        1932.499          45.250


 126442675.120 7  98526755.17046  24061257.200                    24061263.740
     -1968.232       -1533.693          43.700          41.250    94421459.795 7
  24061263.940       -1469.682          46.150


 106921573.554 8  83315548.17548  20346482.600                    20346481.440
      1158.356         902.616          51.350          51.250



 126843805.333 7  98839293.81247  24137592.580                    24137596.620
     -3943.729       -3073.044          42.950          43.150



 129208034.226 7 100681640.50247  24587456.640                    24587460.620
     -2935.479       -2287.389          42.800          43.500



 117506898.100 7  91563865.66347  22360793.300                    22360794.060
     -1525.097       -1188.387          45.900          43.950



 131598508.927 6 102544251.01046  25042388.840                    25042394.160
     -3159.591       -2462.034          39.000          37.150    98271582.282 7
  25042400.400       -2359.224          42.400


 108765551.377 8  84752364.16148  20697399.780                    20697401.820
     -1789.347       -1394.299          51.400          51.450    81221031.096 9
  20697403.840       -1336.210          56.550


 115302659.612 8  89846302.47447  21941346.700                    21941349.360
      3010.301        2345.689          48.100          44.300    86102717.861 8
  21941352.920        2247.915          51.150


 121673453.752 7  94810500.66647  23153685.000                    23153689.720
      2599.560        2025.635          47.700          44.100    90860062.903 8
  23153690.180        1941.219          50.100


 141847827.989 7                  26992743.400
      2516.112                          45.200                   105925371.752 7
  26992753.080        1878.954          46.150   108688631.287 7  26992749.920
      1927.895          46.850   107307004.674 8  26992751.980        1903.400
        49.300
 118727727.511 8                  22593141.940
       175.374                          51.800                    88660318.051 8
  22593148.340         130.923          53.300    90973189.442 9  22593145.520
       134.332          54.000    89816751.398 9  22593147.320         132.619
        56.400
 132067265.093 8                  25131572.920
     -2563.039                          50.150                    98621666.250 8
  25131579.860       -1913.883          50.250   101194399.944 8  25131576.800
     -1963.806          51.100    99908028.249 8  25131578.700       -1938.822
        53.400
 124929185.973 8                  23773218.620
      1055.942                          53.250                    93291331.944 8
  23773222.400         788.551          53.350    95725007.469 9  23773219.060
       809.111          54.250    94508172.860 9  23773221.220         798.843
        56.600
 143987067.537 7                  27399813.620
      2648.896                          42.900                   107522895.802 7
  27399824.120        1978.170          42.750   110327823.680 7  27399823.080
      2029.657          44.650   108925360.888 7  27399824.380        2003.953
        46.600
 145201538.063 7                  27630925.700
       579.917                          43.350                   108429791.350 6
  27630936.360         433.114          41.300   111258368.146 7  27630933.860
       444.312          43.050   109844073.894 7  27630934.280         438.703
        44.800
 126293517.911 8                  24032854.660
     -1480.559                          52.250                    94310128.043 8
  24032861.580       -1105.625          53.200    96770385.015 8  24032858.320
     -1134.500          53.900    95540253.684 9  24032860.140       -1120.071
        56.300
 146660939.376 7                  27908643.660
      2419.038                          43.950                   109519592.054 7
  27908655.240        1806.381          42.350   112376618.200 7  27908652.220
      1853.471          42.700   110948104.779 7  27908653.780        1829.949
        45.300
 24  1 16 12 10  0.0000000  0 18G06G10G12G15G17G19G23G24G25G32E03E05
                                E09E24E25E26E31E33
 130691971.109 7 101837951.78947  24869851.020                    24869861.840
      2579.299        2009.847          42.050          42.050    97594731.985 7
  24869862.080        1925.937          44.400


 126501941.659 7  98572936.73146  24072535.180                    24072541.620
     -1981.835       -1544.294          43.200          40.600    94465717.103 7
  24072542.160       -1480.036          45.850


 106887084.575 8  83288673.65648  20339919.480                    20339918.260
      1141.935         889.820          51.250          51.100



 126962157.523 7  98931516.08347  24160114.340                    24160118.400
     -3945.756       -3074.624          43.050          43.700



 129296250.044 7 100750380.00447  24604243.580                    24604247.520
     -2944.959       -2294.777          42.700          42.950



 117552952.755 7  91599752.35847  22369557.140                    22369557.740
     -1544.349       -1203.391          45.550          45.100



 131693340.278 6 102618145.12646  25060435.080                    25060440.720
     -3161.743       -2463.711          38.050          37.000    98342397.410 7
  25060446.800       -2360.990          43.000


 108819452.152 8  84794364.71848  20707656.840                    20707658.880
     -1802.946       -1404.895          51.450          51.300    81261281.624 9
  20707660.840       -1346.398          56.450


 115212515.396 7  89776060.28247  21924192.820                    21924195.380
      3000.356        2337.942          47.700          44.600    86035402.435 8
  21924198.780        2240.436          50.950


 121595676.229 7  94749894.89647  23138884.460                    23138888.900
      2586.520        2015.473          47.700          44.100    90801982.399 8
  23138889.660        1931.460          49.900


 141772467.504 7                  26978402.800
      2508.719                          44.950                   105869096.161 7
  26978412.520        1873.447          46.200   108630887.625 7  26978409.160
      1922.247          46.800   107249995.046 8  26978411.260        1897.866
        49.200
 118722696.140 8                  22592184.460
       161.010                          51.800                    88656560.837 8
  22592191.060         120.234          53.300    90969334.216 9  22592188.300
       123.341          54.250    89812945.179 9  22592189.860         121.819
        56.350
 132144300.185 8                  25146232.320
     -2571.739                          50.300                    98679192.351 8
  25146239.020       -1920.507          50.300   101253426.727 8  25146236.340
     -1970.598          50.850    99966304.690 8  25146238.020       -1945.526
        53.200
 124897659.305 8                  23767219.320
      1046.774                          53.300                    93267789.330 8
  23767222.880         781.656          53.350    95700850.694 9  23767219.720
       802.074          54.250    94484323.166 9  23767221.900         791.878
        56.500
 143907665.351 7                  27384703.280
      2645.411                          42.950                   107463602.195 7
  27384714.020        1975.489          42.500   110266983.272 7  27384712.960
      2026.864          43.600   108865293.885 7  27384714.580        2001.148
        45.900
 145184378.084 7                  27627660.440
       565.021                          43.550                   108416977.082 6
  27627671.140         421.973          41.850   111245219.592 7  27627668.420
       433.021          43.200   109831092.479 7  27627668.860         427.552
        44.900
 126338055.073 8                  24041329.720
     -1487.645                          52.100                    94343386.292 8
  24041336.500       -1110.909          52.850    96804510.870 8  24041333.400
     -1139.874          53.800    95573945.734 9  24041335.280       -1125.417
        56.000
 146588493.999 7                  27894857.480
      2411.481                          43.700                   109465493.500 7
  27894868.960        1800.811          42.450   112321108.359 7  27894865.880
      1847.788          42.900   110893300.584 7  27894867.700        1824.332
        45.550
 24  1 16 12 10 30.0000000  0 18G06G10G12G15G17G19G23G24G25G32E03E05
                                E09E24E25E26E31E33
 130614731.793 7 101777765.41847  24855152.760                    24855163.500
      2570.698        2003.145          42.500          42.400    97537053.391 7
  24855163.840        1919.714          43.900


 126561611.920 7  98619432.89746  24083889.960                    24083896.500
     -1995.398       -1554.860          42.450          41.050    94510275.885 7
  24083897.160       -1490.229          45.050


 106853078.573 8  83262175.49048  20333448.320                    20333447.080
      1125.690         877.162          51.450          51.550



 127080567.619 7  99023783.47547  24182647.140                    24182651.500
     -3947.674       -3076.113          43.250          43.150



 129384738.134 6 100819331.68946  24621082.400                    24621086.320
     -2954.238       -2302.006          40.500          39.850



 117599573.637 7  91636080.27247  22378428.860                    22378429.400
     -1563.377       -1218.219          46.600          43.250



 131788229.870 6 102692084.65046  25078492.440                    25078498.320
     -3163.928       -2465.412          39.700          38.300    98413256.068 6
  25078504.400       -2362.543          41.900


 108873750.190 8  84836674.83448  20717989.440                    20717991.360
     -1816.369       -1415.354          51.350          51.400    81301828.811 9
  20717993.480       -1356.393          56.250


 115122662.285 7  89706044.93147  21907094.260                    21907096.700
      2990.302        2330.106          47.800          44.300    85968304.396 8
  21907099.900        2233.097          50.750


 121518282.931 8  94689588.50547  23124157.100                    23124161.200
      2573.390        2005.241          48.100          44.150    90744188.798 8
  23124162.180        1921.776          49.450


 141697316.907 7                  26964102.160
      2501.806                          45.200                   105812977.331 7
  26964112.040        1868.146          46.250   108573304.799 7  26964108.360
      1916.945          46.400   107193144.219 8  26964110.480        1892.554
        49.650
 118718085.159 8                  22591307.020
       146.858                          51.800                    88653117.550 8
  22591313.760         109.682          53.050    90965801.104 9  22591311.060
       112.553          54.250    89809456.980 9  22591312.420         111.108
        56.800
 132221589.580 8                  25160940.180
     -2580.314                          50.400                    98736908.350 8
  25160946.960       -1926.891          50.300   101312648.382 8  25160944.100
     -1977.156          50.750   100024773.518 8  25160945.760       -1952.011
        53.750
 124866401.258 8                  23761271.160
      1037.656                          53.100                    93244447.298 8
  23761274.460         774.868          53.150    95676899.739 9  23761271.560
       795.099          54.300    94460676.673 9  23761273.660         784.991
        56.900
 143828362.896 7                  27369612.200
      2642.167                          42.600                   107404383.079 7
  27369623.360        1972.905          42.800   110206219.242 7  27369621.380
      2024.373          44.050   108805302.319 7  27369623.540        1998.592
        46.650
 145167653.040 7                  27624477.860
       550.638                          42.550                   108404487.615 6
  27624489.040         411.049          41.550   111232404.317 7  27624485.560
       421.839          43.000   109818440.120 7  27624486.280         416.382
        45.100
 126382793.849 8                  24049843.200
     -1494.366                          52.250                    94376795.104 8
  24049849.640       -1115.946          52.450    96838791.213 8  24049846.800
     -1145.082          53.750    95607790.311 9  24049848.760       -1130.534
        56.250
 146516261.481 7                  27881111.720
      2404.210                          43.350                   109411553.902 7
  27881123.120        1795.510          43.000   112265761.603 7  27881120.200
      1842.337          43.150   110838657.412 7  27881122.080        1818.821
        46.250
 24  1 16 12 11  0.0000000  0 18G06G10G12G15G17G19G23G24G25G32E03E05
                                E09E24E25E26E31E33
 130537747.189 7 101717777.51747  24840503.040                    24840513.480
      2561.474        1995.957          42.750          42.800    97479564.990 7
  24840514.160        1912.969          44.100


 126621681.723 6  98666240.36246  24095320.740                    24095327.340
     -2009.562       -1565.901          41.300          40.950    94555132.986 7
  24095328.000       -1500.391          44.400


 106819554.487 8  83236052.84348  20327068.920                    20327067.740
      1109.290         864.382          51.900          51.900



 127199031.347 7  99116092.61647  24205190.220                    24205195.080
     -3949.941       -3077.884          43.300          42.900



 129473493.909 6 100888491.94346  24637972.100                    24637976.140
     -2963.149       -2308.952          41.400          41.550



 117646757.694 7  91672847.01647  22387407.820                    22387408.340
     -1582.520       -1233.135          47.000          43.750



 131883173.297 6 102766066.18645  25096559.940                    25096565.680
     -3166.003       -2467.029          38.600          34.800    98484154.941 7
  25096572.120       -2364.046          42.000


 108928443.370 8  84879292.86148  20728397.200                    20728398.940
     -1829.887       -1425.887          51.300          51.250    81342671.077 9
  20728401.320       -1366.471          56.150


 115033100.250 7  89636256.39647  21890051.040                    21890053.720
      2980.341        2322.347          47.150          44.900    85901423.740 8
  21890056.500        2225.624          50.600


 121441274.989 8  94629582.40747  23109503.040                    23109506.760
      2560.325        1995.061          48.200          43.950    90686682.972 8
  23109507.980        1911.964          48.950


 141622376.649 7                  26949841.520
      2494.094                          45.000                   105757015.556 7
  26949851.460        1862.559          46.150   108515883.135 7  26949847.480
      1911.261          46.500   107136452.502 8  26949849.660        1886.915
        49.300
 118713893.730 8                  22590509.480
       132.458                          51.850                    88649987.561 8
  22590516.220          98.963          52.900    90962589.469 9  22590513.680
       101.518          54.550    89806286.167 9  22590514.840         100.265
        56.650
 132299130.661 8                  25175695.860
     -2589.105                          50.600                    98794812.288 8
  25175702.700       -1933.380          50.000   101372062.875 8  25175699.680
     -1983.858          50.800   100083432.733 8  25175701.460       -1958.599
        53.400
 124835410.406 8                  23755373.800
      1028.410                          53.100                    93221304.806 8
  23755376.980         767.981          53.100    95653153.518 9  23755374.240
       788.000          54.450    94437232.317 9  23755376.240         777.997
        56.750
 143749159.372 7                  27354540.340
      2638.243                          44.550                   107345237.798 7
  27354551.120        1970.170          42.050   110145531.063 7  27354549.360
      2021.589          43.750   108745385.584 7  27354551.500        1995.813
        46.000
 145151362.422 7                  27621377.880
       535.538                          42.600                   108392322.509 6
  27621389.240         400.008          41.500   111219921.878 7  27621385.320
       410.279          43.400   109806116.336 7  27621386.340         405.285
        45.250
 126427731.969 8                  24058394.620
     -1501.408                          51.750                    94410352.774 8
  24058400.940       -1121.179          52.450    96873224.300 8  24058398.160
     -1150.462          53.900    95641785.688 9  24058400.180       -1135.799
        56.150
 146444242.705 7                  27867406.480
      2396.860                          43.200                   109357773.945 7
  27867418.080        1789.800          42.950   112210578.626 7  27867415.080
      1836.564          43.400   110784175.941 7  27867416.940        1813.207
        46.100
 24  1 16 12 11 30.0000000  0 18G06G10G12G15G17G19G23G24G25G32E03E05
                                E09E24E25E26E31E33
 130461021.049 7 101657991.03547  24825902.480                    24825912.880
      2553.275        1989.567          42.550          42.200    97422269.679 7
  24825913.500        1906.518          43.950


 126682149.304 6  98713357.79546  24106827.380                    24106833.980
     -2022.527       -1576.002          41.700          40.950    94600287.170 7
  24106834.780       -1510.143          44.550


 106786513.465 8  83210306.61548  20320781.440                    20320780.320
      1093.268         851.897          51.950          51.900



 127317547.259 7  99208442.44747  24227743.280                    24227748.200
     -3951.516       -3079.111          43.750          43.550



 129562517.000 6 100957860.50447  24654912.660                    24654916.780
     -2971.841       -2315.724          41.950          42.600



 117694504.185 7  91710052.03847  22396493.900                    22396494.320
     -1601.033       -1247.560          47.400          44.300



 131978168.150 6 102840087.80946  25114637.160                    25114642.740
     -3167.451       -2468.156          38.100          36.800    98555092.270 7
  25114649.460       -2365.349          42.900


 108983531.546 8  84922218.69348  20738880.180                    20738881.800
     -1842.944       -1436.062          51.200          51.050    81383808.315 9
  20738884.220       -1376.256          56.350


 114943831.197 7  89566696.16447  21873063.540                    21873066.300
      2970.535        2314.704          47.650          44.850    85834761.877 8
  21873068.800        2218.264          51.000


 121364655.518 8  94569879.00247  23094922.760                    23094926.320
      2547.331        1984.937          48.400          43.600    90629467.229 8
  23094927.600        1902.211          49.000


 141547648.933 7                  26935621.240
      2487.278                          45.300                   105701212.542 7
  26935631.380        1857.301          46.400   108458624.383 7  26935627.180
      1905.750          46.000   107079921.623 8  26935629.320        1881.498
        49.150
 118710122.955 8                  22589792.060
       118.547                          52.100                    88647171.697 8
  22589798.660          88.501          53.050    90959700.153 9  22589796.240
        90.793          54.300    89803433.575 9  22589797.340          89.661
        56.550
 132376922.664 8                  25190499.300
     -2597.463                          50.550                    98852903.615 8
  25190506.160       -1939.614          50.450   101431669.638 8  25190503.260
     -1990.221          50.600   100142281.783 8  25190504.900       -1964.952
        53.400
 124804687.267 8                  23749527.340
      1019.468                          53.250                    93198362.240 8
  23749530.560         761.298          53.400    95629612.446 9  23749527.840
       781.139          54.300    94413990.495 9  23749529.760         771.203
        56.700
 143670055.811 7                  27339487.580
      2634.979                          43.400                   107286167.210 7
  27339498.400        1967.588          43.800   110084919.429 7  27339495.220
      2018.988          43.100   108685544.473 7  27339498.440        1993.283
        46.350
 145135507.420 7                  27618360.800
       521.019                          42.600                   108380482.747 6
  27618372.340         389.041          41.800   111207773.256 7  27618368.180
       399.133          43.650   109794122.152 7  27618369.320         394.097
        45.350
 126472869.098 8                  24066983.820
     -1508.086                          51.700                    94444059.048 8
  24066990.400       -1126.174          52.850    96907809.868 8  24066987.520
     -1155.535          53.900    95675931.611 9  24066989.480       -1140.835
        56.200
 146372440.410 7                  27853742.460
      2389.521                          43.000                   109304155.589 7
  27853754.060        1784.461          43.050   112155561.517 7  27853751.280
      1830.915          43.200   110729858.206 7  27853753.100        1807.689
        46.100
 24  1 16 12 12  0.0000000  0 18G06G10G12G15G17G19G23G24G25G32E03E05
                                E09E24E25E26E31E33
 130384556.082 7 101598408.12047  24811351.660                    24811361.900
      2544.795        1982.963          42.400          42.250    97365169.432 7
  24811362.920        1900.243          44.250


 126743011.587 7  98760782.78746  24118409.360                    24118415.740
     -2035.371       -1586.008          42.650          40.900    94645736.091 7
  24118416.480       -1519.651          44.100


 106753954.728 8  83184936.19348  20314585.760                    20314584.580
      1077.419         839.548          51.950          51.900



 127436112.246 7  99300830.51847  24250305.780                    24250310.520
     -3952.797       -3080.109          43.950          44.150



 129651803.127 6 101027434.01546  24671903.160                    24671907.380
     -2980.263       -2322.287          40.700          40.700



 117742810.704 7  91747693.41947  22405686.640                    22405686.920
     -1619.416       -1261.884          47.350          45.350



 132073210.861 6 102914146.74546  25132723.260                    25132729.100
     -3169.008       -2469.366          37.800          37.700    98626065.330 7
  25132735.900       -2366.168          43.000


 109039013.457 8  84965451.31448  20749438.040                    20749439.640
     -1855.758       -1446.046          51.400          51.300    81425239.576 9
  20749441.980       -1385.812          56.200


 114854855.924 8  89497364.85447  21856132.040                    21856135.040
      2960.918        2307.210          48.050          44.850    85768319.387 8
  21856137.080        2211.186          50.950


 121288426.528 8  94510479.85447  23080416.780                    23080420.260
      2534.554        1974.978          48.200          43.700    90572543.072 8
  23080421.400        1892.696          48.650


 141473135.066 7                  26921441.660
      2480.229                          44.900                   105645569.203 7
  26921451.960        1852.194          46.600   108401529.442 7  26921447.460
      1900.656          45.950   107023552.478 8  26921449.600        1876.461
        49.450
 118706772.839 8                  22589154.700
       104.793                          51.900                    88644669.944 8
  22589161.200          78.264          52.950    90957133.146 9  22589158.780
        80.285          54.150    89800899.198 9  22589159.900          79.272
        56.650
 132454963.814 8                  25205350.060
     -2605.298                          50.400                    98911180.979 8
  25205357.220       -1945.549          50.400   101491467.307 8  25205353.920
     -1996.314          50.200   100201319.296 8  25205355.800       -1970.911
        53.500
 124774231.289 8                  23743731.640
      1010.857                          53.000                    93175619.176 8
  23743735.060         754.908          53.400    95606276.077 9  23743732.260
       774.588          54.300    94390950.779 9  23743734.080         764.749
        56.950
 143591052.312 7                  27324453.980
      2631.945                          44.350                   107227171.327 7
  27324464.760        1965.311          42.350   110024384.494 7  27324461.120
      2016.799          43.600   108625779.057 7  27324464.140        1991.064
        46.200
 145120088.279 6                  27615426.520
       506.945                          41.900                   108368968.459 6
  27615438.160         378.525          41.700   111195958.603 7  27615433.900
       388.315          43.550   109782457.680 7  27615435.300         383.485
        45.600
 126518203.790 8                  24075610.660
     -1514.271                          51.450                    94477912.850 8
  24075617.500       -1130.786          52.750    96942546.821 8  24075614.680
     -1160.292          53.950    95710226.989 9  24075616.400       -1145.564
        56.550
 146300856.214 7                  27840120.140
      2382.597                          42.600                   109250700.118 7
  27840131.420        1779.340          42.700   112100711.532 7  27840129.140
      1825.659          43.750   110675705.487 7  27840130.800        1802.390
        46.350
 24  1 16 12 12 30.0000000  0 18G06G10G12G15G17G19G23G24G25G32E03E05
                                E09E24E25E26E31E33
 130308357.863 7 101539033.05647  24796851.540                    24796861.680
      2535.449        1975.682          42.350          42.250    97308268.382 7
  24796862.740        1893.354          43.550


 126804268.064 7  98808514.95246  24130066.340                    24130072.520
     -2048.275       -1596.064          43.300          41.650    94691479.403 7
  24130073.300       -1529.605          44.850


 106721881.071 8  83159943.75848  20308482.360                    20308481.060
      1061.010         826.761          51.900          51.800



 127554726.269 7  99393256.78747  24272877.480                    24272882.280
     -3954.445       -3081.395          43.600          43.750



 129741352.484 6 101097212.66946  24688943.800                    24688947.880
     -2989.574       -2329.539          40.850          40.700



 117791677.870 8  91785771.68147  22414986.060                    22414986.140
     -1638.119       -1276.458          48.300          43.950



 132168300.849 6 102988242.59846  25150818.480                    25150824.600
     -3170.410       -2470.455          38.700          36.900    98697073.795 7
  25150831.320       -2367.442          43.250


 109094890.780 8  85008992.05848  20760071.180                    20760072.680
     -1869.077       -1456.425          51.300          51.150    81466966.111 9
  20760074.980       -1395.744          56.450


 114766178.199 8  89428265.39847  21839257.260                    21839260.380
      2951.092        2299.554          48.800          44.900    85702099.108 8
  21839262.060        2203.638          51.350


 121212592.959 8  94451388.84947  23065985.980                    23065989.480
      2521.312        1964.661          48.300          44.100    90515914.198 8
  23065990.380        1882.669          48.650


 141398839.096 7                  26907303.420
      2473.029                          45.100                   105590088.604 7
  26907314.120        1846.695          46.700   108344601.515 7  26907309.340
      1894.861          46.000   106967348.206 8  26907311.340        1870.883
        49.000
 118703846.246 8                  22588597.940
        90.571                          52.100                    88642484.468 8
  22588604.280          67.622          53.050    90954890.664 9  22588601.840
        69.374          54.050    89798685.218 9  22588603.060          68.484
        56.150
 132533255.206 8                  25220248.460
     -2613.717                          50.200                    98969645.226 8
  25220255.640       -1951.854          50.350   101551456.725 8  25220252.460
     -2002.777          50.700   100260546.129 8  25220254.360       -1977.321
        53.150
 124744044.817 8                  23737987.220
      1001.796                          53.100                    93153077.382 8
  23737990.920         748.099          53.700    95583146.228 9  23737987.920
       767.611          54.350    94368114.955 9  23737989.720         757.878
        56.600
 143512151.767 7                  27309440.080
      2628.377                          45.250                   107168252.310 7
  27309450.740        1962.690          43.950   109963928.434 7  27309446.680
      2013.889          43.150   108566091.524 7  27309449.760        1988.320
        46.250
 145105108.104 7                  27612575.840
       492.017                          42.400                   108357781.995 7
  27612587.460         367.468          42.250   111184480.334 7  27612583.460
       377.034          43.850   109771125.316 7  27612584.820         372.244
        45.550
 126563737.558 8                  24084275.440
     -1521.044                          51.550                    94511915.306 8
  24084282.320       -1135.847          52.850    96977436.296 8  24084279.760
     -1165.478          53.950    95744672.955 9  24084281.180       -1150.649
        56.000
 146229494.727 7                  27826540.380
      2375.048                          43.250                   109197410.968 7
  27826551.280        1773.562          43.000   112046032.195 7  27826549.380
      1819.776          43.900   110621721.236 7  27826550.960        1796.626
        46.100
 24  1 16 12 13  0.0000000  0 18G06G10G12G15G17G19G23G24G25G32E03E05
                                E09E24E25E26E31E33
 130232425.517 6 101479865.18746  24782401.960                    24782412.040
      2526.632        1968.810          41.750          41.950    97251565.878 7
  24782412.900        1886.921          42.950


 126865912.137 7  98856549.16946  24141797.280                    24141803.000
     -2061.254       -1606.175          43.850          41.800    94737512.156 7
  24141803.900       -1539.042          44.800


 106690289.009 8  83135326.59548  20302470.600                    20302469.240
      1045.066         814.338          51.800          51.800



 127673382.970 7  99485716.32947  24295457.380                    24295462.120
     -3956.057       -3082.649          43.750          43.650



 129831158.991 6 101167191.67346  24706033.340                    24706037.440
     -2997.805       -2335.953          40.700          41.250



 117841100.436 7  91824282.73447  22424391.100                    22424391.180
     -1656.645       -1290.892          47.900          44.500



 132263431.161 6 103062369.89745  25168921.240                    25168927.600
     -3171.378       -2471.215          36.600          35.650    98768112.439 7
  25168934.880       -2368.239          44.150


 109151158.765 8  85052837.21048  20770778.680                    20770780.160
     -1882.025       -1466.515          50.950          50.800    81508984.364 9
  20770782.500       -1405.360          56.650


 114677795.360 8  89359395.72147  21822438.600                    21822441.840
      2941.279        2291.908          48.450          45.650    85636099.017 8
  21822443.100        2196.388          51.200


 121137153.340 8  94392604.79847  23051630.180                    23051633.820
      2508.040        1954.318          48.450          44.500    90459579.481 8
  23051634.220        1873.017          48.600


 141324758.827 7                  26893206.220
      2465.707                          45.100                   105534769.054 7
  26893217.280        1841.354          46.650   108287838.826 7  26893212.140
      1889.366          46.000   106911307.092 8  26893214.140        1865.396
        48.800
 118701339.689 8                  22588121.020
        76.658                          51.850                    88640612.657 8
  22588127.340          57.251          53.000    90952970.023 8  22588124.760
        58.777          53.950    89796788.994 9  22588126.120          58.018
        56.000
 132611791.558 8                  25235193.440
     -2621.793                          49.900                    99028292.397 8
  25235200.620       -1957.834          50.200   101611633.832 8  25235197.720
     -2008.938          50.300   100319958.272 8  25235199.420       -1983.424
        52.800
 124714123.822 8                  23732293.320
       992.983                          52.850                    93130733.825 8
  23732297.280         741.581          53.600    95560219.793 9  23732294.140
       760.910          54.450    94345479.963 9  23732295.880         751.229
        56.450
 143433350.692 7                  27294444.820
      2625.137                          44.800                   107109407.599 7
  27294455.680        1960.226          43.250   109903548.602 7  27294451.140
      2011.481          43.400   108506479.255 7  27294454.060        1985.820
        45.950
 145090563.575 6                  27609808.020
       477.521                          41.650                   108346920.871 7
  27609819.800         356.709          42.450   111173335.878 7  27609816.140
       366.016          44.150   109760122.528 7  27609817.180         361.341
        45.600
 126609465.537 8                  24092977.220
     -1527.420                          51.600                    94546062.782 8
  24092983.980       -1140.560          52.600    97012474.577 8  24092981.700
     -1170.299          53.800    95779265.830 9  24092982.920       -1155.420
        55.700
 146158354.096 7                  27813002.860
      2367.630                          43.600                   109144286.710 7
  27813013.420        1768.103          43.650   111991522.060 7  27813011.740
      1814.248          44.000   110567904.039 7  27813013.220        1791.174
        46.450
 24  1 16 12 13 30.0000000  0 18G06G10G12G15G17G19G23G24G25G32E03E05
                                E09E24E25E26E31E33
 130156764.062 6 101420908.43446  24768003.940                    24768013.940
      2517.303        1961.543          41.400          41.300    97195065.690 7
  24768014.880        1879.933          42.700


 126927942.946 7  98904884.72146  24153601.660                    24153607.380
     -2074.153       -1616.228          44.000          41.300    94783833.682 7
  24153608.160       -1548.766          45.000


 106659180.545 8  83111086.25648  20296550.860                    20296549.500
      1028.977         801.800          51.650          51.550



 127792081.746 7  99578208.63847  24318045.320                    24318049.960
     -3957.371       -3083.672          44.100          44.000



 129921222.382 6 101237370.81046  24723171.700                    24723176.020
     -3006.234       -2342.523          41.150          41.450



 117891078.056 7  91863226.28947  22433901.580                    22433901.900
     -1674.993       -1305.190          47.600          44.350



 132358600.655 6 103136527.81546  25187031.440                    25187037.720
     -3172.824       -2472.334          36.400          36.050    98839180.420 7
  25187045.240       -2369.347          43.200


 109207818.475 8  85096987.59848  20781560.700                    20781562.280
     -1895.080       -1476.687          50.900          50.800    81551295.148 9
  20781564.780       -1415.188          56.600


 114589710.548 8  89290758.25847  21805676.620                    21805680.000
      2931.273        2284.110          48.350          45.550    85570321.475 8
  21805681.080        2188.854          50.900


 121062112.002 8  94334131.09947  23037350.280                    23037353.880
      2494.823        1944.020          48.600          43.700    90403542.213 8
  23037353.860        1862.977          48.200


 141250897.771 7                  26879150.740
      2458.544                          44.750                   105479613.216 7
  26879162.080        1835.921          46.550   108231244.122 7  26879156.780
      1883.652          46.250   106855431.821 8  26879158.680        1859.827
        49.050
 118699255.505 8                  22587724.440
        62.485                          51.600                    88639056.256 8
  22587730.700          46.640          52.650    90951373.023 9  22587728.080
        47.851          54.050    89795212.292 9  22587729.560          47.263
        56.050
 132690573.392 8                  25250185.140
     -2630.112                          49.950                    99087122.877 8
  25250192.500       -1964.090          49.750   101671999.042 8  25250189.380
     -2015.273          50.800   100379556.114 8  25250191.300       -1989.664
        53.000
 124684470.070 8                  23726650.280
       983.998                          52.650                    93108589.836 8
  23726654.440         734.802          53.250    95537498.131 9  23726651.200
       754.019          54.700    94323047.137 9  23726652.960         744.392
        56.700
 143354651.444 7                  27279468.880
      2621.724                          44.350                   107050638.872 7
  27279479.740        1957.835          43.500   109843246.770 7  27279474.960
      2008.764          44.000   108446943.968 7  27279477.840        1983.401
        46.400
 145076457.165 6                  27607123.540
       462.803                          41.700                   108336386.944 6
  27607135.160         345.645          41.800   111162527.158 7  27607131.900
       354.647          43.950   109749451.204 7  27607132.920         350.063
        45.650
 126655388.627 8                  24101716.220
     -1534.001                          52.100                    94580355.961 8
  24101722.760       -1145.481          52.100    97047662.369 8  24101720.640
     -1175.383          53.800    95814006.314 9  24101721.840       -1160.412
        55.700
 146087438.367 7                  27799508.260
      2360.140                          43.200                   109091330.391 7
  27799518.560        1762.384          43.550   111937184.236 7  27799516.980
      1808.400          43.800   110514256.969 7  27799518.200        1785.361
        46.450
 24  1 16 12 14  0.0000000  0 18G06G10G12G15G17G19G23G24G25G32E03E05
                                E09E24E25E26E31E33
 130081380.253 6 101362168.06446  24753658.600                    24753668.580
      2508.181        1954.438          40.400          40.850    97138772.882 7
  24753669.660        1873.060          43.900


 126990361.511 7  98953522.43346  24165479.860                    24165485.380
     -2086.979       -1626.221          44.850          41.150    94830444.789 7
  24165486.160       -1558.452          45.250


 106628559.477 8  83087225.71048  20290723.740                    20290722.480
      1012.899         789.273          51.800          51.700



 127910823.400 7  99670734.33947  24340641.320                    24340645.980
     -3958.786       -3084.778          43.850          43.600



 130011543.643 6 101307750.89446  24740359.400                    24740363.620
     -3014.632       -2349.067          40.350          40.150



 117941612.934 7  91902604.06347  22443518.020                    22443518.580
     -1693.400       -1319.533          47.650          45.350



 132453809.847 6 103210716.73146  25205149.340                    25205155.920
     -3173.893       -2473.168          36.800          36.150    98910278.127 7
  25205163.400       -2370.301          44.700


 109264872.703 8  85141445.40248  20792417.780                    20792419.520
     -1908.166       -1486.885          51.250          51.300    81593900.535 9
  20792422.200       -1424.998          57.000


 114501928.654 8  89222356.85047  21788972.180                    21788975.700
      2921.288        2276.330          48.550          45.700    85504770.128 8
  21788976.620        2181.430          51.250


 120987475.080 8  94275972.54347  23023147.240                    23023150.900
      2481.365        1933.534          48.750          43.750    90347806.926 8
  23023150.560        1852.877          48.800


 141177261.298 7                  26865138.020
      2450.859                          45.550                   105424625.074 7
  26865149.620        1830.242          46.750   108174821.482 7  26865144.280
      1877.986          46.350   106799726.428 8  26865145.960        1854.189
        49.300
 118697597.707 8                  22587408.920
        48.272                          52.050                    88637818.263 8
  22587415.200          36.056          52.950    90950102.740 9  22587412.560
        36.944          54.050    89793958.153 9  22587414.100          36.536
        56.450
 132769602.961 8                  25265223.980
     -2638.248                          49.950                    99146138.350 8
  25265231.080       -1970.138          49.600   101732554.054 8  25265228.700
     -2021.546          50.800   100439341.357 8  25265230.220       -1995.835
        53.150
 124655087.051 8                  23721058.740
       975.041                          52.900                    93086648.011 8
  23721063.000         728.161          53.650    95514983.910 9  23721059.760
       747.174          54.700    94300819.112 9  23721061.560         737.657
        57.050
 143276058.145 7                  27264512.980
      2618.079                          45.450                   106991949.269 7
  27264524.300        1955.110          43.750   109783026.100 7  27264519.240
      2006.034          44.150   108387488.836 7  27264521.760        1980.542
        46.850
 145062793.114 7                  27604523.240
       448.281                          42.050                   108326183.377 7
  27604534.700         334.689          42.300   111152057.399 7  27604531.520
       343.390          43.250   109739114.529 7  27604532.720         339.148
        45.750
 126701509.538 8                  24110492.940
     -1540.517                          52.650                    94614796.858 8
  24110499.200       -1150.400          52.250    97083001.730 8  24110497.180
     -1180.406          53.700    95848896.446 9  24110498.400       -1165.398
        55.950
 146016753.203 7                  27786057.220
      2352.598                          42.200                   109038546.243 7
  27786067.720        1756.649          43.800   111883023.076 7  27786065.960
      1802.529          43.550   110460784.316 7  27786066.940        1779.519
        46.650
 24  1 16 12 14 30.0000000  0 18G06G10G12G15G17G19G23G24G25G32E03E05
                                E09E24E25E26E31E33
 130006269.561 6 101303640.52646  24739365.120                    24739375.240
      2499.030        1947.305          40.700          40.250    97082684.053 7
  24739376.740        1866.117          44.550


 127053157.393 7  99002454.14846  24177429.740                    24177435.260
     -2099.561       -1636.023          44.500          41.700    94877337.641 7
  24177435.840       -1567.830          44.900


 106598418.288 8  83063739.09848  20284987.940                    20284986.740
       996.616         776.585          51.700          51.750



 128029598.251 7  99763285.95147  24363243.680                    24363248.300
     -3959.870       -3085.623          44.150          44.050



 130102112.590 6 101378323.99146  24757594.300                    24757598.420
     -3023.022       -2355.605          40.800          39.900



 117992695.773 7  91942408.82747  22453238.760                    22453239.100
     -1712.090       -1334.099          47.900          44.050



 132549048.119 6 103284928.41246  25223272.820                    25223279.480
     -3175.051       -2474.062          39.300          37.850    98981397.598 7
  25223287.140       -2370.984          43.600


 109322313.047 8  85186204.08148  20803348.320                    20803350.220
     -1921.119       -1496.978          51.000          50.950    81636794.257 9
  20803353.000       -1434.648          56.600


 114414443.372 8  89154186.56647  21772324.080                    21772327.780
      2911.182        2268.457          48.050          45.800    85439440.287 8
  21772328.780        2173.958          50.750


 120913237.406 8  94218125.08747  23009020.200                    23009023.820
      2467.677        1922.867          48.300          44.250    90292369.785 8
  23009023.360        1842.845          48.550


 141103843.502 7                  26851166.980
      2443.521                          46.150                   105369800.232 7
  26851178.740        1824.679          46.200   108118566.413 7  26851173.240
      1872.315          46.150   106744186.471 8  26851174.880        1848.465
        49.400
 118696359.140 8                  22587173.280
        34.255                          52.000                    88636893.331 8
  22587179.460          25.624          52.550    90949153.679 8  22587176.880
        26.233          53.950    89793021.155 9  22587178.420          25.938
        56.550
 132848871.309 8                  25280308.360
     -2646.332                          50.000                    99205332.142 8
  25280315.360       -1976.115          49.500   101793292.050 8  25280313.000
     -2027.647          50.400   100499307.250 8  25280314.520       -2001.889
        53.250
 124625967.116 8                  23715517.200
       966.220                          52.700                    93064902.639 8
  23715521.560         721.529          53.250    95492671.271 9  23715518.400
       740.339          54.600    94278790.108 9  23715520.240         730.938
        57.250
 143197563.654 7                  27249575.840
      2614.721                          45.000                   106933333.420 7
  27249587.340        1952.709          43.500   109722881.119 7  27249582.360
      2003.459          44.600   108328108.422 7  27249584.500        1978.044
        47.250
 145049564.455 7                  27602005.700
       433.748                          42.050                   108316304.953 6
  27602016.900         323.744          41.500   111141921.263 7  27602014.080
       332.273          43.000   109729107.266 7  27602015.340         328.004
        45.600
 126747819.722 8                  24119305.680
     -1546.838                          52.550                    94649379.091 8
  24119311.680       -1155.132          51.750    97118486.112 8  24119309.680
     -1185.239          53.500    95883929.755 9  24119311.020       -1170.184
        55.900
 145946293.167 6                  27772648.660
      2344.848                          40.150                   108985930.218 7
  27772659.820        1751.008          43.350   111829034.424 7  27772657.760
      1796.651          43.100   110407481.975 7  27772658.540        1773.843
        46.600
 24  1 16 12 15  0.0000000  0 18G06G10G12G15G17G19G23G24G25G32E03E05
                                E09E24E25E26E31E33
 129931442.485 6 101245333.99246  24725125.760                    24725136.100
      2489.064        1939.539          39.900          39.850    97026807.009 7
  24725137.540        1858.714          44.700


 127116335.211 7  99051683.44846  24189452.240                    24189457.860
     -2112.574       -1646.167          44.750          40.900    94924515.697 7
  24189458.320       -1577.562          45.300


 106568764.562 8  83040632.32548  20279344.880                    20279343.800
       980.044         763.672          51.650          51.600



 128148411.100 7  99855867.14647  24385853.240                    24385857.900
     -3961.196       -3086.654          43.800          43.700



 130192934.401 6 101449094.09446  24774877.380                    24774881.480
     -3031.851       -2362.486          40.150          40.000



 118044331.891 8  91982644.73547  22463064.880                    22463064.800
     -1730.734       -1348.625          48.200          44.000



 132644319.721 6 103359165.99546  25241402.220                    25241409.700
     -3176.248       -2475.001          36.650          36.050    99052542.011 7
  25241416.920       -2372.021          42.200


 109380146.073 8  85231268.74248  20814353.560                    20814355.700
     -1934.595       -1507.478          50.950          50.900    81679981.216 9
  20814358.460       -1444.672          56.750


 114327263.269 8  89086254.07647  21755734.060                    21755737.820
      2900.698        2260.287          48.050          45.100    85374338.324 8
  21755738.920        2166.060          51.100


 120839408.751 8  94160596.34147  22994971.000                    22994974.560
      2453.752        1912.017          48.250          43.800    90237238.079 8
  22994974.180        1832.416          49.050


 141030653.402 7                  26837239.300
      2435.667                          46.200                   105315145.422 7
  26837251.140        1818.798          46.600   108062485.803 7  26837245.580
      1866.233          46.400   106688818.765 8  26837247.120        1842.542
        49.200
 118695547.523 8                  22587018.900
        19.647                          52.200                    88636287.246 8
  22587024.960          14.663          52.750    90948531.787 9  22587022.500
        15.052          54.000    89792407.168 9  22587024.000          14.843
        56.250
 132928384.447 8                  25295439.260
     -2654.873                          49.750                    99264708.711 8
  25295446.280       -1982.436          49.250   101854217.586 8  25295444.080
     -2034.184          50.750   100559458.303 8  25295445.500       -2008.294
        52.900
 124597117.441 8                  23710027.140
       956.864                          52.600                    93043359.085 8
  23710031.580         714.545          53.600    95470565.710 9  23710028.440
       733.203          54.700    94256965.552 9  23710030.340         723.848
        57.000
 143119175.795 7                  27234658.880
      2610.822                          45.700                   106874797.177 7
  27234670.340        1949.772          43.900   109662817.846 7  27234665.920
      2000.399          45.000   108268808.660 7  27234667.640        1975.152
        47.150
 145036779.112 6                  27599572.560
       418.487                          41.950                   108306757.574 6
  27599583.220         312.371          41.350   111132124.814 7  27599580.520
       320.603          42.550   109719435.344 7  27599582.320         316.521
        44.900
 126794325.629 8                  24128155.680
     -1553.688                          52.650                    94684107.476 8
  24128161.400       -1160.247          51.850    97154120.467 8  24128159.440
     -1190.502          53.550    95919111.123 9  24128160.880       -1175.367
        55.600
 145876067.718 6                  27759284.440
      2336.397                          39.900                   108933489.336 7
  27759296.560        1744.887          43.650   111775225.504 7  27759293.940
      1790.261          42.500   110354357.074 7  27759294.840        1767.608
        46.000
 24  1 16 12 15 30.0000000  0 18G06G10G12G15G17G19G23G24G25G32E03E05
                                E09E24E25E26E31E33
 129856896.234 6 101187246.31346  24710939.900                    24710950.080
      2480.438        1932.817          40.350          39.950    96971139.713 7
  24710951.700        1852.024          44.900


 127179886.552 7  99101203.83646  24201545.820                    24201551.480
     -2124.366       -1655.355          45.050          40.400    94971972.708 7
  24201551.840       -1586.414          44.850


 106539592.577 8  83017900.93148  20273793.620                    20273792.660
       964.572         751.616          52.050          52.000



 128267253.543 7  99948471.36547  24408468.340                    24408473.220
     -3961.732       -3087.074          43.750          43.950



 130284000.576 6 101520054.59346  24792206.920                    24792211.120
     -3039.372       -2368.348          41.700          41.800



 118096513.923 8  92023306.04047  22472994.880                    22472994.380
     -1748.229       -1362.257          48.350          43.850



 132739615.648 6 103433422.62146  25259536.360                    25259544.140
     -3176.584       -2475.254          39.750          37.000    99123704.654 7
  25259551.120       -2372.222          44.350


 109438365.003 8  85276634.11248  20825432.260                    20825434.560
     -1946.800       -1516.987          50.800          51.050    81723456.363 9
  20825437.260       -1453.837          56.400


 114240383.802 8  89018555.82447  21739201.320                    21739205.040
      2891.142        2252.838          48.150          45.100    85309460.843 8
  21739206.240        2158.974          51.000


 120765985.692 8  94103383.63547  22980999.000                    22981002.380
      2440.863        1901.974          48.450          43.850    90182409.262 8
  22981002.260        1822.663          49.150


 140957686.861 7                  26823354.260
      2428.560                          46.800                   105260657.550 7
  26823366.020        1813.511          46.400   108006576.495 7  26823360.440
      1860.803          46.750   106633620.168 8  26823361.940        1837.224
        48.850
 118695157.413 8                  22586944.800
         6.166                          52.550                    88635995.918 8
  22586950.680           4.597          52.700    90948232.864 9  22586948.300
         4.660          54.250    89792112.041 9  22586949.780           4.650
        55.900
 133008135.104 8                  25310615.340
     -2662.086                          49.850                    99324262.683 8
  25310622.060       -1987.936          49.300   101915325.134 8  25310620.360
     -2039.820          50.350   100619789.062 8  25310621.540       -2013.870
        52.300
 124568532.079 8                  23704587.480
       948.577                          52.850                    93022012.898 8
  23704591.980         708.353          53.650    95448662.661 9  23704588.800
       726.870          54.800    94235340.931 9  23704590.720         717.623
        56.650
 143040889.202 7                  27219761.400
      2608.084                          44.200                   106816336.534 7
  27219772.820        1947.548          43.950   109602832.107 7  27219768.500
      1998.398          45.250   108209585.471 7  27219770.100        1972.970
        46.900
 145024431.728 7                  27597222.760
       404.508                          42.900                   108297537.261 6
  27597233.000         301.997          41.600   111122663.958 7  27597230.200
       309.837          42.350   109710094.764 7  27597232.620         305.965
        44.500
 126841020.453 8                  24137041.660
     -1559.483                          52.800                    94718976.940 8
  24137047.020       -1164.533          51.450    97189899.573 8  24137045.160
     -1194.904          53.650    95954435.410 9  24137046.680       -1179.739
        55.050
 145806073.053 6                  27745964.420
      2329.540                          40.350                   108881220.820 7
  27745977.200        1739.527          43.900   111721593.419 7  27745973.900
      1784.890          42.050   110301406.769 7  27745975.020        1762.202
        45.600
 24  1 16 12 16  0.0000000  0 18G06G10G12G15G17G19G23G24G25G32E03E05
                                E09E24E25E26E31E33
 129782638.815 6 101129383.69646  24696808.960                    24696819.120
      2470.686        1925.218          40.100          39.950    96915688.075 7
  24696820.920        1845.021          45.300


 127243813.491 7  99151016.89846  24213710.820                    24213716.580
     -2136.844       -1665.076          44.650          40.750    95019710.190 7
  24213716.720       -1595.639          44.900


 106510907.309 8  82995548.79348  20268335.080                    20268334.240
       948.394         739.009          52.000          51.950



 128386127.819 7 100041100.43147  24431089.560                    24431094.400
     -3962.722       -3087.846          43.700          42.900



 130375313.702 6 101591207.52646  24809583.560                    24809587.880
     -3047.629       -2374.780          40.600          39.850



 118149244.593 8  92064394.86047  22483029.240                    22483028.440
     -1766.504       -1376.498          48.050          44.100



 132834937.632 6 103507699.66846  25277675.480                    25277683.040
     -3177.026       -2475.602          39.300          36.550    99194886.819 7
  25277690.460       -2372.797          45.750


 109496973.933 8  85322303.37348  20836585.120                    20836587.580
     -1959.774       -1527.099          50.450          50.400    81767222.729 9
  20836590.000       -1463.441          56.350


 114153811.041 8  88951096.56947  21722727.160                    21722730.520
      2881.023        2244.956          48.200          45.650    85244812.400 8
  21722731.940        2151.438          51.250


 120692975.556 7  94046492.67147  22967105.620                    22967108.660
      2427.156        1891.291          47.700          44.250    90127888.757 8
  22967109.000        1812.464          49.350


 140884950.386 7                  26809513.060
      2421.104                          46.700                   105206341.444 7
  26809524.580        1808.009          46.700   107950843.434 7  26809518.980
      1855.219          46.550   106578595.590 8  26809520.560        1831.575
        49.100
 118695193.991 8                  22586951.840
        -7.881                          52.400                    88636023.229 8
  22586957.600          -5.925          52.900    90948260.887 9  22586955.240
        -6.121          54.000    89792139.711 9  22586956.760          -6.002
        56.050
 133088126.786 8                  25325837.260
     -2670.086                          49.450                    99383996.605 8
  25325844.340       -1993.848          49.750   101976617.363 8  25325842.160
     -2045.892          50.300   100680302.137 8  25325843.560       -2019.890
        52.700
 124540215.746 8                  23699199.080
       939.769                          52.850                    93000867.601 8
  23699203.600         701.769          53.950    95426965.747 9  23699200.400
       720.077          54.750    94213919.827 9  23699202.300         710.938
        57.000
 142962709.132 7                  27204884.060
      2604.610                          44.600                   106757955.435 7
  27204895.560        1945.048          43.850   109542928.011 7  27204891.460
      1995.737          45.850   108150442.877 7  27204892.800        1970.339
        47.300
 145012527.746 7                  27594957.700
       389.787                          43.850                   108288648.074 7
  27594967.460         291.061          42.600   111113542.856 7  27594964.300
       298.700          42.000   109701089.622 7  27594967.240         294.879
        45.100
 126887908.116 8                  24145964.280
     -1565.805                          52.600                    94753990.415 8
  24145969.180       -1169.242          51.350    97225826.443 8  24145967.500
     -1199.721          53.350    95989905.585 9  24145969.140       -1184.500
        55.050
 145736316.172 6                  27732689.920
      2321.622                          40.150                   108829129.821 7
  27732703.020        1733.697          43.850   111668143.476 6  27732698.680
      1778.927          41.600   110248636.301 7  27732700.380        1756.333
        45.550
 24  1 16 12 16 30.0000000  0 18G06G10G12G15G17G19G23G24G25G32E03E05
                                E09E24E25E26E31E33
 129708667.401 6 101071743.94146  24682732.620                    24682742.440
      2460.925        1917.614          41.200          40.950    96860450.063 7
  24682744.460        1837.485          45.250


 127308107.029 7  99201115.62246  24225945.460                    24225951.460
     -2149.229       -1674.728          44.900          40.600    95067721.459 7
  24225951.540       -1605.090          44.800


 106482703.563 8  82973571.86448  20262968.180                    20262967.440
       932.066         726.286          52.100          52.150



 128505025.944 7 100133748.05747  24453715.080                    24453720.260
     -3963.641       -3088.561          43.600          43.250



 130466865.550 6 101662546.47146  24827005.420                    24827009.920
     -3055.790       -2381.141          40.400          39.950



 118202516.422 7  92105905.36647  22493166.520                    22493165.540
     -1784.733       -1390.701          47.700          44.150



 132930399.072 5 103582172.03655  25295815.760                    25295823.280
     -3177.942       -2476.319          30.900          30.950    99266081.862 7
  25295833.040       -2373.562          46.650


 109555966.110 8  85368271.27048  20847810.960                    20847813.460
     -1972.929       -1537.349          50.550          50.600    81811275.299 9
  20847815.500       -1473.406          56.150


 114067540.433 8  88883872.74947  21706310.500                    21706313.600
      2870.376        2236.658          48.550          45.400    85180389.582 8
  21706315.080        2143.469          51.400


 120620374.918 7  93989920.79347  22953290.160                    22953292.920
      2413.110        1880.348          47.800          44.250    90073674.063 8
  22953293.660        1801.850          49.400


 140812439.875 7                  26795714.800
      2412.994                          47.050                   105152194.106 7
  26795726.080        1801.852          46.900   107895283.541 7  26795720.500
      1848.893          46.700   106523741.971 8  26795722.200        1825.405
        49.050
 118695651.825 8                  22587039.060
       -22.530                          52.550                    88636365.116 8
  22587044.680         -16.812          52.850    90948611.691 8  22587042.280
       -17.252          53.950    89792486.054 9  22587043.900         -17.027
        55.900
 133168352.254 8                  25341103.620
     -2678.244                          49.600                    99443905.128 8
  25341110.680       -2000.047          49.300   102038088.715 8  25341108.680
     -2052.154          50.250   100740992.077 8  25341110.080       -2026.113
        52.300
 124512162.494 8                  23693860.800
       930.360                          53.050                    92979918.757 9
  23693865.320         694.756          54.150    95405470.405 9  23693862.040
       712.920          54.800    94192697.736 9  23693863.920         703.805
        56.950
 142884630.241 7                  27190025.840
      2600.843                          44.100                   106699649.838 7
  27190037.040        1942.164          43.950   109483101.419 7  27190033.380
      1992.767          45.550   108091376.781 7  27190035.000        1967.466
        47.050
 145001061.842 7                  27592776.080
       374.713                          43.550                   108280086.026 7
  27592785.740         279.797          43.150   111104757.418 6  27592781.620
       287.125          41.950   109692415.881 7  27592785.080         283.416
        45.300
 126934981.864 8                  24154922.200
     -1572.418                          52.450                    94789142.850 8
  24154926.800       -1174.242          51.300    97261895.899 8  24154925.220
     -1204.823          53.300    96025516.530 9  24154926.960       -1189.577
        54.850
 145666793.319 6                  27719459.900
      2313.265                          41.300                   108777213.578 7
  27719473.300        1727.384          43.800   111614872.832 6  27719468.220
      1772.628          41.700   110196042.863 7  27719470.200        1749.933
        45.200
 24  1 16 12 17  0.0000000  0 18G06G10G12G15G17G19G23G24G25G32E03E05
                                E09E24E25E26E31E33
 129634991.754 6 101014334.58946  24668712.600                    24668721.900
      2451.445        1910.226          41.000          40.800    96805432.836 7
  24668724.600        1830.373          44.650


 127372771.336 7  99251503.27146  24238250.720                    24238256.840
     -2161.255       -1684.097          44.100          40.000    95116009.588 7
  24238256.780       -1613.856          44.300


 106454987.405 8  82951974.87848  20257694.020                    20257693.240
       916.003         713.770          51.950          51.800



 128623952.297 7 100226417.68047  24476346.080                    24476351.380
     -3964.418       -3089.164          43.600          44.000



 130558660.315 6 101734074.70646  24844473.460                    24844478.280
     -3063.575       -2387.206          40.700          40.750



 118256334.052 7  92147841.18547  22503407.660                    22503406.660
     -1802.757       -1404.745          47.850          43.450



 133025775.575 6 103656473.95146  25313963.980                    25313971.280
     -3178.900       -2477.061          38.350          38.050    99337292.457 7
  25313979.320       -2373.651          46.200


 109615347.320 8  85414542.31848  20859110.840                    20859113.300
     -1985.611       -1547.230          50.500          50.500    81855618.377 9
  20859115.100       -1482.705          55.900


 113981579.813 8  88816890.47047  21689952.840                    21689955.620
      2860.396        2228.880          48.400          45.250    85116198.236 8
  21689957.300        2136.078          51.350


 120548192.836 7  93933675.06647  22939554.380                    22939556.720
      2399.245        1869.544          47.700          43.900    90019771.906 8
  22939557.940        1791.695          49.050


 140740163.615 7                  26781961.000
      2405.611                          46.950                   105098221.685 7
  26781972.080        1796.385          46.600   107839903.131 7  26781966.560
      1843.222          46.750   106469065.559 8  26781968.380        1819.848
        49.300
 118696537.869 8                  22587207.700
       -36.394                          52.450                    88637026.774 8
  22587213.220         -27.187          52.650    90949290.609 9  22587210.740
       -27.920          54.000    89793156.342 9  22587212.520         -27.508
        56.100
 133248816.753 8                  25356415.460
     -2685.839                          49.200                    99503992.123 8
  25356422.740       -2005.646          49.700   102099743.220 8  25356420.520
     -2057.973          50.000   100801862.823 8  25356422.040       -2031.796
        52.700
 124484378.803 8                  23688573.860
       921.943                          53.000                    92959171.207 9
  23688578.280         688.417          54.050    95384181.617 9  23688575.020
       706.379          55.000    94171679.566 9  23688576.820         697.406
        57.300
 142806659.638 7                  27175188.240
      2597.484                          43.250                   106641425.110 7
  27175199.460        1939.677          44.250   109423357.776 7  27175195.980
      1990.279          45.750   108032392.587 7  27175197.760        1965.102
        47.700
 144990041.086 7                  27590678.980
       360.330                          43.400                   108271856.408 7
  27590688.980         269.012          43.300   111096313.098 6  27590684.200
       276.018          41.800   109684078.910 7  27590687.580         272.471
        45.600
 126982247.358 8                  24163916.540
     -1578.377                          52.500                    94824438.476 8
  24163921.140       -1178.693          51.200    97298112.282 8  24163919.560
     -1209.487          53.450    96061272.532 9  24163921.280       -1194.074
        55.100
 145597513.160 7                  27706276.340
      2305.531                          42.300                   108725478.543 7
  27706289.360        1721.682          43.000   111561788.171 7  27706284.260
      1766.577          42.550   110143633.007 7  27706286.240        1744.174
        45.550
 24  1 16 12 17 30.0000000  0 19G06G10G12G15G17G19G23G24G25G32E03E05
                                E09E18E24E25E26E31E33
 129561608.195 6 100957152.82446  24654748.100                    24654756.980
      2440.870        1901.985          41.150          40.350    96750633.704 7
  24654759.960        1822.597          44.300


 127437796.990 7  99302172.49146  24250624.720                    24250630.680
     -2174.151       -1694.146          43.550          41.300    95164567.541 7
  24250630.920       -1623.417          44.750


 106427752.075 8  82930752.55948  20252511.320                    20252510.420
       899.415         700.844          52.300          52.400



 128742897.056 7 100319101.61747  24498980.700                    24498986.200
     -3965.321       -3089.868          43.900          43.700



 130650688.953 6 101805785.16946  24861986.080                    24861991.100
     -3072.075       -2393.828          41.150          41.850



 118310688.915 7  92190195.61047  22513750.960                    22513750.160
     -1821.109       -1419.046          47.750          43.200



 133121146.922 6 103730789.23846  25332113.400                    25332120.380
     -3179.918       -2477.858          38.850          36.850    99408511.324 7
  25332127.640       -2374.499          42.500


 109675110.042 8  85461110.63648  20870483.340                    20870485.700
     -1998.901       -1557.586          50.850          50.650    81900246.339 9
  20870487.420       -1492.686          55.700


 113895923.715 8  88750145.49047  21673653.040                    21673655.580
      2849.646        2220.503          48.650          45.800    85052234.308 8
  21673657.600        2127.964          51.450


 120476425.051 8  93877752.15747  22925897.400                    22925899.380
      2384.966        1858.417          48.000          44.150    89966179.125 8
  22925901.020        1780.926          48.650


 140668116.632 7                  26768250.800
      2397.282                          47.200                   105044420.479 7
  26768261.600        1790.208          46.600   107784698.406 7  26768256.220
      1836.868          46.850   106414562.587 8  26768258.220        1813.546
        49.400
 118697845.763 8                  22587456.520
       -51.042                          52.400                    88638003.450 8
  22587462.060         -38.123          52.550    90950292.766 8  22587459.460
       -39.129          53.950    89794145.760 9  22587461.400         -38.632
        56.150
 133329512.179 8                  25371771.220
     -2694.090                          49.600                    99564251.568 8
  25371778.960       -2011.885          49.200   102161574.676 8  25371776.240
     -2064.367          50.050   100862908.277 8  25371778.060       -2038.117
        52.650
 157854363.654 7                  30038686.980
      3157.258                          43.700                   117878308.014 7
  30038700.300        2357.594          42.350   120953382.393 7  30038693.520
      2419.142          42.200   119415840.854 7  30038696.680        2388.385
        45.050
 124456857.872 8                  23683336.920
       912.515                          53.350                    92938619.861 8
  23683341.240         681.423          53.950    95363094.149 9  23683338.040
       699.212          55.000    94150860.159 9  23683339.740         690.318
        57.400
 142728791.074 7                  27160369.700
      2593.449                          43.550                   106583276.546 7
  27160381.420        1936.618          44.450   109363692.293 7  27160377.860
      1987.093          45.900   107973485.576 7  27160379.920        1961.810
        47.950
 144979459.384 7                  27588665.120
       344.997                          42.700                   108263954.647 7
  27588675.880         257.478          43.650   111088205.183 7  27588670.500
       264.124          42.200   109676074.062 7  27588673.700         260.892
        45.900
 127029697.000 8                  24172945.880
     -1585.210                          52.400                    94859871.622 8
  24172950.520       -1183.762          51.000    97334469.765 8  24172949.020
     -1214.597          53.500    96097167.845 9  24172950.620       -1199.194
        55.200
 145528471.159 7                  27693138.100
      2296.878                          42.750                   108673921.344 7
  27693150.600        1715.109          42.200   111508885.983 7  27693146.020
      1759.969          43.300   110091403.309 7  27693147.800        1737.621
        45.550
 24  1 16 12 18  0.0000000  0 19G06G10G12G15G17G19G23G24G25G32E03E05
                                E09E18E24E25E26E31E33
 129488525.615 6 100900205.58946  24640840.840                    24640849.220
      2430.899        1894.215          41.850          41.950    96696059.311 7
  24640852.740        1815.237          44.700


 127503186.899 7  99353125.54046  24263068.000                    24263073.760
     -2185.410       -1702.922          42.150          40.750    95213397.548 7
  24263074.340       -1632.261          44.850


 106401003.926 8  82909909.86648  20247421.280                    20247420.320
       883.469         688.417          52.200          52.300



 128861863.797 7 100411802.67347  24521619.540                    24521625.400
     -3965.795       -3090.238          44.100          44.100



 130742954.758 7 101877680.41646  24879543.760                    24879549.120
     -3079.734       -2399.797          42.200          41.900



 118365584.968 7  92232971.75547  22524197.220                    22524196.420
     -1838.904       -1432.913          47.600          42.700



 133216532.430 6 103805115.48845  25350264.780                    25350271.060
     -3179.954       -2477.894          37.350          34.350    99479740.636 7
  25350278.760       -2374.474          43.650


 109735259.207 8  85507980.08748  20881929.340                    20881931.640
     -2011.598       -1567.479          50.850          50.750    81945162.888 9
  20881933.300       -1502.090          56.000


 113810579.262 8  88683643.35547  21657412.440                    21657414.900
      2839.422        2212.536          49.050          44.600    84988503.096 8
  21657417.200        2120.426          51.900


 120405079.801 8  93822158.48347  22912320.840                    22912322.500
      2371.030        1847.557          48.450          43.650    89912901.867 8
  22912324.380        1770.465          48.750


 140596306.422 7                  26754585.540
      2389.572                          46.900                   104990796.092 7
  26754596.160        1784.533          47.050   107729675.104 7  26754590.900
      1831.005          46.700   106360238.745 8  26754593.100        1807.760
        49.300
 118699581.633 8                  22587786.660
       -65.122                          52.200                    88639299.736 8
  22587792.360         -48.625          52.900    90951622.862 8  22587789.720
       -49.904          53.750    89795458.954 9  22587791.720         -49.276
        55.900
 133410442.965 8                  25387171.760
     -2701.652                          48.900                    99624686.799 8
  25387179.480       -2017.610          49.300   102223586.482 8  25387176.940
     -2070.127          49.750   100924131.790 8  25387178.800       -2043.845
        52.150
 157759496.627 7                  30020634.220
      3166.828                          43.100                   117807465.856 7
  30020647.280        2364.771          43.000   120880692.165 7  30020642.680
      2426.583          43.500   119344074.657 7  30020643.800        2395.715
        45.400
 124429605.372 8                  23678151.000
       903.863                          53.250                    92918268.971 9
  23678155.220         674.997          54.300    95342212.365 9  23678152.200
       692.544          54.750    94130243.821 9  23678153.740         683.773
        57.000
 142651030.827 7                  27145572.060
      2590.138                          43.350                   106525208.870 7
  27145584.000        1934.136          44.400   109304109.805 7  27145580.600
      1984.664          46.100   107914660.486 7  27145582.640        1959.449
        47.700
 144969323.017 7                  27586736.020
       330.605                          43.000                   108256385.429 7
  27586747.560         246.636          44.500   111080438.471 7  27586741.680
       253.127          42.250   109668406.103 7  27586744.580         249.839
        45.950
 127077335.683 8                  24182011.060
     -1591.202                          52.050                    94895445.936 8
  24182015.860       -1188.233          51.600    97370972.101 8  24182014.580
     -1219.219          53.300    96133206.172 9  24182015.900       -1203.746
        55.000
 145459675.080 7                  27680046.620
      2289.056                          43.900                   108622547.747 7
  27680058.420        1709.210          42.000   111456172.213 7  27680054.780
      1753.879          43.950   110039359.639 7  27680056.380        1731.404
        45.350
 24  1 16 12 18 30.0000000  0 19G06G10G12G15G17G19G23G24G25G32E03E05
                                E09E18E24E25E26E31E33
 129415742.722 7 100843491.86647  24626990.660                    24626998.720
      2420.706        1886.272          42.750          42.450    96641708.669 7
  24627002.540        1807.885          44.250


 127568933.609 6  99404356.61846  24275579.200                    24275584.760
     -2197.476       -1712.322          41.950          40.500    95262493.959 7
  24275585.660       -1640.972          44.200


 106374738.476 8  82889443.29648  20242423.060                    20242422.120
       867.349         675.855          52.200          52.250



 128980845.785 7 100504515.60747  24544261.140                    24544267.340
     -3966.409       -3090.717          43.900          43.500



 130835450.918 6 101949755.17346  24897145.400                    24897150.860
     -3087.405       -2405.773          41.050          41.200



 118421015.818 7  92276164.62947  22534745.120                    22534744.440
     -1856.746       -1446.814          46.650          44.100



 133311924.682 5 103879446.96845  25368417.240                    25368422.960
     -3179.536       -2477.564          35.350          33.800    99550974.951 7
  25368431.540       -2374.506          45.300


 109795789.567 8  85555146.56248  20893447.920                    20893450.000
     -2024.076       -1577.203          51.350          51.350    81990364.083 9
  20893451.760       -1511.521          55.750


 113725543.226 8  88617381.55247  21641230.520                    21641232.860
      2829.232        2204.598          48.600          45.250    84925002.213 8
  21641235.580        2112.745          51.600


 120334155.058 8  93766892.48947  22898824.340                    22898825.720
      2356.921        1836.563          48.900          43.700    89859938.608 8
  22898827.740        1760.119          48.150


 140524730.228 7                  26740964.820
      2381.771                          46.800                   104937346.453 7
  26740975.260        1778.664          46.600   107674831.107 7  26740970.060
      1825.114          46.600   106306091.930 8  26740972.500        1801.863
        49.350
 118701741.402 8                  22588197.440
       -79.239                          51.900                    88640912.565 8
  22588203.380         -59.141          52.750    90953277.765 8  22588200.660
       -60.677          53.700    89797092.820 9  22588202.680         -59.908
        56.100
 133491603.333 8                  25402616.020
     -2709.297                          49.200                    99685293.434 8
  25402624.120       -2023.091          48.950   102285774.184 8  25402621.240
     -2075.883          49.700   100985528.960 8  25402623.240       -2049.508
        52.300
 157664344.430 7                  30002527.320
      3176.445                          42.850                   117736410.754 6
  30002540.820        2372.021          41.950   120807783.423 7  30002534.160
      2433.694          42.250   119272092.742 7  30002536.840        2402.775
        44.600
 124402616.757 8                  23673015.180
       895.151                          53.100                    92898115.140 8
  23673019.400         668.444          53.850    95321532.777 9  23673016.480
       685.870          54.700    94109827.111 9  23673017.940         677.171
        57.050
 142573374.974 7                  27130794.380
      2586.610                          43.750                   106467219.102 7
  27130806.080        1931.565          44.100   109244607.282 7  27130803.220
      1982.041          45.700   107855914.353 7  27130805.440        1956.763
        47.800
 144959628.057 7                  27584890.820
       315.841                          42.400                   108249145.814 7
  27584902.920         235.810          43.850   111073009.987 7  27584897.160
       241.885          42.800   109661072.056 7  27584899.500         238.823
        46.150
 127125158.079 8                  24191111.120
     -1597.265                          51.800                    94931157.436 8
  24191116.480       -1192.726          51.750    97407615.206 8  24191115.100
     -1223.892          53.050    96169383.473 9  24191116.100       -1208.315
        55.200
 145391122.738 7                  27667001.560
      2280.854                          43.350                   108571356.110 7
  27667012.780        1703.232          42.300   111403645.158 7  27667009.740
      1747.739          44.150   109987500.287 7  27667011.480        1725.430
        45.950
 24  1 16 12 19  0.0000000  0 19G06G10G12G15G17G19G23G24G25G32E03E05
                                E09E18E24E25E26E31E33
 129343267.406 6 100787017.78246  24613198.920                    24613206.740
      2411.092        1878.779          41.850          41.850    96587587.724 7
  24613210.640        1800.376          44.200


 127635039.396 6  99455867.49046  24288158.660                    24288163.880
     -2209.179       -1721.442          40.500          38.700    95311858.537 7
  24288165.320       -1649.853          43.600


 106348960.711 8  82869356.73948  20237517.640                    20237516.720
       851.391         663.422          52.000          51.950



 129099845.346 6 100597242.20447  24566906.200                    24566912.720
     -3966.894       -3091.099          41.900          42.050



 130928179.997 7 102022011.44347  24914791.300                    24914796.880
     -3094.568       -2411.355          42.400          42.050



 118476984.408 7  92319776.50347  22545395.360                    22545395.000
     -1874.198       -1460.415          46.550          43.850



 133407325.492 6 103953785.05346  25386571.340                    25386577.720
     -3179.702       -2477.692          38.900          38.650    99622215.555 7
  25386586.040       -2374.622          46.550


 109856704.992 8  85602613.09048  20905039.780                    20905041.700
     -2036.741       -1587.072          51.150          51.000    82035852.828 9
  20905043.660       -1520.880          55.700


 113640821.723 8  88551364.84247  21625108.400                    21625110.720
      2819.137        2196.731          48.050          45.250    84861736.208 8
  21625113.740        2105.115          51.300


 120263658.129 8  93711959.85247  22885409.300                    22885410.520
      2342.933        1825.664          48.750          44.150    89807294.837 7
  22885412.480        1749.617          47.950


 140453394.642 7                  26727389.920
      2374.138                          46.400                   104884076.499 7
  26727400.040        1772.874          46.300   107620171.482 7  26727395.100
      1819.150          46.550   106252127.140 8  26727397.700        1795.984
        49.300
 118704330.230 8                  22588689.920
       -93.061                          51.750                    88642845.798 8
  22588696.160         -69.545          52.650    90955261.426 8  22588693.360
       -71.282          53.850    89799051.263 9  22588695.280         -70.425
        56.200
 133572996.712 8                  25418104.640
     -2716.723                          48.600                    99746074.092 8
  25418112.880       -2028.712          48.350   102348140.436 8  25418109.960
     -2081.597          49.900   101047102.421 8  25418112.040       -2055.155
        52.200
 157568912.618 7                  29984367.000
      3186.052                          43.400                   117665146.864 7
  29984380.160        2379.064          42.550   120734660.485 6  29984374.840
      2441.245          41.550   119199899.315 7  29984376.840        2410.235
        45.050
 124375896.773 8                  23667930.400
       886.432                          52.750                    92878161.911 8
  23667934.660         661.975          53.550    95301059.029 9  23667931.780
       679.233          54.600    94089613.620 9  23667933.280         670.630
        57.000
 142495828.809 7                  27116037.720
      2583.307                          44.150                   106409311.283 7
  27116049.480        1929.116          43.950   109185188.812 7  27116046.760
      1979.430          45.950   107797251.201 7  27116048.900        1954.311
        47.950
 144950379.857 7                  27583130.640
       300.996                          42.450                   108242239.792 7
  27583143.160         224.888          43.950   111065923.804 7  27583137.720
       230.632          43.100   109654075.946 7  27583139.500         227.771
        46.550
 127173168.202 8                  24200246.940
     -1603.200                          51.750                    94967009.118 8
  24200253.100       -1197.185          51.950    97444402.148 8  24200251.080
     -1228.415          52.900    96205702.785 9  24200252.080       -1212.805
        55.350
 145322820.982 7                  27654004.140
      2272.969                          43.100                   108520351.624 7
  27654015.220        1697.315          42.900   111351310.131 7  27654012.340
      1741.620          44.150   109935830.530 7  27654014.300        1719.438
        46.550
 24  1 16 12 19 30.0000000  0 19G06G10G12G15G17G19G23G24G25G32E03E05
                                E09E18E24E25E26E31E33
 129271098.089 6 100730782.11846  24599465.240                    24599472.920
      2400.022        1870.151          41.550          41.500    96533695.246 7
  24599476.780        1792.332          44.950


 127701497.005 6  99507652.51346  24300805.020                    24300810.260
     -2221.327       -1730.909          40.600          39.350    95361485.803 7
  24300812.020       -1658.906          43.650


 106323665.924 8  82849646.53748  20232704.160                    20232703.200
       834.784         650.482          51.950          52.000



 129218855.503 7 100689977.10347  24589553.240                    24589559.820
     -3967.710       -3091.733          42.600          42.100



 131021135.066 7 102094443.80146  24932480.180                    24932485.720
     -3102.794       -2417.765          42.250          41.300



 118533484.239 7  92363802.33347  22556146.780                    22556146.760
     -1892.497       -1474.674          46.250          45.000



 133502727.127 6 104028123.73946  25404725.760                    25404732.480
     -3180.474       -2478.301          38.650          37.200    99693456.713 7
  25404740.740       -2375.027          45.100


 109918000.047 8  85650375.44248  20916703.940                    20916705.800
     -2049.808       -1597.254          51.450          51.550    82081625.077 9
  20916708.020       -1530.712          56.050


 113556411.271 7  88485590.50847  21609045.400                    21609047.840
      2808.177        2188.191          47.750          45.800    84798702.476 8
  21609051.120        2096.966          51.400


 120193586.684 8  93657358.76847  22872075.100                    22872076.380
      2328.288        1814.252          48.700          44.100    89754968.802 8
  22872078.160        1738.632          48.100


 140382296.661 7                  26713860.180
      2365.534                          46.000                   104830983.951 7
  26713870.120        1766.607          46.650   107565693.912 7  26713865.400
      1812.613          46.450   106198342.079 8  26713868.080        1789.668
        49.550
 118707343.701 8                  22589263.320
      -107.896                          51.650                    88645096.137 8
  22589269.720         -80.575          52.850    90957570.465 8  22589266.880
       -82.690          53.850    89801330.952 9  22589268.680         -81.602
        56.250
 133654616.990 8                  25433636.440
     -2724.744                          48.600                    99807024.186 8
  25433644.680       -2034.778          48.200   102410680.539 8  25433642.000
     -2087.769          49.900   101108847.518 8  25433643.940       -2061.299
        51.950
 157473197.190 7                  29966152.740
      3194.917                          43.500                   117593671.210 7
  29966166.500        2385.771          42.600   120661320.190 7  29966160.100
      2447.973          43.600   119127491.348 7  29966162.400        2416.862
        45.600
 124349440.591 8                  23662895.840
       877.107                          52.600                    92858405.683 8
  23662900.080         655.000          53.600    95280787.413 9  23662897.080
       672.115          54.300    94069599.701 9  23662898.820         663.560
        56.850
 142418388.126 7                  27101301.300
      2579.310                          43.750                   106351482.204 7
  27101312.440        1926.144          43.800   109125851.156 7  27101310.420
      1976.398          46.100   107738667.839 8  27101312.460        1951.178
        48.000
 144941574.102 6                  27581454.640
       285.943                          41.950                   108235664.180 7
  27581467.580         213.442          44.200   111059176.628 7  27581462.480
       218.972          43.100   109647414.553 7  27581463.720         216.239
        46.450
 127221360.358 8                  24209417.520
     -1609.758                          51.950                    95002996.736 8
  24209424.300       -1202.113          52.300    97481328.580 8  24209421.580
     -1233.441          52.450    96242159.810 9  24209422.780       -1217.789
        55.300
 145254767.229 7                  27641053.940
      2263.822                          43.100                   108469532.328 7
  27641065.220        1690.597          43.550   111299165.105 7  27641061.940
      1734.759          43.750   109884348.370 7  27641064.140        1712.711
        46.550
 24  1 16 12 20  0.0000000  0 20G06G10G11G12G15G17G19G23G24G25G32E03
                                E05E09E18E24E25E26E31E33
 129199239.772 6 100674788.79346  24585790.820                    24585798.460
      2390.377        1862.637          41.250          40.800    96480035.024 7
  24585802.300        1784.876          45.750


 127768305.246 6  99559710.74946  24313518.160                    24313523.160
     -2232.885       -1739.917          40.950          40.200    95411374.899 7
  24313525.440       -1667.351          43.200


 136424895.672 6 106305137.85846  25960791.880                    25960800.900
      2982.979        2324.407          38.100          36.500   101875750.971 7
  25960808.760        2227.073          42.750


 106298856.300 8  82830314.38348  20227983.040                    20227982.020
       819.048         638.221          52.000          51.850



 129337875.561 7 100782719.67447  24612202.240                    24612208.840
     -3967.290       -3091.404          42.450          42.900



 131114315.330 6 102167051.65046  24950212.120                    24950217.540
     -3109.687       -2423.138          41.600          40.950



 118590515.258 7  92408242.05947  22566999.460                    22566999.740
     -1909.681       -1488.064          46.950          44.700



 133598128.893 6 104102462.53445  25422880.100                    25422887.120
     -3180.627       -2478.420          36.200          34.900    99764697.925 6
  25422895.340       -2374.528          40.900


 109979675.812 8  85698434.45148  20928440.560                    20928442.460
     -2062.029       -1606.777          51.400          51.500    82127681.620 9
  20928444.920       -1539.866          56.500


 113472315.075 7  88420061.06647  21593042.240                    21593044.780
      2798.169        2180.394          47.850          45.750    84735903.428 8
  21593048.200        2089.468          51.750


 120123945.141 8  93603092.67647  22858822.740                    22858824.020
      2314.283        1803.340          48.850          44.000    89702963.804 8
  22858825.680        1728.177          48.550


 140311439.978 7                  26700376.340
      2357.899                          46.200                   104778071.620 7
  26700386.120        1760.721          46.800   107511401.234 7  26700381.660
      1806.705          46.550   106144739.579 8  26700384.400        1783.705
        49.350
 118710784.136 8                  22589918.080
      -121.688                          52.100                    88647665.305 8
  22589924.560         -90.935          53.300    90960206.651 8  22589921.640
       -93.259          53.950    89803933.633 9  22589923.320         -92.110
        56.300
 133736464.798 8                  25449211.600
     -2731.927                          48.350                    99868144.189 8
  25449220.000       -2040.102          48.600   102473394.988 8  25449217.240
     -2093.312          49.850   101170764.740 8  25449219.120       -2066.694
        51.900
 157377200.874 7                  29947885.160
      3204.664                          44.100                   117521985.786 6
  29947899.000        2393.179          41.600   120587764.719 7  29947892.740
      2455.524          42.300   119054870.897 7  29947894.780        2424.301
        44.300
 124323250.054 8                  23657911.900
       868.693                          52.700                    92838847.830 8
  23657916.060         648.692          53.900    95260719.351 9  23657912.840
       665.637          54.150    94049786.741 9  23657914.920         657.186
        56.750
 142341055.410 7                  27086585.720
      2576.038                          44.100                   106293733.757 7
  27086595.840        1923.598          44.050   109066596.218 7  27086594.700
      1973.871          46.200   107680166.140 7  27086596.540        1948.723
        47.850
 144933213.322 7                  27579863.600
       271.349                          43.100                   108229420.805 7
  27579876.520         202.689          43.900   111052770.382 7  27579871.680
       207.867          43.400   109641089.741 7  27579872.600         205.318
        46.050
 127269735.685 8                  24218623.120
     -1615.440                          52.650                    95039121.148 8
  24218630.280       -1206.333          52.850    97518395.378 8  24218626.880
     -1237.857          52.150    96278755.417 9  24218628.360       -1222.117
        55.200
 145186965.555 7                  27628151.860
      2256.024                          43.850                   108418901.254 7
  27628163.020        1684.687          43.900   111247213.221 7  27628159.520
      1728.488          43.600   109833056.888 7  27628161.840        1706.610
        46.400
 24  1 16 12 20 30.0000000  0 20G06G10G11G12G15G17G19G23G24G25G32E03
                                E05E09E18E24E25E26E31E33
 129127700.723 6 100619044.23046  24572177.060                    24572184.640
      2379.558        1854.206          40.800          41.150    96426613.177 7
  24572188.300        1777.033          44.800


 127835466.646 6  99612044.18346  24326298.680                    24326303.760
     -2244.525       -1748.985          40.600          40.200    95461527.746 7
  24326306.000       -1675.839          42.500


 136335430.855 7 106235425.12746  25943766.800                    25943775.700
      2981.957        2323.608          42.100          37.400   101808942.919 7
  25943785.080        2227.132          43.950


 106274536.860 8  82811364.19348  20223355.140                    20223354.140
       802.777         625.542          51.450          51.450



 129456908.570 7 100875472.32646  24634853.700                    24634860.300
     -3967.595       -3091.646          42.000          41.700



 131207723.614 6 102239837.22046  24967987.340                    24967992.500
     -3117.274       -2429.048          41.100          40.850



 118648080.601 7  92453098.14647  22577954.060                    22577954.220
     -1927.478       -1501.933          47.800          45.350



 133693532.992 6 104176803.09646  25441034.700                    25441042.260
     -3179.918       -2477.869          38.100          37.750    99835940.978 7
  25441049.820       -2374.521          43.500


 110041736.502 8  85746793.39948  20940250.420                    20940252.380
     -2074.895       -1616.802          50.700          50.650    82174025.594 9
  20940254.960       -1549.350          56.200


 113388539.520 7  88354781.47347  21577100.040                    21577102.780
      2787.435        2172.028          47.050          46.100    84673343.831 8
  21577106.400        2081.563          51.650


 120054740.993 8  93549167.40847  22845653.620                    22845655.000
      2299.600        1791.898          48.800          44.350    89651285.439 8
  22845656.460        1717.349          48.450


 140240831.406 7                  26686939.760
      2349.808                          45.600                   104725344.546 7
  26686949.480        1754.778          46.600   107457298.664 7  26686945.080
      1800.523          46.600   106091324.758 8  26686947.920        1777.629
        49.300
 118714656.903 8                  22590655.160
      -136.020                          51.900                    88650557.308 8
  22590661.580        -101.505          52.950    90963174.100 9  22590658.700
      -104.187          54.150    89806863.357 9  22590660.240        -102.850
        56.250
 133818543.809 8                  25464830.840
     -2739.505                          48.100                    99929436.837 7
  25464839.240       -2045.699          47.900   102536286.591 8  25464836.500
     -2099.009          50.100   101232856.868 8  25464838.320       -2072.352
        51.800
 157280929.491 7                  29929565.260
      3213.883                          42.200                   117450094.950 6
  29929578.720        2400.052          41.900   120513998.462 7  29929572.940
      2462.604          43.650   118982042.355 7  29929574.880        2431.245
        45.200
 124297330.146 8                  23652979.440
       859.856                          52.300                    92819492.070 8
  23652983.620         642.088          53.700    95240858.660 9  23652980.080
       658.824          54.250    94030178.521 9  23652982.500         650.465
        56.700
 142263836.187 7                  27071891.620
      2572.355                          44.100                   106236070.069 7
  27071901.100        1920.961          43.600   109007428.252 7  27071900.600
      1971.129          46.100   107621750.315 7  27071902.160        1946.030
        47.600
 144925303.025 7                  27578358.540
       256.479                          43.150                   108223513.851 7
  27578370.940         191.514          43.150   111046709.306 7  27578366.620
       196.646          43.750   109635105.732 7  27578367.200         194.021
        46.000
 127318298.400 8                  24227864.560
     -1621.537                          52.700                    95075385.492 8
  24227871.780       -1210.869          52.550    97555605.758 8  24227867.760
     -1242.479          51.950    96315492.780 9  24227869.640       -1226.658
        55.050
 145119423.236 7                  27615299.120
      2247.318                          43.250                   108368463.823 7
  27615310.160        1678.334          43.600   111195460.028 7  27615306.400
      1721.933          43.750   109781961.580 7  27615308.880        1700.077
        46.400
 24  1 16 12 21  0.0000000  0 20G06G10G11G12G15G17G19G23G24G25G32E03
                                E05E09E18E24E25E26E31E33
 129056468.543 6 100563538.79446  24558621.820                    24558629.520
      2368.737        1845.774          40.700          40.700    96373420.499 7
  24558632.560        1768.750          45.200


 127902962.661 6  99664638.34546  24339142.840                    24339147.660
     -2255.801       -1757.773          40.900          39.650    95511930.492 6
  24339150.220       -1684.732          41.550


 136245957.158 6 106165705.42446  25926740.420                    25926749.720
      2982.054        2323.677          40.350          37.100   101742128.282 7
  25926758.700        2226.807          44.600


 106250692.202 8  82792783.96048  20218817.560                    20218816.600
       786.369         612.755          51.100          51.100



 129575936.490 7 100968221.05146  24657504.220                    24657510.580
     -3967.896       -3091.879          42.050          41.750



 131301342.328 6 102312786.76146  24985802.500                    24985807.640
     -3124.576       -2434.737          40.700          40.700



 118706162.692 8  92498356.88647  22589007.060                    22589007.180
     -1945.246       -1515.777          48.100          45.350



 133788920.922 6 104251131.02346  25459186.740                    25459194.120
     -3180.068       -2477.993          38.950          37.900    99907171.851 7
  25459201.820       -2374.674          44.500


 110104165.840 8  85795439.59848  20952130.340                    20952132.440
     -2087.746       -1626.816          50.750          50.650    82220644.866 9
  20952135.040       -1559.091          56.000


 113305070.421 7  88289740.69847  21561216.320                    21561219.080
      2776.452        2163.473          47.500          45.600    84611013.090 8
  21561222.780        2073.273          51.700


 119985961.213 8  93495572.81947  22832565.280                    22832566.740
      2284.968        1780.497          48.950          44.150    89599923.979 8
  22832567.980        1706.286          48.450


 140170457.274 7                  26673547.840
      2341.180                          45.650                   104672792.550 7
  26673557.420        1748.313          46.650   107403375.731 7  26673553.240
      1793.931          46.500   106038087.294 8  26673556.040        1771.147
        49.350
 118718946.853 8                  22591471.680
      -150.613                          52.350                    88653760.850 8
  22591477.920        -112.515          52.900    90966461.207 8  22591475.100
      -115.398          53.900    89810108.679 9  22591476.580        -113.945
        56.250
 133900837.231 8                  25480490.820
     -2747.338                          48.000                    99990889.609 7
  25480499.080       -2051.582          47.950   102599342.479 8  25480496.680
     -2105.086          49.750   101295111.198 8  25480498.240       -2078.333
        51.700
 157184368.359 7                  29911190.380
      3222.920                          42.700                   117377987.776 7
  29911203.720        2406.675          42.450   120440010.198 7  29911197.900
      2469.517          43.850   118908994.632 7  29911199.840        2438.046
        45.600
 124271665.328 8                  23648095.540
       850.593                          52.550                    92800326.806 8
  23648099.780         635.176          53.800    95221193.426 9  23648096.000
       651.777          54.000    94010763.267 9  23648098.640         643.487
        56.750
 142186715.536 7                  27057216.180
      2568.345                          44.100                   106178480.006 7
  27057225.200        1917.889          43.750   108948335.827 7  27057225.260
      1967.971          46.650   107563409.065 7  27057226.480        1942.961
        47.950
 144917828.254 7                  27576936.440
       241.188                          43.350                   108217932.105 7
  27576948.080         180.178          42.700   111040981.959 7  27576944.200
       184.875          43.300   109629451.184 7  27576944.800         182.497
        45.650
 127367032.201 8                  24237138.560
     -1627.993                          52.800                    95111777.607 8
  24237145.540       -1215.718          52.150    97592947.242 8  24237141.160
     -1247.369          51.450    96352359.580 9  24237143.520       -1231.580
        54.850
 145052126.882 7                  27602492.920
      2238.491                          43.100                   108318210.101 7
  27602504.080        1671.428          43.700   111143895.308 7  27602500.060
      1715.299          43.700   109731052.360 7  27602502.760        1693.321
        46.550
 24  1 16 12 21 30.0000000  0 20G06G10G11G12G15G17G19G23G24G25G32E03
                                E05E09E18E24E25E26E31E33
 128985557.105 6 100508283.26346  24545127.800                    24545135.320
      2357.605        1837.101          40.800          40.250    96320467.284 7
  24545138.240        1760.844          45.350


 127970801.317 6  99717499.50246  24352052.280                    24352057.080
     -2267.500       -1766.887          41.400          37.400    95562589.070 6
  24352059.620       -1693.069          41.200


 136156488.285 6 106095989.57945  25909714.940                    25909723.960
      2981.602        2323.332          37.300          35.700   101675317.307 7
  25909733.300        2226.692          43.000


 106227333.467 8  82774582.36748  20214372.500                    20214371.460
       770.050         600.039          51.650          51.650



 129694968.212 7 101060972.68047  24680155.480                    24680162.060
     -3967.873       -3091.859          42.850          42.750



 131395179.996 6 102385906.93846  25003659.240                    25003664.240
     -3131.967       -2440.498          40.750          40.300



 118764771.115 8  92544025.73547  22600160.180                    22600160.220
     -1962.913       -1529.545          48.850          44.850



 133884300.604 6 104325452.63046  25477337.260                    25477344.920
     -3180.145       -2478.046          38.650          38.350    99978396.597 7
  25477352.520       -2374.382          45.700


 110166973.679 8  85844380.73548  20964082.280                    20964084.500
     -2100.343       -1636.632          51.150          51.200    82267546.771 9
  20964086.900       -1568.353          55.750


 113221919.726 7  88224948.00047  21545393.280                    21545396.020
      2765.818        2155.185          47.600          45.950    84548920.112 8
  21545399.820        2065.479          51.850


 119917618.951 8  93442319.15247  22819560.220                    22819561.860
      2270.292        1769.060          48.750          43.900    89548889.227 8
  22819562.780        1695.394          48.550


 140100330.011 7                  26660203.060
      2333.067                          45.900                   104620424.902 7
  26660212.300        1742.305          46.450   107349641.959 7  26660208.400
      1787.599          46.400   105985036.582 8  26660211.180        1764.978
        49.300
 118723665.045 8                  22592369.680
      -164.877                          52.400                    88657284.166 8
  22592375.700        -123.094          52.800    90970076.442 9  22592373.000
      -126.334          54.100    89813677.951 9  22592374.420        -124.678
        56.300
 133983354.384 8                  25496193.420
     -2754.714                          48.450                   100052509.445 8
  25496201.860       -2057.145          48.200   102662569.805 8  25496199.180
     -2110.745          49.900   101357534.779 8  25496200.780       -2083.952
        51.950
 157087528.920 7                  29892762.300
      3232.192                          43.600                   117305672.750 6
  29892774.980        2413.714          41.200   120365808.744 7  29892770.100
      2476.552          43.050   118835736.396 7  29892771.980        2445.134
        44.850
 124246266.231 8                  23643262.260
       841.763                          52.750                    92781359.973 8
  23643266.640         628.594          53.800    95201731.805 9  23643262.600
       644.963          54.250    93991549.042 9  23643265.340         636.771
        56.950
 142109704.704 7                  27042561.760
      2564.707                          44.900                   106120971.935 7
  27042570.400        1915.199          43.600   108889327.540 7  27042570.900
      1965.126          46.250   107505150.885 7  27042571.700        1940.205
        47.850
 144910800.162 7                  27575599.320
       226.494                          43.500                   108212683.921 7
  27575610.040         169.032          42.400   111035596.874 7  27575606.640
       173.435          43.300   109624134.556 7  27575607.520         171.145
        45.650
 127415946.954 8                  24246446.980
     -1633.944                          52.900                    95148304.851 8
  24246453.340       -1220.108          51.800    97630427.380 8  24246449.000
     -1251.974          51.550    96389363.271 9  24246451.820       -1236.040
        54.750
 144985089.319 7                  27589735.980
      2229.832                          43.350                   108268149.623 7
  27589747.180        1665.125          43.600   111092528.919 7  27589743.320
      1708.582          44.550   109680338.925 7  27589745.940        1686.863
        46.900
 24  1 16 12 22  0.0000000  0 20G06G10G11G12G15G17G19G23G24G25G32E03
                                E05E09E18E24E25E26E31E33
 128914970.589 6 100453280.88746  24531695.540                    24531703.120
      2347.297        1829.065          41.300          41.350    96267756.720 7
  24531706.060        1752.794          45.700


 128038980.930 7  99770626.36946  24365026.560                    24365031.500
     -2278.355       -1775.347          42.200          39.250    95613502.317 6
  24365033.740       -1701.357          41.100


 136067028.066 6 106026280.52245  25892691.000                    25892699.820
      2981.715        2323.419          37.650          34.850   101608512.804 7
  25892709.640        2226.545          42.500


 106204461.190 8  82756759.83048  20210020.060                    20210018.900
       754.143         587.644          52.350          52.450



 129814001.944 7 101153725.89347  24702806.980                    24702813.600
     -3968.042       -3091.991          42.850          42.050



 131489235.204 6 102459196.64146  25021557.340                    25021562.360
     -3139.018       -2445.993          40.400          40.900



 118823904.429 8  92590103.59947  22611413.160                    22611413.120
     -1980.126       -1542.958          48.850          44.750



 133979670.520 6 104399766.47046  25495486.000                    25495493.740
     -3178.723       -2476.941          37.350          36.200   100049613.989 7
  25495501.200       -2373.832          43.200


 110230160.260 8  85893617.00348  20976106.260                    20976108.620
     -2112.647       -1646.219          51.300          51.450    82314731.532 9
  20976110.700       -1577.649          55.750


 113139089.799 8  88160405.27447  21529631.360                    21529634.020
      2755.527        2147.167          48.250          46.200    84487066.680 8
  21529637.680        2057.606          52.100


 119849717.713 8  93389409.15247  22806639.000                    22806640.960
      2255.892        1757.841          48.550          45.050    89498183.827 8
  22806641.500        1684.577          48.650


 140030452.488 7                  26646905.800
      2324.858                          45.700                   104568243.735 7
  26646914.860        1736.146          46.550   107296099.527 7  26646911.120
      1781.459          46.600   105932174.783 8  26646913.800        1758.775
        49.300
 118728812.851 8                  22593349.360
      -178.901                          52.350                    88661128.301 8
  22593355.180        -133.599          52.850    90974020.857 9  22593352.600
      -137.047          54.000    89817572.229 9  22593354.060        -135.301
        56.050
 134066095.033 8                  25511938.560
     -2761.897                          48.600                   100114296.166 8
  25511946.920       -2062.431          48.150   102725968.363 8  25511944.400
     -2116.257          49.950   101420127.413 8  25511945.900       -2089.314
        51.750
 156990413.087 7                  29874281.740
      3241.620                          44.150                   117233151.404 7
  29874294.400        2420.722          43.500   120291395.448 7  29874288.660
      2483.810          43.250   118762269.079 7  29874291.360        2452.221
        45.750
 124221133.853 8                  23638479.700
       833.104                          52.600                    92762592.306 9
  23638484.260         622.163          54.150    95182474.546 9  23638480.100
       638.393          54.350    93972536.580 9  23638482.780         630.284
        56.900
 142032805.274 7                  27027928.300
      2561.409                          44.850                   106063547.081 7
  27027937.020        1912.620          44.400   108830404.630 7  27027937.660
      1962.558          46.900   107446977.001 8  27027938.080        1937.606
        48.300
 144904220.316 7                  27574347.320
       211.712                          42.900                   108207770.445 6
  27574357.260         158.053          41.950   111030555.226 7  27574354.240
       162.146          43.250   109619156.983 7  27574355.520         160.211
        45.200
 127465042.943 8                  24255789.720
     -1639.703                          52.600                    95184967.436 8
  24255795.380       -1224.432          51.650    97668046.384 8  24255791.360
     -1256.396          51.600    96426504.068 9  24255794.580       -1240.447
        54.450
 144918313.788 7                  27577029.180
      2221.438                          44.150                   108218284.817 7
  27577040.080        1658.728          43.750   111041363.297 7  27577036.520
      1702.004          44.350   109629823.709 7  27577039.060        1680.363
        46.700
 24  1 16 12 22 30.0000000  0 20G06G10G11G12G15G17G19G23G24G25G32E03
                                E05E09E18E24E25E26E31E33
 128844711.132 6 100398533.33046  24518325.460                    24518333.300
      2336.543        1820.685          39.400          38.950    96215290.341 7
  24518336.280        1744.713          46.400


 128107497.848 6  99824016.06246  24378064.920                    24378070.020
     -2289.410       -1783.959          41.700          38.400    95664667.415 6
  24378072.240       -1709.814          41.400


 135977578.568 6 105956579.73646  25875669.020                    25875678.420
      2981.433        2323.197          39.000          36.250   101541716.290 7
  25875687.340        2226.271          43.550


 106182074.800 8  82739315.90848  20205760.160                    20205758.780
       738.024         575.084          52.100          51.950



 129933034.511 7 101246478.22047  24725458.500                    24725465.320
     -3967.663       -3091.697          42.300          42.000



 131583504.668 6 102532653.31946  25039496.280                    25039501.220
     -3146.171       -2451.564          40.600          40.150



 118883559.831 8  92636588.27147  22622765.440                    22622765.320
     -1997.338       -1556.369          48.300          45.050



 134075026.825 6 104474069.71145  25513632.000                    25513639.920
     -3178.598       -2476.838          36.250          34.200   100120821.262 7
  25513647.280       -2373.433          42.200


 110293723.808 8  85943147.01548  20988202.000                    20988204.340
     -2125.244       -1656.035          50.850          50.800    82362197.784 9
  20988206.260       -1587.019          55.750


 113056580.968 7  88096112.74847  21513930.500                    21513933.140
      2744.713        2138.739          47.750          47.000    84425453.021 8
  21513936.700        2049.667          52.200


 119782258.991 8  93336843.97147  22793801.900                    22793804.200
      2241.135        1746.341          48.000          46.000    89447808.872 8
  22793804.460        1673.563          48.650


 139960825.483 7                  26633656.180
      2316.646                          45.700                   104516249.649 7
  26633665.120        1729.881          46.600   107242749.050 7  26633661.540
      1775.094          46.650   105879502.499 8  26633664.120        1752.484
        49.650
 118734389.603 8                  22594410.560
      -193.200                          52.000                    88665292.750 8
  22594416.300        -144.245          52.850    90978293.947 8  22594413.780
      -147.984          53.950    89821791.001 9  22594415.340        -146.111
        56.400
 134149056.816 8                  25527725.840
     -2769.101                          48.650                   100176248.045 8
  25527734.000       -2067.906          48.700   102789536.385 8  25527731.600
     -2121.819          49.750   101482887.368 8  25527733.040       -2094.869
        52.150
 156893020.661 7                  29855748.500
      3251.063                          43.850                   117160423.488 7
  29855760.700        2427.688          42.400   120216770.294 7  29855755.760
      2490.851          43.000   118688592.541 7  29855757.940        2459.217
        45.650
 124196267.140 8                  23633747.720
       824.348                          52.550                    92744023.035 9
  23633752.480         615.564          54.350    95163420.856 9  23633748.220
       631.614          54.550    93953725.097 9  23633750.780         623.608
        57.450
 141956016.825 7                  27013315.860
      2557.662                          43.900                   106006205.071 7
  27013324.740        1910.093          44.100   108771566.752 7  27013325.400
      1959.751          46.650   107388887.058 8  27013325.620        1934.897
        48.400
 144898088.200 7                  27573180.080
       196.962                          42.700                   108203191.326 6
  27573189.560         146.891          41.900   111025856.634 7  27573186.560
       150.803          42.100   109614518.132 7  27573188.660         148.858
        45.250
 127514318.383 8                  24265166.480
     -1645.583                          52.300                    95221764.035 8
  24265171.740       -1228.866          51.650    97705802.892 8  24265168.080
     -1260.939          51.900    96463780.620 9  24265171.400       -1244.893
        54.950
 144851801.508 7                  27564372.720
      2212.646                          43.600                   108168616.578 7
  27564383.200        1652.295          44.050   110990399.370 7  27564379.860
      1695.258          44.550   109579507.625 7  27564382.180        1673.782
        47.300
 24  1 16 12 23  0.0000000  0 20G06G10G11G12G15G17G19G23G24G25G32E03
                                E05E09E18E24E25E26E31E33
 128774778.098 6 100344040.13646  24505017.300                    24505025.600
      2325.292        1811.918          38.750          39.250    96163067.717 7
  24505028.880        1736.512          46.550


 128176345.395 7  99877663.37846  24391166.040                    24391171.260
     -2300.689       -1792.744          42.950          38.250    95716079.398 6
  24391173.380       -1718.031          41.000


 135888138.771 6 105886886.62545  25858649.220                    25858658.520
      2981.217        2323.032          38.550          35.250   101474927.055 7
  25858667.020        2225.964          43.650


 106160170.574 8  82722247.69948  20201591.980                    20201590.440
       721.970         562.574          51.550          51.700



 130052060.006 7 101339224.98347  24748108.580                    24748115.580
     -3967.604       -3091.650          42.850          42.700



 131677982.111 6 102606272.04046  25057474.720                    25057479.680
     -3152.699       -2456.648          41.000          41.600



 118943731.106 7  92683474.90147  22634215.660                    22634215.680
     -2014.550       -1569.782          47.550          45.550



 134170363.063 6 104548357.32745  25531774.340                    25531781.720
     -3177.487       -2475.977          37.900          33.950   100192013.466 6
  25531789.500       -2372.893          41.300


 110357659.704 8  85992967.16848  21000368.500                    21000370.680
     -2137.632       -1665.688          50.450          50.250    82409942.089 9
  21000372.720       -1596.289          55.600


 112974390.734 7  88032068.48947  21498290.160                    21498293.000
      2734.205        2130.552          47.400          47.000    84364077.293 8
  21498296.260        2041.752          52.350


 119715241.434 8  93284622.56847  22781048.760                    22781051.320
      2226.369        1734.835          48.200          45.800    89397763.371 8
  22781051.380        1662.525          48.350


 139891447.057 7                  26620453.840
      2308.261                          45.600                   104464441.163 7
  26620462.660        1723.773          46.150   107189589.044 7  26620459.260
      1768.636          46.150   105827018.252 8  26620461.740        1746.271
        49.600
 118740391.904 8                  22595552.660
      -207.439                          51.900                    88669774.977 8
  22595558.420        -154.916          52.800    90982893.105 8  22595555.920
      -158.904          53.400    89826331.693 9  22595557.580        -156.913
        56.550
 134232234.718 8                  25543554.240
     -2776.379                          48.850                   100238361.276 8
  25543562.520       -2073.252          48.650   102853269.983 8  25543559.940
     -2127.379          49.400   101545810.782 8  25543561.380       -2100.295
        52.350
 156795348.793 7                  29837162.360
      3260.187                          42.900                   117087486.863 6
  29837174.020        2434.406          41.800   120141930.938 7  29837169.080
      2498.096          43.350   118614704.544 7  29837171.340        2466.308
        45.750
 124171662.300 8                  23629065.600
       815.572                          52.450                    92725649.318 9
  23629070.460         609.059          54.350    95144567.824 9  23629066.280
       624.931          54.200    93935111.725 9  23629068.600         616.992
        57.600
 141879336.178 7                  26998724.140
      2554.001                          44.100                   105948943.582 7
  26998733.580        1907.238          45.100   108712811.465 7  26998733.660
      1956.930          46.300   107330878.670 8  26998733.640        1932.048
        48.950
 144892400.575 6                  27572097.440
       182.021                          41.900                   108198944.105 6
  27572106.580         135.879          41.850   111021498.622 6  27572103.200
       139.377          41.550   109610215.519 7  27572106.440         137.637
        45.250
 127563768.737 8                  24274576.540
     -1651.535                          52.250                    95258691.244 8
  24274581.680       -1233.200          51.650    97743693.423 8  24274578.380
     -1265.458          51.850    96501189.488 9  24274581.480       -1249.322
        55.200
 144785550.822 7                  27551765.860
      2203.851                          42.400                   108119143.710 7
  27551776.020        1645.646          44.050   110939635.883 7  27551772.920
      1688.636          43.950   109529389.449 7  27551775.040        1667.143
        47.350
 24  1 16 12 23 30.0000000  0 20G06G10G11G12G15G17G19G23G24G25G32E03
                                E05E09E18E24E25E26E31E33
 128705175.061 6 100289804.06346  24491771.740                    24491780.540
      2314.351        1803.393          37.000          36.350    96111091.504 7
  24491784.340        1728.439          46.300


 128245521.023 7  99931566.35146  24404329.840                    24404335.160
     -2311.459       -1801.141          43.200          39.400    95767736.396 6
  24404337.140       -1726.005          41.600


 135798712.225 6 105817203.82145  25841631.720                    25841641.100
      2980.728        2322.651          41.350          34.300   101408147.793 7
  25841649.320        2225.612          43.850


 106138749.339 8  82705555.85048  20197515.640                    20197514.040
       705.842         550.007          51.850          51.750



 130171076.301 7 101431964.56147  24770756.880                    24770764.020
     -3967.093       -3091.255          42.450          42.400



 131772665.876 6 102680051.54446  25075492.500                    25075497.440
     -3159.870       -2462.237          40.600          39.950



 119004417.320 7  92730762.78647  22645763.740                    22645763.920
     -2031.602       -1583.069          47.000          45.800



 134265676.947 5 104622627.51546  25549912.200                    25549919.760
     -3176.717       -2475.393          35.750          36.300   100263188.955 6
  25549927.380       -2372.301          41.800


 110421967.643 8  86043077.21848  21012605.700                    21012607.880
     -2149.853       -1675.211          50.100          50.050    82457964.218 9
  21012610.240       -1605.488          55.450


 112892520.895 7  87968273.88547  21482710.700                    21482713.760
      2723.537        2122.238          47.350          46.750    84302940.816 8
  21482716.680        2033.813          52.200


 119648667.986 8  93232747.21547  22768380.160                    22768382.860
      2211.458        1723.216          48.350          45.850    89348049.493 7
  22768382.780        1651.481          47.950


 139822319.498 7                  26607299.360
      2299.725                          46.150                   104412820.012 7
  26607308.000        1717.460          46.050   107136621.243 7  26607304.780
      1762.293          46.500   105774723.782 8  26607307.140        1739.827
        49.000
 118746820.455 8                  22596775.840
      -221.451                          51.850                    88674575.504 8
  22596781.760        -165.397          52.750    90987818.871 8  22596779.140
      -169.689          53.600    89831194.838 9  22596780.960        -167.531
        55.850
 134315627.817 8                  25559423.700
     -2783.455                          48.800                   100300635.233 8
  25559431.640       -2078.630          48.350   102917168.482 8  25559429.180
     -2132.824          49.400   101608897.010 8  25559430.680       -2105.729
        51.600
 156697398.671 7                  29818523.000
      3269.523                          43.900                   117014342.487 7
  29818534.460        2441.444          42.350   120066878.396 7  29818529.460
      2505.206          43.850   118540606.090 7  29818531.900        2473.351
        45.450
 124147319.720 8                  23624433.340
       806.953                          52.600                    92707471.458 9
  23624438.280         602.577          54.150    95125915.747 9  23624434.240
       618.308          54.600    93916696.759 9  23624436.320         610.418
        57.000
 141802764.286 7                  26984153.020
      2550.439                          44.000                   105891763.330 7
  26984162.960        1904.490          44.700   108654139.536 7  26984162.400
      1954.232          46.600   107272952.579 8  26984162.360        1929.388
        48.200
 144887158.349 6                  27571099.700
       167.047                          41.900                   108195029.489 6
  27571108.820         124.820          41.900   111017481.863 6  27571104.820
       128.105          41.600   109606249.833 7  27571108.860         126.487
        44.650
 127613393.664 8                  24284019.760
     -1657.143                          51.850                    95295748.828 8
  24284024.960       -1237.472          51.600    97781717.717 8  24284022.100
     -1269.796          52.250    96538730.426 9  24284024.700       -1253.639
        54.700
 144719564.377 6                  27539209.060
      2194.905                          41.550                   108069868.169 7
  27539219.080        1639.196          43.100   110889074.891 7  27539216.720
      1681.847          44.500   109479471.183 7  27539218.140        1660.516
        46.500
 24  1 16 12 24  0.0000000  0 20G06G10G11G12G15G17G19G23G24G25G32E03
                                E05E09E18E24E25E26E31E33
 128635909.321 6 100235830.81246  24478590.540                    24478599.640
      2303.580        1794.999          38.600          38.500    96059367.195 7
  24478603.920        1720.039          46.350


 128315026.401 7  99985726.27146  24417556.340                    24417561.840
     -2322.104       -1809.435          43.400          38.350    95819639.655 6
  24417563.560       -1734.093          41.750


 135709306.125 6 105747536.83346  25824618.200                    25824627.700
      2979.583        2321.754          40.300          36.850   101341383.645 6
  25824635.280        2225.228          40.350


 106117814.839 8  82689243.27548  20193531.900                    20193530.360
       689.773         537.487          51.700          51.700



 130290085.602 7 101524698.67447  24793403.840                    24793411.300
     -3966.932       -3091.128          42.650          43.000



 131867557.830 6 102753993.29046  25093549.900                    25093554.780
     -3166.455       -2467.365          40.250          40.300



 119065620.624 7  92778453.59647  22657410.120                    22657410.400
     -2048.434       -1596.184          45.750          45.550



 134360969.868 5 104696881.50245  25568046.140                    25568053.420
     -3176.137       -2474.925          33.050          31.450   100334348.893 6
  25568061.240       -2371.643          38.900


 110486650.898 8  86093479.72348  21024914.420                    21024916.620
     -2162.206       -1684.837          50.000          50.000    82506266.605 9
  21024919.280       -1614.624          55.550


 112810976.875 7  87904733.16447  21467193.280                    21467196.560
      2712.683        2113.781          47.600          46.950    84242047.649 8
  21467199.140        2025.747          52.300


 119582545.217 8  93181223.03747  22755797.360                    22755800.060
      2196.638        1711.668          48.400          46.000    89298672.161 8
  22755799.920        1640.290          48.300


 139753448.698 7                  26594193.760
      2291.616                          46.200                   104361390.613 7
  26594202.180        1711.370          46.100   107083850.205 7  26594199.140
      1755.808          46.700   105722623.563 8  26594201.400        1733.635
        49.000
 118753679.779 8                  22598081.040
      -235.730                          51.800                    88679697.705 8
  22598087.100        -176.031          52.950    90993074.701 8  22598084.360
      -180.596          53.750    89836383.856 9  22598086.280        -178.324
        56.000
 134399238.970 8                  25575334.640
     -2790.594                          49.200                   100363071.991 8
  25575342.420       -2083.787          48.850   102981234.049 8  25575339.920
     -2138.208          49.700   101672148.170 8  25575341.440       -2110.937
        51.850
 156599175.308 7                  29799831.560
      3278.735                          43.950                   116940994.056 6
  29799842.560        2448.446          41.800   119991616.570 7  29799838.860
      2512.293          44.350   118466300.958 7  29799840.560        2480.360
        45.550
 124123243.538 8                  23619851.800
       798.135                          52.700                    92689492.523 9
  23619856.680         596.054          54.300    95107467.796 9  23619852.860
       611.611          54.950    93898483.312 9  23619854.740         603.829
        57.150
 141726305.869 7                  26969603.540
      2546.844                          44.200                   105834667.810 7
  26969613.960        1901.866          45.350   108595554.561 7  26969612.700
      1951.492          46.350   107215112.334 8  26969612.740        1926.659
        48.300
 144882366.095 6                  27570187.720
       152.294                          41.950                   108191450.897 7
  27570197.100         113.730          42.350   111013809.925 7  27570192.820
       116.769          42.400   109602624.564 7  27570196.880         115.291
        44.950
 127663196.591 8                  24293496.800
     -1662.912                          51.750                    95332939.332 8
  24293502.260       -1241.862          51.900    97819878.400 8  24293499.640
     -1274.182          52.700    96576406.016 9  24293501.820       -1257.980
        54.900
 144653848.463 7                  27526703.660
      2185.944                          42.800                   108020794.668 7
  27526713.360        1632.427          42.700   110838721.200 7  27526711.940
      1674.954          44.850   109429757.585 7  27526712.760        1653.693
        46.350
 24  1 16 12 24 30.0000000  0 20G06G10G11G12G15G17G19G23G24G25G32E03
                                E05E09E18E24E25E26E31E33
 128566983.530 6 100182122.46346  24465474.280                    24465483.460
      2291.677        1785.726          39.300          39.900    96007896.713 7
  24465488.000        1711.152          46.150


 128384858.310 7 100040140.69446  24430845.120                    24430850.540
     -2333.201       -1818.082          43.500          38.000    95871786.767 6
  24430852.060       -1742.419          41.750


 135619922.899 6 105677887.72946  25807608.940                    25807618.440
      2978.604        2320.999          40.650          38.850   101274636.552 7
  25807625.780        2224.407          43.050


 106097366.739 8  82673309.70948  20189640.660                    20189639.340
       673.386         524.717          51.700          51.650



 130409085.032 7 101617425.08847  24816048.980                    24816056.380
     -3966.588       -3090.863          42.550          42.800



 131962655.469 6 102828095.23146  25111646.400                    25111651.360
     -3173.602       -2472.937          39.900          40.250



 119127338.075 7  92826545.04347  22669154.200                    22669154.620
     -2065.979       -1609.856          46.250          45.050




                                                                 100405490.981 5
  25586190.340       -2371.246          33.300


 110551708.142 8  86144173.66348  21037294.400                    21037296.560
     -2174.956       -1694.771          50.500          50.600    82554848.298 9
  21037299.320       -1624.227          55.050


 112729759.429 8  87841446.92747  21451738.080                    21451741.480
      2701.658        2105.191          48.550          46.700    84181398.352 8
  21451743.540        2017.374          51.900


 119516875.057 8  93130051.53747  22743300.620                    22743303.360
      2181.249        1699.676          48.200          45.950    89249632.803 8
  22743303.220        1628.880          48.350


 139684836.036 7                  26581137.300
      2282.570                          46.700                   104310153.971 7
  26581145.560        1704.513          45.750   107031276.939 7  26581142.620
      1748.933          46.650   105670718.607 8  26581144.800        1726.701
        49.100
 118760969.622 8                  22599468.280
      -250.416                          52.600                    88685141.401 8
  22599474.460        -187.012          52.800    90998660.407 8  22599471.500
      -191.881          53.450    89841898.561 9  22599473.520        -189.465
        56.150
 134483066.279 8                  25591286.860
     -2798.016                          49.900                   100425670.186 8
  25591294.500       -2089.426          48.600   103045465.253 8  25591291.780
     -2143.954          49.350   101735562.875 8  25591293.380       -2116.699
        51.900
 156500679.022 7                  29781088.140
      3287.521                          44.700                   116867441.829 7
  29781099.220        2455.059          42.700   119916145.569 7  29781095.080
      2518.984          43.950   118391789.345 7  29781097.360        2487.083
        46.050
 124099433.154 8                  23615320.920
       789.007                          53.200                    92671712.076 8
  23615325.540         589.202          53.950    95089223.506 9  23615321.940
       604.601          54.700    93880470.944 9  23615323.760         596.897
        57.250
 141649960.956 7                  26955075.820
      2542.744                          44.300                   105777657.049 7
  26955086.480        1898.768          45.600   108537056.553 7  26955084.420
      1948.301          46.500   107157357.953 8  26955084.660        1923.464
        48.850
 144878023.765 7                  27569361.280
       137.104                          43.000                   108188208.313 7
  27569371.260         102.281          42.800   111010482.737 7  27569366.820
       105.020          42.200   109599339.681 7  27569370.440         103.603
        45.450
 127713176.182 8                  24303007.480
     -1669.109                          52.600                    95370261.752 8
  24303013.200       -1246.442          51.800    97858174.453 8  24303010.800
     -1278.990          52.450    96614215.256 9  24303012.580       -1262.716
        55.150
 144588404.724 7                  27514250.020
      2176.709                          44.100                   107971924.429 6
  27514259.400        1625.525          41.750   110788576.080 7  27514258.880
      1667.835          44.550   109380249.897 7  27514259.160        1646.755
        46.050
 24  1 16 12 25  0.0000000  0 20G06G10G11G12G15G17G19G23G24G25G32E03
                                E05E09E18E24E25E26E31E33
 128498392.768 6 100128675.16146  24452421.980                    24452430.960
      2280.438        1776.967          40.500          41.100    95956676.390 7
  24452435.520        1702.941          45.700


 128455005.850 7 100094801.02146  24444193.960                    24444199.680
     -2343.715       -1826.275          43.900          37.500    95924169.578 6
  24444200.800       -1750.190          41.700


 135530557.636 6 105608252.62746  25790603.200                    25790613.200
      2978.414        2320.850          41.000          39.600   101207902.970 7
  25790620.080        2223.935          45.700


 106077397.021 8  82657748.90048  20185840.480                    20185839.380
       657.341         512.214          51.650          51.450



 130528064.111 7 101710135.68546  24838690.400                    24838697.880
     -3966.112       -3090.488          42.200          41.750



 132057948.104 6 102902349.17746  25129779.960                    25129784.800
     -3180.165       -2478.056          40.100          39.800



 119189560.199 7  92875029.75447  22680994.360                    22680994.940
     -2082.772       -1622.940          45.750          44.050




                                                                 100476607.000 5
  25604313.340       -2370.482          31.700


 110617130.617 8  86195152.18848  21049744.020                    21049746.020
     -2187.250       -1704.352          51.100          51.150    82603702.704 9
  21049748.720       -1633.275          54.900


 112648861.876 8  87778409.92847  21436343.820                    21436347.100
      2690.850        2096.768          48.600          46.500    84120987.908 8
  21436348.900        2009.443          51.700


 119451651.927 8  93079228.37847  22730888.980                    22730891.680
      2166.268        1688.004          48.250          45.850    89200927.287 8
  22730891.740        1617.720          48.900


 139616475.282 7                  26568128.840
      2274.210                          47.250                   104259105.438 7
  26568136.820        1698.206          45.800   106978896.695 7  26568134.020
      1742.567          46.600   105619004.218 8  26568136.140        1720.388
        49.150
 118768682.301 8                  22600936.080
      -264.386                          52.550                    88690900.855 8
  22600942.260        -197.483          52.950    91004570.104 8  22600939.120
      -202.587          53.350    89847733.133 9  22600941.200        -200.049
        56.150
 134567100.477 8                  25607278.380
     -2804.916                          50.100                   100488422.874 8
  25607285.620       -2094.559          48.550   103109854.975 8  25607282.960
     -2149.190          49.250   101799134.075 8  25607284.700       -2121.862
        51.900
 156401902.734 7                  29762291.700
      3296.896                          44.350                   116793680.516 7
  29762302.400        2461.905          42.450   119840460.011 7  29762298.400
      2526.196          43.450   118317065.911 7  29762300.720        2494.042
        45.850
 124075880.542 8                  23610839.140
       780.484                          53.250                    92654124.109 8
  23610843.400         582.800          53.950    95071176.724 9  23610839.960
       598.027          54.650    93862653.570 9  23610841.840         590.411
        57.300
 141573722.089 7                  26940568.140
      2539.260                          44.900                   105720725.514 7
  26940579.160        1896.143          45.650   108478639.833 7  26940576.360
      1945.661          46.250   107099683.826 8  26940576.780        1920.870
        48.900
 144874123.801 7                  27568619.200
       122.261                          43.200                   108185296.055 7
  27568629.520          91.374          42.650   111007494.499 7  27568625.080
        93.608          42.550   109596389.443 7  27568628.180          92.470
        45.600
 127763323.761 8                  24312550.220
     -1674.762                          52.550                    95407709.610 8
  24312556.020       -1250.635          51.900    97896599.207 8  24312553.780
     -1283.236          52.350    96652151.560 9  24312555.320       -1266.935
        55.200
 144523227.376 7                  27501847.120
      2167.722                          44.200                   107923253.119 6
  27501856.180        1618.739          41.500   110738635.071 7  27501856.380
      1660.986          44.800   109330943.740 7  27501856.260        1639.904
        46.050
 24  1 16 12 25 30.0000000  0 19G06G10G11G12G15G17G19G24G25G32E03E05
                                E09E18E24E25E26E31E33
 128430144.492 6 100075494.75446  24439434.980                    24439443.820
      2268.502        1767.664          41.650          41.500    95905711.828 7
  24439447.960        1693.929          45.000


 128525470.794 7 100149708.71246  24457603.140                    24457609.180
     -2355.012       -1835.078          43.250          38.650    95976789.422 7
  24457609.840       -1758.612          42.050


 135441217.806 6 105538637.26745  25773602.480                    25773612.500
      2976.337        2319.226          39.550          35.850   101141188.273 7
  25773619.320        2222.912          45.050


 106057910.396 8  82642564.52348  20182132.200                    20182131.320
       640.563         499.140          51.650          51.550



 130647025.155 6 101802832.14447  24861328.300                    24861335.800
     -3966.008       -3090.411          41.950          42.250



 132153438.076 6 102976756.85446  25147951.160                    25147956.000
     -3187.224       -2483.555          40.800          40.650



 119252289.337 7  92923909.51347  22692931.140                    22692931.800
     -2100.141       -1636.476          45.700          44.300



 110682921.761 8  86246417.98848  21062263.860                    21062265.760
     -2200.138       -1714.394          50.950          51.000    82652832.420 9
  21062268.120       -1642.874          54.650


 112568289.831 8  87715626.57547  21421011.500                    21421014.740
      2679.460        2087.893          48.600          46.400    84060820.532 8
  21421016.220        2000.932          51.600


 119386882.603 7  93028758.83047  22718563.600                    22718566.340
      2150.439        1675.669          47.650          46.200    89152560.642 8
  22718566.740        1605.977          49.300


 139548372.579 7                  26555169.480
      2264.984                          47.550                   104208249.588 7
  26555177.220        1691.459          45.700   106926714.171 7  26555174.560
      1735.554          46.800   105567485.038 8  26555176.600        1713.414
        49.150
 118776822.425 8                  22602485.260
      -279.305                          52.400                    88696979.498 8
  22602491.300        -208.522          52.800    91010807.323 8  22602488.080
      -214.028          53.500    89853891.066 9  22602490.200        -211.289
        56.050
 134651344.523 8                  25623309.900
     -2812.439                          49.850                   100551332.258 8
  25623316.960       -2100.186          48.750   103174405.493 8  25623314.180
     -2154.946          49.350   101862864.025 8  25623315.900       -2127.530
        51.950
 156302851.596 7                  29743442.840
      3305.514                          43.850                   116719713.937 7
  29743453.660        2468.498          42.600   119764563.843 7  29743449.540
      2532.791          43.750   118242134.543 7  29743451.680        2500.614
        45.900
 124052589.978 8                  23606407.260
       771.063                          53.200                    92636731.826 8
  23606411.140         575.849          53.850    95053330.731 9  23606407.840
       590.857          54.750    93845034.433 9  23606409.780         583.327
        57.150
 141497594.208 7                  26926081.620
      2534.970                          45.250                   105663876.854 7
  26926092.880        1893.011          45.850   108420308.155 7  26926089.340
      1942.398          46.100   107042093.657 8  26926090.060        1917.712
        48.700
 144870670.938 7                  27567962.460
       106.873                          43.450                   108182717.691 7
  27567972.600          79.801          42.850   111004848.851 7  27567968.540
        81.900          42.800   109593777.424 7  27567970.900          80.873
        45.650
 127813642.841 8                  24322125.620
     -1681.050                          52.150                    95445285.534 8
  24322131.480       -1255.267          51.900    97935155.381 8  24322129.320
     -1288.028          52.450    96690217.611 9  24322130.740       -1271.644
        55.100
 144458322.866 7                  27489496.100
      2158.073                          44.000                   107874785.550 6
  27489504.940        1611.505          40.950   110688903.125 7  27489505.680
      1653.500          45.500   109281843.985 7  27489505.260        1632.495
        46.100
 24  1 16 12 26  0.0000000  0 19G06G10G11G12G15G17G19G24G25G32E03E05
                                E09E18E24E25E26E31E33
 128362246.489 6 100022587.27046  24426514.560                    24426523.040
      2257.206        1758.863          41.450          41.050    95855008.808 7
  24426526.860        1685.705          44.950


 128596254.803 7 100204865.02946  24471073.080                    24471079.440
     -2364.755       -1842.666          43.600          39.500    96029647.522 6
  24471079.720       -1765.744          41.950


 135351910.953 6 105469047.65746  25756607.840                    25756617.820
      2976.488        2319.349          37.650          37.250   101074498.301 7
  25756624.820        2222.537          43.600


 106038911.325 8  82627760.06848  20178516.760                    20178515.960
       625.092         487.085          51.650          51.700



 130765970.592 6 101895516.42647  24883963.180                    24883970.720
     -3964.581       -3089.300          41.950          42.450



 132249127.845 6 103051320.27746  25166160.420                    25166165.120
     -3192.665       -2487.793          40.400          39.850



 119315528.150 7  92973186.45747  22704964.860                    22704965.720
     -2116.147       -1648.948          45.400          43.750



 110749085.446 8  86297974.08148  21074854.540                    21074856.560
     -2211.653       -1723.367          50.700          50.700    82702240.336 9
  21074858.400       -1651.478          54.850


 112488049.286 8  87653101.51447  21405742.260                    21405745.400
      2669.198        2079.896          48.550          46.850    84000900.690 8
  21405746.740        1993.310          51.850


 119322574.141 7  92978648.40147  22706325.920                    22706328.780
      2135.883        1664.326          47.300          45.800    89104538.157 8
  22706329.460        1595.050          50.150


 139480534.380 7                  26542260.520
      2256.995                          47.600                   104157591.279 7
  26542268.000        1685.387          46.000   106874734.329 7  26542265.380
      1729.374          46.800   105516165.955 8  26542267.380        1707.386
        49.200
 118785394.919 8                  22604116.760
      -292.912                          52.700                    88703381.024 8
  22604122.560        -218.764          53.000    91017375.842 8  22604119.380
      -224.459          53.400    89860376.086 9  22604121.480        -221.593
        56.100
 134735801.787 8                  25639381.860
     -2818.740                          49.950                   100614400.852 8
  25639388.760       -2104.856          48.850   103239119.378 8  25639385.820
     -2159.758          49.150   101926755.270 8  25639387.740       -2132.323
        51.900
 156203531.102 7                  29724542.540
      3315.243                          44.150                   116645546.215 7
  29724553.160        2475.546          42.950   119688461.288 7  29724549.040
      2540.215          44.050   118166999.396 7  29724551.440        2507.883
        46.200
 124029566.075 8                  23602026.020
       763.154                          53.100                    92619538.673 9
  23602029.760         569.830          54.300    95035689.056 9  23602026.440
       584.710          54.600    93827617.020 9  23602028.480         577.248
        57.300
 141421582.524 7                  26911617.160
      2531.799                          45.250                   105607114.981 7
  26911628.420        1890.561          46.050   108362065.517 7  26911624.380
      1939.967          45.750   106984591.399 8  26911625.420        1915.272
        48.750
 144867670.218 7                  27567391.660
        92.592                          43.900                   108180476.990 7
  27567401.740          69.127          43.250   111002549.677 7  27567398.240
        70.962          43.150   109591507.484 7  27567399.680          70.088
        46.100
 127864137.366 8                  24331734.320
     -1686.012                          51.950                    95482992.478 8
  24331740.380       -1258.991          52.300    97973845.989 8  24331738.280
     -1291.830          52.350    96728416.387 9  24331739.560       -1275.440
        55.250
 144393697.943 7                  27477198.240
      2149.523                          44.100                   107826526.797 6
  27477207.100        1604.940          41.350   110639385.433 7  27477208.080
      1647.027          46.000   109232955.762 7  27477207.520        1626.024
        46.500
 24  1 16 12 26 30.0000000  0 19G06G10G11G12G15G17G19G24G25G32E03E05
                                E09E18E24E25E26E31E33
 128294694.316 6  99969949.27746  24413659.800                    24413668.060
      2246.391        1750.436          41.800          40.900    95804564.067 7
  24413671.740        1677.399          45.850


 128667347.445 7 100260261.81646  24484601.760                    24484608.280
     -2374.346       -1850.144          43.250          37.650    96082736.114 7
  24484608.140       -1773.006          42.350


 135262632.895 6 105399480.51546  25739618.820                    25739628.840
      2976.140        2319.077          38.100          36.750   101007829.792 7
  25739635.940        2222.169          47.100


 106020392.390 8  82613329.74448  20174992.700                    20174991.860
       609.696         475.088          51.550          51.550



 130884890.563 7 101988180.86847  24906593.420                    24906600.580
     -3962.950       -3088.026          42.450          42.350



 132345007.544 6 103126031.65946  25184405.840                    25184410.560
     -3198.597       -2492.417          40.400          40.900



 119379267.113 7  93022853.11947  22717093.920                    22717094.840
     -2132.596       -1661.765          45.300          44.600



 110815613.280 8  86349813.93048  21087514.480                    21087516.780
     -2223.323       -1732.460          50.550          50.600    82751920.191 9
  21087518.060       -1660.244          54.650


 112408133.951 8  87590829.87647  21390534.900                    21390537.980
      2658.937        2071.900          48.800          46.350    83941223.723 8
  21390539.420        1985.459          51.900


 119258721.471 7  92928893.12847  22694175.020                    22694177.980
      2121.200        1652.886          47.350          45.900    89056856.045 8
  22694178.900        1584.009          50.350


 139412955.018 7                  26529400.700
      2248.689                          47.500                   104107126.238 7
  26529408.020        1679.230          46.100   106822952.800 7  26529405.440
      1723.110          46.900   105465042.670 8  26529407.420        1701.176
        49.650
 118794392.525 8                  22605829.100
      -306.585                          52.650                    88710099.992 8
  22605834.520        -228.932          52.700    91024270.089 8  22605831.580
      -234.878          53.400    89867182.693 9  22605833.660        -231.916
        56.100
 134820463.406 8                  25655492.720
     -2825.066                          49.650                   100677622.066 8
  25655499.440       -2109.618          48.800   103303989.851 8  25655496.520
     -2164.665          49.150   101990801.112 8  25655498.440       -2137.151
        51.950
 156103934.596 7                  29705589.280
      3324.789                          43.650                   116571172.434 7
  29705600.680        2482.821          42.000   119612147.314 7  29705596.760
      2547.516          44.250   118091655.524 7  29705598.700        2515.157
        46.250
 124006801.309 8                  23597693.960
       754.894                          53.150                    92602539.024 9
  23597697.820         563.728          54.250    95018245.935 9  23597694.380
       578.440          54.550    93810395.632 9  23597696.460         571.081
        57.400
 141345680.061 7                  26897173.300
      2528.561                          45.100                   105550434.670 7
  26897184.620        1888.221          46.000   108303906.595 7  26897180.160
      1937.498          45.700   106927171.786 8  26897181.580        1912.828
        48.800
 144865114.579 7                  27566905.320
        78.112                          43.950                   108178568.620 7
  27566915.620          58.313          43.500   111000591.518 7  27566912.640
        59.875          43.100   109589574.235 7  27566913.200          58.971
        46.300
 127914799.108 8                  24341374.800
     -1691.053                          52.100                    95520824.289 8
  24341381.120       -1262.860          52.300    98012664.718 8  24341378.980
     -1295.760          52.450    96766741.656 9  24341380.220       -1279.329
        55.450
 144329347.325 7                  27464952.440
      2140.942                          43.950                   107778472.866 6
  27464961.460        1598.753          41.650   110590077.955 7  27464962.500
      1640.310          46.100   109184275.060 7  27464962.120        1619.566
        46.950
 24  1 16 12 27  0.0000000  0 19G06G10G11G12G15G17G19G24G25G32E03E05
                                E09E18E24E25E26E31E33
 128227496.762 7  99917587.61247  24400872.540                    24400880.300
      2234.424        1741.111          42.300          42.200    95754384.134 7
  24400884.500        1668.558          46.550


 128738751.868 7 100315901.57146  24498189.720                    24498196.360
     -2384.925       -1858.385          43.650          38.950    96136057.517 7
  24498196.120       -1780.837          42.800


 135173392.390 6 105329942.64045  25722636.700                    25722646.740
      2974.655        2317.915          37.950          33.950   100941189.334 7
  25722654.280        2221.207          46.600


 106002359.255 8  82599277.96548  20171561.120                    20171560.200
       593.482         462.454          51.900          51.750



 131003788.696 7 102080828.29347  24929219.320                    24929226.020
     -3962.330       -3087.546          42.650          42.200



 132441080.575 6 103200893.67346  25202688.120                    25202692.700
     -3205.443       -2497.754          40.400          39.600



 119443509.812 7  93072912.30347  22729318.940                    22729319.880
     -2149.414       -1674.870          45.050          44.400



 110882510.113 8  86401941.29948  21100244.580                    21100247.240
     -2235.530       -1741.974          50.400          50.250    82801875.585 9
  21100248.020       -1669.450          54.600


 112328550.848 8  87528817.11147  21375390.760                    21375393.900
      2647.621        2063.083          48.900          46.650    83881794.814 8
  21375395.400        1977.210          52.250


 119195332.601 7  92879499.26247  22682112.460                    22682115.460
      2105.810        1640.892          47.750          44.900    89009520.285 8
  22682116.620        1572.395          50.750


 139345641.957 7                  26516591.480
      2239.626                          47.550                   104056860.060 7
  26516598.740        1672.532          46.200   106771375.337 7  26516596.220
      1716.105          47.100   105414120.853 8  26516598.140        1694.313
        49.600
 118803821.152 8                  22607623.380
      -321.022                          52.700                    88717140.834 8
  22607628.460        -239.735          52.650    91031494.613 8  22607625.840
      -246.057          53.550    89874315.376 9  22607627.900        -242.891
        56.000
 134905333.709 8                  25671643.140
     -2832.003                          49.700                   100740999.095 8
  25671649.940       -2114.814          48.850   103369020.211 8  25671646.840
     -2169.958          49.100   102055004.807 8  25671648.820       -2142.403
        51.900
 156004068.679 7                  29686585.320
      3333.846                          43.800                   116496597.401 7
  29686596.720        2489.429          43.250   119535626.830 7  29686592.580
      2554.391          44.750   118016107.762 7  29686594.820        2521.948
        46.700
 123984301.231 8                  23593412.240
       746.074                          53.000                    92585737.035 9
  23593416.320         557.107          54.400    95001005.630 9  23593412.680
       571.627          54.600    93793374.485 9  23593414.800         564.369
        57.350
 141269893.061 7                  26882751.420
      2524.827                          45.350                   105493840.594 7
  26882762.780        1885.313          46.050   108245836.120 7  26882757.800
      1934.574          45.450   106869839.512 8  26882759.700        1909.950
        48.650
 144863009.995 7                  27566504.500
        63.025                          42.750                   108176997.100 7
  27566515.380          47.111          43.500   110998978.989 7  27566512.680
        48.220          43.550   109587982.205 7  27566512.560          47.618
        46.250
 127965632.950 8                  24351048.060
     -1696.836                          51.900                    95558784.610 8
  24351054.560       -1267.139          52.400    98051615.314 8  24351052.360
     -1300.221          52.650    96805197.117 9  24351053.640       -1283.678
        55.550
 144265278.755 7                  27452760.260
      2131.308                          43.900                   107730629.600 7
  27452769.900        1591.525          43.000   110540986.593 7  27452770.280
      1633.071          46.100   109135807.752 7  27452770.380        1612.263
        47.500
 24  1 16 12 27 30.0000000  0 20G06G10G11G12G15G17G19G24G25G29G32E03
                                E05E09E18E24E25E26E31E33
 128160652.545 7  99865501.25847  24388152.740                    24388159.960
      2222.104        1731.511          42.700          42.650    95704468.069 7
  24388164.560        1659.470          46.850


 128810460.656 7 100371778.48746  24511835.460                    24511842.440
     -2395.260       -1866.437          43.350          39.600    96189606.204 7
  24511841.980       -1788.523          43.350


 135084188.074 6 105260432.94045  25705661.300                    25705671.680
      2972.304        2316.090          38.450          35.950   100874575.891 7
  25705679.360        2220.028          45.550


 105984807.595 8  82585601.34848  20168221.280                    20168220.240
       576.956         449.576          52.200          52.150



 131122658.418 6 102173453.57646  24951840.000                    24951846.460
     -3961.772       -3087.112          41.250          41.900



 132537340.444 6 103275901.33646  25221005.800                    25221010.260
     -3211.730       -2502.653          39.200          39.000



 119508249.513 7  93123358.75647  22741638.700                    22741639.480
     -2166.175       -1687.930          44.750          44.500



 110949770.718 8  86454352.11948  21113043.880                    21113046.820
     -2247.970       -1751.666          50.600          50.400    82852102.615 9
  21113047.140       -1678.591          54.750


 112249296.792 8  87467060.74847  21360309.200                    21360312.360
      2636.311        2054.270          49.150          46.400    83822611.649 8
  21360314.120        1968.844          52.800


 136743774.881 5 106553653.14646  26021474.060                    26021492.960
      3877.429        3021.416          35.850          36.300



 119132405.608 8  92830465.28547  22670137.940                    22670140.880
      2089.843        1628.451          48.050          44.600    88962529.402 8
  22670142.120        1560.732          51.050


 139278592.610 7                  26503832.400
      2230.726                          47.350                   104006790.812 7
  26503839.720        1665.805          46.750   106719999.921 7  26503837.260
      1709.363          47.400   105363398.519 8  26503839.060        1687.562
        49.750
 118813676.669 8                  22609498.800
      -335.403                          52.450                    88724500.450 8
  22609503.580        -250.541          52.750    91039046.221 8  22609501.300
      -257.049          53.600    89881770.989 9  22609503.380        -253.827
        55.950
 134990406.958 8                  25687832.180
     -2839.075                          49.650                   100804527.678 8
  25687838.980       -2120.001          49.050   103434206.084 8  25687835.780
     -2175.344          49.300   102119362.035 8  25687837.880       -2147.694
        51.900
 155903929.788 7                  29667529.380
      3342.582                          43.300                   116421818.523 7
  29667540.680        2496.105          43.500   119458897.205 7  29667536.760
      2561.295          44.500   117940353.513 7  29667539.020        2528.624
        46.650
 123962061.426 8                  23589180.020
       737.149                          52.800                    92569129.401 9
  23589184.360         550.441          54.750    94983964.747 9  23589180.460
       564.790          54.700    93776550.228 9  23589182.660         557.641
        57.350
 141194217.676 7                  26868350.640
      2520.759                          45.100                   105437329.870 7
  26868362.080        1882.372          46.150   108187851.199 7  26868356.880
      1931.523          45.250   106812591.686 8  26868359.080        1906.989
        48.400
 144861352.459 7                  27566188.640
        47.964                          42.650                   108175759.414 7
  27566200.000          35.842          43.250   110997709.010 7  27566197.340
        36.735          43.150   109586728.371 7  27566197.080          36.197
        45.900
 128016633.805 8                  24360753.060
     -1702.680                          51.800                    95596869.642 8
  24360759.780       -1271.431          52.750    98090693.871 8  24360757.500
     -1304.644          52.800    96843778.911 9  24360758.820       -1288.016
        55.600
 144201489.986 7                  27440621.400
      2121.641                          44.250                   107682995.272 7
  27440631.700        1584.516          44.250   110492109.609 7  27440630.920
      1625.770          45.700   109087552.092 7  27440631.740        1605.200
        47.700
 24  1 16 12 28  0.0000000  0 20G06G10G11G12G15G17G19G24G25G29G32E03
                                E05E09E18E24E25E26E31E33
 128094169.005 7  99813695.95646  24375501.420                    24375508.380
      2210.194        1722.229          42.200          41.800    95654821.322 7
  24375513.180        1650.492          46.750


 128882475.244 7 100427893.68146  24525539.300                    24525546.620
     -2405.384       -1874.329          43.000          39.300    96243383.271 7
  24525546.060       -1796.372          43.450


 134995027.290 6 105190957.13645  25688694.540                    25688704.940
      2971.443        2315.412          38.250          32.800   100807994.993 7
  25688712.520        2218.875          44.300


 105967741.242 8  82572302.88748  20164973.760                    20164972.660
       560.896         437.063          51.950          52.050



 131241501.618 7 102266058.12847  24974455.400                    24974461.820
     -3960.968       -3086.486          42.800          42.600



 132633789.481 6 103351056.42046  25239359.520                    25239363.840
     -3218.169       -2507.662          39.100          39.250



 119573488.692 7  93174194.41247  22754053.560                    22754054.120
     -2182.929       -1700.985          44.950          44.600



 111017398.515 8  86507049.06748  21125913.020                    21125916.140
     -2260.229       -1761.219          50.500          50.500    82902603.853 9
  21125916.240       -1687.887          54.550


 112170377.373 8  87405565.14147  21345291.380                    21345294.400
      2625.202        2045.612          49.050          46.850    83763678.380 8
  21345296.440        1960.305          52.850


 136627422.518 6 106462990.37046  25999332.320                    25999351.220
      3879.671        3023.166          37.150          37.750



 119069947.118 8  92781796.38347  22658252.600                    22658255.520
      2074.147        1616.221          48.500          45.750    88915888.392 8
  22658256.720        1548.883          50.900


 139211813.091 7                  26491124.560
      2221.480                          46.850                   103956923.065 7
  26491132.060        1658.917          46.800   106668831.279 7  26491129.680
      1702.160          47.250   105312880.323 8  26491131.320        1680.559
        49.650
 118823963.579 8                  22611456.220
      -350.049                          52.050                    88732182.208 8
  22611460.880        -261.371          52.450    91046928.379 8  22611458.860
      -268.201          53.350    89889552.946 9  22611460.960        -264.781
        55.550
 135075686.112 8                  25704060.260
     -2846.025                          49.150                   100868210.024 8
  25704067.220       -2125.279          48.950   103499549.715 8  25704064.020
     -2180.686          49.000   102183875.026 8  25704066.080       -2152.985
        51.550
 155803523.086 7                  29648422.620
      3351.505                          42.900                   116346839.681 7
  29648434.400        2502.693          43.550   119381962.355 7  29648429.560
      2567.977          43.600   117864396.666 7  29648432.140        2535.365
        46.000
 123940086.158 8                  23584998.160
       728.183                          52.600                    92552719.308 9
  23585002.680         543.749          54.600    94967126.562 9  23584998.640
       557.918          54.350    93759926.088 9  23585000.880         550.830
        56.950
 141118658.748 7                  26853971.980
      2516.748                          44.850                   105380906.101 7
  26853983.260        1879.320          45.700   108129955.500 7  26853977.720
      1928.389          44.400   106755431.960 7  26853980.660        1903.776
        47.650
 144860146.612 7                  27565958.940
        32.828                          42.600                   108174859.033 7
  27565970.300          24.418          43.150   110996785.150 7  27565967.560
        25.016          42.850   109585816.244 7  27565967.700          24.777
        45.550
 128067805.204 8                  24370490.600
     -1708.466                          51.550                    95635082.031 8
  24370497.500       -1275.831          52.600    98129903.111 8  24370495.140
     -1309.123          52.600    96882489.727 9  24370496.440       -1292.468
        55.200
 144137987.439 7                  27428536.980
      2112.095                          43.850                   107635574.726 7
  27428547.920        1577.181          44.700   110443451.974 7  27428545.900
      1618.324          45.250   109039513.012 7  27428547.380        1597.720
        47.650
 24  1 16 12 28 30.0000000  0 20G06G10G11G12G15G17G19G24G25G29G32E03
                                E05E09E18E24E25E26E31E33
 128028042.855 6  99762169.17547  24362917.980                    24362925.000
      2198.514        1713.130          41.850          42.050    95605441.497 7
  24362929.720        1641.697          46.400


 128954786.376 7 100484239.96046  24539299.600                    24539306.880
     -2415.113       -1881.909          42.600          39.300    96297381.756 7
  24539306.380       -1803.494          43.250


 134905906.994 6 105121512.85846  25671735.360                    25671745.660
      2970.362        2314.568          39.600          37.150   100741444.234 7
  25671753.500        2218.166          43.250


 105951154.074 8  82559377.82248  20161817.380                    20161816.220
       545.317         424.923          51.800          51.850



 131360309.709 6 102358635.36646  24997064.280                    24997070.300
     -3959.112       -3085.041          41.850          41.500



 132730418.595 6 103426351.76846  25257747.300                    25257751.860
     -3223.627       -2511.920          39.350          40.000



 119639218.896 7  93225412.69047  22766561.880                    22766562.000
     -2198.796       -1713.351          45.600          43.900



 111085386.275 8  86560026.49348  21138850.620                    21138853.760
     -2271.883       -1770.300          50.750          50.750    82953373.890 9
  21138854.000       -1696.603          54.650


 112091787.490 8  87344326.31847  21330336.240                    21330339.140
      2614.638        2037.381          48.950          47.050    83704991.176 8
  21330341.320        1952.452          52.700


 136510992.609 5 106372267.15345  25977175.400                    25977194.160
      3883.429        3026.099          35.050          34.850



 119007953.144 8  92733489.43347  22646455.680                    22646458.500
      2058.983        1604.405          49.200          44.200    88869594.258 8
  22646459.680        1537.485          50.800


 139145298.801 7                  26478467.100
      2212.992                          46.950                   103907253.386 7
  26478474.820        1652.578          46.900   106617865.859 7  26478472.520
      1695.690          47.700   105262562.777 8  26478474.020        1674.135
        50.150
 118834675.686 8                  22613494.560
      -363.822                          51.900                    88740181.486 8
  22613499.220        -271.688          52.400    91055136.334 8  22613497.320
      -278.799          53.600    89897656.563 9  22613499.440        -275.213
        55.850
 135161163.444 8                  25720326.040
     -2852.231                          49.350                   100932040.354 8
  25720333.140       -2129.981          48.850   103565045.208 8  25720329.840
     -2185.509          49.000   102248537.934 8  25720332.000       -2157.744
        51.750
 155702843.044 7                  29629263.400
      3360.960                          43.350                   116271656.723 7
  29629275.160        2509.707          43.950   119304818.084 7  29629270.220
      2575.183          44.000   117788233.063 7  29629273.180        2542.324
        46.750
 123918368.962 8                  23580865.400
       719.884                          52.550                    92536501.925 9
  23580870.060         537.558          54.450    94950486.117 9  23580866.000
       551.613          54.700    93743497.174 9  23580868.220         544.563
        57.350
 141043210.435 7                  26839614.300
      2513.539                          44.850                   105324564.950 7
  26839625.560        1876.883          45.700   108072144.576 7  26839619.860
      1925.765          44.600   106698355.923 8  26839623.260        1901.290
        48.000
 144859386.461 7                  27565814.080
        18.159                          42.950                   108174291.454 7
  27565825.500          13.539          43.050   110996202.747 7  27565822.440
        14.027          42.950   109585241.264 7  27565823.060          13.625
        45.850
 128119140.056 8                  24380259.280
     -1713.599                          51.600                    95673416.461 8
  24380266.260       -1279.669          52.350    98169237.576 8  24380263.880
     -1313.008          52.750    96921324.173 9  24380265.180       -1296.358
        55.350
 144074766.861 7                  27416506.460
      2102.936                          44.600                   107588364.737 7
  27416517.500        1570.349          44.800   110395010.392 7  27416514.680
      1611.296          45.850   108991687.218 8  27416516.580        1590.838
        48.100
 24  1 16 12 29  0.0000000  0 20G06G10G11G12G15G17G19G24G25G29G32E03
                                E05E09E18E24E25E26E31E33
 127962283.091 6  99710927.88146  24350404.080                    24350411.320
      2185.484        1702.978          41.950          41.650    95556335.266 7
  24350415.800        1632.013          46.250


 129027397.306 7 100540819.83646  24553117.020                    24553124.420
     -2425.503       -1890.006          42.300          39.850    96351604.111 7
  24553123.860       -1811.329          43.350


 134816836.024 6 105052107.05046  25654785.660                    25654795.720
      2967.915        2312.668          40.150          38.350   100674930.351 7
  25654803.460        2216.307          43.200


 105935052.498 8  82546831.14148  20158753.340                    20158752.040
       528.462         411.789          51.250          51.400



 131479086.488 7 102451188.16847  25019667.220                    25019673.320
     -3958.971       -3084.930          43.050          43.250



 132827231.664 6 103501790.47846  25276170.240                    25276174.740
     -3230.677       -2517.412          40.100          39.900



 119705443.875 7  93277016.51247  22779164.340                    22779164.140
     -2215.939       -1726.708          45.750          43.150



 111153739.010 8  86613288.32248  21151857.680                    21151860.600
     -2284.730       -1780.311          50.250          50.150    83004416.468 9
  21151861.360       -1706.188          54.800


 112013534.297 8  87283349.85547  21315445.180                    21315447.900
      2602.574        2027.980          48.650          47.150    83646555.415 8
  21315450.180        1943.378          52.700


 136394493.434 5 106281489.74645  25955005.140                    25955023.280
      3883.813        3026.392          34.900          35.500



 118946431.908 8  92685550.85847  22634748.600                    22634751.420
      2042.481        1591.546          49.150          45.300    88823653.134 8
  22634752.540        1525.215          50.550


 139079057.479 7                  26465861.460
      2203.133                          46.500                   103857787.544 7
  26465869.500        1645.207          47.050   106567109.602 7  26465867.320
      1688.128          47.850   105212451.724 8  26465868.700        1666.633
        50.450
 118845819.104 8                  22615614.980
      -378.917                          51.850                    88748502.854 8
  22615619.820        -282.995          52.350    91063674.787 8  22615617.900
      -290.361          53.700    89906086.472 9  22615620.000        -286.665
        56.050
 135246843.487 8                  25736630.420
     -2859.604                          49.050                   100996022.061 8
  25736637.580       -2135.479          48.700   103630696.017 8  25736634.420
     -2191.172          49.300   102313354.191 8  25736636.500       -2163.325
        51.950
 155601896.506 7                  29610053.840
      3369.021                          43.200                   116196274.759 7
  29610066.100        2515.875          43.150   119227469.601 7  29610060.720
      2581.452          44.250   117711867.825 7  29610063.400        2548.667
        46.650
 123896915.671 8                  23576782.900
       710.545                          52.600                    92520481.618 9
  23576787.580         530.576          54.350    94934047.892 9  23576783.660
       544.445          54.850    93727267.907 9  23576785.800         537.497
        57.600
 140967879.187 7                  26825279.000
      2508.760                          44.850                   105268311.225 7
  26825289.940        1873.333          44.900   108014423.340 7  26825284.220
      1922.250          44.400   106641368.436 7  26825288.140        1897.774
        47.800
 144859078.148 7                  27565755.000
         2.423                          42.200                   108174061.295 7
  27565766.640           1.810          42.650   110995966.582 7  27565763.160
         1.821          43.300   109585008.092 7  27565764.360           1.744
        45.950
 128170643.550 8                  24390060.080
     -1719.867                          51.450                    95711876.827 8
  24390067.000       -1284.329          52.150    98208701.264 8  24390064.640
     -1317.824          52.700    96960286.196 9  24390066.020       -1301.064
        55.450
 144011836.313 7                  27404531.280
      2092.431                          44.850                   107541371.323 7
  27404541.960        1562.593          44.750   110346791.034 7  27404538.940
      1603.367          46.250   108944080.833 8  27404541.020        1582.992
        48.550
 24  1 16 12 29 30.0000000  0 20G06G10G11G12G15G17G19G24G25G29G32E03
                                E05E09E18E24E25E26E31E33
 127896887.553 6  99659970.40747  24337959.760                    24337966.980
      2173.490        1693.632          41.900          42.250    95507501.046 7
  24337971.280        1623.033          46.350


 129100299.953 6 100597626.99746  24566989.860                    24566997.300
     -2435.278       -1897.624          41.850          39.200    96406044.278 7
  24566996.900       -1818.521          43.850


 134727812.473 6 104982738.20545  25637844.940                    25637854.840
      2966.480        2311.552          39.100          34.700   100608451.912 7
  25637862.280        2215.023          43.600


 105919430.447 8  82534658.11648  20155780.560                    20155779.060
       512.354         399.237          52.150          52.000



 131597824.711 6 102543710.90746  25042262.640                    25042268.840
     -3957.611       -3083.871          40.050          40.500



 132924221.352 6 103577366.86346  25294626.620                    25294631.340
     -3236.647       -2522.065          39.350          38.250



 119772156.566 7  93329000.37447  22791859.580                    22791859.200
     -2232.289       -1739.447          46.250          43.450



 111222450.714 8  86666829.86848  21164933.040                    21164935.700
     -2296.788       -1789.706          50.200          50.100    83055727.097 9
  21164937.240       -1715.077          55.150


 111935613.919 8  87222632.72247  21300617.360                    21300619.980
      2591.352        2019.236          48.600          47.500    83588368.165 8
  21300622.240        1935.110          52.800


 136277922.038 6 106190656.16246  25932821.300                    25932839.300
      3886.315        3028.339          37.000          36.500



 118885380.632 8  92637978.48747  22623130.860                    22623133.740
      2026.637        1579.199          49.450          45.450    88778062.950 8
  22623134.740        1513.509          50.450


 139013085.756 7                  26453307.140
      2194.109                          46.600                   103808523.039 7
  26453315.480        1638.437          47.600   106516559.920 7  26453313.380
      1681.294          47.950   105162544.631 8  26453314.680        1659.871
        50.600
 118857388.879 8                  22617816.620
      -393.137                          52.100                    88757142.598 8
  22617821.660        -293.555          52.650    91072539.916 8  22617819.640
      -301.257          53.900    89914838.906 9  22617821.660        -297.382
        56.100
 135332719.753 8                  25752972.100
     -2866.292                          49.300                   101060150.284 8
  25752979.400       -2140.311          48.650   103696497.173 8  25752976.280
     -2196.146          49.150   102378318.883 8  25752978.320       -2168.244
        51.750
 155500679.136 7                  29590792.640
      3378.103                          43.650                   116120690.552 7
  29590805.080        2522.548          43.950   119149913.606 7  29590799.320
      2588.386          45.100   117635297.732 7  29590802.180        2555.458
        46.950
 123875721.107 8                  23572749.720
       701.825                          52.800                    92504654.513 9
  23572754.300         524.050          54.500    94917807.911 9  23572750.600
       537.710          55.050    93711234.363 9  23572752.640         530.900
        57.600
 140892660.367 7                  26810964.960
      2504.897                          44.600                   105212141.441 7
  26810975.700        1870.544          44.950   107956788.241 7  26810970.060
      1919.441          44.400   106584465.998 7  26810974.400        1894.931
        47.600
 144859216.852 6                  27565781.200
       -12.570                          41.850                   108174164.914 7
  27565792.640          -9.277          42.450   110996072.898 7  27565789.120
        -9.447          43.600   109585113.069 7  27565790.760          -9.532
        45.750
 128222309.774 8                  24399892.000
     -1725.308                          51.850                    95750458.714 8
  24399898.700       -1288.352          52.150    98248289.641 8  24399896.260
     -1321.997          52.750    96999371.335 9  24399897.840       -1305.187
        55.300
 143949192.675 7                  27392610.640
      2083.020                          45.050                   107494592.167 7
  27392620.820        1555.469          45.000   110298791.541 7  27392617.940
      1595.940          46.750   108896691.504 8  27392620.160        1575.763
        48.800
 24  1 16 12 30  0.0000000  0 20G06G10G11G12G15G17G19G24G25G29G32E03
                                E05E09E18E24E25E26E31E33
 127831864.101 6  99609302.87446  24325586.060                    24325593.360
      2161.414        1684.222          40.200          40.050    95458944.702 7
  24325597.620        1614.071          46.100


 129173496.263 6 100654663.01146  24580918.720                    24580926.040
     -2444.462       -1904.779          41.900          40.050    96460703.759 7
  24580925.880       -1825.447          43.800


 134638844.244 6 104913412.49946  25620914.960                    25620924.240
      2965.038        2310.424          39.900          37.350   100542014.839 7
  25620931.700        2213.939          43.550


 105904292.821 8  82522862.56548  20152900.060                    20152898.320
       496.727         387.060          52.450          52.400



 131716526.923 6 102636205.58746  25064851.260                    25064857.100
     -3955.967       -3082.591          40.350          40.350



 133021390.179 6 103653082.83046  25313117.320                    25313122.000
     -3242.232       -2526.415          38.550          38.350



 119839359.744 7  93381366.44547  22804648.120                    22804647.560
     -2247.879       -1751.597          46.500          42.400



 111291525.296 8  86720654.16748  21178077.460                    21178079.960
     -2308.230       -1798.623          50.500          50.600    83107308.713 9
  21178082.140       -1723.744          55.200


 111858032.351 8  87162179.58947  21285854.040                    21285856.660
      2580.709        2010.942          48.650          47.250    83530433.924 8
  21285858.760        1927.082          52.850


 136161285.722 5 106099771.99645  25910625.300                    25910643.000
      3889.519        3030.836          35.950          34.950



 118824806.385 8  92590777.83247  22611603.860                    22611606.900
      2011.346        1567.283          48.850          46.050    88732829.003 8
  22611607.660        1501.994          50.050


 138947390.214 7                  26440805.400
      2185.479                          46.450                   103759464.770 7
  26440813.920        1631.944          47.550   106466221.874 7  26440811.980
      1674.522          47.650   105112846.474 8  26440813.200        1653.221
        50.600
 118869389.972 8                  22620100.380
      -407.034                          52.000                    88766104.431 8
  22620105.680        -303.935          52.650    91081735.538 8  22620103.560
      -311.888          53.700    89923917.635 9  22620105.380        -307.881
        56.100
 135418795.633 8                  25769351.860
     -2872.349                          49.300                   101124427.604 8
  25769359.060       -2144.888          48.550   103762451.303 8  25769356.080
     -2200.889          48.750   102443434.610 8  25769358.160       -2172.929
        51.650
 155399196.698 7                  29571481.380
      3387.452                          42.850                   116044908.346 7
  29571493.480        2529.560          43.800   119072154.489 7  29571488.180
      2595.476          44.600   117558527.067 7  29571490.680        2562.491
        47.050
 123854789.925 8                  23568766.720
       693.522                          52.900                    92489024.096 9
  23568771.140         517.871          54.450    94901769.745 9  23568767.720
       531.394          54.800    93695400.075 9  23568769.600         524.624
        57.600
 140817559.281 7                  26796673.440
      2501.729                          44.650                   105156059.589 7
  26796684.100        1868.104          44.900   107899243.390 7  26796678.860
      1916.765          44.500   106527652.642 7  26796683.040        1892.461
        47.750
 144859807.647 6                  27565893.500
       -27.167                          40.800                   108174606.109 7
  27565904.680         -20.065          42.050   110996525.605 7  27565901.200
       -20.648          42.950   109585560.017 7  27565903.220         -20.433
        45.550
 128274142.845 8                  24409755.740
     -1730.350                          52.150                    95789165.199 8
  24409762.140       -1292.144          52.000    98288005.864 8  24409759.700
     -1325.847          52.450    97038582.685 9  24409761.420       -1309.011
        55.250
 143886842.838 7                  27380745.880
      2073.751                          44.900                   107448032.412 7
  27380755.560        1548.368          45.200   110251017.155 7  27380752.940
      1588.909          46.400   108849524.438 8  27380755.300        1568.657
        48.850
 24  1 16 12 30 30.0000000  0 20G06G10G11G12G15G17G19G24G25G28G29G32
                                E03E05E09E24E25E26E31E33
 127767211.072 6  99558924.00546  24313282.620                    24313290.240
      2148.919        1674.485          37.400          36.900    95410664.985 7
  24313294.380        1604.716          46.000


 129246978.887 6 100711922.08046  24594902.100                    24594909.260
     -2454.094       -1912.286          41.550          39.850    96515577.020 7
  24594909.140       -1832.626          43.850


 134549930.042 6 104844128.87646  25603995.220                    25604004.660
      2962.977        2308.816          40.650          37.150   100475618.098 7
  25604011.220        2212.711          42.400


 105889635.087 8  82511440.95548  20150110.820                    20150109.060
       480.725         374.591          51.800          51.800



 131835186.158 6 102728666.77346  25087431.860                    25087437.860
     -3954.441       -3081.401          41.500          41.350



 133118731.109 6 103728932.91346  25331640.720                    25331645.440
     -3247.723       -2530.693          38.600          38.150



 119907046.332 7  93434109.18647  22817528.420                    22817527.920
     -2264.173       -1764.293          45.400          44.150



 111360957.266 8  86774756.95648  21191290.020                    21191292.400
     -2320.273       -1808.008          50.150          50.100    83159157.201 9
  21191294.980       -1732.648          55.200


 111780786.246 8  87101987.87047  21271154.520                    21271157.320
      2569.408        2002.139          48.650          47.900    83472750.197 8
  21271159.160        1918.734          52.950


 134968930.773 6 105170618.04446  25683732.940                    25683738.500
      3451.005        2689.103          40.100          36.750   100788531.686 7
  25683745.760        2576.862          42.300


 136044582.005 6 106008835.28646  25888416.380                    25888433.820
      3891.912        3032.699          37.900          37.650



 118764706.922 8  92543947.13347  22600167.180                    22600170.400
      1995.495        1554.933          48.600          46.900    88687949.593 8
  22600170.840        1490.245          49.850


 138881968.025 7                  26428355.700
      2176.313                          46.100                   103710610.625 7
  26428364.320        1625.173          47.750   106416093.267 7  26428362.480
      1667.555          47.650   105063355.096 8  26428363.720        1646.375
        50.650
 118881817.918 8                  22622465.360
      -421.307                          51.950                    88775385.019 8
  22622470.900        -314.609          52.750    91091258.224 8  22622468.720
      -322.790          53.900    89933319.276 9  22622470.320        -318.733
        56.200
 135505065.202 8                  25785768.340
     -2878.716                          48.800                   101188849.528 8
  25785775.700       -2149.696          48.650   103828553.818 8  25785772.840
     -2205.799          49.000   102508696.824 8  25785774.820       -2177.724
        51.700
 123834117.485 8                  23564833.000
       684.934                          52.800                    92473586.894 9
  23564837.180         511.438          54.400    94885929.833 9  23564834.060
       524.830          54.950    93679761.519 9  23564835.800         518.116
        57.600
 140742571.903 7                  26782403.720
      2497.819                          44.300                   105100062.625 7
  26782413.960        1865.213          44.350   107841785.614 7  26782408.960
      1913.764          44.100   106470925.269 7  26782413.360        1889.526
        47.150
 144860846.142 6                  27566091.140
       -41.883                          41.250                   108175381.648 7
  27566102.260         -31.267          42.450   110997321.373 7  27566098.640
       -32.144          43.550   109586345.660 7  27566100.780         -31.658
        45.900
 128326137.395 8                  24419650.200
     -1735.634                          51.850                    95827992.259 8
  24419656.340       -1296.108          51.950    98327845.804 8  24419653.940
     -1329.947          52.750    97077916.187 9  24419655.700       -1313.026
        55.250
 143824784.332 7                  27368936.560
      2063.697                          44.750                   107401690.173 7
  27368945.980        1541.238          45.750   110203465.973 7  27368943.440
      1581.481          45.950   108802577.727 8  27368945.880        1561.335
        48.850
 24  1 16 12 31  0.0000000  0 20G06G10G11G12G15G17G19G24G25G28G29G32
                                E03E05E09E24E25E26E31E33
 127702934.050 6  99508838.13546  24301050.640                    24301058.540
      2136.083        1664.484          37.950          38.150    95362666.052 7
  24301062.700        1595.241          45.600


 129320747.441 7 100769403.97146  24608939.840                    24608946.940
     -2463.839       -1919.878          42.000          39.950    96570663.786 7
  24608947.000       -1839.719          44.200


 134461075.514 6 104774891.86345  25587086.860                    25587095.980
      2960.574        2306.948          40.350          34.300   100409265.991 7
  25587101.960        2211.046          43.000


 105875460.217 8  82500395.60848  20147413.420                    20147411.760
       464.376         361.853          52.300          52.200



 131953802.997 7 102821094.87747  25110004.360                    25110011.060
     -3953.257       -3080.479          42.250          42.450



 133216245.032 6 103804917.76946  25350197.100                    25350201.880
     -3253.249       -2535.000          38.400          37.800



 119975216.996 7  93487229.14747  22830500.880                    22830500.480
     -2280.351       -1776.898          45.950          42.200



 111430748.257 8  86829139.50348  21204570.960                    21204573.160
     -2332.470       -1817.511          50.350          50.350    83211273.799 9
  21204575.980       -1741.705          55.050


 111703879.390 8  87042060.49347  21256519.560                    21256522.600
      2557.733        1993.041          49.200          47.450    83415319.810 8
  21256524.200        1910.092          53.050


 134865402.906 6 105089947.17346  25664031.940                    25664037.260
      3451.161        2689.224          41.300          38.600   100711222.121 7
  25664044.620        2577.354          44.400


 135927815.626 6 105917849.61946  25866195.580                    25866212.760
      3892.985        3033.535          37.800          37.750



 118705087.094 8  92497490.18247  22588821.800                    22588825.180
      1979.328        1542.335          48.950          46.850    88643428.352 8
  22588825.200        1478.106          49.600


 138816823.539 7                  26415959.020
      2166.937                          46.550                   103661963.867 7
  26415967.580        1618.127          47.600   106366177.459 7  26415965.740
      1660.348          47.750   105014073.815 8  26415967.080        1639.212
        50.550
 118894675.397 8                  22624912.100
      -435.817                          52.400                    88784986.364 8
  22624917.800        -325.378          52.700    91101110.047 9  22624915.620
      -333.890          54.250    89943045.858 9  22624917.000        -329.638
        56.200
 135591529.592 8                  25802222.040
     -2885.442                          49.100                   101253416.967 8
  25802229.340       -2154.704          48.200   103894805.641 8  25802226.560
     -2210.897          49.000   102574106.458 8  25802228.580       -2182.808
        51.300
 123813706.299 8                  23560949.000
       675.963                          53.150                    92458344.785 9
  23560952.940         504.844          54.250    94870290.106 9  23560950.080
       517.956          55.200    93664320.597 9  23560951.680         511.397
        57.500
 140667701.269 7                  26768156.140
      2493.612                          44.750                   105044152.863 7
  26768166.180        1862.183          44.750   107784417.312 7  26768161.940
      1910.820          45.100   106414286.239 7  26768165.800        1886.515
        47.850
 144862335.256 6                  27566374.400
       -57.223                          41.500                   108176493.670 7
  27566385.600         -42.705          42.250   110998462.386 7  27566382.140
       -43.828          44.100   109587472.185 7  27566384.060         -43.315
        45.850
 128378295.288 8                  24429575.660
     -1741.319                          52.150                    95866941.288 8
  24429581.620       -1300.308          51.750    98367810.906 8  24429579.380
     -1334.275          53.200    97117373.250 9  24429581.040       -1317.271
        55.250
 143763021.719 7                  27357183.640
      2053.739                          45.050                   107355568.925 7
  27357192.800        1533.717          46.050   110156141.535 7  27357190.220
      1573.616          45.800   108755854.884 8  27357192.600        1553.676
        48.750
