     2.11           OBSERVATION DATA    G (GPS)             RINEX VERSION / TYPE
teqc  2019Feb25                         20230913 22:02:29UTCPGM / RUN BY / DATE
Linux 2.6.32-573.12.1.x86_64|x86_64|gcc|Linux 64|=+         COMMENT
teqc  2019Feb25                         20230913 22:02:29UTCCOMMENT
     2.11           OBSERVATION DATA    M (MIXED)           COMMENT
teqc  2019Feb25     IGN-RGP             20230913 16:02:14UTCCOMMENT
teqc  2019Feb25     Administrateur RGP  20230913 16:02:14UTCCOMMENT
teqc  2019Feb25     IGN-RGP             20230913 16:02:12UTCCOMMENT
teqc  2019Feb25     IGN-RGP             20230913 16:02:11UTCCOMMENT
BIT 2 OF LLI FLAGS DATA COLLECTED UNDER A/S CONDITION       COMMENT
IGNF                                                        MARKER NAME
10001M009                                                   MARKER NUMBER
Automatic           IGN                                     OBSERVER / AGENCY
1834194             LEICA GR50          4.51                REC # / TYPE / VERS
5000113963          TRM57971.00     NONE                    ANT # / TYPE
  4201694.1440   177888.8370  4779371.7670                  APPROX POSITION XYZ
        0.0000        0.0000        0.0000                  ANTENNA: DELTA H/E/N
     1     1                                                WAVELENGTH FACT L1/2
    21    L1    L2    C1    P1    P2    D1    D2    S1    S2# / TYPES OF OBSERV
          L5    C5    D5    S5    L7    C7    D7    S7    L8# / TYPES OF OBSERV
          C8    D8    S8                                    # / TYPES OF OBSERV
    30.0000                                                 INTERVAL
DefaultJobName                                              COMMENT
DefaultUserDiscription                                      COMMENT
Project creator:                                            COMMENT
 SNR is mapped to RINEX snr flag value [0-9]                COMMENT
  L1 & L2: min(max(int(snr_dBHz/6), 0), 9)                  COMMENT
    18                                                      LEAP SECONDS
Forced Modulo Decimation to 30 seconds                      COMMENT
teqc_2019 edited: all GLONASS satellites excluded           COMMENT
teqc_2019 edited: all SBAS satellites excluded              COMMENT
teqc_2019 edited: all Galileo satellites excluded           COMMENT
  2023     9    13    15     0    0.0000000     GPS         TIME OF FIRST OBS
                                                            END OF HEADER
 23  9 13 15  0  0.0000000  0 10G05G06G07G09G11G13G14G20G22G30
 111520913.546 8  86899433.57448  21221717.100                    21221714.420
      1995.951        1555.287          50.550          48.700



 133180695.849 6 103777142.56146  25343462.520                    25343469.460
     -3696.229       -2880.189          36.050          36.250    99453093.045 6
  25343470.280       -2760.103          41.100


 112481829.909 8  87648175.09248  21404579.800                    21404577.500
     -1427.740       -1112.526          49.900          49.900



 125945672.962 6  98139473.36246  23966673.560                    23966675.240
     -3147.316       -2452.459          40.550          40.700    94050328.426 7
  23966678.300       -2350.133          45.400


 121650431.812 7  94792531.97847  23149312.240                    23149311.660
     -3085.343       -2404.165          45.750          43.100    90842861.050 8
  23149317.200       -2303.825          49.850


 116671869.098 7  90913161.03946  22201909.940                    22201909.180
      2791.170        2174.939          47.300          41.850



 126555626.159 7  98614803.81346  24082723.140                    24082725.360
      3362.307        2619.982          43.000          39.900    94505893.917 7
  24082731.020        2510.880          46.150


 106639227.711 8  83095497.22948  20292768.480                    20292765.840
      -222.429        -173.321          49.750          50.000



 131785484.621 5 102689999.91444  25077940.380                    25077944.120
      3441.857        2681.987          35.800          28.350



 108543156.211 8  84579095.25148  20655070.040                    20655070.060
       472.771         368.393          51.700          51.650    81054973.772 9
  20655070.120         353.180          55.850


 23  9 13 15  0 30.0000000  0 10G05G06G07G09G11G13G14G20G22G30
 111461267.364 8  86852956.03848  21210366.720                    21210364.160
      1980.892        1543.552          50.200          48.800



 133291542.060 6 103863515.87446  25364556.200                    25364562.780
     -3693.182       -2877.815          36.800          36.750    99535867.323 6
  25364564.520       -2757.768          40.000


 112524859.138 8  87681704.33748  21412767.960                    21412765.820
     -1440.327       -1122.334          50.100          50.150



 126040144.705 6  98213087.55746  23984651.120                    23984652.820
     -3150.106       -2454.633          40.950          40.850    94120875.374 7
  23984655.500       -2352.489          45.950


 121743135.446 7  94864768.50347  23166953.380                    23166952.940
     -3094.359       -2411.192          44.900          43.800    90912087.719 8
  23166958.180       -2310.798          50.300


 116588247.041 7  90848001.00447  22185997.260                    22185996.400
      2784.229        2169.528          47.350          42.850



 126454811.582 7  98536247.09246  24063538.940                    24063540.720
      3359.063        2617.454          43.300          39.300    94430610.418 7
  24063546.820        2508.543          46.800


 106646192.325 8  83100924.18748  20294093.780                    20294091.040
      -241.445        -188.140          49.550          49.300



 131682209.844 6 102609526.24845  25058287.840                    25058290.860
      3443.739        2683.431          37.200          30.950



 108529227.676 8  84568241.85248  20652419.620                    20652419.500
       456.240         355.512          51.750          51.850    81044572.601 9
  20652419.700         340.703          56.200


 23  9 13 15  1  0.0000000  0 10G05G06G07G09G11G13G14G20G22G30
 111402079.143 8  86806835.36848  21199103.420                    21199101.020
      1964.993        1531.165          50.100          48.450



 133402291.764 6 103949813.92546  25385631.620                    25385638.120
     -3690.327       -2875.595          37.500          37.350    99618569.553 6
  25385640.100       -2755.556          37.800


 112568270.673 8  87715531.49348  21421028.880                    21421026.800
     -1453.722       -1132.771          50.050          49.900



 126134706.822 6  98286772.16646  24002645.800                    24002647.700
     -3154.026       -2457.687          41.650          41.600    94191489.757 7
  24002650.160       -2355.135          46.550


 121836117.655 7  94937222.08647  23184647.480                    23184647.060
     -3104.446       -2419.054          45.200          43.100    90981522.364 8
  23184652.380       -2318.086          50.350


 116504837.681 7  90783006.72447  22170125.100                    22170124.140
      2776.437        2163.458          47.900          43.200



 126354096.481 7  98457767.89346  24044373.520                    24044375.340
      3355.340        2614.555          44.200          40.050    94355401.239 7
  24044381.300        2505.597          46.750


 106653734.935 8  83106801.54448  20295529.060                    20295526.240
      -261.237        -203.561          49.750          49.800



 131578883.679 6 102529012.61344  25038625.180                    25038628.700
      3444.881        2684.332          39.000          28.300



 108515802.346 8  84557780.55748  20649864.920                    20649864.700
       438.880         341.984          51.750          51.450    81034547.196 9
  20649865.060         327.728          56.300


 23  9 13 15  1 30.0000000  0 11G05G06G07G09G11G13G14G18G20G22G30
 111343356.500 8  86761077.47748  21187928.760                    21187926.460
      1950.219        1519.652          50.050          48.900



 133512948.793 6 104036039.77446  25406689.480                    25406696.000
     -3686.468       -2872.584          41.350          41.550    99701202.625 6
  25406697.980       -2752.910          41.550


 112612069.037 8  87749660.06748  21429363.400                    21429361.340
     -1465.842       -1142.215          50.050          49.950



 126229364.260 7  98360531.08847  24020658.780                    24020660.580
     -3156.361       -2459.506          42.250          42.400    94262175.367 7
  24020663.220       -2356.946          46.500


 121929381.029 7  95009894.78147  23202395.100                    23202394.760
     -3112.995       -2425.711          45.300          42.650    91051167.023 8
  23202399.960       -2324.585          49.850


 116421648.159 7  90718183.75047  22154294.720                    22154293.700
      2769.921        2158.381          47.300          43.200



 126253489.547 7  98379372.98046  24025228.900                    24025230.580
      3352.424        2612.282          43.700          41.650    94280272.811 7
  24025236.220        2503.233          45.900


                                  25853442.240
      2952.473                          37.400



 106661861.866 8  83113134.19848  20297075.480                    20297072.620
      -280.135        -218.287          49.250          49.150



 131475514.677 6 102448465.64445  25018954.300                    25018958.240
      3446.850        2685.872          38.150          32.600



 108502885.820 8  84547715.73448  20647406.980                    20647406.840
       422.600         329.299          51.100          51.150    81024901.744 9
  20647407.280         315.567          56.050


 23  9 13 15  2  0.0000000  0 11G05G06G07G09G11G13G14G18G20G22G30
 111285090.445 8  86715675.35248  21176841.140                    21176838.780
      1934.766        1507.609          50.600          48.450



 133623498.843 6 104122182.28946  25427726.680                    25427732.820
     -3682.742       -2869.682          41.400          40.400    99783755.761 7
  25427735.960       -2750.270          44.050


 112656241.494 8  87784080.15148  21437769.180                    21437767.020
     -1478.494       -1152.073          50.550          50.600



 126324104.898 7  98434354.86547  24038687.600                    24038689.320
     -3159.218       -2461.731          43.700          43.650    94332923.118 7
  24038692.100       -2359.230          46.350


 122022911.290 7  95082775.41547  23220193.400                    23220193.200
     -3121.977       -2432.712          45.650          42.400    91121010.953 8
  23220198.420       -2331.321          50.150


 116338668.180 7  90653524.05247  22138504.160                    22138503.100
      2762.650        2152.715          47.500          42.300



 126152982.398 7  98301055.85046  24006103.060                    24006104.820
      3348.535        2609.253          44.150          40.050    94205218.895 7
  24006110.260        2500.531          46.700


 135772343.308 6 105796636.30846  25836617.660                    25836619.820
      2941.918        2292.397          40.950          39.250   101388457.386 7
  25836625.680        2197.007          47.350


 106670561.908 8  83119913.43448  20298730.960                    20298728.120
      -299.471        -233.354          49.300          49.150



 131372094.229 6 102367878.52945  24999273.740                    24999277.800
      3448.085        2686.823          37.000          33.200



 108490466.637 8  84538038.44848  20645043.600                    20645043.600
       405.924         316.305          51.350          51.300    81015627.667 9
  20645044.120         303.063          56.300


 23  9 13 15  2 30.0000000  0 11G05G06G07G09G11G13G14G18G20G22G30
 111227293.219 8  86670638.56048  21165842.680                    21165840.360
      1918.711        1495.100          50.650          48.550



 133733949.336 6 104208247.19546  25448745.200                    25448750.920
     -3679.916       -2867.486          40.550          40.550    99866234.478 7
  25448754.980       -2748.024          44.400


 112700796.593 8  87818798.39248  21446247.780                    21446245.580
     -1491.495       -1162.204          50.750          50.700



 126418938.069 7  98508250.74547  24056734.160                    24056735.940
     -3162.506       -2464.293          45.350          45.350    94403739.966 7
  24056738.540       -2361.816          46.250


 122116715.329 7  95155869.40147  23238043.780                    23238043.800
     -3131.254       -2439.939          46.300          42.200    91191059.339 8
  23238049.140       -2338.398          50.050


 116255908.566 7  90589036.07446  22122755.400                    22122754.380
      2755.024        2146.773          47.000          41.850



 126052587.980 7  98222826.54646  23986998.720                    23987000.600
      3344.666        2606.236          44.750          39.700    94130249.191 7
  23987005.820        2497.479          47.050



                                                                 101322673.018 7
  25819861.700        2188.645          44.800


 106679845.239 8  83127147.18748  20300497.440                    20300494.720
      -319.139        -248.680          49.450          49.450



 131268634.748 6 102287261.05845  24979585.960                    24979589.780
      3449.108        2687.635          37.650          30.700



 108478554.641 8  84528756.37848  20642776.680                    20642776.880
       388.705         302.888          51.300          51.350    81006732.357 9
  20642777.500         290.139          56.200


 23  9 13 15  3  0.0000000  0 11G05G06G07G09G11G13G14G18G20G22G30
 111169961.089 8  86625964.18648  21154932.820                    21154930.580
      1902.677        1482.605          50.600          49.200



 133844291.893 6 104294227.94546  25469743.060                    25469749.000
     -3676.820       -2865.076          41.450          41.500    99948632.670 6
  25469752.760       -2745.642          41.000


 112745726.597 8  87853808.76048  21454797.620                    21454795.560
     -1504.479       -1172.322          50.300          50.250



 126513856.732 7  98582213.23947  24074796.920                    24074799.180
     -3166.044       -2467.051          45.050          44.700    94474620.658 7
  24074801.000       -2364.171          46.150


 122210783.819 7  95229169.45647  23255944.320                    23255944.580
     -3140.572       -2447.203          44.900          42.700    91261305.215 8
  23255949.840       -2345.242          49.400


 116173364.029 7  90524715.68447  22107047.540                    22107046.560
      2747.371        2140.809          46.550          43.200



 125952302.912 7  98144682.43946  23967915.040                    23967917.240
      3340.500        2602.989          43.950          39.750    94055361.130 7
  23967922.140        2494.498          46.650


 135596472.329 6 105659589.50846  25803151.040                    25803153.060
      2919.984        2275.303          39.800          37.600   101257126.623 7
  25803158.620        2180.452          44.000


 106689706.052 8  83134830.92448  20302373.820                    20302371.360
      -338.952        -264.118          49.150          49.100



 131165132.986 6 102206610.54145  24959890.080                    24959894.200
      3450.244        2688.516          37.100          33.800



 108467143.384 8  84519864.48148  20640605.120                    20640605.400
       371.482         289.467          51.600          51.650    80998210.948 9
  20640606.100         277.397          56.300


 23  9 13 15  3 30.0000000  0 12G05G06G07G09G11G13G14G15G18G20G22G30
 111113095.297 8  86581653.19548  21144111.660                    21144109.480
      1887.212        1470.555          50.550          49.050



 133954522.952 6 104380121.89246  25490719.640                    25490725.580
     -3672.979       -2862.078          41.150          40.600   100030947.527 7
  25490729.760       -2742.845          43.800


 112791028.561 8  87889108.96948  21463418.280                    21463416.360
     -1516.961       -1182.048          50.600          50.600



 126608859.247 7  98656241.06047  24092875.380                    24092878.300
     -3168.723       -2469.139          44.150          43.900    94545563.969 7
  24092879.460       -2366.271          46.800


 122305112.867 7  95302672.53846  23273894.320                    23273894.740
     -3149.009       -2453.777          44.700          41.400    91331745.653 8
  23273900.220       -2351.683          49.700


 116091034.529 7  90460562.87047  22091380.600                    22091379.620
      2740.035        2135.094          46.050          42.700



 125852129.266 7  98066625.19447  23948852.460                    23948855.080
      3336.904        2600.190          44.400          42.000    93980556.291 7
  23948859.360        2491.658          46.150


 133697875.882 6 104180169.95645  25441862.320                    25441861.920
      3601.917        2806.693          36.300          31.150



 135509016.891 6 105591442.23346  25786509.420                    25786511.060
      2909.213        2266.910          41.300          39.450   101191818.814 7
  25786516.720        2172.459          45.400


 106700143.633 8  83142964.09748  20304360.020                    20304357.820
      -358.198        -279.116          49.250          49.450



 131061590.565 6 102125928.45845  24940186.440                    24940190.800
      3451.701        2689.655          38.400          31.500



 108456231.755 8  84511361.91548  20638528.720                    20638529.000
       354.844         276.502          52.000          52.000    80990062.654 9
  20638529.800         265.009          56.150


 23  9 13 15  4  0.0000000  0 12G05G06G07G09G11G13G14G15G18G20G22G30
 111056705.868 8  86537713.39548  21133381.160                    21133378.980
      1871.884        1458.611          50.700          49.050



 134064648.266 5 104465933.33046  25511675.960                    25511682.440
     -3669.613       -2859.454          35.900          36.250   100113183.421 6
  25511686.280       -2739.451          38.400


 112836709.480 8  87924704.46448  21472111.140                    21472109.300
     -1528.823       -1191.292          50.550          50.600



 126703953.171 7  98730340.09147  24110971.060                    24110974.640
     -3171.426       -2471.244          42.300          42.100    94616575.506 7
  24110975.420       -2367.987          47.300


 122399707.610 7  95376382.65647  23291894.860                    23291895.620
     -3157.239       -2460.189          44.000          43.150    91402384.500 8
  23291901.060       -2357.684          48.750


 116008928.985 7  90396584.55947  22075756.260                    22075755.160
      2733.188        2129.758          46.600          42.650



 125752078.288 7  97988663.52046  23929813.200                    23929816.000
      3332.986        2597.137          44.200          41.200    93905843.017 7
  23929819.880        2489.105          45.850


 133589816.880 5                  25421297.040
      3601.817                          34.650



 135421892.352 6 105523552.96146  25769930.320                    25769931.740
      2898.766        2258.775          40.250          36.300   101126758.225 7
  25769937.480        2164.794          45.100


 106711166.448 8  83151553.29448  20306457.760                    20306455.600
      -376.947        -293.726          49.900          49.750



 130958018.438 6 102045223.24745  24920477.400                    24920481.840
      3453.037        2690.688          38.500          31.000



 108445827.820 8  84503254.96348  20636549.020                    20636549.160
       338.407         263.693          52.200          52.200    80982293.485 9
  20636550.060         252.820          56.000


 23  9 13 15  4 30.0000000  0 12G05G06G07G09G11G13G14G15G18G20G22G30
 111000788.197 8  86494141.20248  21122740.380                    21122738.120
      1856.269        1446.443          51.000          48.450



                                  25532610.620                    25532617.440
     -3664.700       -2855.629          36.900          37.750   100195333.601 5
  25532621.320       -2736.419          34.950


 112882759.884 8  87960587.87348  21480874.340                    21480872.520
     -1540.913       -1200.712          50.800          50.700



 126799129.804 7  98804503.58647  24129082.420                    24129086.340
     -3173.591       -2472.932          43.100          43.100    94687648.840 8
  24129087.200       -2369.856          48.300


 122494557.111 7  95450291.30747  23309943.800                    23309944.480
     -3165.473       -2466.605          43.300          42.550    91473213.616 8
  23309950.120       -2363.843          48.550


 115927040.706 7  90332775.53647  22060173.480                    22060172.220
      2726.204        2124.314          47.700          42.350



 125652144.929 7  97910793.49946  23910796.260                    23910799.180
      3329.337        2594.292          43.550          41.650    93831217.617 7
  23910802.840        2486.259          46.300


 133481744.600 6 104011737.44354  25400731.680                    25400728.780
      3602.805        2807.380          36.250          29.400



 135335093.565 6 105455917.42846  25753413.240                    25753414.560
      2888.022        2250.408          40.650          38.250   101061940.819 7
  25753420.000        2156.774          43.500


 106722766.773 8  83160592.49248  20308665.500                    20308663.100
      -395.987        -308.562          50.350          50.350



 130854411.523 6 101964490.88845  24900761.480                    24900766.220
      3454.769        2692.040          40.200          35.050



 108435923.418 8  84495537.25748  20634664.440                    20634664.380
       322.179         251.048          52.100          52.050    80974897.353 9
  20634665.360         240.562          56.300


 23  9 13 15  5  0.0000000  0 12G05G06G07G09G11G13G14G15G18G20G22G30
 110945344.979 8  86450938.69948  21112189.920                    21112187.480
      1839.840        1433.642          50.600          48.700



 134284668.304 5 104637431.94345  25553523.320                    25553530.040
     -3662.256       -2853.720          33.850          33.100   100277397.056 6
  25553534.660       -2734.215          40.150


 112929180.653 8  87996759.87848  21489708.040                    21489706.120
     -1553.846       -1210.789          50.650          50.650



 126894390.249 7  98878732.38347  24147209.900                    24147213.820
     -3176.935       -2475.537          43.350          43.800    94758784.732 8
  24147214.900       -2372.453          48.450


 122589660.168 7  95524397.52046  23328041.040                    23328041.920
     -3174.599       -2473.714          42.850          41.950    91544232.049 8
  23328047.440       -2370.612          48.200


 115845372.360 8  90269137.87746  22044632.640                    22044631.220
      2718.389        2118.225          48.000          41.350



 125552334.038 7  97833018.91646  23891802.620                    23891805.560
      3324.636        2590.631          43.600          41.400    93756683.669 7
  23891809.220        2482.795          45.850


 133373672.888 7 103927535.75546  25380166.180                    25380166.220
      3602.163        2806.881          42.800          37.700



 135248625.012 6 105388539.34346  25736958.700                    25736960.560
      2876.337        2241.304          40.500          40.150   100997370.160 7
  25736965.660        2147.985          45.550


 106734946.789 8  83170083.39148  20310983.500                    20310980.760
      -415.960        -324.126          50.000          50.100



 130750774.525 6 101883735.09746  24881039.980                    24881044.760
      3454.438        2691.779          40.350          37.500



 108426520.194 8  84488210.07448  20632875.140                    20632875.000
       304.880         237.569          51.500          51.400    80967875.469 9
  20632875.980         227.671          56.200


 23  9 13 15  5 30.0000000  0 12G05G06G07G09G11G13G14G15G18G20G22G30
 110890381.357 8  86408109.91748  21101730.680                    21101728.100
      1823.823        1421.161          50.200          48.450



 134394447.886 6 104722973.88546  25574413.860                    25574420.820
     -3657.684       -2850.162          39.500          39.300   100359374.693 6
  25574425.600       -2731.479          41.150


 112975972.313 8  88033220.89848  21498612.240                    21498610.180
     -1566.111       -1220.348          50.250          50.250



 126989736.677 6  98953028.15446  24165353.700                    24165357.580
     -3179.815       -2477.784          41.500          41.650    94829984.796 8
  24165358.840       -2374.605          48.400


 122685016.568 6  95598701.13646  23346186.880                    23346187.200
     -3183.056       -2480.304          41.800          41.700    91615439.663 7
  23346192.920       -2376.980          47.550


 115763927.684 8  90205674.51547  22029134.300                    22029132.860
      2710.781        2112.298          48.750          42.100



 125452651.428 7  97755344.28447  23872833.360                    23872836.260
      3320.424        2587.349          43.650          42.050    93682245.527 7
  23872839.960        2479.421          46.100


 133265605.057 6 103843327.03345  25359601.540                    25359601.820
      3602.003        2806.757          40.000          34.750



 135162492.225 6 105321422.88545  25720568.020                    25720569.960
      2865.245        2232.655          36.600          34.750   100933050.253 7
  25720575.140        2139.736          42.350


 106747709.324 8  83180028.20948  20313412.180                    20313409.200
      -435.389        -339.265          49.600          49.650



 130647113.098 6 101802960.26946  24861313.800                    24861319.000
      3455.419        2692.546          41.000          36.050



 108417620.755 8  84481275.44448  20631181.600                    20631181.520
       287.878         224.320          51.200          51.000    80961229.782 9
  20631182.500         215.017          56.250


 23  9 13 15  6  0.0000000  0 12G05G06G07G09G11G13G14G15G18G20G22G30
 110835893.623 8  86365651.95148  21091362.000                    21091359.340
      1807.872        1408.731          50.650          48.700



 134504108.871 5 104808424.67745  25595281.240                    25595287.800
     -3653.514       -2846.901          34.000          32.850   100441260.028 6
  25595292.620       -2728.073          38.550


 113023128.064 8  88069965.62348  21507585.640                    21507583.460
     -1578.220       -1229.782          50.250          50.250



 127085162.832 6  99027386.04146  24183512.660                    24183516.440
     -3182.602       -2479.955          41.100          40.400    94901244.395 8
  24183517.880       -2376.447          48.700


 122780617.776 6  95673195.47146  23364379.180                    23364379.380
     -3190.993       -2486.491          41.800          41.500    91686830.078 7
  23364384.540       -2382.957          47.500


 115682702.264 8  90142382.00147  22013677.680                    22013676.380
      2703.493        2106.619          49.050          42.300



 125353094.555 7  97677767.66446  23853888.100                    23853890.980
      3316.131        2584.004          44.050          41.000    93607901.276 7
  23853894.780        2476.351          46.300


 133157537.137 6 103759118.33846  25339036.920                    25339037.280
      3601.910        2806.682          41.800          37.100



 135076692.535 7 105254566.00346  25704241.000                    25704242.680
      2853.929        2223.835          42.350          38.950   100868979.029 7
  25704247.940        2131.365          46.500


 106761048.916 8  83190422.69248  20315950.480                    20315947.480
      -454.490        -354.148          49.350          49.550



 130543424.225 6 101722164.03545  24841582.360                    24841587.100
      3456.391        2693.304          40.300          35.050



 108409219.327 8  84474728.87948  20629582.760                    20629582.820
       271.395         211.477          51.750          51.900    80954955.989 9
  20629583.800         202.701          56.600


 23  9 13 15  6 30.0000000  0 12G05G06G07G09G11G13G14G15G18G20G22G30
 110781889.863 8  86323571.10748  21081085.420                    21081082.780
      1792.058        1396.409          51.000          48.000




                                                                 100523055.749 5
  25616137.360       -2724.871          33.350


 113070651.095 8  88106996.53348  21516628.860                    21516626.700
     -1590.216       -1239.131          50.200          50.200



 127180672.592 6  99101809.07146  24201687.780                    24201691.300
     -3185.069       -2481.877          41.550          41.100    94972566.438 7
  24201692.620       -2378.426          47.950


 122876465.314 7  95747881.79347  23382618.720                    23382618.560
     -3199.016       -2492.741          43.250          42.700    91758404.445 7
  23382623.340       -2388.833          47.600


 115601701.433 8  90079264.49347  21998263.680                    21998262.660
      2696.384        2101.079          48.700          42.350



 125253670.989 7  97600294.87647  23834968.220                    23834970.860
      3311.917        2580.719          44.250          42.050    93533656.568 7
  23834974.980        2473.159          46.300


 133049473.946 6 103674913.29945  25318473.160                    25318473.140
      3602.051        2806.793          40.350          35.500



 134991232.729 6 105187974.00946  25687978.300                    25687980.280
      2843.138        2215.434          39.150          37.600   100805161.680 7
  25687985.620        2123.067          45.800


 106774970.495 8  83201270.66448  20318599.420                    20318596.620
      -473.732        -369.143          49.400          49.400



 130439715.591 6 101641352.44845  24821847.000                    24821852.100
      3456.906        2693.700          38.900          34.350



 108401320.244 8  84468573.75348  20628079.580                    20628079.740
       255.027         198.723          51.900          52.050    80949057.334 9
  20628080.720         190.419          56.600


 23  9 13 15  7  0.0000000  0 12G05G06G07G09G11G13G14G15G18G20G22G30
 110728368.798 8  86281866.37548  21070900.740                    21070898.140
      1775.372        1383.407          51.200          48.400



 134723061.878 5 104979030.61745  25636944.560                    25636952.700
     -3645.107       -2840.378          34.100          34.350   100604757.330 5
  25636958.260       -2722.311          35.850


 113118537.508 8  88144310.59348  21525741.260                    21525739.100
     -1602.882       -1249.000          50.050          50.150



 127276262.670 7  99176294.70947  24219878.160                    24219881.480
     -3188.152       -2484.279          42.850          43.050    95043948.488 7
  24219882.600       -2380.861          46.900


 122972553.613 7  95822755.68446  23400903.920                    23400903.760
     -3207.482       -2499.343          42.750          41.600    91830158.576 7
  23400908.100       -2395.259          47.300


 115520923.629 7  90016320.78347  21982892.020                    21982891.320
      2688.367        2094.833          47.950          42.950



 125154381.135 7  97522926.30446  23816073.740                    23816076.340
      3306.780        2576.718          44.050          41.200    93459511.712 7
  23816080.560        2469.356          46.150


 132941413.950 6 103590710.74646  25297909.960                    25297910.280
      3601.651        2806.483          40.900          38.750



 134906112.986 6 105121646.81446  25671780.620                    25671782.480
      2830.914        2205.905          38.300          36.000   100741598.163 7
  25671788.240        2114.018          44.150


 106789471.866 8  83212570.42348  20321358.760                    20321356.220
      -493.560        -384.592          49.500          49.400



 130335987.186 6 101560525.42545  24802107.840                    24802112.380
      3457.038        2693.807          40.300          35.500



 108393920.663 8  84462807.84848  20626671.460                    20626671.740
       237.712         185.230          51.600          51.450    80943531.671 9
  20626672.740         177.511          56.450


 23  9 13 15  7 30.0000000  0 11G05G07G09G11G13G14G15G18G20G22G30
 110675330.818 8  86240538.08548  21060807.940                    21060805.520
      1759.830        1371.297          50.900          49.000



 113166783.936 8  88181905.19448  21534922.180                    21534920.040
     -1614.195       -1257.815          49.050          49.150



 127371930.394 7  99250840.85447  24238083.360                    24238086.500
     -3190.329       -2485.975          42.350          42.150    95115388.500 7
  24238087.480       -2382.298          46.750


 123068877.426 7  95897813.12647  23419234.180                    23419233.940
     -3214.875       -2505.102          44.650          42.150    91902088.599 7
  23419237.660       -2400.651          47.350


 115440367.940 7  89953550.14247  21967562.660                    21967562.120
      2681.341        2089.357          47.350          42.350



 125055225.807 7  97445662.56646  23797204.820                    23797207.460
      3302.778        2573.599          43.700          41.800    93385467.324 7
  23797211.800        2466.383          46.700


 132833356.631 6 103506510.26446  25277347.400                    25277347.660
      3601.832        2806.624          40.000          36.300



 134821334.163 6 105055585.44146  25655647.840                    25655649.740
      2820.236        2197.585          39.350          37.150   100678289.302 7
  25655655.720        2105.963          44.200


 106804550.780 8  83224320.21248  20324228.200                    20324225.880
      -512.264        -399.168          49.650          49.350



 130232240.053 6 101479683.82046  24782365.340                    24782369.660
      3458.734        2695.131          40.350          36.200



 108387018.219 8  84457429.32048  20625357.920                    20625358.300
       221.680         172.737          51.650          51.600    80938377.250 9
  20625359.340         165.562          56.650


 23  9 13 15  8  0.0000000  0 11G05G07G09G11G13G14G15G18G20G22G30
 110622781.677 8  86199590.71748  21050808.140                    21050805.980
      1743.174        1358.318          50.600          49.050



 113215391.945 8  88219781.54848  21544171.860                    21544169.780
     -1626.693       -1267.555          49.050          48.850



 127467679.139 7  99325450.12547  24256303.840                    24256306.980
     -3193.378       -2488.350          43.300          43.800    95186889.042 7
  24256307.840       -2384.593          46.200


 123165437.956 7  95973055.00447  23437609.400                    23437609.200
     -3223.060       -2511.479          44.250          43.200    91974195.381 7
  23437612.600       -2406.694          47.550


 115360039.339 8  89890956.46647  21952276.640                    21952276.040
      2673.436        2083.197          48.000          42.700



 124956212.266 7  97368509.27547  23778362.960                    23778365.580
      3297.769        2569.692          43.300          42.400    93311528.813 7
  23778370.200        2462.515          46.550


 132725306.457 6 103422315.39346  25256785.880                    25256786.440
      3601.307        2806.217          39.300          36.200



 134736902.990 7 104989794.88646  25639581.080                    25639583.080
      2808.111        2188.140          42.300          39.000   100615239.999 7
  25639589.120        2096.991          46.750


 106820211.290 8  83236523.19048  20327208.400                    20327206.180
      -532.157        -414.669          49.700          49.600



 130128481.007 6 101398832.81845  24762620.440                    24762623.820
      3458.477        2694.921          40.650          34.100



 108380616.768 8  84452441.17948  20624139.760                    20624140.140
       204.682         159.492          51.650          51.650    80933596.948 9
  20624141.280         152.815          56.450


 23  9 13 15  8 30.0000000  0 11G05G07G09G11G13G14G15G18G20G22G30
 110570725.162 8  86159027.21248  21040901.980                    21040900.160
      1726.946        1345.673          49.850          49.700



 113264361.889 8  88257939.91548  21553490.420                    21553488.400
     -1638.319       -1276.613          49.800          49.900



 127563509.293 7  99400122.84747  24274539.880                    24274542.880
     -3195.711       -2490.169          43.500          43.650    95258450.381 7
  24274543.760       -2386.379          45.800


 123262233.163 7  96048479.77547  23456029.320                    23456029.180
     -3230.098       -2516.962          44.950          42.450    92046477.422 7
  23456032.740       -2412.181          47.500


 115279939.624 8  89828541.13247  21937034.240                    21937033.320
      2666.171        2077.537          48.500          42.550



 124857344.559 7  97291469.65246  23759548.980                    23759551.560
      3293.199        2566.135          43.600          41.600    93237699.181 7
  23759556.300        2459.139          46.900


 132617265.408 6 103338127.58945  25236226.380                    25236226.860
      3601.158        2806.101          39.300          33.950



 134652823.137 6 104924278.16546  25623581.300                    25623583.040
      2797.081        2179.557          39.400          39.700   100552453.180 7
  25623589.180        2088.525          46.700


 106836454.749 8  83249180.41348  20330299.520                    20330297.340
      -551.216        -429.520          49.850          49.850



 130024714.049 6 101317975.71545  24742874.060                    24742877.260
      3458.944        2695.294          40.000          32.900



 108374717.048 8  84447844.00048  20623017.120                    20623017.380
       188.262         146.697          52.000          52.050    80929191.309 9
  20623018.580         140.647          56.550


 23  9 13 15  9  0.0000000  0 11G05G07G09G11G13G14G15G18G20G22G30
 110519159.632 8  86118846.28948  21031089.160                    21031087.700
      1710.989        1333.238          49.500          49.350



 113313688.587 8  88296376.27448  21562876.920                    21562874.860
     -1649.855       -1285.604          49.600          49.650



 127659416.747 7  99474855.81547  24292790.540                    24292793.600
     -3197.978       -2491.935          43.050          42.600    95330069.446 7
  24292794.620       -2388.118          45.750


 123359256.649 7  96124082.41847  23474492.560                    23474492.600
     -3237.727       -2522.907          44.200          42.950    92118929.921 8
  23474496.420       -2417.750          48.100


 115200066.608 7  89766302.43347  21921834.940                    21921833.700
      2658.867        2071.846          47.750          43.200



 124758622.123 7  97214543.22147  23740762.620                    23740765.240
      3288.395        2562.391          43.650          42.100    93163978.052 7
  23740770.200        2455.611          47.250


 132509231.280 6 103253945.15646  25215667.980                    25215668.840
      3601.023        2805.993          39.550          38.150



 134569093.940 6 104859034.70046  25607647.980                    25607649.840
      2785.088        2170.199          37.400          36.650   100489928.201 7
  25607655.880        2079.956          47.750


 106853277.626 8  83262289.13148  20333500.940                    20333498.620
      -570.251        -444.352          49.750          49.650



 129920938.647 6 101237112.00245  24723126.100                    24723129.240
      3459.398        2695.640          39.900          34.300



 108369315.310 8  84443634.86048  20621989.240                    20621989.340
       172.078         134.087          51.900          51.850    80925157.558 9
  20621990.560         128.396          56.500


 23  9 13 15  9 30.0000000  0 11G05G07G09G11G13G14G15G18G20G22G30
 110468085.456 8  86079048.25248  21021369.860                    21021368.640
      1694.168        1320.132          49.350          49.250



 113363368.667 8  88335088.00548  21572330.820                    21572328.460
     -1661.896       -1294.985          50.050          50.050



 127755398.866 7  99549646.94047  24311055.340                    24311058.440
     -3200.763       -2494.104          42.600          42.300    95401744.248 7
  24311059.700       -2390.155          44.950


 123456503.372 7  96199859.00147  23492998.100                    23492998.420
     -3245.320       -2528.822          44.750          42.650    92191549.133 8
  23493002.680       -2423.459          48.350


 115120418.910 7  89704239.31247  21906678.440                    21906676.920
      2651.200        2065.871          47.500          43.550



 124660046.094 7  97137730.86746  23722004.200                    23722006.580
      3283.481        2558.562          44.400          41.200    93090366.239 7
  23722011.980        2451.838          47.600


 132401202.539 6 103169766.91446  25195110.780                    25195111.260
      3600.821        2805.835          40.900          37.700



 134485716.002 6 104794064.95446  25591781.500                    25591783.300
      2773.542        2161.205          37.000          37.200   100427665.579 7
  25591789.340        2070.858          45.100


 106870678.123 8  83275847.95248  20336812.140                    20336809.840
      -589.682        -459.492          49.250          49.250



 129817155.630 6 101156242.38545  24703376.600                    24703379.720
      3459.746        2695.916          39.550          35.850



 108364409.264 8  84439811.97748  20621055.680                    20621055.640
       155.190         120.928          51.800          51.950    80921493.950 9
  20621056.800         115.937          56.450


 23  9 13 15 10  0.0000000  0 11G05G07G09G11G13G14G15G18G20G22G30
 110417508.620 8  86039637.74248  21011745.340                    21011744.000
      1677.698        1307.298          50.000          49.350



 113413404.808 8  88374077.18948  21581852.540                    21581849.780
     -1673.579       -1304.088          50.100          50.400



 127851459.319 7  99624499.10647  24329335.120                    24329338.180
     -3203.125       -2495.945          42.100          42.200    95473477.543 7
  24329339.680       -2392.000          43.600


 123553974.634 7  96275810.55847  23511546.220                    23511546.720
     -3252.523       -2534.435          43.950          43.150    92264336.024 8
  23511551.580       -2428.841          48.750


 115041002.095 8  89642356.10047  21891565.920                    21891564.100
      2643.721        2060.042          48.000          43.750



 124561623.744 7  97061038.25946  23703275.080                    23703277.060
      3278.468        2554.654          44.400          41.050    93016869.193 7
  23703282.920        2448.059          47.300


 132293185.124 6 103085597.55945  25174555.780                    25174556.320
      3600.459        2805.552          41.850          33.650



 134402696.271 6 104729374.24846  25575983.260                    25575985.240
      2761.943        2152.165          37.750          37.150   100365670.321 7
  25575990.840        2062.169          46.150


 106888660.410 8  83289860.11648  20340234.040                    20340231.700
      -608.900        -474.468          49.100          49.350



 129713372.418 6 101075372.60245  24683627.240                    24683630.100
      3459.537        2695.754          41.850          34.350



 108360002.880 8  84436378.43348  20620217.180                    20620217.100
       138.859         108.202          51.300          51.450    80918203.476 9
  20620218.140         103.605          56.400


 23  9 13 15 10 30.0000000  0 11G05G07G09G11G13G14G15G18G20G22G30
 110367430.087 8  86000615.51548  21002215.800                    21002214.120
      1660.923        1294.226          50.050          49.000



 113463794.518 8  88413341.89248  21591441.480                    21591438.480
     -1685.337       -1313.250          49.400          49.150



 127947596.331 6  99699410.93846  24347629.600                    24347632.460
     -3205.719       -2497.966          41.600          41.600    95545268.023 7
  24347633.860       -2393.894          42.000


 123651666.324 7  96351933.87947  23530136.140                    23530137.020
     -3259.903       -2540.187          43.900          43.150    92337287.513 8
  23530142.560       -2434.410          49.200


 114961816.270 8  89580652.88247  21876497.420                    21876495.440
      2635.684        2053.780          48.750          42.800



 124463357.101 7  96984466.97046  23684575.520                    23684577.080
      3272.960        2550.361          44.850          40.600    92943488.383 7
  23684583.420        2444.124          47.300


 132185178.654 6 103001436.69846  25154002.820                    25154003.480
      3599.867        2805.095          41.600          37.850



 134320036.555 6 104664964.15846  25560253.600                    25560255.300
      2749.436        2142.416          36.900          36.550   100303943.980 7
  25560261.040        2053.066          46.150


 106907223.584 8  83304324.92248  20343766.460                    20343764.180
      -628.431        -489.686          49.400          49.600



 129609590.688 7 100994503.94245  24663878.020                    24663880.540
      3459.374        2695.624          42.050          31.900



 108356094.731 8  84433333.12048  20619473.400                    20619473.440
       121.990          95.058          51.000          51.000    80915285.047 9
  20619474.320          91.134          56.550


 23  9 13 15 11  0.0000000  0 11G05G07G09G11G13G14G15G18G20G22G30
 110317851.646 8  85961982.96648  20992781.500                    20992779.500
      1644.135        1281.145          50.650          49.300



 113514534.826 8  88452879.76548  21601097.020                    21601094.000
     -1697.239       -1322.525          49.450          49.700



 128043807.982 6  99774380.91746  24365938.220                    24365941.060
     -3208.413       -2500.068          41.650          41.150    95617114.268 6
  24365941.740       -2396.017          39.950


 123749574.112 7  96428225.57447  23548767.080                    23548768.440
     -3267.199       -2545.873          42.950          42.800    92410400.385 8
  23548774.580       -2439.905          48.900


 114882860.628 8  89519129.03247  21861472.700                    21861470.720
      2627.843        2047.671          48.850          42.700



 124365247.890 7  96908018.33646  23665906.000                    23665906.940
      3267.597        2546.182          44.550          41.050    92870225.133 7
  23665913.580        2439.965          46.900


 132077183.429 6 102917284.60146  25133451.920                    25133452.700
      3599.352        2804.690          41.800          38.300



 134237738.356 6 104600835.82246  25544592.880                    25544594.420
      2737.594        2133.194          37.200          36.500   100242487.670 7
  25544600.180        2044.007          45.800


 106926366.228 8  83319241.25648  20347409.140                    20347406.900
      -647.805        -504.783          49.650          49.550



 129505812.298 6 100913637.83445  24644129.400                    24644131.260
      3459.354        2695.603          40.300          31.800



 108352683.178 8  84430674.75748  20618824.180                    20618824.340
       105.307          82.057          51.750          51.600    80912737.461 9
  20618825.100          78.591          56.200


 23  9 13 15 11 30.0000000  0 11G05G07G09G11G13G14G15G18G20G22G30
 110268778.131 8  85923743.86548  20983443.280                    20983441.180
      1627.653        1268.301          51.200          49.300



 113565627.297 8  88492692.05248  21610819.500                    21610816.680
     -1708.853       -1331.574          48.950          48.850



 128140096.801 6  99849411.04046  24384261.340                    24384264.260
     -3210.936       -2502.031          41.750          41.800    95689018.139 6
  24384263.900       -2397.706          40.050


 123847698.247 7  96504685.85746  23567439.200                    23567440.800
     -3274.259       -2551.375          43.100          41.250    92483674.799 8
  23567447.540       -2445.143          49.400


 114804139.824 8  89457788.17647  21846492.620                    21846490.760
      2620.132        2041.662          48.800          43.650



 124267302.248 7  96831697.16346  23647267.520                    23647267.860
      3262.105        2541.903          44.950          40.850    92797084.017 7
  23647274.840        2436.080          47.000


 131969202.999 6 102833144.09346  25112903.900                    25112904.660
      3599.116        2804.509          40.400          37.000



 134155806.938 6 104536993.05245  25529002.120                    25529003.160
      2725.353        2123.645          36.000          31.850   100181305.057 7
  25529009.100        2034.940          45.000


 106946091.663 8  83334611.71548  20351162.760                    20351160.520
      -667.021        -519.756          49.600          49.600



 129402042.671 6 100832778.57945  24624382.200                    24624383.900
      3458.956        2695.291          38.350          34.900



 108349771.019 8  84428405.55248  20618270.100                    20618270.280
        89.028          69.373          52.300          52.200    80910562.808 9
  20618271.020          66.367          56.700


 23  9 13 15 12  0.0000000  0 11G05G07G09G11G13G14G15G18G20G22G30
 110220204.692 8  85885894.44148  20974200.120                    20974198.120
      1610.809        1255.176          50.700          49.300



 113617064.112 8  88532772.65048  21620607.500                    21620604.880
     -1720.082       -1340.325          49.450          49.350



 128236455.417 6  99924495.53147  24402597.820                    24402600.460
     -3212.941       -2503.595          41.850          42.300    95760974.131 6
  24402599.800       -2399.350          41.350


 123946028.910 7  96581307.08146  23586150.800                    23586152.280
     -3280.850       -2556.510          43.300          41.850    92557103.466 8
  23586159.560       -2450.134          49.550


 114725648.099 8  89396625.82447  21831556.080                    21831554.460
      2612.893        2036.021          48.250          43.400



 124169516.501 7  96755500.57146  23628659.420                    23628659.340
      3257.093        2537.997          44.900          40.700    92724062.295 7
  23628666.420        2432.144          46.750


 131861231.953 6 102749010.87745  25092357.560                    25092358.300
      3599.082        2804.482          40.000          35.400



 134074238.716 6 104473433.38446  25513480.060                    25513481.660
      2712.819        2113.883          40.200          38.300   100120393.658 7
  25513487.540        2025.841          45.300


 106966392.877 8  83350430.82248  20355025.940                    20355023.660
      -686.106        -534.629          49.650          49.550



 129298278.333 6 100751923.52545  24604635.900                    24604638.360
      3458.475        2694.929          37.900          34.000



 108347351.159 8  84426519.94548  20617809.720                    20617809.900
        72.579          56.556          52.250          52.300    80908755.778 9
  20617810.640          54.129          56.650


 23  9 13 15 12 30.0000000  0 11G05G07G09G11G13G14G15G18G20G22G30
 110172139.408 8  85848440.98548  20965053.520                    20965051.660
      1593.818        1241.937          50.250          49.600



 113668849.405 8  88573124.80048  21630461.900                    21630459.400
     -1731.663       -1349.349          49.550          49.400



 128332889.217 6  99999638.66046  24420948.640                    24420950.580
     -3215.410       -2505.519          41.150          41.150    95832986.247 7
  24420951.000       -2401.152          42.200


 124044569.143 7  96658091.57846  23604902.220                    23604903.620
     -3287.868       -2561.977          43.950          40.850    92630688.604 8
  23604911.220       -2455.325          48.750


 114647392.053 8  89335647.12247  21816664.380                    21816662.940
      2604.797        2029.712          48.550          43.050



 124071899.732 7  96679435.65346  23610083.460                    23610083.180
      3251.336        2533.512          44.850          37.750    92651166.752 7
  23610090.180        2427.946          46.400


 131753277.549 6 102664890.58946  25071814.460                    25071815.340
      3598.540        2804.059          41.250          36.950



 133993042.367 6 104410163.55746  25498029.060                    25498030.720
      2700.761        2104.490          40.600          37.200   100059760.099 7
  25498036.700        2016.616          45.250


 106987275.846 8  83366703.25148  20358999.780                    20358997.540
      -705.454        -549.705          49.400          49.450



 129194528.170 6 100671079.44545  24584892.540                    24584895.300
      3458.548        2694.978          39.650          34.850



 108345429.224 8  84425022.33648  20617444.020                    20617444.200
        56.039          43.666          52.000          52.050    80907320.565 9
  20617444.960          41.763          56.200


 23  9 13 15 13  0.0000000  0 11G05G07G09G11G13G14G15G18G20G22G30
 110124580.859 8  85811382.39748  20956003.200                    20956001.560
      1576.565        1228.494          49.800          49.500



 113720978.006 8  88613744.46648  21640381.720                    21640379.260
     -1743.489       -1358.563          49.400          49.450



 128429393.981 6 100074837.05046  24439313.060                    24439314.340
     -3218.147       -2507.651          40.800          41.000    95905051.333 7
  24439315.700       -2403.236          43.400


 124143312.295 7  96735034.21846  23623692.600                    23623693.320
     -3295.013       -2567.545          43.100          41.900    92704425.279 8
  23623701.320       -2460.509          49.050


 114569369.283 8  89274850.19747  21801817.100                    21801815.740
      2596.705        2023.408          48.700          42.650



 123974451.410 7  96603501.97846  23591539.480                    23591539.060
      3245.387        2528.878          44.400          40.250    92578397.001 7
  23591546.140        2423.438          46.800


 131645336.887 6 102580781.01546  25051274.000                    25051275.240
      3597.635        2803.352          40.950          36.000



 133912216.753 6 104347182.51046  25482648.400                    25482650.000
      2687.583        2094.220          39.150          37.250    99999403.287 7
  25482656.320        2007.145          43.800


 107008736.896 8  83383426.12948  20363083.680                    20363081.480
      -725.095        -565.010          49.300          49.250



 129090791.466 6 100590245.87546  24565152.000                    24565154.760
      3457.480        2694.147          39.550          37.500



 108344001.213 8  84423909.59848  20617172.280                    20617172.380
        39.223          30.563          51.800          51.750    80906254.197 9
  20617173.180          29.276          56.450


 23  9 13 15 13 30.0000000  0 11G05G07G09G11G13G14G15G18G20G22G30
 110077530.942 8  85774720.14748  20947049.860                    20947048.180
      1559.605        1215.278          50.550          49.700



 113773448.132 8  88654630.25448  21650366.480                    21650364.160
     -1754.978       -1367.517          49.700          49.750



 128525968.680 6 100150089.91946  24457690.580                    24457691.500
     -3220.465       -2509.456          39.800          39.700    95977168.614 7
  24457693.840       -2404.959          43.950


 124242255.017 7  96812132.34147  23642520.820                    23642520.800
     -3301.475       -2572.582          42.950          42.250    92778310.960 8
  23642529.200       -2465.479          48.850


 114491580.375 8  89214235.48247  21787014.420                    21787013.020
      2588.792        2017.242          49.300          42.800



 123877174.153 7  96527701.60046  23573027.980                    23573027.860
      3239.665        2524.418          44.150          40.200    92505754.998 7
  23573034.720        2419.072          46.750


 131537410.584 6 102496682.66745  25030736.360                    25030737.460
      3597.052        2802.899          37.950          35.250



 133831764.212 6 104284492.23345  25467338.680                    25467340.100
      2675.269        2084.623          38.200          35.600    99939325.127 7
  25467346.800        1997.746          43.800


 107030775.506 8  83400599.04948  20367277.400                    20367275.340
      -744.433        -580.079          49.000          48.950



 128987071.131 6 100509425.02745  24545414.560                    24545417.580
      3456.905        2693.700          38.100          35.650



 108343066.269 8  84423181.07448  20616994.280                    20616994.300
        22.680          17.672          51.700          51.750    80905556.020 9
  20616995.140          16.946          56.300


 23  9 13 15 14  0.0000000  0 11G05G07G09G11G13G14G15G18G20G22G30
 110030992.400 8  85738456.35848  20938193.940                    20938192.180
      1542.319        1201.808          50.850          49.700



 113826259.972 8  88695782.31348  21660416.400                    21660414.120
     -1766.626       -1376.593          49.900          49.800



 128622613.787 6 100225397.63346  24476081.640                    24476082.280
     -3222.906       -2511.362          40.600          40.350    96049338.466 7
  24476085.040       -2406.890          44.400


 124341395.368 7  96889384.48046  23661386.820                    23661386.300
     -3308.210       -2577.829          44.250          41.250    92852344.237 8
  23661394.580       -2470.540          48.750


 114414027.510 8  89153804.69247  21772256.740                    21772255.120
      2580.724        2010.953          49.900          42.150



 123780072.115 7  96452037.77046  23554549.900                    23554550.000
      3233.461        2519.584          44.500          40.500    92433243.832 7
  23554556.700        2414.486          47.150


 131429501.369 6 102412597.65046  25010201.840                    25010203.040
      3596.173        2802.220          40.600          36.550



 133751688.796 6 104222095.87246  25452100.840                    25452102.300
      2662.631        2074.774          38.500          38.150    99879528.550 7
  25452108.720        1988.210          44.750


 107053392.756 8  83418222.86448  20371581.220                    20371579.380
      -763.954        -595.290          49.100          49.000



 128883370.923 6 100428619.90745  24525680.900                    24525683.940
      3455.660        2692.731          38.950          34.950



 108342625.111 8  84422837.31548  20616910.260                    20616910.140
         6.080           4.738          52.100          52.200    80905226.582 9
  20616911.080           4.560          56.550


 23  9 13 15 14 30.0000000  0 11G05G07G09G11G13G14G15G18G20G22G30
 109984969.864 8  85702594.65448  20929436.220                    20929434.420
      1525.232        1188.493          50.800          49.200



 113879412.877 8  88737200.14948  21670531.200                    21670528.880
     -1777.764       -1385.271          50.200          50.250



 128719330.713 7 100300761.34447  24494486.440                    24494487.260
     -3225.319       -2513.239          42.600          42.600    96121561.954 7
  24494490.120       -2408.426          44.350


 124440732.415 7  96966789.90246  23680290.300                    23680289.500
     -3314.854       -2583.004          44.250          41.000    92926524.393 8
  23680297.280       -2475.252          48.450


 114336713.799 8  89093560.25247  21757544.460                    21757542.740
      2572.910        2004.865          50.000          42.800



 123683150.390 7  96376514.40946  23536106.220                    23536106.440
      3227.490        2514.929          44.200          39.300    92360867.289 7
  23536113.040        2410.155          47.550


 131321612.022 6 102328528.08945  24989671.140                    24989672.460
      3595.792        2801.922          38.150          35.800



 133671994.951 6 104159996.82746  25436935.720                    25436936.260
      2650.040        2064.970          39.900          36.000    99820017.018 7
  25436943.420        1978.778          45.900


 107076590.429 8  83436298.95448  20375995.500                    20375993.700
      -783.086        -610.197          49.200          49.350



 128779695.970 6 100347834.36545  24505952.140                    24505954.920
      3455.089        2692.279          39.550          35.850



 108342679.309 8  84422879.55948  20616920.560                    20616920.280
       -10.282          -8.012          52.200          52.200    80905267.061 9
  20616921.320          -7.678          56.250


 23  9 13 15 15  0.0000000  0 11G05G07G09G11G13G14G15G18G20G22G30
 109939461.275 8  85667133.43048  20920776.280                    20920774.400
      1508.219        1175.235          50.800          49.400



 113932902.664 8  88778880.48448  21680710.060                    21680707.600
     -1788.690       -1393.785          50.150          50.200



 128816115.683 6 100376178.10046  24512904.160                    24512905.580
     -3227.449       -2514.899          41.850          41.550    96193836.310 7
  24512907.840       -2410.050          43.800


 124540259.981 7  97044343.71846  23699230.000                    23699229.200
     -3320.896       -2587.716          43.900          39.850    93000846.798 7
  23699236.300       -2479.854          47.850


 114259637.193 8  89033500.58447  21742877.280                    21742875.360
      2565.171        1998.835          49.800          42.400



 123586408.860 7  96301131.46946  23517696.800                    23517697.300
      3221.550        2510.301          44.300          40.900    92288625.336 7
  23517703.900        2405.671          47.650


 131213740.832 6 102244472.66146  24969143.760                    24969145.660
      3595.659        2801.818          36.750          36.550



 133592682.193 6 104098194.72746  25421843.160                    25421843.500
      2637.740        2055.388          38.800          36.950    99760790.021 7
  25421850.580        1969.402          43.950


 107100365.114 8  83454824.65448  20380519.660                    20380517.800
      -802.158        -625.060          49.400          49.400



 128676045.955 6 100267068.28446  24486228.060                    24486230.740
      3454.593        2691.897          38.950          37.200



 108343225.281 8  84423304.99448  20617024.440                    20617024.060
       -26.586         -20.716          51.950          51.800    80905674.765 9
  20617025.220         -19.823          56.100


 23  9 13 15 15 30.0000000  0 11G05G07G09G11G13G14G15G18G20G22G30
 109894473.079 8  85632077.69548  20912215.380                    20912213.360
      1491.326        1162.072          50.550          49.350



 113986732.036 8  88820825.42748  21690953.520                    21690950.860
     -1799.478       -1402.190          50.100          49.900



 128912972.359 6 100451650.69546  24531335.420                    24531337.540
     -3229.206       -2516.270          41.850          41.800    96266164.209 7
  24531339.180       -2411.338          44.750


 124639979.295 7  97122047.00846  23718206.280                    23718205.320
     -3326.664       -2592.209          43.650          40.300    93075312.402 8
  23718212.060       -2484.080          48.100


 114182802.575 8  88973629.48647  21728256.140                    21728254.000
      2557.512        1992.868          50.000          42.750



 123489854.891 7  96225894.67946  23499323.280                    23499323.980
      3215.550        2505.625          44.300          41.200    92216523.415 8
  23499330.260        2401.423          48.100


 131105893.040 6 102160435.47745  24948620.820                    24948622.900
      3595.432        2801.640          37.900          34.900



 133513757.278 6 104036694.79345  25406824.140                    25406824.760
      2624.785        2045.288          36.200          35.900    99701852.557 7
  25406831.440        1960.066          43.250


 107124721.102 8  83473803.33248  20385154.580                    20385152.540
      -821.058        -639.786          49.400          49.600



 128572428.065 6 100186327.22446  24466510.220                    24466512.780
      3453.636        2691.149          40.050          36.250



 108344266.776 8  84424116.54948  20617222.640                    20617222.240
       -42.546         -33.153          51.950          51.750    80906452.503 9
  20617223.440         -31.699          56.400


 23  9 13 15 16  0.0000000  0 11G05G07G09G11G13G14G15G18G20G22G30
 109849998.921 8  85597422.51948  20903752.240                    20903750.100
      1473.992        1148.565          50.750          49.100



 114040891.026 8  88863027.22048  21701259.660                    21701256.860
     -1810.690       -1410.929          49.650          49.550



 129009891.398 6 100527171.89147  24549778.500                    24549781.200
     -3231.319       -2517.916          41.250          42.200    96338538.664 7
  24549782.380       -2413.126          44.700


 124739878.709 7  97199890.58747  23737216.720                    23737215.860
     -3332.825       -2597.012          43.950          42.200    93149912.487 7
  23737221.820       -2488.840          47.750


 114106202.107 8  88913940.83047  21713679.680                    21713677.280
      2549.637        1986.731          50.250          43.750



 123393482.685 7  96150799.53846  23480984.440                    23480985.080
      3209.451        2500.875          44.600          41.400    92144557.267 7
  23480991.100        2396.672          47.850


 130998060.773 6 102076410.35145  24928100.800                    24928103.160
      3594.471        2800.888          37.600          34.900



 133435214.377 6 103975492.54246  25391877.720                    25391878.680
      2611.863        2035.218          38.550          36.750    99643200.389 7
  25391885.100        1950.352          45.650


 107149649.335 8  83493227.90048  20389898.420                    20389896.200
      -840.286        -654.770          49.650          49.700



 128468836.720 6 100105606.88845  24446797.340                    24446799.940
      3452.886        2690.563          39.450          35.350



 108345794.612 8  84425307.07248  20617513.420                    20617513.060
       -58.901         -45.896          52.100          52.050    80907593.424 9
  20617514.240         -44.032          56.100


 23  9 13 15 16 30.0000000  0 11G05G07G09G11G13G14G15G18G20G22G30
 109806049.729 8  85563176.39848  20895389.020                    20895386.700
      1455.988        1134.537          51.000          48.800



 114095386.792 8  88905491.43148  21711629.860                    21711627.020
     -1822.277       -1419.957          49.850          49.850



 129106881.018 6 100602748.05346  24568235.040                    24568238.260
     -3234.320       -2520.255          40.900          40.550    96410965.777 7
  24568239.220       -2415.161          45.700


 124839963.984 7  97277879.00246  23756262.620                    23756261.920
     -3339.409       -2602.141          45.300          41.200    93224651.384 7
  23756267.140       -2493.651          47.750


 114029846.013 8  88854442.59447  21699149.680                    21699147.120
      2541.020        1980.016          50.050          43.100



 123297304.253 7  96075855.35046  23462682.480                    23462682.900
      3202.515        2495.468          45.300          41.400    92072735.791 7
  23462688.920        2391.568          47.800


 130890254.328 6 101992405.39646  24907585.980                    24907588.380
      3592.967        2799.715          38.900          36.050



 133357064.630 6 103914596.69646  25377006.100                    25377007.760
      2598.146        2024.534          38.600          37.650    99584841.876 7
  25377013.780        1940.330          45.050


 107175158.402 8  83513105.07548  20394752.840                    20394750.440
      -860.103        -670.211          49.750          49.850



 128365283.665 6 100024916.33345  24427091.600                    24427093.760
      3450.641        2688.818          39.300          31.550



 108347817.123 8  84426883.05448  20617898.300                    20617898.060
       -75.869         -59.119          51.950          52.000    80909103.740 9
  20617899.140         -56.559          56.100


 23  9 13 15 17  0.0000000  0 11G05G07G09G11G13G14G15G18G20G22G30
 109762625.698 8  85529339.49648  20887125.760                    20887123.280
      1439.222        1121.471          51.050          48.650



 114150216.093 8  88948215.54348  21722063.540                    21722060.660
     -1832.580       -1427.985          50.050          50.050



 129203938.783 6 100678377.33646  24586704.520                    24586708.300
     -3235.837       -2521.436          40.850          40.700    96483443.805 7
  24586709.080       -2416.366          46.500


 124940230.297 7  97356008.52746  23775342.880                    23775342.520
     -3344.571       -2606.159          44.750          41.200    93299525.487 8
  23775347.260       -2497.649          48.100


 113953733.625 8  88795134.25947  21684665.900                    21684663.380
      2533.496        1974.153          49.750          43.200



 123201320.752 7  96001063.10146  23444417.440                    23444418.140
      3196.854        2491.058          45.300          41.850    92001059.900 8
  23444423.620        2387.129          48.050


 130782472.686 6 101908419.82445  24887075.820                    24887077.940
      3592.688        2799.500          39.200          32.350



 133279309.089 6 103854008.01046  25362209.600                    25362211.640
      2585.893        2014.980          37.050          36.200    99526777.740 7
  25362217.420        1930.935          44.350


 107201246.085 8  83533433.12948  20399717.320                    20399714.820
      -878.569        -684.600          49.950          49.750



 128261769.937 6  99944256.35146  24407393.540                    24407395.340
      3450.604        2688.782          41.000          36.750



 108350331.912 8  84428842.62248  20618376.900                    20618376.740
       -91.375         -71.202          51.800          51.650    80910981.675 9
  20618377.740         -68.308          56.300


 23  9 13 15 17 30.0000000  0 11G05G07G09G11G13G14G15G18G20G22G30
 109719722.479 8  85495908.41548  20878961.600                    20878959.080
      1421.754        1107.860          50.950          49.350



 114205371.163 8  88991193.50448  21732559.220                    21732556.340
     -1843.516       -1436.506          49.750          49.700



 129301058.136 6 100754054.60346  24605185.740                    24605189.960
     -3237.779       -2522.951          40.850          40.950    96555967.808 7
  24605190.820       -2417.899          46.400


 125040668.668 7  97434272.09047  23794455.800                    23794455.920
     -3350.354       -2610.667          44.500          42.000    93374528.043 7
  23794460.440       -2501.895          47.950


 113877859.554 8  88736011.62347  21670227.380                    21670225.000
      2525.395        1967.840          49.550          43.600



 123105529.272 7  95926420.46246  23426188.880                    23426189.620
      3190.109        2485.804          44.650          41.750    91929527.382 7
  23426194.980        2382.287          47.600


 130674711.428 6 101824450.02945  24866569.540                    24866571.980
      3591.983        2798.949          40.200          33.650



 133201944.380 6 103793723.82146  25347487.380                    25347489.740
      2572.690        2004.695          39.450          38.600    99469005.409 7
  25347495.420        1921.099          44.650


 107227906.319 8  83554207.32448  20404790.700                    20404788.120
      -897.821        -699.601          50.300          50.150



 128158292.724 6  99863624.87545  24387702.600                    24387704.220
      3449.031        2687.560          40.200          35.500



 108353332.587 8  84431180.80748  20618947.940                    20618947.780
      -107.774         -83.980          51.950          51.900    80913222.429 9
  20618948.900         -80.399          56.200


 23  9 13 15 18  0.0000000  0 11G05G07G09G11G13G14G15G18G20G22G30
 109677346.790 8  85462888.40048  20870897.800                    20870895.380
      1403.494        1093.632          51.050          49.250



 114260854.406 8  89034427.17348  21743117.240                    21743114.520
     -1855.041       -1445.487          49.800          49.650



 129398242.534 6 100829782.56446  24623679.460                    24623683.740
     -3240.694       -2525.220          41.800          41.900    96628540.409 7
  24623684.900       -2420.016          46.650


 125141280.253 7  97512670.62146  23813601.620                    23813602.220
     -3356.757       -2615.659          45.100          41.900    93449659.939 8
  23813606.600       -2506.620          48.550


 113802229.055 8  88677078.78547  21655835.200                    21655833.060
      2516.875        1961.202          48.950          43.000



 123009936.964 7  95851933.02247  23407998.040                    23407999.000
      3182.985        2480.251          45.100          42.750    91858143.609 8
  23408004.100        2376.831          48.100


 130566975.589 6 101740500.05645  24846068.140                    24846070.320
      3590.620        2797.889          41.200          34.050



 133124977.160 6 103733749.41946  25332840.980                    25332843.240
      2558.580        1993.699          39.850          36.200    99411529.927 7
  25332849.040        1910.745          45.300


 107255142.764 8  83575430.51048  20409973.660                    20409971.000
      -917.534        -714.963          50.350          49.900



 128054858.830 6  99783027.19145  24368019.680                    24368021.280
      3447.068        2686.030          40.150          33.300



 108356822.609 8  84433900.30648  20619612.120                    20619611.900
      -124.598         -97.089          52.150          52.000    80915828.618 9
  20619613.180         -93.047          56.500


 23  9 13 15 18 30.0000000  0 11G05G07G09G11G13G14G15G18G20G22G30
 109635501.839 8  85430281.94248  20862934.960                    20862932.640
      1386.087        1080.067          50.750          49.650



 114316666.614 8  89077917.18048  21753737.880                    21753735.380
     -1865.866       -1453.923          49.500          49.450



 129495493.463 6 100905562.37046  24642185.920                    24642190.220
     -3242.836       -2526.888          41.650          41.400    96701162.695 7
  24642191.660       -2421.487          45.900


 125242064.079 7  97591203.37947  23832780.060                    23832781.260
     -3362.228       -2619.923          43.600          42.700    93524920.489 8
  23832785.600       -2510.748          48.450


 113726845.219 8  88618338.14847  21641489.940                    21641488.140
      2508.662        1954.803          48.400          43.400



 122914548.952 7  95777604.77347  23389846.140                    23389847.340
      3176.169        2474.939          44.650          42.350    91786912.381 8
  23389852.120        2371.888          48.300


 130459268.408 7 101656572.41945  24825572.200                    24825573.960
      3589.745        2797.204          42.200          34.150



 133048412.058 6 103674088.29746  25318271.160                    25318273.380
      2545.356        1983.396          39.000          37.300    99354354.704 7
  25318279.160        1900.792          44.200


 107282957.188 8  83597104.07648  20415266.620                    20415263.880
      -936.783        -729.962          49.800          49.600



 127951473.693 6  99702467.44445  24348346.180                    24348347.360
      3445.300        2684.651          40.900          33.300



 108360803.566 8  84437002.35348  20620369.680                    20620369.420
      -140.896        -109.790          51.700          51.750    80918801.405 9
  20620370.740        -105.179          56.300


 23  9 13 15 19  0.0000000  0 11G05G07G09G11G13G14G15G18G20G22G30
 109594186.737 8  85398088.35848  20855072.960                    20855070.680
      1368.341        1066.239          51.000          49.900



 114372802.965 8  89121659.76748  21764420.240                    21764417.820
     -1876.606       -1462.291          49.700          49.400



 129592807.172 6 100981391.09646  24660704.180                    24660708.640
     -3244.847       -2528.456          41.650          41.750    96773831.874 7
  24660710.100       -2423.116          44.950


 125343014.067 7  97669865.61147  23851990.000                    23851991.900
     -3367.690       -2624.179          43.000          42.700    93600305.103 8
  23851996.460       -2514.818          48.600


 113651706.142 8  88559788.23647  21627191.340                    21627189.740
      2500.552        1948.482          49.400          43.600



 122819365.149 7  95703435.64047  23371733.020                    23371734.380
      3169.296        2469.582          44.950          42.750    91715833.639 7
  23371739.040        2366.701          47.950


 130351587.886 6 101572665.55245  24805081.300                    24805082.780
      3589.000        2796.624          41.800          31.850



 132972248.567 6 103614740.16946  25303777.860                    25303779.820
      2532.196        1973.144          38.650          37.600    99297479.424 7
  25303785.560        1890.819          43.400


 107311346.091 8  83619225.28248  20420668.840                    20420666.040
      -955.860        -744.827          49.850          49.600



 127848137.036 6  99621945.45245  24328681.940                    24328683.020
      3443.804        2683.484          41.250          32.350



 108365271.752 8  84440484.05248  20621219.960                    20621219.700
      -157.125        -122.436          52.050          52.100    80922138.021 9
  20621220.840        -117.293          56.000


 23  9 13 15 19 30.0000000  0 11G05G07G09G11G13G14G15G18G20G22G30
 109553404.256 8  85366309.81048  20847312.300                    20847310.100
      1350.887        1052.639          50.800          49.900



 114429263.200 8  89165654.73948  21775164.280                    21775161.860
     -1887.018       -1470.403          49.650          49.700



 129690184.148 6 101057269.13546  24679234.540                    24679238.880
     -3246.759       -2529.946          40.600          40.850    96846548.306 7
  24679240.540       -2424.394          44.800


 125444128.309 7  97748655.82146  23871231.260                    23871233.740
     -3372.758       -2628.128          42.700          41.950    93675812.354 8
  23871238.740       -2518.691          49.250


 113576813.591 8  88501430.43147  21612939.800                    21612938.360
      2492.618        1942.301          49.750          43.750



 122724389.708 7  95629428.87647  23353659.680                    23353661.080
      3162.609        2464.374          44.900          42.200    91644910.503 8
  23353665.740        2361.715          48.800


 130243936.443 7 101488781.33745  24784595.940                    24784597.260
      3588.218        2796.011          42.400          30.900



 132896490.483 6 103555707.97346  25289361.600                    25289363.240
      2518.692        1962.619          37.750          36.500    99240906.880 7
  25289368.960        1880.961          44.200


 107340310.393 8  83641794.84848  20426180.500                    20426177.720
      -974.628        -759.450          49.800          49.650



 127744853.053 6  99541464.56345  24309027.580                    24309028.600
      3442.411        2682.402          41.550          32.350



 108370227.692 8  84444345.82348  20622163.080                    20622162.860
      -172.979        -134.789          51.950          52.100    80925838.882 9
  20622163.680        -129.188          56.000


 23  9 13 15 20  0.0000000  0 11G05G07G09G11G13G14G15G18G20G22G30
 109513153.265 8  85334945.40348  20839652.740                    20839650.620
      1333.288        1038.926          50.950          49.550



 114486042.737 8  89209898.50548  21785969.160                    21785966.760
     -1897.646       -1478.686          49.900          49.800



 129787620.817 6 101133193.65646  24697776.160                    24697780.440
     -3248.303       -2531.150          39.650          39.500    96919309.290 7
  24697782.580       -2425.734          44.700


 125545400.810 7  97827569.37647  23890502.640                    23890505.620
     -3378.224       -2632.385          42.650          42.600    93751437.810 8
  23890510.840       -2522.539          49.050


 113502165.760 8  88443263.31047  21598734.840                    21598733.480
      2484.438        1935.927          49.600          43.900



 122629622.695 7  95555584.51247  23335626.060                    23335627.560
      3155.665        2458.962          45.300          42.550    91574142.998 8
  23335632.040        2356.479          48.450


 130136312.140 7 101404918.29046  24764115.700                    24764116.680
      3587.229        2795.244          42.900          36.300



 132821137.058 6 103496990.99046  25275022.140                    25275023.860
      2505.480        1952.324          38.250          36.250    99184636.454 7
  25275029.640        1870.908          44.050


 107369846.504 8  83664809.96648  20431800.940                    20431798.200
      -993.816        -774.403          50.150          49.350



 127641621.709 6  99461024.67846  24289383.340                    24289383.800
      3440.682        2681.057          41.650          36.500



 108375667.781 8  84448584.84548  20623198.300                    20623198.180
      -189.094        -147.346          52.450          52.350    80929901.272 9
  20623198.680        -141.172          56.050


 23  9 13 15 20 30.0000000  0 11G05G07G09G11G13G14G15G18G20G22G30
 109473440.704 8  85304000.55348  20832095.700                    20832093.600
      1314.458        1024.253          51.100          49.750



 114543144.267 8  89254393.19248  21796835.300                    21796832.960
     -1909.067       -1487.585          49.900          49.700



 129885121.061 6 101209167.73146  24716329.780                    24716334.120
     -3251.276       -2533.466          39.000          38.700    96992117.757 7
  24716336.440       -2427.967          43.900


 125646833.047 6  97906607.36846  23909804.340                    23909807.780
     -3384.324       -2637.145          39.650          39.950    93827182.535 8
  23909813.120       -2527.009          48.300


 113427767.963 8  88385291.01847  21584577.480                    21584576.020
      2475.394        1928.879          49.900          43.650



 122535071.569 7  95481908.35546  23317633.580                    23317634.780
      3147.897        2452.908          45.600          41.850    91503536.697 8
  23317639.260        2350.662          48.050


 130028720.441 7 101321080.62645  24743641.740                    24743642.560
      3585.672        2794.028          43.250          34.300



 132746195.520 6 103438594.99545  25260761.240                    25260763.020
      2491.040        1941.072          38.350          35.850    99128673.621 7
  25260768.400        1860.051          43.850


 107399958.325 8  83688273.69448  20437530.920                    20437528.280
     -1013.667        -789.871          50.050          49.000



 127538450.197 6  99380631.48045  24269750.540                    24269750.920
      3437.990        2678.958          41.950          33.800



 108381595.829 8  84453204.09748  20624326.320                    20624326.320
      -205.915        -160.454          52.300          52.350    80934328.065 9
  20624326.640        -153.863          55.600


 23  9 13 15 21  0.0000000  0 11G05G07G09G11G13G14G15G18G20G22G30
 109434263.269 8  85273472.68848  20824640.560                    20824638.380
      1297.072        1010.706          51.750          49.850



 114600561.865 8  89299134.16748  21807761.540                    21807759.280
     -1919.141       -1495.435          49.650          49.700



 129982679.670 6 101285187.28546  24734894.440                    24734899.040
     -3253.173       -2534.944          38.150          38.700    97064969.770 7
  24734901.220       -2429.136          44.150


 125748417.313 6  97985763.86546  23929135.060                    23929138.580
     -3388.498       -2640.392          40.950          41.250    93903040.847 8
  23929144.420       -2530.560          49.000


 113353616.617 8  88327510.76247  21570466.980                    21570465.360
      2467.581        1922.790          49.900          43.150



 122440734.807 7  95408399.25347  23299681.940                    23299683.080
      3141.170        2447.666          45.650          42.800    91433090.494 8
  23299687.540        2345.429          48.700


 129921158.226 7 101237265.96246  24723173.380                    24723174.040
      3585.165        2793.638          42.000          36.950



 132671663.904 6 103380518.41546  25246578.100                    25246579.920
      2477.631        1930.622          38.050          37.100    99073016.906 7
  25246585.380        1849.996          43.850


 107430641.092 8  83712182.32648  20443369.540                    20443367.200
     -1032.162        -804.283          49.550          49.600



 127435337.362 7  99300283.93146  24250128.920                    24250129.040
      3436.206        2677.564          42.750          36.800



 108388006.654 8  84458199.53748  20625546.180                    20625546.320
      -221.725        -172.772          51.950          51.950    80939115.360 9
  20625546.600        -165.651          55.750


 23  9 13 15 21 30.0000000  0 11G05G07G09G11G13G14G15G18G20G22G30
 109395627.000 8  85243366.50648  20817288.340                    20817286.240
      1278.529         996.257          51.150          49.750



 114658298.406 8  89344123.66148  21818748.380                    21818746.360
     -1930.031       -1503.921          48.900          48.950



 130080300.527 6 101361255.31546  24753471.040                    24753475.760
     -3255.396       -2536.678          38.550          38.850    97137868.272 7
  24753477.660       -2430.806          44.300


 125850155.233 6  98065040.06646  23948495.260                    23948498.500
     -3394.032       -2644.705          41.000          41.250    93979013.853 8
  23948504.780       -2534.453          49.000


 113279717.665 8  88269927.18647  21556404.420                    21556402.700
      2458.821        1915.965          49.350          42.950



 122346619.933 7  95335063.05346  23281772.540                    23281773.500
      3133.251        2441.496          45.950          41.450    91362809.981 8
  23281777.860        2339.754          48.050


 129813631.251 7 101153478.76445  24702711.640                    24702712.060
      3583.492        2792.335          42.600          35.950



 132597549.109 6 103322766.62946  25232474.400                    25232476.220
      2463.421        1919.552          36.750          37.100    99017671.456 7
  25232481.480        1839.568          43.050


 107461898.584 8  83736538.80548  20449317.600                    20449315.520
     -1051.739        -819.538          49.350          49.350



 127332290.413 6  99219987.76346  24230519.680                    24230519.780
      3433.604        2675.542          41.650          37.350



 108394904.109 8  84463574.15948  20626858.660                    20626858.860
      -238.271        -185.666          51.800          51.700    80944266.045 9
  20626859.280        -177.932          55.750


 23  9 13 15 22  0.0000000  0 11G05G07G09G11G13G14G15G18G20G22G30
 109357530.639 8  85213681.03648  20810038.780                    20810036.900
      1260.388         982.120          51.000          50.050



 114716348.749 8  89389357.66848  21829794.860                    21829793.160
     -1940.616       -1512.169          48.550          48.650



 130177979.185 6 101437368.43246  24772058.760                    24772063.340
     -3256.816       -2537.783          38.950          38.200    97210809.995 7
  24772065.340       -2432.335          45.000


 125952040.023 6  98144430.73046  23967883.360                    23967886.320
     -3398.785       -2648.406          40.550          40.400    94055096.530 7
  23967892.980       -2538.140          47.950


 113206067.670 8  88212537.60447  21542389.260                    21542387.460
      2450.509        1909.488          49.850          43.350



 122252726.196 7  95261899.17046  23263905.220                    23263905.880
      3125.844        2435.724          46.300          41.650    91292694.607 7
  23263910.000        2334.211          47.900


 129706136.799 7 101069716.93346  24682256.060                    24682256.240
      3582.274        2791.389          42.450          38.800



 132523849.893 6 103265338.70946  25218449.840                    25218451.540
      2449.200        1908.471          39.350          37.850    98962636.371 7
  25218456.800        1829.116          44.100


 107493726.739 8  83761339.94448  20455374.300                    20455372.520
     -1070.814        -834.401          49.900          49.900



 127229308.833 7  99139742.57145  24210922.860                    24210923.240
      3431.281        2673.733          42.650          34.000



 108402283.750 8  84469324.52548  20628262.920                    20628263.140
      -254.539        -198.342          52.050          52.150    80949776.810 9
  20628263.800        -189.953          55.700


 23  9 13 15 22 30.0000000  0 11G05G07G09G11G13G14G15G18G20G22G30
 109319979.099 8  85184420.11448  20802892.920                    20802891.100
      1242.850         968.454          51.200          49.700



 114774713.480 8  89434836.65948  21840901.140                    21840899.720
     -1950.414       -1519.804          48.850          48.850



 130275717.623 6 101513528.12846  24790658.000                    24790662.280
     -3258.684       -2539.238          40.100          40.400    97283796.327 7
  24790664.380       -2433.424          45.650


 126054071.112 7  98223935.36846  23987299.420                    23987301.680
     -3403.242       -2651.880          42.100          40.350    94131288.474 7
  23987308.960       -2541.355          47.950


 113132670.658 8  88155345.13547  21528422.340                    21528420.600
      2442.565        1903.299          49.800          44.600



 122159059.104 7  95188911.89346  23246081.060                    23246081.640
      3118.580        2430.063          46.600          41.650    91222748.474 8
  23246085.680        2328.909          48.600


 129598678.134 6 100985982.95646  24661807.320                    24661807.440
      3581.847        2791.054          41.750          36.600



 132450571.124 6 103208238.42146  25204505.480                    25204506.960
      2435.810        1898.033          39.050          38.000    98907915.283 7
  25204512.020        1818.960          43.100


 107526127.472 8  83786587.24448  20461540.020                    20461538.360
     -1089.349        -848.844          50.600          49.950



 127126397.929 7  99059552.43545  24191339.540                    24191339.960
      3429.396        2672.264          42.450          35.450



 108410147.395 8  84475452.04148  20629759.320                    20629759.520
      -269.937        -210.341          52.050          51.850    80955649.013 9
  20629760.420        -201.525          56.150


 23  9 13 15 23  0.0000000  0 11G05G07G09G11G13G14G15G18G20G22G30
 109282968.596 8  85155580.75748  20795850.020                    20795848.120
      1224.649         954.271          50.900          49.900



 114833386.687 8  89480556.00648  21852066.200                    21852064.960
     -1960.987       -1528.043          49.200          49.150



 130373510.862 6 101589730.51046  24809267.640                    24809271.660
     -3260.808       -2540.893          39.800          39.750    97356823.575 7
  24809273.720       -2434.981          45.450


 126156241.285 7  98303548.36946  24006741.920                    24006743.500
     -3407.954       -2655.551          43.100          40.750    94207584.255 8
  24006751.060       -2544.932          48.100


 113059523.016 8  88098346.98347  21514502.840                    21514501.200
      2434.051        1896.663          49.700          44.600



 122065617.385 7  95116100.22746  23228299.680                    23228300.100
      3110.970        2424.134          46.200          41.850    91152970.647 7
  23228304.040        2323.013          47.900


 129491252.471 6 100902274.72046  24641364.880                    24641364.860
      3580.164        2789.741          40.550          37.000



 132377711.140 6 103151464.45746  25190640.720                    25190641.960
      2421.631        1886.992          40.050          36.700    98853506.930 7
  25190647.000        1808.257          43.750


 107559096.322 8  83812277.22848  20467813.900                    20467812.260
     -1108.489        -863.759          50.600          49.850



 127023556.385 7  98979416.37146  24171769.360                    24171770.020
      3426.681        2670.150          42.700          37.450



 108418490.048 8  84481952.80748  20631346.860                    20631347.000
      -286.077        -222.917          51.950          51.950    80961878.918 9
  20631348.120        -213.689          56.350


 23  9 13 15 23 30.0000000  0 11G05G07G09G11G13G14G15G18G20G22G30
 109246505.936 8  85127168.29748  20788911.360                    20788909.420
      1206.065         939.792          51.000          50.150



 114892371.654 8  89526518.29148  21863290.680                    21863289.560
     -1971.539       -1536.266          49.300          49.300



 130471363.154 6 101665978.93646  24827888.460                    24827892.240
     -3263.000       -2542.603          38.550          37.900    97429894.946 7
  24827894.400       -2436.560          45.750


 126258552.380 7  98383271.20846  24026211.380                    24026212.120
     -3412.992       -2659.477          43.000          40.100    94283985.244 7
  24026219.800       -2548.475          47.600


 112986630.621 8  88041547.73947  21500631.720                    21500630.260
      2425.392        1889.916          49.150          44.050



 121972408.952 7  95043470.32446  23210562.820                    23210562.880
      3102.862        2417.816          46.500          41.650    91083367.000 8
  23210566.820        2317.107          48.600


 129383866.032 7 100818597.02446  24620930.020                    24620929.760
      3578.686        2788.589          42.300          40.150



 132305277.347 6 103095022.59146  25176857.280                    25176858.100
      2407.041        1875.614          40.300          37.100    98799416.809 7
  25176863.320        1797.676          44.350


 107592636.712 8  83838412.57548  20474196.500                    20474194.780
     -1127.767        -878.780          50.400          49.700



 126920791.855 7  98899340.29345  24152213.660                    24152214.340
      3423.898        2667.980          42.800          35.450



 108427315.888 8  84488830.08148  20633026.360                    20633026.440
      -302.444        -235.671          51.800          51.700    80968469.630 9
  20633027.660        -225.768          56.650


 23  9 13 15 24  0.0000000  0 11G05G07G09G11G13G14G15G18G20G22G30
 109210589.800 8  85099181.70748  20782076.760                    20782074.900
      1188.107         925.798          51.300          50.100



 114951663.980 8  89572720.07348  21874573.740                    21874572.640
     -1981.472       -1544.005          49.400          49.400



 130569270.466 6 101742270.22746  24846519.800                    24846523.440
     -3264.583       -2543.834          38.700          38.600    97503007.414 7
  24846525.500       -2437.820          45.000


 126360997.914 7  98463098.77846  24045706.420                    24045706.680
     -3417.096       -2662.675          42.600          40.100    94360486.652 7
  24045713.860       -2551.720          46.600


 112913990.957 8  87984945.44847  21486808.640                    21486807.320
      2417.001        1883.380          49.650          43.850



 121879433.351 7  94971021.86846  23192870.080                    23192870.260
      3095.336        2411.951          46.200          41.950    91013937.247 8
  23192874.200        2311.334          48.350


 129276516.627 6 100734948.24446  24600502.040                    24600501.840
      3577.653        2787.787          41.900          38.700



 132233268.545 7 103038911.83246  25163154.560                    25163154.760
      2393.104        1864.756          42.050          37.150    98745644.005 7
  25163160.680        1787.094          45.300


 107626745.024 8  83864990.46648  20480687.080                    20480685.340
     -1146.434        -893.326          50.150          49.700



 126818104.294 7  98819324.19745  24132672.760                    24132673.460
      3421.646        2666.222          43.300          35.900



 108436620.730 8  84496080.60348  20634797.020                    20634797.140
      -318.151        -247.910          51.800          51.950    80975418.047 9
  20634798.260        -237.605          56.450


 23  9 13 15 24 30.0000000  0 12G05G07G09G11G13G14G15G18G20G22G27G30
 109175224.904 8  85071624.65648  20775347.060                    20775345.340
      1169.665         911.428          51.350          50.450



 115011264.734 8  89619162.18448  21885915.500                    21885914.360
     -1991.856       -1552.097          49.300          49.500



 130667235.473 6 101818606.46546  24865162.000                    24865165.560
     -3266.277       -2545.154          38.500          38.650    97576162.946 7
  24865167.900       -2439.279          44.850


 126463578.169 7  98543031.33446  24065227.080                    24065226.900
     -3421.547       -2666.145          42.600          40.350    94437088.683 7
  24065233.400       -2555.108          46.200


 112841608.558 8  87928543.60347  21473034.580                    21473033.160
      2408.479        1876.737          49.650          43.600



 121786696.879 7  94898759.73746  23175222.900                    23175222.840
      3087.068        2405.510          45.850          41.250    90944686.040 8
  23175227.040        2305.291          48.250


 129169208.705 6 100651331.70946  24580082.080                    24580081.620
      3576.085        2786.560          41.900          37.850



 132161690.637 6 102983136.89245  25149533.760                    25149534.080
      2378.873        1853.669          39.900          34.200    98692193.043 7
  25149540.220        1776.261          44.550


 107661424.173 8  83892013.16248  20487286.300                    20487284.360
     -1165.496        -908.179          49.650          49.650



 126715500.113 6  98739373.09146  24113147.420                    24113148.360
      3418.856        2664.055          41.700          36.400



                                  25445707.740
       862.736                          38.450                    99854433.312 6
  25445710.600         643.808          40.250


 108446407.132 8  84503706.36148  20636659.280                    20636659.620
      -334.168        -260.392          51.650          51.600    80982726.067 9
  20636660.460        -249.605          56.300


 23  9 13 15 25  0.0000000  0 12G05G07G09G11G13G14G15G18G20G22G27G30
 109140406.938 8  85044493.78648  20768721.400                    20768719.780
      1151.337         897.146          51.000          50.400



 115071166.248 8  89665838.65448  21897314.520                    21897313.260
     -2001.890       -1559.915          49.200          49.150



 130765251.611 6 101894982.54846  24883813.820                    24883817.580
     -3268.219       -2546.668          37.950          38.850    97649356.663 7
  24883819.820       -2440.452          43.900


 126566284.230 7  98623061.92646  24084771.620                    24084771.000
     -3425.686       -2669.366          42.300          39.550    94513784.620 7
  24084777.020       -2558.201          45.900


 112769478.278 8  87872338.20847  21459308.740                    21459306.940
      2400.079        1870.192          50.250          43.650



 121694196.491 7  94826681.56047  23157620.520                    23157620.380
      3079.413        2399.544          45.750          42.250    90875611.152 8
  23157624.880        2299.480          48.100


 129061937.404 7 100567743.77146  24559668.960                    24559668.500
      3574.968        2785.691          42.050          39.950



 132090540.018 6 102927694.89046  25135994.140                    25135994.640
      2364.497        1842.469          40.200          36.900    98639061.142 7
  25136000.800        1765.543          43.700


 107696667.092 8  83919475.16548  20493992.820                    20493990.620
     -1184.303        -922.834          50.200          49.550



 126612975.979 7  98659484.33045  24093637.380                    24093638.280
      3416.005        2661.823          42.200          35.600



 133692498.670 5 104175975.98145  25440837.160                    25440839.280
       844.328         657.914          34.150          34.350    99835317.999 6
  25440840.000         630.580          40.500


 108456668.301 8  84511702.06248  20638611.940                    20638612.440
      -350.058        -272.772          51.850          51.800    80990388.611 9
  20638613.020        -261.396          56.200


 23  9 13 15 25 30.0000000  0 12G05G07G09G11G13G14G15G18G20G22G27G30
 109106146.535 8  85017797.36748  20762201.740                    20762200.180
      1133.031         882.881          50.850          50.000



 115131376.108 8  89712755.40448  21908772.200                    21908770.840
     -2011.813       -1567.647          49.750          49.850



 130863326.677 6 101971404.54046  24902476.900                    24902480.720
     -3269.969       -2548.028          38.600          39.200    97722594.376 7
  24902482.900       -2441.814          43.150


 126669121.522 7  98703194.73346  24104340.960                    24104340.460
     -3429.820       -2672.591          43.750          38.500    94590578.556 7
  24104345.660       -2561.192          45.550


 112697609.553 8  87816336.61547  21445632.580                    21445630.640
      2391.599        1863.584          49.750          43.950



 121601943.734 7  94754796.34346  23140065.260                    23140065.360
      3071.181        2393.130          45.650          41.950    90806721.147 8
  23140069.880        2293.459          48.350


 128954712.320 6 100484191.81346  24539264.640                    24539264.100
      3573.701        2784.705          41.650          38.100



 132019827.667 6 102872594.44346  25122537.880                    25122538.860
      2349.969        1831.147          39.750          36.700    98586256.492 7
  25122544.820        1754.972          44.950


 107732481.966 8  83947382.83548  20500808.280                    20500805.740
     -1203.148        -937.519          50.950          48.400



 126510543.322 7  98579666.86546  24074144.740                    24074145.920
      3413.152        2659.606          42.050          36.050



 133667445.630 5 104156454.04646  25436069.560                    25436070.500
       825.845         643.508          35.950          36.050    99816609.507 6
  25436072.560         617.104          41.750


 108467412.016 8  84520073.79048  20640656.500                    20640657.020
      -365.945        -285.152          52.450          52.350    80998411.513 9
  20640657.400        -273.240          56.150


 23  9 13 15 26  0.0000000  0 12G05G07G09G11G13G14G15G18G20G22G27G30
 109072438.567 8  84991531.42748  20755787.280                    20755785.680
      1114.297         868.284          50.800          50.500



 115191885.498 8  89759905.53648  21920286.880                    21920285.440
     -2022.143       -1575.696          49.350          49.250



 130961453.474 6 102047866.83046  24921149.760                    24921153.660
     -3272.057       -2549.658          39.000          39.550    97795870.730 7
  24921155.500       -2443.278          42.050


 126772080.428 7  98783422.33846  24123933.540                    24123933.040
     -3434.093       -2675.918          44.000          39.300    94667463.315 7
  24123937.600       -2564.388          44.600


 112625996.762 8  87760534.46147  21432005.060                    21432003.260
      2382.561        1856.542          49.600          44.550



 121509934.973 7  94683101.23047  23122556.360                    23122556.360
      3062.830        2386.620          45.550          42.850    90738013.361 8
  23122561.340        2287.145          48.450


 128847528.007 6 100400671.63546  24518868.040                    24518867.640
      3571.978        2783.361          41.550          38.800



 131949549.240 6 102817831.99646  25109164.360                    25109165.700
      2335.408        1819.803          38.800          38.150    98533775.843 7
  25109171.460        1743.879          44.400


 107768861.528 8  83975730.51948  20507731.200                    20507728.380
     -1222.238        -952.395          50.950          48.650



 126408198.616 6  98499917.89146  24054668.940                    24054669.900
      3409.903        2657.076          41.200          37.750



 133642932.568 5 104137352.96345  25431404.680                    25431406.340
       807.599         629.301          33.600          33.850    99798304.336 6
  25431407.660         603.394          40.300


 108478630.884 8  84528815.76748  20642791.400                    20642791.880
      -381.976        -297.644          52.100          52.100    81006789.237 9
  20642792.160        -285.273          55.850


 23  9 13 15 26 30.0000000  0 12G05G07G09G11G13G14G15G18G20G22G27G30
 109039284.317 8  84965696.94648  20749478.300                    20749476.540
      1095.535         853.664          50.700          50.700



 115252692.483 8  89807287.56848  21931858.160                    21931856.620
     -2032.167       -1583.508          49.800          49.850



 131059631.013 6 102124368.68746  24939832.380                    24939836.400
     -3273.885       -2551.082          39.400          39.600    97869185.005 7
  24939838.180       -2444.719          42.000


 126875157.615 7  98863742.08546  24143548.700                    24143548.000
     -3438.359       -2679.245          42.850          39.450    94744436.388 7
  24143552.380       -2567.359          45.250


 112554640.483 8  87704932.19047  21418426.420                    21418424.860
      2373.972        1849.849          50.100          44.700



 121418172.860 7  94611598.32847  23105094.480                    23105094.660
      3054.307        2379.980          45.250          43.600    90669489.764 8
  23105099.680        2280.860          48.700


 128740385.446 6 100317183.97246  24498479.420                    24498479.140
      3570.790        2782.435          41.750          38.850



 131879707.060 6 102763409.61846  25095873.720                    25095875.440
      2320.428        1808.129          38.900          37.300    98481621.086 7
  25095880.840        1732.746          44.500


 107805804.459 8  84004517.19248  20514761.340                    20514758.320
     -1241.030        -967.037          50.950          48.750



 126305944.457 6  98420239.51046  24035210.280                    24035211.540
      3406.671        2654.553          41.950          38.700



 133618960.384 5 104118673.37546  25426842.880                    25426844.820
       789.929         615.525          35.850          36.150    99780403.118 6
  25426846.000         589.734          36.150


 108490323.761 8  84537927.09848  20645016.500                    20645016.820
      -397.936        -310.079          51.800          51.850    81015520.927 9
  20645017.080        -297.154          56.050


 23  9 13 15 27  0.0000000  0 12G05G07G09G11G13G14G15G18G20G22G27G30
 109006690.054 8  84940298.82348  20743275.860                    20743274.040
      1076.867         839.117          51.000          50.200



 115313800.048 8  89854903.80948  21943486.660                    21943484.820
     -2042.269       -1591.379          50.350          50.500



 131157863.212 6 102200913.15046  24958525.540                    24958529.660
     -3275.319       -2552.199          39.550          39.700    97942540.109 7
  24958531.220       -2445.998          42.100


 126978354.520 7  98944155.11046  24163186.560                    24163186.100
     -3442.068       -2682.137          42.650          38.600    94821498.882 7
  24163190.100       -2570.468          44.800


 112483546.309 8  87649534.14747  21404897.740                    21404896.280
      2365.157        1842.979          50.100          44.750



 121326664.852 7  94540293.43547  23087680.960                    23087681.180
      3045.709        2373.281          45.400          42.300    90601155.909 8
  23087686.320        2274.415          48.850


 128633290.627 7 100233733.53746  24478099.900                    24478099.840
      3569.001        2781.042          42.400          37.100



 131810307.695 6 102709332.25646  25082667.320                    25082669.460
      2305.863        1796.780          38.900          37.900    98429796.955 7
  25082674.560        1721.730          45.350


 107843314.566 8  84033745.82048  20521899.360                    20521896.200
     -1260.076        -981.878          50.950          48.800



 126203788.543 7  98340637.63446  24015770.520                    24015771.700
      3403.281        2651.912          42.100          37.750



 133595535.094 6 104100419.87046  25422385.060                    25422387.220
       771.516         601.187          38.000          37.550    99762910.118 7
  25422388.260         576.014          43.750


 108502494.305 8  84547410.63648  20647332.480                    20647332.660
      -413.972        -322.575          51.650          51.800    81024609.316 9
  20647332.940        -309.111          56.150


 23  9 13 15 27 30.0000000  0 12G05G07G09G11G13G14G15G18G20G22G27G30
 108974652.166 8  84915334.24348  20737179.220                    20737177.440
      1058.617         824.897          50.650          50.650



 115375202.429 8  89902749.79348  21955171.300                    21955168.940
     -2051.662       -1598.698          50.600          50.650



 131256145.316 6 102277496.50146  24977227.980                    24977232.320
     -3276.925       -2553.453          39.700          40.100    98015932.463 7
  24977233.880       -2447.021          42.400


 127081664.161 7  99024656.03946  24182846.040                    24182845.380
     -3445.619       -2684.900          43.000          39.300    94898645.533 7
  24182849.640       -2572.960          45.250


 112412711.056 8  87594337.87047  21391418.320                    21391416.800
      2356.764        1836.440          50.850          44.050



 121235409.892 7  94469185.71747  23070315.660                    23070315.900
      3037.605        2366.967          45.800          42.750    90533011.042 8
  23070321.180        2268.346          49.100


 128526240.310 7 100150317.75146  24457728.860                    24457729.080
      3567.652        2779.991          42.200          40.600



 131741349.580 6 102655598.66446  25069544.940                    25069547.180
      2291.473        1785.563          40.000          38.800    98378302.265 7
  25069552.180        1710.988          45.700


 107881387.111 8  84063412.71448  20529144.300                    20529141.220
     -1278.499        -996.233          50.600          49.250



 126101729.856 6  98261111.51346  23996349.240                    23996350.520
      3400.296        2649.587          41.950          37.150



 133572653.768 6 104082590.34946  25418030.780                    25418033.020
       753.971         587.512          38.050          37.700    99745823.490 7
  25418034.020         562.841          43.300


 108515137.652 8  84557262.59148  20649738.420                    20649738.560
      -429.308        -334.526          52.000          52.050    81034050.769 9
  20649738.820        -320.589          56.300


 23  9 13 15 28  0.0000000  0 12G05G07G09G11G13G14G15G18G20G22G27G30
 108943175.749 8  84890807.16348  20731189.380                    20731187.640
      1039.441         809.955          50.700          50.000



 115436900.310 8  89950826.04648  21966912.140                    21966909.240
     -2061.758       -1606.565          50.350          50.250



 131354478.979 6 102354120.04346  24995940.500                    24995944.940
     -3278.529       -2554.701          39.600          40.200    98089363.336 7
  24995946.420       -2448.557          42.250


 127185085.771 7  99105244.17746  24202526.420                    24202526.060
     -3449.946       -2688.272          42.550          39.550    94975875.781 7
  24202530.400       -2575.890          45.250


 112342137.924 8  87539345.83547  21377988.740                    21377986.980
      2347.842        1829.487          50.550          44.100



 121144413.204 7  94398279.27847  23052999.480                    23052999.920
      3028.845        2360.142          45.800          42.700    90465059.050 8
  23053005.100        2261.687          48.800


 128419238.131 6 100066939.50046  24437366.920                    24437367.180
      3565.873        2778.605          41.550          38.900



 131672837.189 6 102602212.42446  25056507.460                    25056509.740
      2275.878        1773.413          39.850          37.150    98327140.489 7
  25056514.720        1699.673          44.550


 107920023.388 8  84093518.87948  20536496.420                    20536493.680
     -1297.517       -1011.053          50.400          49.300



 125999773.607 7  98181665.23746  23976947.520                    23976948.920
      3396.427        2646.570          42.550          37.600



 133550320.009 6 104065187.50046  25413780.880                    25413782.900
       735.156         572.855          40.950          40.850    99729145.781 7
  25413783.940         548.853          45.050


 108528255.190 8  84567484.04748  20652234.600                    20652234.820
      -445.451        -347.104          51.850          51.800    81043846.329 9
  20652235.100        -332.606          56.250


 23  9 13 15 28 30.0000000  0 12G05G07G09G11G13G14G15G18G20G22G27G30
 108912263.914 8  84866720.02548  20725306.960                    20725305.200
      1020.853         795.469          50.150          50.250



 115498893.365 8  89999132.30048  21978709.000                    21978705.880
     -2071.383       -1614.065          50.150          50.050



 131452864.563 6 102430784.03546  25014662.760                    25014667.520
     -3280.254       -2556.046          39.300          39.250    98162832.952 7
  25014669.040       -2449.604          43.850


 127288617.185 6  99185917.87946  24222227.720                    24222227.680
     -3453.345       -2690.922          41.900          40.350    95053188.083 7
  24222231.860       -2578.480          45.600


 112271828.902 8  87484559.60147  21364609.380                    21364607.260
      2339.153        1822.717          50.350          43.700



 121053678.684 7  94327577.11147  23035733.320                    23035733.680
      3019.892        2353.164          46.050          42.400    90397302.810 8
  23035739.080        2255.181          49.000


 128312286.007 6  99983600.23446  24417014.540                    24417015.020
      3563.876        2777.048          40.400          38.850



 131604773.928 6 102549176.12546  25043555.280                    25043557.400
      2261.260        1762.021          37.550          36.900    98276314.024 7
  25043562.440        1688.586          44.150


 107959223.740 8  84124064.58748  20543955.900                    20543953.480
     -1316.106       -1025.539          50.200          49.400



 125897923.623 7  98102301.73445  23957566.140                    23957567.560
      3393.317        2644.146          42.750          35.950



 133528535.909 6 104048212.96446  25409635.480                    25409637.440
       716.508         558.319          39.400          39.700    99712878.557 7
  25409638.660         535.366          44.250


 108541847.011 8  84578075.06848  20654821.040                    20654821.320
      -461.025        -359.240          52.000          51.950    81053996.061 9
  20654821.860        -344.221          56.600


 23  9 13 15 29  0.0000000  0 12G05G07G09G11G13G14G15G18G20G22G27G30
 108881912.403 8  84843069.49948  20719531.180                    20719529.400
      1002.698         781.323          50.100          50.150



 115561174.744 8  90047663.21748  21990560.760                    21990557.600
     -2080.478       -1621.152          50.250          50.250



 131551296.522 6 102507484.14246  25033393.820                    25033398.740
     -3281.426       -2556.960          38.550          39.150    98236337.178 7
  25033400.340       -2450.358          44.250


 127392250.549 6  99266671.02146  24241948.260                    24241948.740
     -3455.648       -2692.718          41.100          40.050    95130576.512 7
  24241952.720       -2580.610          44.650


 112201779.978 8  87429976.05147  21351279.500                    21351277.160
      2330.887        1816.276          50.150          43.950



 120963204.330 7  94257077.66847  23018516.660                    23018517.060
      3011.885        2346.925          45.800          43.550    90329740.842 8
  23018522.380        2249.112          48.250


 128205380.367 6  99900297.20046  24396670.960                    24396671.500
      3563.248        2776.561          39.250          39.500



 131537157.118 6 102496487.72946  25030688.260                    25030690.480
      2246.949        1750.871          39.400          38.650    98225821.018 7
  25030695.280        1677.795          45.450


 107998982.490 8  84155045.40548  20551521.700                    20551519.560
     -1334.159       -1039.605          50.050          49.600



 125796177.794 7  98023019.41446  23938204.440                    23938206.160
      3389.938        2641.518          42.800          38.800



 133507297.757 6 104031663.86146  25405594.120                    25405595.740
       698.936         544.628          38.650          38.550    99697019.008 6
  25405597.040         522.305          40.850


 108555907.305 8  84589031.13648  20657496.640                    20657496.880
      -476.164        -371.037          51.850          51.700    81064495.622 9
  20657497.880        -355.528          56.300


 23  9 13 15 29 30.0000000  0 12G05G07G09G11G13G14G15G18G20G22G27G30
 108852124.503 8  84819858.15248  20713862.680                    20713860.920
       983.948         766.713          50.150          50.500



 115623744.880 8  90096419.13648  22002467.480                    22002464.400
     -2090.227       -1628.749          50.250          50.250



 131649776.294 6 102584221.51246  25052134.020                    25052139.180
     -3283.074       -2558.243          37.950          38.000    98309877.142 7
  25052140.760       -2451.700          45.350


 127495985.073 6  99347502.99746  24261688.160                    24261688.680
     -3459.255       -2695.527          40.550          39.850    95208040.444 7
  24261692.960       -2583.136          44.800


 112131994.284 8  87375597.60447  21337999.720                    21337997.280
      2322.081        1809.414          50.150          44.000



 120872995.312 7  94186784.97147  23001350.600                    23001350.920
      3002.913        2339.933          46.050          44.350    90262377.029 8
  23001356.440        2242.280          48.700


 128098524.715 6  99817033.14246  24376336.860                    24376337.640
      3561.184        2774.950          39.800          38.850



 131469991.283 6 102444150.78646  25017907.100                    25017909.280
      2231.304        1738.681          41.100          39.550    98175664.762 7
  25017913.880        1666.388          45.700


 108039300.664 8  84186462.14148  20559194.060                    20559192.020
     -1352.937       -1054.237          50.400          49.700



 125694541.441 7  97943822.36346  23918863.640                    23918865.160
      3386.059        2638.494          43.050          36.250



 133486609.013 6 104015542.79346  25401657.160                    25401658.540
       680.912         530.582          36.850          37.050    99681569.668 6
  25401660.120         508.279          40.650


 108570437.331 8  84600353.23648  20660261.620                    20660261.800
      -491.946        -383.335          51.750          51.750    81075345.966 9
  20660263.160        -367.345          56.250


 23  9 13 15 30  0.0000000  0 12G05G07G09G11G13G14G15G18G20G22G27G30
 108822904.561 8  84797089.36748  20708302.320                    20708300.580
       964.028         751.190          50.200          50.150



 115686604.897 8  90145400.94548  22014429.300                    22014426.460
     -2100.562       -1636.802          49.750          49.600



 131748305.760 6 102660997.60346  25070883.540                    25070888.640
     -3285.817       -2560.379          38.600          38.550    98383454.178 7
  25070890.720       -2453.488          45.050


 127599820.249 7  99428413.37646  24281447.420                    24281447.740
     -3463.395       -2698.752          42.100          37.500    95285579.532 7
  24281452.320       -2586.107          45.950


 112062475.375 8  87321427.04647  21324770.660                    21324768.280
      2312.438        1801.899          49.350          44.100



 120783057.030 7  94116703.24847  22984236.000                    22984236.120
      2992.927        2332.152          46.050          43.150    90195215.372 8
  22984241.840        2235.007          48.650


 127991723.029 6  99733811.11946  24356013.200                    24356013.960
      3558.760        2773.065          39.350          38.300



 131403281.135 6 102392168.88346  25005212.860                    25005214.640
      2215.863        1726.648          40.650          37.250    98125848.768 7
  25005219.160        1654.494          44.500


 108080180.006 8  84218316.15148  20566973.220                    20566971.160
     -1372.398       -1069.402          50.900          48.950



 125593020.443 7  97864715.19146  23899544.840                    23899546.180
      3381.804        2635.176          43.150          39.050



 133466473.446 5 103999852.77845  25397825.420                    25397826.700
       661.320         515.309          35.450          34.550    99666533.413 6
  25397828.380         493.971          40.500


 108585438.694 8  84612042.60848  20663116.260                    20663116.440
      -508.309        -396.085          51.600          51.700    81086548.284 9
  20663117.780        -379.602          56.100


 23  9 13 15 30 30.0000000  0 12G05G07G09G11G13G14G15G18G20G22G27G30
 108794250.274 8  84774761.35948  20702849.600                    20702847.920
       945.568         736.807          50.600          50.450



 115749749.577 8  90194604.56148  22026445.300                    22026442.680
     -2109.682       -1643.909          50.050          50.100



 131846880.580 6 102737809.01046  25089641.960                    25089646.980
     -3286.703       -2561.074          37.500          37.550    98457065.098 7
  25089649.280       -2454.242          44.750


 127703749.311 7  99509396.93646  24301224.680                    24301224.920
     -3466.141       -2700.894          43.150          39.150    95363188.740 7
  24301229.720       -2588.214          45.950


 111993220.293 8  87267462.06147  21311591.820                    21311589.640
      2304.027        1795.347          50.150          44.850



 120693388.736 7  94046831.89947  22967172.740                    22967172.920
      2984.223        2325.369          46.250          43.550    90128255.343 8
  22967178.720        2228.552          49.000


 127884972.475 6  99650628.94546  24335699.300                    24335699.980
      3557.338        2771.953          40.750          40.350



 131337025.275 6 102340540.98146  24992604.980                    24992606.400
      2200.761        1714.878          41.850          40.150    98076372.048 7
  24992611.320        1643.486          46.900


 108121615.974 8  84250603.89248  20574858.280                    20574856.220
     -1390.582       -1083.571          51.100          48.800



 125491613.761 7  97785697.12846  23880247.820                    23880248.920
      3378.179        2632.352          42.750          36.650



 133446888.221 6 103984591.67646  25394098.240                    25394099.740
       643.512         501.441          39.300          39.050    99651908.167 7
  25394101.300         480.617          44.500


 108600906.802 8  84624095.66648  20666059.640                    20666059.940
      -523.548        -407.960          51.600          51.400    81098099.126 9
  20666061.000        -390.888          56.050


 23  9 13 15 31  0.0000000  0 12G05G07G09G11G13G14G15G18G20G22G27G30
 108766168.720 8  84752879.63348  20697505.860                    20697504.280
       926.580         722.011          50.600          50.350



 115813182.608 8  90244032.86648  22038516.100                    22038513.820
     -2119.068       -1651.224          49.400          49.650



 131945505.677 6 102814659.62846  25108409.960                    25108414.800
     -3287.898       -2562.000          38.500          38.400    98530713.601 7
  25108417.540       -2455.506          45.950


 127807774.759 6  99590455.61646  24321020.220                    24321020.720
     -3468.878       -2703.026          41.950          40.100    95440869.943 7
  24321025.320       -2590.503          46.100


 111924235.598 8  87213707.77647  21298464.520                    21298462.440
      2295.111        1788.399          50.550          44.550



 120603998.867 7  93977177.51347  22950162.380                    22950162.580
      2975.018        2318.197          46.300          43.550    90061503.213 8
  22950168.600        2221.651          48.950


 127778279.634 6  99567491.75646  24315396.380                    24315397.140
      3555.649        2770.639          41.350          40.850



 131271231.435 6 102289273.09745  24980084.880                    24980086.180
      2185.303        1702.833          41.900          35.900    98027240.337 7
  24980091.440        1632.039          46.500


 108163612.993 8  84283328.82148  20582850.040                    20582847.920
     -1409.227       -1098.100          50.400          48.950



 125390329.563 7  97706774.51246  23860973.940                    23860974.920
      3374.129        2629.194          42.400          36.950



 133427860.102 6 103969764.57346  25390477.240                    25390478.840
       625.189         487.159          38.650          38.250    99637698.913 6
  25390480.120         466.750          41.750


 108616846.191 8  84636515.96448  20669092.720                    20669093.180
      -538.961        -419.970          51.500          51.450    81110001.919 9
  20669093.920        -402.537          56.200


 23  9 13 15 31 30.0000000  0 12G05G07G09G11G13G14G15G18G20G22G27G30
 108738654.240 8  84731439.77848  20692270.060                    20692268.400
       907.379         707.048          51.000          50.000



 115876894.293 8  90293678.30048  22050639.940                    22050637.900
     -2128.762       -1658.776          49.350          49.300



 132044172.914 6 102891543.06746  25127185.900                    25127190.580
     -3290.138       -2563.747          37.700          37.550    98604393.499 7
  25127193.680       -2456.735          46.300


 127911886.087 6  99671581.16846  24340831.900                    24340833.060
     -3471.999       -2705.459          41.900          40.500    95518615.249 7
  24340837.380       -2592.813          45.350


 111855514.831 8  87160159.14147  21285387.360                    21285385.380
      2285.866        1781.195          50.200          44.750



 120514882.732 7  93907736.41747  22933203.960                    22933204.420
      2965.617        2310.871          45.400          44.300    89994955.519 8
  22933210.320        2214.616          48.900


 127671638.756 7  99484395.02746  24295103.420                    24295104.060
      3553.243        2768.762          42.650          40.250



 131205894.383 6 102238361.16646  24967651.800                    24967652.900
      2169.834        1690.784          41.900          36.750    97978449.725 7
  24967658.200        1620.409          44.950


 108206162.581 8  84316484.32048  20590946.900                    20590944.700
     -1427.802       -1112.573          50.100          48.800



 125289163.662 7  97627944.03746  23841722.660                    23841723.500
      3369.857        2625.866          43.050          37.600



 133409382.686 6 103955366.58646  25386961.000                    25386962.780
       606.542         472.634          37.000          37.400    99623900.820 7
  25386963.660         452.853          42.550


 108633248.345 8  84649296.85648  20672213.920                    20672214.460
      -554.784        -432.300          51.200          51.100    81122250.267 9
  20672215.100        -414.229          56.050


 23  9 13 15 32  0.0000000  0 12G05G07G09G11G13G14G15G18G20G22G27G30
 108711713.972 8  84710447.36448  20687143.540                    20687141.660
       888.203         692.106          51.050          50.000



 115940889.981 8  90343545.03748  22062817.820                    22062815.960
     -2137.931       -1665.921          49.300          49.200



 132142887.723 6 102968463.60746  25145970.700                    25145975.560
     -3291.389       -2564.720          37.200          36.900    98678108.997 7
  25145978.600       -2457.688          46.600


 128016086.559 7  99752776.19646  24360660.760                    24360662.420
     -3474.942       -2707.753          42.950          40.700    95596427.142 7
  24360666.400       -2594.833          44.950


 111787064.865 8  87106821.50747  21272361.760                    21272359.800
      2277.144        1774.397          50.350          44.600



 120426049.571 7  93838515.83347  22916299.360                    22916300.100
      2956.417        2303.704          45.850          43.950    89928619.136 8
  22916306.080        2207.679          48.850


 127565057.264 7  99401344.58046  24274821.680                    24274822.140
      3551.971        2767.771          43.000          41.800



 131141022.592 6 102187811.81646  24955306.900                    24955308.180
      2154.425        1678.776          40.500          37.550    97930006.590 7
  24955313.200        1608.978          44.700


 108249270.068 8  84350074.54348  20599149.920                    20599147.660
     -1446.295       -1126.983          49.900          49.250



 125188125.547 7  97549213.20846  23822495.480                    23822496.740
      3365.803        2622.709          42.050          38.650



 133391463.256 6 103941403.40646  25383551.100                    25383552.800
       587.727         457.971          38.100          39.200    99610519.511 6
  25383553.640         439.131          41.750


 108650118.593 8  84662442.49248  20675424.180                    20675424.740
      -570.048        -444.194          51.450          51.450    81134848.168 9
  20675425.500        -425.715          56.000


 23  9 13 15 32 30.0000000  0 12G05G07G09G11G13G14G15G18G20G22G27G30
 108685343.758 8  84689899.14048  20682125.500                    20682123.300
       869.201         677.299          50.800          49.850



 116005162.323 8  90393627.34648  22075048.440                    22075046.520
     -2147.241       -1673.176          49.250          49.550



 132241644.120 6 103045416.51546  25164763.520                    25164768.160
     -3293.010       -2565.983          38.200          37.950    98751855.498 7
  25164771.560       -2458.932          47.300


 128120367.569 7  99834034.02846  24380505.020                    24380506.760
     -3477.641       -2709.853          42.100          41.050    95674299.192 7
  24380510.940       -2596.863          45.950


 111718881.458 8  87053691.59647  21259386.840                    21259384.980
      2268.045        1767.308          50.900          44.050



 120337496.771 7  93769513.69447  22899448.120                    22899449.200
      2946.896        2296.283          45.450          44.550    89862492.105 8
  22899454.800        2200.489          48.950


 127458530.564 7  99318336.81746  24254550.300                    24254550.760
      3549.491        2765.839          44.150          40.650



 131076612.547 6 102137622.19346  24943050.000                    24943051.200
      2139.091        1666.826          40.350          36.700    97881908.223 7
  24943056.160        1597.397          45.500


 108292928.966 8  84384094.44348  20607457.900                    20607455.620
     -1464.779       -1141.389          50.150          48.950



 125087212.580 7  97470579.85946  23803292.280                    23803293.620
      3361.382        2619.261          43.300          38.200



 133374097.198 5 103927871.46046  25380246.360                    25380248.000
       569.584         443.838          35.350          36.100    99597551.402 6
  25380248.900         425.130          40.100


 108667450.393 8  84675947.78748  20678722.340                    20678722.740
      -585.692        -456.384          51.450          51.500    81147790.742 9
  20678723.780        -437.382          56.150


 23  9 13 15 33  0.0000000  0 12G05G07G09G11G13G14G15G18G20G22G27G30
 108659553.462 8  84669802.80248  20677217.740                    20677215.340
       850.245         662.528          50.550          50.250



 116069718.195 8  90443930.59948  22087333.040                    22087330.840
     -2156.406       -1680.317          49.300          49.400



 132340449.843 6 103122407.88746  25183565.600                    25183570.280
     -3293.822       -2566.617          36.350          36.000    98825638.879 7
  25183573.840       -2459.962          47.750


 128224734.723 6  99915358.95846  24400365.400                    24400367.400
     -3480.104       -2711.775          41.850          38.400    95752235.542 7
  24400371.900       -2598.840          47.200


 111650973.761 8  87000776.53447  21246464.420                    21246462.700
      2259.027        1760.282          51.100          44.500



 120249235.771 7  93700738.94247  22882652.380                    22882653.880
      2937.204        2288.731          45.250          44.150    89796582.977 8
  22882659.060        2193.379          49.150


 127352068.107 7  99235379.11546  24234291.240                    24234291.480
      3547.796        2764.518          44.550          39.400



 131012675.137 6 102087800.84146  24930882.800                    24930884.060
      2123.383        1654.582          40.200          38.600    97834162.808 7
  24930889.000        1585.622          44.700


 108337146.716 8  84418549.79948  20615872.360                    20615870.000
     -1483.128       -1155.686          50.550          49.100



 124986436.032 7  97392052.76546  23784115.180                    23784115.980
      3356.932        2615.794          42.650          38.550



 133357294.298 6 103914778.40246  25377048.800                    25377050.680
       550.807         429.204          38.300          39.200    99585003.852 6
  25377051.540         411.265          41.950


 108685251.327 8  84689818.64448  20682109.860                    20682109.980
      -601.020        -468.327          51.800          51.850    81161083.645 9
  20682111.280        -448.892          56.250


 23  9 13 15 33 30.0000000  0 12G05G07G09G11G13G14G15G18G20G22G27G30
 108634333.995 8  84650151.27648  20672418.660                    20672416.180
       831.457         647.888          50.650          50.500



 116134544.588 8  90494444.65548  22099669.160                    22099666.680
     -2164.905       -1686.939          49.150          49.100



 132439293.324 6 103199428.62246  25202374.900                    25202379.640
     -3294.990       -2567.531          37.300          36.750    98899450.398 7
  25202383.220       -2460.599          46.850


 128329173.952 6  99996740.03646  24420239.380                    24420241.740
     -3481.979       -2713.234          41.700          40.650    95830225.711 7
  24420246.480       -2600.264          46.550


 111583331.898 8  86948068.60347  21233592.640                    21233590.880
      2250.797        1753.868          50.600          45.050



 120161258.382 7  93632185.17947  22865910.740                    22865912.480
      2928.220        2281.730          45.350          45.100    89730885.648 8
  22865917.200        2186.533          48.850


 127245660.670 7  99152464.28246  24214042.600                    24214042.620
      3546.442        2763.463          44.700          37.600



 130949201.513 6 102038340.91046  24918804.080                    24918805.340
      2108.661        1643.111          39.850          39.400    97786763.750 7
  24918809.960        1574.267          44.200


 108381911.070 8  84453431.08448  20624390.820                    20624388.420
     -1500.819       -1169.471          50.800          48.850



 124885787.848 6  97313625.74646  23764962.260                    23764963.180
      3353.256        2612.932          41.900          38.550



 133341044.596 6 103902116.28846  25373956.760                    25373958.540
       532.947         415.280          39.800          40.300    99572869.334 7
  25373959.200         397.854          42.550


 108703509.325 8  84704045.65048  20685584.300                    20685584.260
      -615.723        -479.784          51.850          51.750    81174717.862 9
  20685585.660        -459.877          56.250


 23  9 13 15 34  0.0000000  0 12G05G07G09G11G13G14G15G18G20G22G27G30
 108609696.382 8  84630953.13348  20667730.360                    20667727.880
       812.195         632.879          51.050          50.350



 116199649.691 8  90545175.88748  22112058.280                    22112055.820
     -2174.118       -1694.119          48.800          48.700



 132538183.436 6 103276485.73746  25221193.120                    25221198.000
     -3296.442       -2568.661          37.300          37.900    98973296.769 7
  25221201.400       -2461.753          47.700


 128433691.825 6 100078182.40646  24440128.480                    24440130.700
     -3484.646       -2715.312          41.950          40.200    95908274.591 7
  24440136.020       -2602.112          46.500


 111515966.272 8  86895575.91247  21220773.520                    21220771.540
      2241.496        1746.620          50.950          44.950



 120073577.090 7  93563862.15247  22849225.480                    22849227.340
      2918.530        2274.181          45.750          44.700    89665409.420 8
  22849231.420        2179.228          48.800


 127139319.010 7  99069600.67846  24193806.420                    24193806.240
      3544.202        2761.717          44.700          38.800



 130886203.289 6 101989251.47646  24906815.800                    24906817.220
      2092.759        1630.726          38.950          38.200    97739719.667 7
  24906821.160        1562.656          43.850


 108427230.310 8  84488744.74848  20633014.820                    20633012.420
     -1519.272       -1183.850          50.600          48.800



 124785280.755 7  97235308.67746  23745836.300                    23745837.260
      3348.609        2609.309          43.300          38.300



 133325358.463 6 103889893.42146  25370971.820                    25370973.580
       514.202         400.679          37.700          37.050    99561155.755 6
  25370974.300         383.786          41.750


 108722232.958 8  84718635.48448  20689147.340                    20689147.260
      -631.202        -491.846          51.450          51.300    81188699.775 9
  20689148.540        -471.357          55.950


 23  9 13 15 34 30.0000000  0 12G05G07G09G11G13G14G15G18G20G22G27G30
 108585634.476 8  84612203.60048  20663151.640                    20663149.160
       792.594         617.606          51.550          49.900



 116265024.957 8  90596117.62948  22124498.800                    22124496.560
     -2183.464       -1701.401          48.250          48.100



 132637112.566 6 103353573.22745  25240018.780                    25240023.680
     -3298.313       -2570.115          36.350          35.800    99047172.247 7
  25240027.080       -2462.970          46.600


 128538278.387 7 100159678.30746  24460030.900                    24460033.080
     -3487.236       -2717.328          42.100          39.400    95986374.817 7
  24460038.580       -2604.138          46.050


 111448871.043 8  86843293.92147  21208005.880                    21208003.560
      2232.104        1739.302          51.700          44.200



 119986187.852 7  93495766.70447  22832595.960                    22832597.660
      2908.223        2266.150          46.000          45.250    89600151.286 8
  22832601.380        2171.751          48.700


 127033037.337 7  98986783.84746  24173581.560                    24173581.280
      3541.925        2759.944          44.600          37.850



 130823675.761 6 101940528.76246  24894917.140                    24894918.560
      2076.567        1618.104          39.850          38.900    97693027.091 7
  24894922.360        1550.675          44.400


 108473096.987 8  84524484.99048  20641743.000                    20641740.500
     -1537.890       -1198.356          49.950          49.200



 124684910.605 6  97157098.27946  23726736.480                    23726737.300
      3343.521        2605.344          41.950          38.300



 133310230.040 5 103878105.08946  25368092.820                    25368094.580
       494.890         385.636          35.850          36.300    99549858.604 7
  25368095.680         369.680          44.050


 108741414.290 8  84733581.96548  20692797.360                    20692797.420
      -646.853        -504.041          51.450          51.500    81203023.483 9
  20692798.520        -483.060          56.100


 23  9 13 15 35  0.0000000  0 12G05G07G09G11G13G14G15G18G20G22G27G30
 108562153.747 8  84593906.93148  20658683.480                    20658681.000
       772.636         602.054          51.450          50.150



 116330672.946 8  90647271.86948  22136991.240                    22136989.320
     -2193.157       -1708.954          48.000          48.250



 132736084.498 6 103430694.07446  25258852.520                    25258857.460
     -3300.427       -2571.763          37.100          37.150    99121079.704 7
  25258860.740       -2464.255          47.100


 128642935.054 6 100241228.80946  24479946.300                    24479948.740
     -3490.012       -2719.495          41.000          38.250    96064527.352 7
  24479954.380       -2606.094          46.250


 111382051.299 8  86791226.60947  21195290.500                    21195288.100
      2222.386        1731.729          51.350          44.750



 119899097.844 7  93427904.40947  22816023.380                    22816024.880
      2897.719        2257.965          46.750          45.050    89535116.592 8
  22816028.040        2163.980          48.600


 126926821.417 7  98904018.21246  24153369.200                    24153368.880
      3539.049        2757.700          44.550          37.700



 130761625.279 6 101892177.76246  24883109.300                    24883110.720
      2060.222        1605.371          40.150          39.450    97646690.735 7
  24883114.500        1538.389          44.750


 108519514.011 8  84560654.06748  20650575.880                    20650573.340
     -1556.671       -1212.991          50.500          48.700



 124584684.637 7  97079000.25646  23707663.820                    23707664.860
      3338.186        2601.186          43.250          38.050



 133295664.296 6 103866755.14446  25365320.960                    25365322.740
       475.582         370.586          36.100          36.000    99538981.564 7
  25365324.160         355.281          44.600


 108761056.530 8  84748887.59348  20696535.140                    20696535.360
      -662.811        -516.477          51.750          51.700    81217691.373 9
  20696536.280        -494.874          55.850


 23  9 13 15 35 30.0000000  0 12G05G07G09G11G13G14G15G18G20G22G27G30
 108539254.452 8  84576063.32448  20654325.960                    20654323.340
       753.680         587.282          51.400          50.000



 116396591.283 8  90698636.77648  22149535.100                    22149533.480
     -2201.724       -1715.630          48.100          48.000



 132835097.498 6 103507846.91246  25277694.320                    25277699.080
     -3301.333       -2572.472          37.900          38.150    99195017.803 7
  25277702.420       -2465.115          46.550


 128747657.821 6 100322830.80446  24499874.340                    24499876.900
     -3491.837       -2720.918          40.100          36.800    96142729.253 7
  24499882.700       -2607.401          46.350


 111315507.111 8  86739374.01147  21182627.400                    21182625.300
      2213.558        1724.851          50.450          45.600



 119812309.023 7  93360276.81847  22799508.120                    22799509.340
      2887.906        2250.319          46.750          44.800    89470306.837 8
  22799512.240        2156.521          48.600


 126820671.511 7  98821304.05446  24133169.360                    24133169.260
      3537.197        2756.259          44.500          38.050



 130700053.088 6 101844199.48846  24871392.560                    24871393.520
      2044.547        1593.155          40.150          38.150    97600711.558 7
  24871397.820        1526.695          44.250


 108566479.501 8  84597250.53048  20659513.120                    20659510.540
     -1574.594       -1226.957          50.600          48.650



 124484605.182 7  97001016.38046  23688619.320                    23688620.440
      3333.417        2597.473          42.900          40.350



 133281661.313 6 103855843.74646  25362656.120                    25362657.820
       457.161         356.236          37.950          36.750    99528524.779 7
  25362659.140         341.538          42.300


 108781157.713 8  84764550.85248  20700360.200                    20700360.580
      -677.626        -528.021          51.600          51.650    81232701.997 9
  20700361.380        -505.982          56.000


 23  9 13 15 36  0.0000000  0 12G05G07G09G11G13G14G15G18G20G22G27G30
 108516935.957 8  84558672.27648  20650078.960                    20650076.100
       734.428         572.279          51.350          51.400



 116462776.387 8  90750209.55048  22162129.780                    22162128.260
     -2210.381       -1722.375          48.600          48.450



 132934149.047 6 103585029.80846  25296543.400                    25296547.980
     -3302.195       -2573.144          38.650          39.050    99268984.714 7
  25296551.320       -2465.958          46.350


 128852441.757 7 100404480.50746  24519814.000                    24519816.840
     -3493.799       -2722.443          42.000          38.000    96220976.838 7
  24519822.660       -2608.940          46.650


 111249237.277 8  86687735.19447  21170016.520                    21170014.600
      2204.609        1717.877          50.600          45.250



 119725822.230 7  93292884.57547  22783050.280                    22783051.080
      2878.006        2242.604          47.500          44.100    89405722.618 8
  22783053.840        2149.083          48.300


 126714586.830 7  98738640.70845  24112981.940                    24112982.160
      3535.316        2754.792          43.950          35.300



 130638959.141 6 101796593.85246  24859766.780                    24859767.840
      2028.588        1580.720          41.050          39.500    97555089.477 7
  24859772.040        1514.767          44.900


 108613990.271 8  84634271.88348  20668554.120                    20668551.640
     -1592.606       -1240.993          50.350          48.700



 124384673.089 6  96923147.33946  23669602.820                    23669604.200
      3328.716        2593.812          41.850          38.900



 133268220.076 6 103845370.08946  25360098.240                    25360099.980
       438.897         341.995          36.550          36.750    99518487.589 7
  25360101.240         327.614          43.600


 108801714.789 8  84780569.34948  20704272.080                    20704272.440
      -692.669        -539.742          51.850          51.700    81248053.051 9
  20704273.220        -517.229          56.050


 23  9 13 15 36 30.0000000  0 12G05G07G09G11G13G14G15G18G20G22G27G30
 108495199.422 8  84541734.71148  20645942.660                    20645939.620
       714.548         556.790          51.500          51.600



 116529226.011 8  90801988.44948  22174774.860                    22174773.260
     -2219.652       -1729.601          48.850          48.850



 133033238.214 6 103662241.99046  25315399.540                    25315404.140
     -3303.820       -2574.411          38.600          39.450    99342979.684 7
  25315407.440       -2467.123          45.000


 128957283.622 6 100486175.33046  24539765.020                    24539767.620
     -3495.960       -2724.130          41.250          38.100    96299267.657 7
  24539773.520       -2610.487          46.750


 111183242.642 8  86636310.83047  21157458.020                    21157456.140
      2194.977        1710.372          51.200          44.650



 119639640.150 7  93225729.77747  22766650.340                    22766650.960
      2867.436        2234.368          47.350          44.000    89341365.935 8
  22766653.540        2141.374          48.250


 126608568.276 7  98656028.89946  24092807.240                    24092807.520
      3532.565        2752.649          44.700          37.750



 130578345.394 6 101749362.33646  24848232.600                    24848233.280
      2011.974        1567.770          41.650          39.250    97509825.945 7
  24848237.840        1502.703          44.200


 108662044.628 8  84671716.80548  20677698.540                    20677696.200
     -1611.149       -1255.442          50.600          48.900



 124284891.120 7  96845395.25946  23650614.840                    23650616.220
      3323.146        2589.464          43.750          36.850



 133255341.250 6 103835334.61246  25357647.420                    25357649.340
       419.667         327.015          39.350          39.750    99508870.218 7
  25357650.620         313.391          45.000


 108822726.497 8  84796942.09448  20708270.480                    20708270.740
      -708.192        -551.839          51.600          51.650    81263743.594 9
  20708271.500        -528.756          55.700


 23  9 13 15 37  0.0000000  0 12G05G07G09G11G13G14G15G18G20G22G27G30
 108474047.510 8  84525252.69348  20641917.500                    20641914.480
       695.502         541.950          50.650          50.650



 116595939.322 8  90853972.81948  22187470.040                    22187468.380
     -2227.906       -1736.032          48.400          48.250



 133132365.314 6 103739483.75846  25334262.880                    25334267.720
     -3304.616       -2575.028          38.700          39.050    99417003.017 7
  25334270.900       -2467.682          45.800


 129062181.455 6 100567913.81146  24559726.600                    24559729.360
     -3497.377       -2725.229          41.300          38.950    96377600.317 7
  24559734.640       -2611.549          46.650


 111117525.116 8  86585102.38647  21144952.360                    21144950.320
      2186.178        1703.516          50.350          45.300



 119553766.607 7  93158815.38347  22750309.180                    22750309.300
      2857.399        2226.547          46.950          43.800    89277239.648 8
  22750312.080        2134.015          48.150


 126502618.413 7  98573470.62446  24072645.660                    24072646.040
      3530.752        2751.240          43.800          39.850



 130518214.908 6 101702507.51546  24836790.260                    24836790.960
      1996.442        1555.671          40.700          38.100    97464923.427 7
  24836795.340        1490.946          44.100


 108710642.634 8  84709585.35048  20686946.420                    20686944.300
     -1628.754       -1269.160          50.100          49.000



 124185263.235 7  96767763.25546  23631656.200                    23631657.480
      3318.887        2586.150          42.200          37.750



 133243026.345 6 103825738.60246  25355304.000                    25355305.920
       401.091         312.538          38.350          37.650    99499674.040 7
  25355307.040         299.636          43.250


 108844192.718 8  84813669.01548  20712355.380                    20712355.580
      -722.763        -563.191          51.300          51.300    81279773.564 9
  20712356.280        -539.771          56.000


 23  9 13 15 37 30.0000000  0 12G05G07G09G11G13G14G15G18G20G22G27G30
 108453483.085 8  84509228.46448  20638004.040                    20638001.300
       675.603         526.443          50.800          50.650



 116662917.261 8  90906163.38148  22200215.500                    22200213.780
     -2236.958       -1743.086          48.400          48.550



 133231532.035 6 103816756.40646  25353133.760                    25353138.620
     -3306.358       -2576.387          37.650          37.200    99491055.949 7
  25353141.760       -2468.961          44.350


 129167134.527 6 100649695.25246  24579698.600                    24579701.360
     -3499.422       -2726.828          39.850          39.100    96455974.178 7
  24579706.340       -2613.103          46.800


 111052087.829 8  86534112.31347  21132500.000                    21132497.800
      2176.596        1696.050          50.150          45.100



 119468206.658 7  93092145.36647  22734027.600                    22734027.760
      2846.745        2218.245          47.250          44.050    89213347.576 8
  22734030.380        2125.800          48.650


 126396740.847 7  98490968.66546  24052497.880                    24052498.320
      3528.086        2749.160          44.400          39.400



 130458571.961 6 101656032.53246  24825440.740                    24825441.360
      1979.729        1542.648          41.050          39.900    97420384.880 7
  24825445.820        1478.570          44.350


 108759785.297 8  84747878.31548  20696297.960                    20696295.960
     -1647.150       -1283.495          49.900          48.800



 124085794.584 7  96690255.32946  23612727.820                    23612728.980
      3312.989        2581.555          42.600          39.350



 133231278.514 6 103816584.42546  25353068.460                    25353070.360
       381.789         297.500          37.950          38.650    99490901.287 6
  25353071.300         285.426          40.250


 108866114.555 8  84830750.94848  20716526.980                    20716527.120
      -738.256        -575.265          51.450          51.600    81296143.746 9
  20716527.880        -551.306          56.150


 23  9 13 15 38  0.0000000  0 12G05G07G09G11G13G14G15G18G20G22G27G30
 108433505.715 8  84493661.68748  20634202.380                    20634199.900
       656.095         511.242          50.700          50.950



 116730156.567 8  90958557.60348  22213010.700                    22213009.020
     -2245.599       -1749.819          48.600          48.400



 133330735.951 6 103894058.02846  25372011.820                    25372016.880
     -3306.844       -2576.766          37.950          37.200    99565136.650 7
  25372019.740       -2469.717          44.550


 129272138.155 6 100731516.10146  24599680.340                    24599682.800
     -3500.882       -2727.963          40.750          38.950    96534385.797 7
  24599687.560       -2614.261          45.050


 110986930.114 8  86483340.07347  21120100.880                    21120098.520
      2167.230        1688.751          50.350          44.950



 119382961.506 7  93025720.63047  22717805.940                    22717805.800
      2836.271        2210.084          46.950          44.200    89149690.553 8
  22717808.760        2117.938          48.550


 126290934.599 7  98408522.31446  24032363.620                    24032364.360
      3525.524        2747.167          43.900          40.600



 130399416.802 6 101609937.59446  24814183.920                    24814184.340
      1964.002        1530.391          41.100          39.400    97376210.616 7
  24814188.960        1466.277          44.350


 108809469.395 8  84786593.18048  20705752.500                    20705750.480
     -1665.126       -1297.501          49.700          49.100



 123986486.550 6  96612872.56646  23593829.960                    23593830.980
      3307.764        2577.482          41.700          36.600



 133220096.994 5 103807871.61245  25350940.820                    25350942.560
       363.232         283.038          35.650          35.450    99482551.545 6
  25350943.840         271.245          40.700


 108888489.204 8  84848185.73148  20720784.820                    20720784.800
      -753.343        -587.021          51.900          51.850    81312852.081 9
  20720785.740        -562.565          56.250


 23  9 13 15 38 30.0000000  0 12G05G07G09G11G13G14G15G18G20G22G27G30
 108414113.450 8  84478550.82648  20630512.200                    20630509.780
       636.835         496.235          51.050          51.100



 116797652.999 8  91011152.18548  22225854.860                    22225853.220
     -2253.878       -1756.270          49.150          48.950



 133429973.812 6 103971386.10846  25390896.200                    25390901.320
     -3308.038       -2577.696          37.700          37.550    99639242.691 7
  25390904.180       -2470.496          43.400


 129377186.721 6 100813371.94446  24619670.680                    24619673.100
     -3502.324       -2729.093          40.950          38.800    96612830.955 7
  24619677.340       -2615.215          45.000


 110922050.253 8  86432784.35447  21107754.640                    21107752.280
      2158.095        1681.633          50.800          45.050



 119298031.210 7  92959541.24447  22701644.260                    22701644.220
      2826.053        2202.121          47.200          43.800    89086268.644 8
  22701647.120        2110.286          48.800


 126185198.666 7  98326130.74146  24012242.700                    24012243.520
      3523.850        2745.860          44.350          38.500



 130340748.919 7 101564222.42846  24803019.700                    24803020.320
      1947.783        1517.753          42.000          38.750    97332400.262 7
  24803024.820        1454.312          45.450


 108859691.034 8  84825726.89547  20715309.380                    20715307.320
     -1682.771       -1311.250          50.100          47.900



 123887339.607 7  96535615.32546  23574962.840                    23574963.820
      3302.422        2573.320          43.200          40.150



 133209479.670 6 103799598.38546  25348920.520                    25348921.940
       344.627         268.537          37.200          37.650    99474623.040 7
  25348923.620         257.464          43.750


 108911312.829 8  84865970.36448  20725128.100                    20725127.860
      -768.129        -598.542          51.900          51.950    81329895.688 9
  20725129.100        -573.537          56.250


 23  9 13 15 39  0.0000000  0 12G05G07G09G11G13G14G15G18G20G22G27G30
 108395317.128 8  84463904.34048  20626935.500                    20626932.920
       617.052         480.819          50.850          50.900



 116865413.203 8  91063952.30848  22238749.260                    22238747.600
     -2262.593       -1763.061          49.550          49.400



 133529253.550 6 104048746.76746  25409788.680                    25409793.740
     -3309.453       -2578.797          39.050          40.100    99713379.993 7
  25409796.540       -2471.465          44.300


 129482285.691 7 100895267.12746  24639670.780                    24639672.800
     -3503.771       -2730.215          42.850          40.050    96691313.809 7
  24639676.820       -2616.319          44.900


 110857457.564 8  86382452.40547  21095462.980                    21095460.920
      2148.810        1674.397          50.500          44.500



 119213427.146 7  92893616.05947  22685544.620                    22685544.500
      2815.208        2193.671          47.500          43.950    89023090.353 8
  22685547.740        2102.201          48.950


 126079543.115 7  98243801.79346  23992137.120                    23992137.800
      3521.050        2743.678          44.050          39.050



 130282578.561 6 101518894.93046  24791949.920                    24791950.860
      1931.025        1504.697          41.150          38.650    97288961.390 7
  24791955.460        1442.115          45.800


 108910457.630 8  84865285.25947  20724969.980                    20724967.680
     -1700.811       -1325.307          50.400          47.550



 123788364.847 7  96458492.23846  23556128.680                    23556129.240
      3296.713        2568.870          43.800          37.900



 133199435.818 6 103791772.08146  25347009.240                    25347010.620
       325.585         253.706          38.050          37.350    99467122.814 7
  25347012.180         243.279          43.900


 108934592.883 8  84884110.65348  20729558.160                    20729557.780
      -783.198        -610.284          51.850          51.900    81347280.132 9
  20729559.300        -584.806          56.600


 23  9 13 15 39 30.0000000  0 12G05G07G09G11G13G14G15G18G20G22G27G30
 108377105.519 8  84449713.46548  20623469.960                    20623467.240
       597.361         465.476          50.850          50.950



 116933423.919 8  91116947.63548  22251691.300                    22251689.700
     -2271.198       -1769.766          49.050          48.950



 133628563.002 6 104126130.64346  25428686.760                    25428691.940
     -3310.408       -2579.540          37.150          36.900    99787539.477 7
  25428694.400       -2472.348          44.200


 129587420.661 6 100977190.34846  24659677.640                    24659679.540
     -3504.959       -2731.143          40.800          38.800    96769823.526 7
  24659683.440       -2617.352          44.400


 110793141.382 8  86332335.91447  21083223.940                    21083222.160
      2139.238        1666.940          50.650          44.650



 119129140.697 7  92827938.35947  22669505.380                    22669505.480
      2804.310        2185.178          47.500          43.750    88960149.242 8
  22669508.940        2094.110          49.200


 125973957.644 7  98161527.45846  23972044.860                    23972045.200
      3518.479        2741.674          44.200          37.550



 130224896.430 6 101473947.85046  24780973.260                    24780974.400
      1914.452        1491.783          40.500          40.600    97245887.131 7
  24780979.420        1429.765          45.650


 108961756.374 8  84905258.28048  20734731.860                    20734729.420
     -1718.840       -1339.356          50.000          48.450



 123689554.037 7  96381496.88746  23537325.660                    23537325.840
      3290.900        2564.343          43.850          39.100



 133189954.675 6 103784384.22246  25345205.100                    25345206.300
       307.149         239.340          38.250          38.100    99460042.848 7
  25345207.900         229.010          43.850


 108958316.730 8  84902596.76448  20734072.640                    20734072.200
      -798.084        -621.885          51.450          51.550    81364995.990 9
  20734073.960        -595.999          56.650


 23  9 13 15 40  0.0000000  0 12G05G07G09G11G13G14G15G18G20G22G27G30
 108359485.661 8  84435983.70048  20620117.000                    20620114.200
       577.681         450.140          50.800          50.700



 117001689.310 8  91170141.40548  22264681.760                    22264680.180
     -2279.540       -1776.267          49.100          49.250



 133727907.070 6 104203541.44146  25447591.340                    25447596.440
     -3312.052       -2580.821          37.600          37.400    99861724.782 7
  25447599.060       -2473.104          44.100


 129692594.187 7 101059143.56746  24679691.720                    24679693.700
     -3506.189       -2732.102          42.450          37.900    96848362.010 7
  24679697.780       -2618.199          46.050


 110729108.310 8  86282440.02647  21071038.840                    21071037.020
      2129.856        1659.628          50.800          44.300



 119045180.081 7  92762514.55447  22653528.100                    22653528.280
      2793.490        2176.747          47.350          44.600    88897451.450 8
  22653532.080        2086.044          49.450


 125868448.652 7  98079312.70645  23951967.120                    23951967.080
      3515.860        2739.634          43.950          35.950



 130167709.923 6 101429386.96646  24770091.240                    24770092.400
      1898.064        1479.013          41.750          38.650    97203182.966 7
  24770097.180        1417.382          45.600


 109013591.434 8  84945649.21048  20744595.780                    20744593.160
     -1736.462       -1353.088          50.350          48.000



 123590915.608 7  96304635.86346  23518555.520                    23518555.440
      3285.254        2559.940          44.700          37.650



 133181042.277 6 103777439.52346  25343508.980                    25343510.080
       287.992         224.409          37.350          37.850    99453387.497 7
  25343512.080         214.813          44.950


 108982488.677 8  84921432.04148  20738672.420                    20738671.900
      -812.923        -633.446          51.750          51.750    81383046.460 9
  20738673.840        -607.120          56.650


 23  9 13 15 40 30.0000000  0 12G05G07G09G11G13G14G15G18G20G22G27G30
 108342460.163 8  84422717.08048  20616877.040                    20616874.300
       557.995         434.802          50.950          51.200



 117070209.597 8  91223533.79748  22277720.720                    22277719.100
     -2287.825       -1782.722          48.900          48.700



 133827287.279 6 104280980.43046  25466502.840                    25466508.140
     -3313.330       -2581.822          36.400          36.050    99935937.132 7
  25466510.440       -2473.937          42.200


 129797805.556 6 101141126.34046  24699713.100                    24699714.860
     -3507.441       -2733.076          41.900          39.350    96926928.747 7
  24699719.520       -2619.019          45.650


 110665361.222 8  86232766.99547  21058908.120                    21058906.100
      2120.570        1652.394          50.150          44.600



 118961550.416 7  92697348.64147  22637613.820                    22637614.240
      2782.495        2168.180          47.250          44.500    88835000.795 8
  22637618.520        2077.794          49.500


 125763019.895 7  97997160.49746  23931904.560                    23931904.220
      3513.315        2737.649          44.300          36.000



 130111023.096 6 101385215.46646  24759304.060                    24759305.040
      1881.582        1466.169          41.000          40.500    97160851.937 7
  24759310.320        1405.104          46.750


 109065963.641 8  84986458.69347  20754561.920                    20754559.280
     -1754.201       -1366.911          50.350          47.400



 123492454.709 7  96227913.16946  23499819.160                    23499818.620
      3279.655        2555.578          44.750          38.100



 133172701.569 6 103770940.23946  25341921.680                    25341923.080
       269.191         209.763          38.550          37.600    99447159.048 7
  25341925.120         200.932          43.700


 109007109.803 8  84940617.33048  20743357.760                    20743357.100
      -827.703        -644.963          51.900          51.900    81401432.350 9
  20743359.180        -618.109          56.600


 23  9 13 15 41  0.0000000  0 13G05G07G08G09G11G13G14G15G18G20G22G27
                                G30
 108326028.726 8  84409913.36948  20613750.220                    20613747.540
       537.970         419.197          50.950          51.000



 117138981.403 8  91277122.18548  22290807.500                    22290806.060
     -2296.298       -1789.324          48.850          49.200



 133939345.763 5 104368344.36445  25487810.640                    25487814.980
      1688.768        1315.924          34.850          34.250   100019663.753 6
  25487814.860        1260.489          38.000


 133926701.299 6 104358445.79246  25485420.760                    25485426.100
     -3313.932       -2582.289          39.000          38.700   100010174.757 7
  25485428.220       -2474.839          44.050


 129903049.994 6 101223134.83346  24719740.480                    24719741.980
     -3508.755       -2734.100          40.650          39.950    97005520.184 7
  24719747.200       -2619.920          45.200


 110601899.645 8  86183316.43447  21046831.700                    21046829.660
      2110.914        1644.868          49.400          45.050



 118878252.592 7  92632441.29847  22621762.640                    22621763.300
      2771.278        2159.439          47.250          44.800    88772797.937 8
  22621767.720        2069.394          50.000


 125657670.914 7  97915070.45446  23911857.260                    23911856.480
      3510.689        2735.605          44.200          38.600



 130054836.215 6 101341433.59146  24748611.980                    24748612.960
      1864.631        1452.962          41.150          39.800    97118894.329 7
  24748618.540        1392.504          46.400


 109118869.593 8  85027684.09048  20764629.580                    20764627.040
     -1772.216       -1380.948          50.100          48.500



 123394172.419 7  96151329.65746  23481116.600                    23481116.300
      3273.396        2550.701          44.850          38.500



 133164931.416 6 103764885.53546  25340442.860                    25340444.520
       249.683         194.548          37.500          36.300    99441356.610 7
  25340446.300         186.480          42.900


 109032177.094 8  84960150.28248  20748128.020                    20748127.240
      -842.648        -656.609          51.950          51.800    81420151.431 9
  20748129.380        -629.337          56.450


 23  9 13 15 41 30.0000000  0 13G05G07G08G09G11G13G14G15G18G20G22G27
                                G30
 108310186.762 8  84397568.98048  20610735.600                    20610733.000
       518.392         403.941          51.250          51.100



 117207997.996 8  91330901.31348  22303940.940                    22303939.640
     -2304.399       -1795.638          48.600          48.800



 133888903.616 6 104329038.88146  25478210.520                    25478215.020
      1674.757        1305.004          36.400          37.550    99981995.989 6
  25478216.960        1250.514          37.200


 134026142.982 6 104435932.71946  25504344.100                    25504349.260
     -3314.797       -2582.960          38.800          39.000   100084433.029 7
  25504351.460       -2475.401          43.500


 130008319.035 6 101305162.46346  24739772.600                    24739774.080
     -3509.271       -2734.502          40.000          38.900    97084130.010 7
  24739779.580       -2620.579          44.700


 110538718.609 8  86134084.47647  21034808.680                    21034806.660
      2101.520        1637.548          49.800          44.850



 118795283.927 7  92567790.45247  22605974.080                    22605975.020
      2760.272        2150.863          47.000          44.550    88710840.894 8
  22605979.960        2061.269          49.800


 125552397.600 7  97833039.34546  23891824.320                    23891823.040
      3508.125        2733.604          43.850          36.600



 129999145.514 6 101298038.29746  24738014.140                    24738015.420
      1848.263        1440.204          40.700          39.100    97077307.182 7
  24738021.160        1380.149          46.300


 109172302.655 8  85069320.20248  20774797.580                    20774795.220
     -1789.658       -1394.540          50.500          48.100



 123296066.401 7  96074883.48046  23462447.560                    23462447.400
      3267.631        2546.208          44.350          38.700



 133157726.623 6 103759271.45446  25339071.860                    25339073.500
       231.264         180.210          38.100          37.550    99435976.464 7
  25339074.880         172.537          42.100


 109057683.875 8  84980025.68148  20752981.880                    20752981.040
      -857.290        -668.019          51.950          51.900    81439198.679 9
  20752983.100        -640.229          56.400


 23  9 13 15 42  0.0000000  0 13G05G07G08G09G11G13G14G15G18G20G22G27
                                G30
 108294945.596 8  84385692.74648  20607835.360                    20607832.860
       497.829         387.919          50.850          50.900



 117277268.300 8  91384878.13048  22317122.620                    22317121.540
     -2313.388       -1802.642          48.450          48.450



 133838882.812 5 104290061.73145  25468691.660                    25468696.620
      1660.104        1293.593          35.700          35.550    99944642.865 6
  25468697.980        1239.737          38.950


 134125622.635 6 104513449.22546  25523274.500                    25523279.800
     -3316.886       -2584.588          37.750          37.550   100158719.645 7
  25523281.800       -2476.791          42.750


 130113620.868 6 101387215.66546  24759810.900                    24759812.140
     -3510.855       -2735.735          41.150          38.700    97162764.287 7
  24759817.680       -2621.816          43.400


 110475830.183 8  86085080.51647  21022841.480                    21022839.360
      2091.262        1629.555          50.150          44.950



 118712658.255 7  92503406.86947  22590250.820                    22590252.020
      2748.252        2141.498          46.250          45.700    88649139.960 8
  22590256.860        2052.265          50.250


 125447212.219 7  97751076.77046  23871808.080                    23871806.200
      3504.556        2730.823          43.500          37.000



 129943963.797 6 101255039.62646  24727513.240                    24727514.480
      1830.735        1426.550          41.350          39.600    97036100.117 7
  24727520.500        1367.070          45.750


 109226272.557 8  85111374.63748  20785067.760                    20785065.500
     -1808.109       -1408.918          50.450          48.550



 123198150.555 7  95998585.49246  23443814.520                    23443814.820
      3260.486        2540.639          44.900          39.000



 133151099.022 6 103754107.12246  25337810.920                    25337812.260
       210.976         164.397          37.850          37.050    99431027.301 7
  25337813.400         157.687          42.400


 109083639.969 8  85000251.20148  20757921.240                    20757920.260
      -872.810        -680.111          51.800          52.000    81458581.465 9
  20757922.320        -651.780          56.400


 23  9 13 15 42 30.0000000  0 13G05G07G08G09G11G13G14G15G18G20G22G27
                                G30
 108280300.070 8  84374280.64448  20605048.460                    20605046.080
       478.518         372.871          50.600          50.400



 117346783.740 8  91439045.96748  22330351.020                    22330350.060
     -2321.182       -1808.714          48.700          48.850



 133789278.895 5 104251409.40545  25459252.400                    25459257.700
      1646.748        1283.182          34.650          33.650    99907601.080 7
  25459258.820        1229.668          42.300


 134225132.780 6 104590989.45946  25542210.860                    25542216.040
     -3317.275       -2584.897          38.950          38.950   100233029.067 6
  25542217.960       -2477.298          40.600


 130218945.573 6 101469286.71046  24779853.500                    24779854.980
     -3511.135       -2735.953          40.600          39.800    97241415.690 7
  24779860.200       -2621.905          43.850


 110413228.580 8  86036300.05247  21010928.880                    21010926.620
      2082.182        1622.479          50.400          45.050



 118630371.428 7  92439287.30347  22574592.060                    22574593.360
      2737.314        2132.974          46.400          45.350    88587692.068 8
  22574598.500        2044.097          49.900


 125342109.418 7  97669178.55146  23851807.600                    23851805.380
      3502.197        2728.989          44.350          38.350



 129889286.462 6 101212433.93346  24717108.400                    24717109.800
      1814.211        1413.672          41.150          40.000    96995269.664 7
  24717115.420        1354.841          46.150


 109280770.707 8  85153840.69348  20795438.500                    20795436.260
     -1825.246       -1422.271          50.550          48.300



 123100420.947 7  95922432.63146  23425217.040                    23425217.840
      3254.656        2536.100          43.850          38.050



 133145042.310 6 103749387.54746  25336658.400                    25336660.000
       192.503         149.997          36.700          36.550    99426504.342 7
  25336660.780         143.686          43.250


 109110037.342 8  85020820.57648  20762944.540                    20762943.480
      -887.170        -691.301          52.150          52.350    81478293.777 9
  20762945.600        -662.501          56.550


 23  9 13 15 43  0.0000000  0 13G05G07G08G09G11G13G14G15G18G20G22G27
                                G30
 108266253.331 8  84363335.13348  20602375.420                    20602373.140
       458.784         357.494          50.700          50.800



 117416544.107 8  91493404.66448  22343626.060                    22343624.940
     -2329.042       -1814.839          48.750          48.900



 133740094.617 5 104213084.11145  25449892.980                    25449898.020
      1633.374        1272.757          35.550          35.050    99870872.703 6
  25449899.180        1219.293          41.250


 134324674.226 6 104668554.12646  25561153.080                    25561158.220
     -3318.204       -2585.617          39.850          39.600   100307361.824 7
  25561160.080       -2477.879          42.850


 130324291.390 6 101551374.20046  24799900.120                    24799901.760
     -3511.100       -2735.926          40.600          37.400    97320082.860 7
  24799907.060       -2622.181          44.300


 110350915.838 8  85987744.68147  20999071.140                    20999068.980
      2072.797        1615.166          50.600          45.050



 118548427.406 7  92375434.87947  22558998.540                    22559000.000
      2726.248        2124.351          46.800          45.000    88526500.170 8
  22559004.880        2035.664          50.000


 125237091.491 7  97587346.46246  23831823.380                    23831820.840
      3499.374        2726.789          44.550          38.850



 129835116.303 6 101170223.44646  24706800.080                    24706801.680
      1797.811        1400.893          41.550          38.800    96954817.971 7
  24706806.980        1342.308          46.400


 109335797.268 8  85196718.49848  20805909.760                    20805907.600
     -1842.643       -1435.827          50.700          48.600



 123002881.645 7  95846428.06046  23406655.560                    23406656.860
      3248.673        2531.436          43.500          39.850



 133139557.986 5 103745114.13446  25335614.640                    25335616.240
       173.025         134.829          35.550          37.000    99422408.982 7
  25335616.900         129.674          42.850


 109136875.883 8  85041733.71548  20768051.720                    20768050.760
      -901.511        -702.476          51.950          51.750    81498335.539 9
  20768052.880        -673.303          56.350


 23  9 13 15 43 30.0000000  0 13G05G07G08G09G11G13G14G15G18G20G22G27
                                G30
 108252801.539 8  84352853.21748  20599815.540                    20599813.360
       438.509         341.695          50.150          50.000



 117486544.160 8  91547950.12948  22356946.680                    22356945.580
     -2337.327       -1821.295          48.850          48.950



 133691329.590 6 104175085.42046  25440613.360                    25440617.960
      1618.271        1260.993          37.200          37.250    99834457.275 7
  25440619.100        1208.756          43.200


 134424242.272 6 104746139.53846  25580100.240                    25580105.400
     -3319.470       -2586.599          37.800          37.800   100381714.501 6
  25580107.420       -2478.735          39.650


 130429651.859 6 101633473.10546  24819949.460                    24819951.180
     -3512.280       -2736.848          41.000          39.300    97398760.938 7
  24819956.680       -2622.751          45.000


 110288889.180 8  85939412.23347  20987267.920                    20987265.900
      2062.832        1607.402          51.000          45.150



 118466825.420 7  92311848.94947  22543470.160                    22543471.320
      2714.381        2115.104          46.650          44.950    88465563.661 8
  22543476.460        2026.989          50.100


 125132156.531 7  97505578.99346  23811854.880                    23811852.300
      3496.521        2724.563          43.950          38.800



 129781451.508 6 101128406.74546  24696587.860                    24696589.920
      1780.407        1387.329          41.300          39.650    96914743.676 7
  24696594.820        1329.521          46.550


 109391346.837 8  85240003.83848  20816480.580                    20816478.360
     -1860.348       -1449.622          50.900          48.050



 122905532.095 7  95770571.34746  23388130.400                    23388131.840
      3241.900        2526.159          43.750          39.000



 133134643.086 6 103741284.30946  25334679.280                    25334681.140
       154.435         120.337          37.050          36.700    99418738.719 7
  25334681.920         115.224          45.300


 109164150.865 8  85062986.92948  20773241.860                    20773241.100
      -916.484        -714.145          51.650          51.950    81518703.194 9
  20773243.120        -684.330          56.350


 23  9 13 15 44  0.0000000  0 13G05G07G08G09G11G13G14G15G18G20G22G27
                                G30
 108239950.052 8  84342839.06748  20597369.860                    20597367.780
       418.764         326.309          50.100          50.000



 117556786.844 8  91602684.66848  22370313.480                    22370312.460
     -2345.119       -1827.366          48.900          48.850



 133642990.085 5 104137418.39045  25431414.600                    25431418.920
      1604.268        1250.078          33.550          33.850    99798359.761 6
  25431420.220        1198.230          40.600


 134523841.550 6 104823749.25745  25599053.400                    25599058.480
     -3319.837       -2586.885          36.600          35.650   100456090.503 6
  25599060.360       -2479.400          38.100


 130535028.628 6 101715584.70546  24840001.940                    24840003.360
     -3512.188       -2736.775          39.400          37.850    97477451.181 7
  24840009.580       -2623.010          44.700


 110227154.122 8  85891307.00947  20975520.200                    20975518.360
      2053.319        1599.989          51.100          46.050



 118385572.716 7  92248535.20747  22528008.340                    22528009.420
      2703.036        2106.264          46.800          44.250    88404888.000 8
  22528014.180        2018.382          49.700


 125027310.026 7  97423880.46546  23791903.140                    23791900.640
      3494.092        2722.670          43.400          39.850



 129728298.537 6 101086988.88546  24686473.240                    24686475.260
      1763.492        1374.146          41.350          40.600    96875051.570 7
  24686480.260        1316.954          46.650


 109447422.283 8  85283698.96148  20827151.480                    20827149.300
     -1877.496       -1462.984          50.800          48.000



 122808379.805 7  95694868.33046  23369642.720                    23369644.340
      3235.337        2521.045          42.950          40.150



 133130302.561 6 103737902.09846  25333853.340                    25333855.200
       135.635         105.696          38.850          38.750    99415497.427 7
  25333856.160         101.164          45.000


 109191865.546 8  85084582.78148  20778515.700                    20778515.080
      -930.826        -725.319          51.900          52.100    81539399.223 9
  20778516.920        -695.069          56.150


 23  9 13 15 44 30.0000000  0 13G05G07G08G09G11G13G14G15G18G20G22G27
                                G30
 108227698.208 8  84333292.18448  20595038.260                    20595036.340
       398.067         310.183          49.600          49.550



 117627268.809 8  91657605.65148  22383725.700                    22383724.840
     -2353.660       -1834.021          48.300          48.600



 133595077.115 5 104100083.63145  25422297.160                    25422301.240
      1590.094        1239.036          35.700          35.750    99762580.649 6
  25422302.460        1187.148          39.950


 134623469.345 6 104901381.17446  25618011.880                    25618017.360
     -3321.290       -2588.027          38.800          39.550   100530487.682 7
  25618019.020       -2480.336          42.250


 130640417.046 6 101797705.37646  24860056.800                    24860058.080
     -3513.294       -2737.645          39.650          38.950    97556150.141 7
  24860064.560       -2623.553          45.100


 110165709.919 8  85843428.42047  20963827.840                    20963825.880
      2043.011        1591.957          51.550          45.850



 118304670.281 7  92185494.38747  22512613.160                    22512613.620
      2690.535        2096.522          47.100          44.550    88344473.885 8
  22512618.680        2009.281          49.650


 124922551.743 7  97342250.69346  23771968.100                    23771966.020
      3490.169        2719.615          42.950          39.750



 129675657.357 6 101045969.82646  24676456.060                    24676458.000
      1745.893        1360.435          41.550          39.600    96835741.647 7
  24676463.120        1303.867          46.850


 109504020.646 8  85327801.55447  20837921.820                    20837919.680
     -1895.549       -1477.052          50.500          47.900



 122711426.122 7  95619320.07746  23351193.040                    23351194.720
      3228.133        2515.429          44.250          40.100



 133126535.181 6 103734966.45546  25333136.500                    25333138.420
       115.912          90.320          38.300          39.200    99412684.107 7
  25333139.320          86.534          43.550


 109220016.939 8  85106518.91748  20783872.720                    20783872.220
      -945.888        -737.056          51.900          51.600    81560421.345 9
  20783873.820        -706.300          56.000


 23  9 13 15 45  0.0000000  0 13G05G07G08G09G11G13G14G15G18G20G22G27
                                G30
 108216047.122 8  84324213.41348  20592821.060                    20592819.260
       378.484         294.923          49.800          49.850



 117697988.405 7  91712711.78647  22397183.140                    22397182.480
     -2361.218       -1839.911          47.900          47.800



 133547593.923 5 104063083.80645  25413261.340                    25413265.260
      1576.351        1228.327          35.900          35.100    99727122.501 6
  25413266.520        1176.650          41.400


 134723125.212 5 104979034.99246  25636975.880                    25636981.340
     -3321.865       -2588.470          35.900          36.300   100604905.940 6
  25636983.000       -2480.893          37.600


 130745814.494 6 101879833.13546  24880113.640                    24880114.340
     -3513.392       -2737.709          40.900          38.050    97634855.845 7
  24880121.480       -2623.441          45.000


 110104557.576 8  85795777.24147  20952191.100                    20952188.840
      2033.771        1584.757          51.750          45.950



 118224121.229 7  92122728.93547  22497285.260                    22497285.440
      2679.043        2087.566          46.950          43.950    88284323.662 8
  22497290.240        2000.741          49.300


 124817883.463 7  97260691.06246  23752050.160                    23752048.720
      3487.421        2717.474          42.200          39.550



 129623530.114 6 101005351.25746  24666536.520                    24666538.240
      1729.161        1347.399          41.950          40.700    96796815.521 7
  24666543.760        1291.235          46.750


 109561140.783 8  85372310.72448  20848791.420                    20848789.400
     -1912.594       -1490.334          50.300          48.350



 122614673.901 7  95543928.76746  23332781.680                    23332783.240
      3221.775        2510.478          42.950          39.450



 133123341.520 6 103732477.85946  25332528.980                    25332530.680
        97.270          75.798          38.650          39.200    99410299.232 7
  25332531.840          72.461          43.000


 109248604.148 8  85128794.65248  20789312.720                    20789312.220
      -960.059        -748.098          52.000          52.050    81581768.935 9
  20789313.800        -716.868          56.150


 23  9 13 15 45 30.0000000  0 13G05G07G08G09G11G13G14G15G18G20G22G27
                                G30
 108204999.240 8  84315604.68248  20590718.700                    20590717.040
       358.592         279.423          50.300          50.450



 117768946.053 8  91768003.41948  22410685.840                    22410685.100
     -2368.757       -1845.785          48.300          48.350



 133500543.536 6 104026421.21446  25404308.020                    25404311.840
      1561.845        1217.023          39.800          39.850    99691987.540 7
  25404313.180        1166.180          42.400


 134822810.794 5 105056712.01145  25655945.520                    25655950.680
     -3323.469       -2589.713          34.250          35.400   100679346.341 6
  25655952.560       -2481.326          37.300


 130851219.900 6 101961967.00546  24900171.640                    24900172.500
     -3513.134       -2737.517          39.750          36.900    97713567.485 7
  24900179.520       -2623.468          45.350


 110043700.053 8  85748355.79747  20940610.420                    20940608.000
      2024.113        1577.230          51.750          45.550



 118143930.068 7  92060242.35547  22482025.440                    22482025.060
      2667.573        2078.630          47.050          43.850    88224440.709 8
  22482030.140        1991.965          49.650


 124713308.375 7  97179204.04846  23732149.940                    23732149.320
      3484.678        2715.335          42.100          40.000



 129571920.382 7 100965135.93946  24656715.520                    24656716.860
      1711.979        1334.010          42.600          37.150    96758275.853 7
  24656722.880        1278.536          46.200


 109618782.807 8  85417226.55748  20859760.300                    20859758.440
     -1929.615       -1503.598          50.200          48.150



 122518128.399 7  95468698.59246  23314409.640                    23314411.000
      3215.241        2505.385          43.900          40.350



 133120723.889 6 103730438.19646  25332030.840                    25332032.480
        77.825          60.643          37.300          37.000    99408344.510 7
  25332033.980          58.415          43.050


 109277627.683 8  85151410.37948  20794835.700                    20794835.180
      -974.245        -759.152          51.750          51.550    81603442.336 9
  20794836.960        -727.508          56.450


 23  9 13 15 46  0.0000000  0 13G05G07G08G09G11G13G14G15G18G20G22G27
                                G30
 108194550.640 8  84307462.91648  20588730.440                    20588728.760
       338.304         263.613          50.250          50.150



 117840135.020 7  91823475.31747  22424232.580                    22424231.520
     -2376.813       -1852.063          47.750          47.650



 133453923.397 6 103990093.93946  25395436.580                    25395440.500
      1547.003        1205.461          38.350          38.300    99657173.873 6
  25395441.680        1155.103          41.050


 134922520.126 5 105134407.44345  25674919.820                    25674925.040
     -3323.944       -2590.087          35.150          35.350   100753804.545 6
  25674927.000       -2482.412          37.800


 130956625.131 6 102044100.85346  24920229.760                    24920230.380
     -3513.479       -2737.777          39.700          38.900    97792278.997 7
  24920237.840       -2623.719          46.300


 109983132.848 8  85701160.58847  20929084.820                    20929082.560
      2014.171        1569.484          50.900          46.200



 118064094.329 7  91998032.73647  22466833.120                    22466832.820
      2655.289        2069.059          46.850          43.700    88164823.153 8
  22466837.640        1982.809          49.900


 124608822.429 7  97097786.51846  23712266.800                    23712266.780
      3481.583        2712.925          42.100          41.750



 129520824.747 7 100925321.18746  24646992.300                    24646993.120
      1694.800        1320.622          42.350          38.550    96720120.079 7
  24646999.760        1265.430          46.800


 109676939.877 8  85462543.72147  20870827.200                    20870825.360
     -1947.133       -1517.247          50.250          47.750



 122421787.435 7  95393627.78046  23296076.640                    23296077.780
      3207.970        2499.718          43.150          39.100



 133118677.403 6 103728843.56445  25331641.300                    25331643.080
        58.874          45.877          36.600          35.100    99406816.340 7
  25331644.500          43.852          43.250


 109307081.164 8  85174361.13148  20800440.420                    20800440.000
      -989.123        -770.745          51.150          51.100    81625436.796 9
  20800441.920        -738.565          56.850


 23  9 13 15 46 30.0000000  0 13G05G07G08G09G11G13G14G15G18G20G22G27
                                G30
 108184708.647 8  84299793.83748  20586857.660                    20586855.800
       318.002         247.794          50.650          50.600



 117911559.794 7  91879130.96447  22437824.320                    22437822.780
     -2384.813       -1858.298          47.700          47.900



 133407742.111 6 103954108.56746  25386648.600                    25386652.620
      1532.116        1193.858          39.850          40.150    99622687.910 6
  25386653.680        1144.075          41.900


 135022353.070 5 105212244.02245  25693899.520                    25693904.860
     -3325.071       -2590.967          33.300          34.450   100828284.755 5
  25693906.560       -2482.970          34.800


 131062033.447 6 102126237.04146  24940288.540                    24940289.320
     -3513.580       -2737.856          41.000          38.550    97870992.824 7
  24940296.860       -2623.708          45.700


 109922863.288 8  85654197.31347  20917615.800                    20917613.860
      2004.129        1561.659          50.850          46.800



 117984622.856 7  91936106.95147  22451710.120                    22451709.520
      2642.972        2059.460          46.900          44.250    88105477.619 8
  22451714.620        1973.688          49.850


 124504433.395 7  97016444.49246  23692402.080                    23692402.840
      3478.104        2710.214          42.550          41.500



 129470250.916 6 100885913.03846  24637368.560                    24637368.840
      1677.258        1306.953          41.800          39.800    96682353.928 7
  24637375.680        1252.474          46.050


 109735616.536 8  85508265.75947  20881992.920                    20881991.100
     -1964.479       -1530.764          49.850          47.750



 122325659.633 7  95318723.06946  23277784.100                    23277784.900
      3200.812        2494.142          44.150          38.900



 133117208.515 6 103727698.98446  25331361.820                    25331363.700
        39.864          31.063          39.350          39.050    99405719.487 7
  25331364.840          29.498          44.400


 109336969.359 8  85197650.61548  20806127.900                    20806127.500
     -1003.391        -781.863          51.700          51.600    81647755.890 9
  20806129.580        -749.314          56.550


 23  9 13 15 47  0.0000000  0 13G05G07G08G09G11G13G14G15G18G20G22G27
                                G30
 108175469.979 8  84292594.86348  20585099.700                    20585097.640
       297.899         232.128          50.100          50.000



 117983215.442 7  91934966.52047  22451460.040                    22451458.000
     -2392.342       -1864.163          47.500          47.800



 133361998.236 6 103918464.01846  25377943.900                    25377947.500
      1517.472        1182.445          38.200          37.500    99588528.580 7
  25377948.840        1133.214          42.450


 135122117.929 5 105289982.71645  25712884.200                    25712889.520
     -3325.759       -2591.506          35.000          34.700   100902907.309 6
  25712891.120       -2483.545          36.900


 131167438.649 6 102208370.80546  24960346.680                    24960347.500
     -3513.591       -2737.867          40.500          37.150    97949704.318 7
  24960355.360       -2623.749          45.950


 109862889.029 8  85607464.14147  20906202.980                    20906201.400
      1994.259        1553.969          50.200          46.850



 117905515.016 7  91874464.54047  22436656.300                    22436656.160
      2630.751        2049.938          47.250          45.000    88046403.643 8
  22436660.840        1964.532          50.350


 124400139.234 7  96935176.37547  23672555.560                    23672556.720
      3474.773        2707.617          42.750          42.200



 129420197.418 7 100846910.36346  24627843.840                    24627844.220
      1659.497        1293.114          43.100          38.850    96644976.365 7
  24627850.580        1239.279          46.850


 109794808.008 8  85554388.94848  20893256.620                    20893254.740
     -1981.722       -1544.200          49.650          48.200



 122229744.752 7  95243984.30146  23259532.060                    23259532.860
      3193.480        2488.431          43.650          39.400



 133116314.218 6 103727002.20146  25331191.700                    25331193.520
        20.332          15.845          40.200          40.650    99405051.692 7
  25331194.300          15.082          44.900


 109367287.695 8  85221275.28648  20811897.360                    20811896.860
     -1017.904        -793.173          51.350          51.150    81670396.186 9
  20811898.960        -760.097          56.650


 23  9 13 15 47 30.0000000  0 13G05G07G08G09G11G13G14G15G18G20G22G27
                                G30
 108166835.743 8  84285866.88648  20583456.700                    20583454.540
       278.014         216.634          50.200          50.350



 118055100.291 7  91990980.65747  22465139.380                    22465137.240
     -2399.769       -1869.949          47.650          47.650



 133316694.804 6 103883162.72846  25369322.580                    25369326.580
      1503.017        1171.188          37.850          38.850    99554698.189 7
  25369327.780        1122.236          42.200


 135221908.152 5 105367741.31345  25731873.660                    25731878.180
     -3326.354       -2591.960          35.050          33.750   100977425.943 5
  25731881.380       -2484.276          31.150


 131272838.278 6 102290500.24046  24980403.940                    24980405.000
     -3512.574       -2737.073          40.550          38.400    98028411.684 7
  24980412.700       -2623.315          43.300


 109803211.154 8  85560961.91347  20894846.560                    20894845.160
      1984.575        1546.422          50.700          46.600



 117826773.948 7  91813107.90247  22421672.280                    22421672.000
      2618.885        2040.691          47.000          44.650    87987603.560 8
  22421676.840        1955.598          49.900


 124295941.931 7  96853983.71947  23652727.460                    23652729.000
      3471.941        2705.409          43.150          42.800



 129370666.352 7 100808314.78246  24618418.420                    24618419.060
      1642.590        1279.941          43.300          39.900    96607988.949 7
  24618424.720        1226.529          46.250


 109854513.143 8  85600912.39648  20904618.040                    20904616.040
     -1998.433       -1557.221          49.900          48.250



 122134046.060 7  95169413.96846  23241321.220                    23241321.640
      3186.533        2483.014          44.700          38.800



 133115995.261 6 103726753.64146  25331131.200                    25331132.540
         1.429           1.114          39.350          39.200    99404813.517 7
  25331133.320           1.005          44.550


 109398035.346 8  85245234.48748  20817748.540                    20817748.020
     -1031.769        -803.977          51.600          51.700    81693357.088 9
  20817749.960        -770.562          56.300


 23  9 13 15 48  0.0000000  0 12G05G07G08G11G13G14G15G18G20G22G27G30
 108158808.169 8  84279611.63048  20581929.160                    20581926.980
       257.343         200.526          50.250          50.350



 118127213.656 7  92047172.85547  22478862.180                    22478859.940
     -2407.518       -1875.989          47.000          47.100



 133271834.526 6 103848206.73346  25360785.960                    25360790.160
      1487.682        1159.232          38.650          39.300    99521198.664 7
  25360790.860        1111.036          43.550


 131378230.463 6 102372623.79045  25000459.340                    25000461.220
     -3513.120       -2737.509          38.600          35.400    98107113.421 7
  25000468.500       -2623.240          44.700


 109743831.515 8  85514692.08147  20883547.000                    20883545.420
      1974.321        1538.434          51.000          46.500



 117748403.244 7  91752039.88147  22406758.860                    22406759.000
      2606.112        2030.738          47.000          44.750    87929080.028 8
  22406763.300        1946.156          50.350


 124191843.612 7  96772868.20547  23632918.200                    23632919.980
      3468.104        2702.419          43.150          42.000



 129321660.167 6 100770128.19846  24609092.860                    24609093.660
      1624.852        1266.119          41.350          38.850    96571393.454 7
  24609098.400        1213.284          46.050


 109914731.217 8  85647835.54047  20916077.040                    20916075.040
     -2015.739       -1570.707          49.150          47.250



 122038567.654 7  95095015.30046  23223152.320                    23223152.440
      3178.849        2477.029          44.000          38.900



 133116252.674 6 103726954.28246  25331179.860                    25331181.480
       -17.701         -13.796          38.900          39.750    99405005.829 7
  25331182.140         -13.613          44.100


 109429211.830 8  85269527.84448  20823681.320                    20823680.880
     -1046.443        -815.410          51.650          52.000    81716638.219 9
  20823682.600        -781.388          56.650


 23  9 13 15 48 30.0000000  0 13G05G07G08G09G11G13G14G15G18G20G22G27
                                G30
 108151387.457 8  84273829.25348  20580517.080                    20580514.920
       237.077         184.735          50.400          50.400



 118199554.348 7  92103542.19547  22492628.220                    22492626.180
     -2415.164       -1881.947          46.900          46.700



 133227419.352 6 103813597.56046  25352334.040                    25352338.340
      1472.753        1147.599          37.750          37.800    99488031.572 7
  25352338.880        1099.878          44.200


 135421565.213 5 105523308.73944  25769867.680                    25769872.060
     -3328.273       -2593.479          30.300          24.900   101126528.05815
  25769875.900       -2485.619          32.550


 131483611.943 6 102454739.10046  25020512.720                    25020514.920
     -3512.861       -2737.300          38.800          37.800    98185807.160 7
  25020522.060       -2623.158          44.500


 109684750.912 8  85468655.26347  20872304.380                    20872302.560
      1964.165        1530.520          51.050          46.350



 117670405.220 7  91691262.23347  22391916.320                    22391916.360
      2593.513        2020.921          47.200          44.600    87870834.807 8
  22391920.580        1936.747          50.150


 124087845.504 7  96691830.78146  23613128.040                    23613129.780
      3464.793        2699.842          42.750          41.950



 129273180.223 6 100732351.63746  24599867.100                    24599867.940
      1607.079        1252.270          41.500          37.750    96535190.911 7
  24599872.640        1200.049          46.100


 109975460.147 8  85695156.75147  20927633.340                    20927631.220
     -2033.104       -1584.238          48.950          47.600



 121943312.454 7  95020790.57546  23205025.920                    23205025.740
      3171.162        2471.039          44.950          38.850



 133117086.488 6 103727604.01346  25331338.420                    25331340.020
       -37.583         -29.291          38.850          39.200    99405628.478 7
  25331341.080         -28.006          45.300


 109460815.545 8  85294154.10248  20829695.340                    20829694.980
     -1060.811        -826.605          51.300          51.100    81740238.384 9
  20829696.560        -792.164          56.550


 23  9 13 15 49  0.0000000  0 12G05G07G08G11G13G14G15G18G20G22G27G30
 108144570.155 8  84268517.06748  20579219.800                    20579217.740
       217.173         169.226          50.850          50.700



 118272116.566 7  92160084.15047  22506436.400                    22506434.520
     -2422.510       -1887.672          47.500          47.250



 133183447.470 6 103779333.84845  25343966.380                    25343970.800
      1458.423        1136.438          36.200          35.450    99455195.528 7
  25343971.360        1088.928          43.850


 131588975.720 6 102536840.55046  25040562.780                    25040565.460
     -3511.961       -2736.598          37.100          37.500    98264487.706 7
  25040572.200       -2622.586          45.450


 109625965.986 8  85422848.84247  20861118.080                    20861115.980
      1954.521        1523.004          51.650          46.050



 117592778.461 7  91630773.90547  22377144.340                    22377144.800
      2581.419        2011.496          47.500          44.500    87812866.838 8
  22377148.480        1927.537          50.100


 123983944.894 7  96610869.30947  23593356.440                    23593358.020
      3461.952        2697.626          43.100          42.950



 129225224.162 6 100694983.29246  24590741.160                    24590741.660
      1589.859        1238.854          41.750          37.550    96499379.610 7
  24590747.000        1187.102          46.400


 110036694.190 8  85742871.56147  20939285.780                    20939283.760
     -2049.427       -1596.957          49.500          47.500



 121848279.097 7  94946738.69446  23186941.640                    23186941.040
      3164.022        2465.476          44.900          39.400



 133118492.680 6 103728699.82146  25331605.940                    25331607.680
       -56.487         -44.008          39.900          37.650    99406678.634 7
  25331608.760         -42.136          43.950


 109492841.087 8  85319109.05548  20835789.500                    20835789.280
     -1074.496        -837.271          50.850          50.850    81764153.547 9
  20835790.720        -802.446          56.150


 23  9 13 15 49 30.0000000  0 12G05G07G08G11G13G14G15G18G20G22G27G30
 108138362.799 8  84263680.16148  20578038.660                    20578036.740
       196.839         153.381          50.950          50.850



 118344904.459 8  92216801.95248  22520287.540                    22520285.540
     -2429.955       -1893.471          48.300          48.350



 133139927.439 6 103745422.19146  25335684.820                    25335689.300
      1443.263        1124.623          37.300          36.700    99422696.878 7
  25335689.720        1077.678          42.650


 131694325.337 6 102618931.09746  25060610.460                    25060613.340
     -3511.404       -2736.159          39.750          37.950    98343157.707 7
  25060619.540       -2622.025          45.200


 109567484.118 8  85377278.56147  20849989.380                    20849987.160
      1944.459        1515.163          51.350          46.050



 117515532.118 7  91570581.99147  22362444.800                    22362445.340
      2568.616        2001.521          47.250          44.950    87755182.929 8
  22362448.720        1918.152          49.600


 123880149.452 7  96529989.80047  23573604.780                    23573606.340
      3458.132        2694.649          42.850          42.000



 129177799.987 6 100658029.42846  24581716.420                    24581716.880
      1571.924        1224.878          41.450          40.000    96463965.478 7
  24581722.580        1173.981          46.200


 110098438.127 8  85790983.67847  20951035.380                    20951033.340
     -2066.450       -1610.223          50.000          47.700



 121753476.510 7  94872866.63046  23168901.340                    23168900.540
      3156.237        2459.407          45.250          39.950



 133120477.988 6 103730246.85946  25331983.600                    25331985.380
       -75.427         -58.767          39.650          36.850    99408161.247 7
  25331986.900         -56.536          44.050


 109525293.605 8  85344396.72448  20841964.880                    20841964.780
     -1088.754        -848.379          50.800          50.850    81788387.555 9
  20841966.160        -813.008          55.850


 23  9 13 15 50  0.0000000  0 12G05G07G08G11G13G14G15G18G20G22G27G30
 108132763.394 8  84259316.98948  20576973.180                    20576971.420
       176.670         137.665          51.350          51.100



 118417913.163 8  92273691.81048  22534180.740                    22534178.860
     -2437.330       -1899.219          48.500          48.550



 133096858.351 6 103711861.93646  25327488.980                    25327493.520
      1427.713        1112.504          38.300          38.650    99390534.940 7
  25327493.940        1066.363          43.400


 131799654.693 6 102701005.75446  25080653.720                    25080657.080
     -3510.425       -2735.402          39.350          37.650    98421812.591 7
  25080662.780       -2621.545          43.900


 109509302.801 8  85331942.49247  20838917.800                    20838915.700
      1934.384        1507.313          51.450          46.350



 117438665.371 7  91510685.86647  22347817.440                    22347818.220
      2555.811        1991.542          47.150          45.400    87697782.499 8
  22347821.260        1908.590          49.900


 123776457.478 7  96449190.92347  23553872.840                    23553874.240
      3454.929        2692.154          43.950          43.150



 129130905.832 7 100621488.56746  24572792.660                    24572793.180
      1554.253        1211.107          42.450          40.700    96428947.169 7
  24572799.280        1160.624          46.350


 110160686.768 8  85839489.08047  20962881.080                    20962879.120
     -2083.185       -1623.262          50.550          47.400



 121658904.574 7  94799174.30746  23150904.760                    23150903.880
      3148.547        2453.417          45.400          38.250



 133123038.993 6 103732242.48845  25332470.960                    25332472.980
       -95.022         -74.038          39.100          34.350    99410073.696 6
  25332474.060         -70.799          41.850


 109558168.335 8  85370013.38648  20848220.680                    20848220.640
     -1102.865        -859.376          51.650          51.300    81812936.851 9
  20848222.020        -823.576          55.850


 23  9 13 15 50 30.0000000  0 12G05G07G08G11G13G14G15G18G20G22G27G30
 108127771.932 8  84255427.53148  20576023.380                    20576021.720
       156.304         121.795          50.950          50.950



 118491141.258 7  92330752.63947  22548115.620                    22548113.680
     -2444.575       -1904.865          47.900          47.900



 133054241.781 6 103678654.31646  25319379.380                    25319383.720
      1412.639        1100.758          37.000          36.950    99358710.961 7
  25319384.440        1055.224          43.800


 131904960.611 6 102783062.18246  25100692.980                    25100696.060
     -3510.214       -2735.234          39.150          38.400    98500449.918 7
  25100701.440       -2620.796          44.150


 109451422.652 8  85286841.08847  20827903.520                    20827901.520
      1924.330        1499.479          51.200          46.400



 117362180.469 7  91451087.28247  22333262.780                    22333263.600
      2543.319        1981.810          46.950          45.250    87640667.211 8
  22333266.480        1899.185          49.750


 123672869.927 7  96368473.41547  23534160.800                    23534162.080
      3451.291        2689.318          44.350          42.900



 129084542.871 7 100585361.60746  24563970.160                    24563970.560
      1536.410        1197.202          42.200          37.900    96394325.519 7
  24563977.040        1147.554          46.800


 110223438.037 8  85888386.14447  20974822.460                    20974820.480
     -2100.019       -1636.379          50.650          47.600



 121564565.597 7  94725663.48946  23132952.560                    23132951.660
      3140.998        2447.534          45.050          40.350



 133126175.511 6 103734686.52245  25333067.920                    25333069.320
      -114.303         -89.071          39.700          35.700    99412415.918 7
  25333070.800         -85.079          43.700


 109591463.546 8  85395957.69848  20854556.540                    20854556.580
     -1116.735        -870.184          51.450          51.400    81837800.140 9
  20854557.860        -833.922          55.750


 23  9 13 15 51  0.0000000  0 12G05G07G08G11G13G14G15G18G20G22G27G30
 108123393.019 8  84252015.38248  20575190.080                    20575188.540
       135.978         105.956          51.050          51.050



 118564590.439 7  92387985.72447  22562092.500                    22562090.800
     -2451.800       -1910.494          47.950          47.800



 133012083.677 6 103645803.90246  25311356.780                    25311361.280
      1397.845        1089.234          38.350          38.100    99327229.354 7
  25311362.140        1043.814          44.300


 132010244.067 6 102865101.04945  25120727.660                    25120730.940
     -3508.793       -2734.127          38.300          34.950    98579070.474 7
  25120735.960       -2620.259          44.200


 109393848.239 8  85241977.92047  20816947.460                    20816945.440
      1914.211        1491.593          51.800          46.250



 117286084.066 7  91391791.43347  22318782.060                    22318782.880
      2530.355        1971.707          47.400          45.000    87583842.037 8
  22318785.800        1889.495          49.800


 123569391.994 7  96287841.32246  23514469.600                    23514470.700
      3447.735        2686.549          46.050          41.550



 129038716.632 6 100549652.90046  24555249.660                    24555250.320
      1519.031        1183.665          41.700          39.100    96360104.690 7
  24555256.760        1134.134          46.550


 110286694.328 8  85937676.72647  20986859.920                    20986858.060
     -2116.749       -1649.416          50.550          47.700



 121470466.703 7  94652339.79546  23115045.920                    23115045.540
      3132.753        2441.111          45.050          39.600



 133129891.672 6 103737582.23246  25333774.980                    25333776.360
      -133.150        -103.754          38.700          36.600    99415190.982 7
  25333777.820         -99.626          43.950


 109625181.850 8  85422231.69148  20860973.000                    20860973.180
     -1130.729        -881.088          51.750          51.850    81862979.385 9
  20860974.200        -844.384          55.650


 23  9 13 15 51 30.0000000  0 12G05G07G08G11G13G14G15G18G20G22G27G30
 108119623.248 8  84249077.89348  20574472.680                    20574471.180
       115.491          89.993          50.850          50.700



 118638254.888 8  92445386.55448  22576110.300                    22576108.760
     -2459.107       -1916.188          48.300          48.400



 132970381.523 6 103613308.76946  25303420.840                    25303425.540
      1382.935        1077.616          37.800          36.750    99296088.210 7
  25303426.420        1032.434          43.000


 132115497.750 6 102947116.71346  25140756.640                    25140760.000
     -3507.661       -2733.248          38.900          36.500    98657668.841 7
  25140764.740       -2619.475          42.200


 109336576.598 8  85197350.67947  20806049.020                    20806046.980
      1903.978        1483.619          51.250          46.700



 117210374.276 7  91332796.83647  22304374.940                    22304375.640
      2517.239        1961.487          47.250          45.200    87527305.557 8
  22304378.740        1879.775          50.000


 123466020.772 7  96207292.36546  23494798.840                    23494799.420
      3443.954        2683.603          46.200          40.300



 128993424.193 6 100514360.14646  24546630.700                    24546631.640
      1500.864        1169.504          40.400          39.900    96326282.475 7
  24546637.660        1120.853          46.600


 110350449.152 8  85987355.78147  20998992.180                    20998990.380
     -2133.534       -1662.495          50.050          47.650



 121376606.157 7  94579201.77746  23097184.760                    23097184.720
      3124.692        2434.827          44.900          39.900



 133134182.923 6 103740926.04845  25334591.580                    25334593.080
      -152.252        -118.641          38.600          34.050    99418395.476 7
  25334594.180        -113.924          42.600


 109659317.444 8  85448830.84348  20867468.920                    20867469.200
     -1144.774        -892.032          51.650          51.350    81888470.243 9
  20867469.980        -854.837          55.800


 23  9 13 15 52  0.0000000  0 12G05G07G08G11G13G14G15G18G20G22G27G30
 108116461.830 8  84246614.44948  20573871.020                    20573869.520
        95.124          74.123          51.050          51.000



 118712132.762 8  92502953.68847  22590168.780                    22590167.340
     -2466.403       -1921.874          48.050          47.950



 132929137.291 6 103581170.45146  25295572.040                    25295576.780
      1367.003        1065.200          36.900          36.400    99265289.020 7
  25295577.720        1020.699          43.350


 132220718.550 6 103029106.78945  25160779.660                    25160782.540
     -3506.786       -2732.562          39.100          33.700    98736242.599 7
  25160787.740       -2618.848          43.600


 109279607.896 8  85152959.49947  20795208.140                    20795206.300
      1893.734        1475.638          51.050          46.850



 117135053.329 7  91274105.24147  22290041.880                    22290042.180
      2503.920        1951.108          47.250          44.950    87471059.464 8
  22290045.780        1869.787          50.100


 123362757.184 7  96126827.28546  23475148.480                    23475148.840
      3440.050        2680.561          46.250          41.300



 128948666.585 7 100479484.11746  24538113.580                    24538114.600
      1482.897        1155.507          42.300          39.500    96292859.650 7
  24538120.200        1107.183          46.200


 110414700.515 8  86037421.74648  21011218.780                    21011217.160
     -2150.255       -1675.524          49.700          48.250



 121282986.710 7  94506251.65946  23079369.400                    23079369.840
      3116.398        2428.365          44.950          41.300



 133139049.081 5 103744717.83845  25335517.400                    25335518.740
      -172.127        -134.128          35.700          34.450    99422029.279 7
  25335519.980        -128.522          42.900


 109693868.569 8  85475753.79548  20874043.880                    20874044.160
     -1158.757        -902.928          51.600          51.550    81914271.402 9
  20874044.900        -865.370          55.850


 23  9 13 15 52 30.0000000  0 12G05G07G08G11G13G14G15G18G20G22G27G30
 108113913.200 8  84244628.50148  20573386.040                    20573384.340
        75.247          58.634          50.950          51.100



 118786225.675 7  92560688.40747  22604268.360                    22604266.800
     -2472.839       -1926.889          47.900          47.800



 132888356.208 6 103549393.04746  25287811.740                    25287816.100
      1352.021        1053.526          38.700          38.600    99234835.657 7
  25287817.120        1009.748          44.050


 132325907.085 6 103111071.70546  25180796.540                    25180798.900
     -3504.771       -2730.997          39.750          38.650    98814792.278 7
  25180804.820       -2617.521          43.000


 109222946.451 8  85108807.74047  20784425.720                    20784424.060
      1884.105        1468.135          50.600          46.950



 117060127.244 7  91215721.34047  22275783.900                    22275783.940
      2491.292        1941.269          47.600          44.850    87415108.230 8
  22275788.000        1860.445          50.350


 123259606.602 7  96046450.24546  23455519.620                    23455519.700
      3436.949        2678.144          46.350          41.950



 128904448.833 6 100445028.76646  24529699.160                    24529700.400
      1465.503        1141.950          40.950          39.800    96259839.956 7
  24529705.600        1094.201          46.650


 110479450.162 8  86087875.98947  21023540.080                    21023538.580
     -2166.224       -1687.968          49.000          47.800



 121189614.583 7  94433494.24346  23061601.300                    23061601.900
      3108.764        2422.416          45.550          41.050



 133144493.526 5 103748960.28045  25336553.480                    25336554.640
      -190.285        -148.269          35.100          35.350    99426094.946 7
  25336556.120        -142.267          44.900


 109728837.294 8  85503002.13848  20880698.200                    20880698.500
     -1172.076        -913.307          51.200          51.050    81940384.393 9
  20880699.420        -875.266          56.100


 23  9 13 15 53  0.0000000  0 12G05G07G08G11G13G14G15G18G20G22G27G30
 108111974.182 8  84243117.56948  20573017.100                    20573015.180
        54.427          42.410          51.550          51.650



 118860528.518 8  92618586.70048  22618407.800                    22618406.000
     -2480.260       -1932.670          48.600          48.300



 132848037.272 6 103517975.74146  25280139.380                    25280143.320
      1336.038        1041.069          37.100          37.450    99204727.423 7
  25280144.300         997.881          44.050


 132431056.939 6 103193006.44645  25200806.180                    25200808.420
     -3504.247       -2730.595          38.300          35.550    98893313.068 7
  25200814.680       -2616.840          44.650


 109166589.551 8  85064893.28747  20773701.300                    20773699.520
      1873.502        1459.873          51.200          46.300



 116985595.071 8  91157644.37747  22261600.860                    22261600.380
      2477.813        1930.766          48.100          43.900    87359451.154 8
  22261605.200        1850.318          50.350


 123156566.479 7  95966159.30946  23435911.840                    23435911.760
      3432.856        2674.956          46.700          41.100



 128860768.836 7 100410992.41646  24521387.220                    24521388.180
      1447.009        1127.537          42.100          37.900    96227221.793 7
  24521393.540        1080.689          46.800


 110544692.599 8  86138714.21747  21035955.140                    21035953.700
     -2182.943       -1700.996          49.350          46.750



 121096489.340 7  94360929.21346  23043880.080                    23043880.720
      3099.936        2415.536          45.250          39.650



 133150512.828 6 103753650.65946  25337698.840                    25337700.340
      -210.077        -163.696          38.900          36.850    99430589.893 7
  25337701.600        -156.897          45.050


 109764218.685 8  85530572.04348  20887430.980                    20887431.340
     -1186.290        -924.382          51.400          51.400    81966805.542 9
  20887432.400        -885.811          56.000


 23  9 13 15 53 30.0000000  0 12G05G07G08G11G13G14G15G18G20G22G27G30
 108110648.512 8  84242084.56948  20572764.920                    20572762.860
        34.111          26.579          51.600          51.550



 118935042.893 7  92676649.80647  22632587.380                    22632585.680
     -2487.108       -1938.008          47.400          47.550



 132808184.862 6 103486921.95046  25272555.760                    25272559.580
      1320.699        1029.117          38.750          38.500    99174967.555 7
  25272560.480         986.205          45.750


 132536168.416 6 103274911.32746  25220808.440                    25220810.660
     -3502.758       -2729.435          38.600          38.350    98971805.134 7
  25220817.480       -2615.885          44.800


 109110541.652 8  85021219.60447  20763035.760                    20763033.780
      1863.286        1451.911          51.600          46.700



 116911462.461 8  91099878.76447  22247493.960                    22247493.180
      2464.705        1920.552          48.450          43.900    87304092.456 8
  22247498.400        1840.418          50.350


 123053641.543 7  95885958.11447  23416325.880                    23416325.740
      3429.091        2672.020          46.600          42.900



 128817631.099 7 100377378.67046  24513178.560                    24513179.420
      1429.214        1113.675          43.200          36.600    96195008.635 7
  24513184.580        1067.079          46.500


 110610429.120 8  86189937.43747  21048464.200                    21048462.880
     -2199.200       -1713.664          49.400          46.600



 121003616.573 7  94288560.90946  23026207.000                    23026207.560
      3091.858        2409.243          45.700          39.400



 133157109.855 6 103758791.21646  25338954.260                    25338955.360
      -229.825        -179.084          39.650          37.850    99435516.262 7
  25338957.000        -171.294          44.600


 109800014.395 8  85558464.79448  20894242.560                    20894242.980
     -1199.895        -934.983          51.300          51.250    81993536.097 9
  20894243.960        -896.102          55.700


 23  9 13 15 54  0.0000000  0 12G05G07G08G11G13G14G15G18G20G22G27G30
 108109935.966 8  84241529.33748  20572629.440                    20572627.360
        13.134          10.233          51.700          51.850



 119009766.943 7  92734876.32247  22646806.840                    22646805.020
     -2494.547       -1943.804          47.250          47.300



 132768801.035 6 103456233.34046  25265061.180                    25265065.200
      1304.523        1016.513          38.000          37.650    99145557.645 7
  25265066.080         974.227          44.500


 132641238.423 6 103356783.86546  25240803.060                    25240805.320
     -3501.857       -2728.727          39.350          37.250    99050266.294 7
  25240812.360       -2615.197          44.200


 109054802.996 8  84977786.88947  20752429.140                    20752427.020
      1852.350        1443.390          51.650          46.600



 116837731.689 8  91042426.25947  22233463.480                    22233462.360
      2450.617        1909.572          49.000          43.500    87249033.817 8
  22233468.020        1829.997          50.600


 122950833.151 7  95805847.73447  23396762.040                    23396761.880
      3424.750        2668.638          46.200          43.000



 128775036.774 7 100344188.35146  24505073.020                    24505073.880
      1410.198        1098.859          42.500          37.800    96163201.228 7
  24505078.800        1053.280          46.350


 110676657.617 8  86241544.01947  21061067.000                    21061065.660
     -2216.062       -1726.804          49.000          46.250



 120910999.045 7  94216391.50146  23008582.320                    23008582.920
      3082.623        2402.046          45.650          39.450



 133164284.282 6 103764381.75645  25340319.540                    25340320.020
      -249.086        -194.093          39.850          35.100    99440873.841 7
  25340322.180        -186.002          44.500


 109836222.808 8  85586679.12948  20901132.660                    20901133.080
     -1214.231        -946.155          50.500          50.500    82020574.820 9
  20901133.860        -906.679          55.550


 23  9 13 15 54 30.0000000  0 12G05G07G08G11G13G14G15G18G20G22G27G30
 108109835.826 8  84241451.30148  20572610.420                    20572608.440
        -6.961          -5.425          51.450          51.500



 119084697.482 7  92793263.71447  22661065.600                    22661064.060
     -2501.242       -1949.021          47.650          47.500



 132729886.368 6 103425910.24146  25257655.860                    25257660.160
      1288.968        1004.393          37.800          37.900    99116498.007 7
  25257661.000         962.757          46.200


 132746262.674 6 103438620.70246  25260788.780                    25260790.800
     -3500.343       -2727.547          40.550          37.950    99128693.205 7
  25260798.700       -2613.705          43.300


 108999372.903 8  84934594.61747  20741881.260                    20741879.100
      1842.470        1435.691          51.450          46.900



 116764403.773 8  90985287.68347  22219509.660                    22219508.560
      2437.406        1899.279          48.750          44.250    87194276.018 8
  22219514.220        1820.165          50.400


 122848140.933 7  95725827.89147  23377220.280                    23377220.200
      3421.049        2665.756          46.000          42.200



 128732985.760 7 100311421.39246  24497070.960                    24497071.800
      1392.580        1085.127          42.250          39.650    96131799.583 7
  24497076.580        1039.907          46.600


 110743374.680 8  86293531.30247  21073762.840                    21073761.440
     -2232.006       -1739.226          49.200          47.000



 120818638.244 7  94144422.14446  22991006.600                    22991006.880
      3074.385        2395.628          45.850          38.150



 133172034.489 6 103770420.90646  25341794.340                    25341794.800
      -267.950        -208.795          39.150          37.000    99446661.409 7
  25341796.840        -200.070          42.800


 109872840.973 8  85615212.75248  20908100.780                    20908101.180
     -1227.650        -956.610          50.400          50.300    82047919.535 9
  20908101.720        -916.625          55.300


 23  9 13 15 55  0.0000000  0 12G05G07G08G11G13G14G15G18G20G22G27G30
 108110349.327 8  84241851.43048  20572708.160                    20572706.120
       -27.451         -21.391          50.800          50.900



 119159833.262 8  92851811.03248  22675363.500                    22675361.860
     -2508.034       -1954.313          48.200          48.300



 132691443.253 6 103395954.66346  25250340.020                    25250344.760
      1273.854         992.616          37.050          37.800    99087790.643 7
  25250345.480         950.908          45.300


 132851238.794 6 103520420.08646  25280765.560                    25280767.260
     -3498.356       -2726.000          41.300          36.000    99207084.240 7
  25280775.380       -2612.578          43.050


 108944252.878 8  84891643.95647  20731392.260                    20731390.100
      1832.124        1427.630          50.900          47.000



 116691481.787 8  90928465.41447  22205633.100                    22205632.160
      2423.788        1888.669          48.850          44.950    87139821.344 8
  22205637.660        1809.982          50.350


 122745566.731 7  95645899.99746  23357701.020                    23357700.940
      3417.104        2662.683          44.950          41.750



 128691479.824 6 100279079.14746  24489172.440                    24489173.080
      1374.366        1070.935          41.400          39.000    96100804.926 7
  24489178.220        1026.276          46.250


 110810578.683 8  86345898.01747  21086551.420                    21086549.860
     -2248.479       -1752.063          49.100          47.100



 120726537.476 7  94072655.40346  22973480.180                    22973480.440
      3065.506        2388.709          45.050          38.800



 133180360.933 6 103776909.09245  25343378.760                    25343379.340
      -287.217        -223.795          39.850          34.050    99452879.250 6
  25343381.220        -214.531          41.100


 109909867.974 8  85644064.94848  20915146.740                    20915147.160
     -1241.208        -967.176          50.700          50.600    82075569.560 9
  20915147.560        -926.812          55.150


 23  9 13 15 55 30.0000000  0 12G05G07G08G11G13G14G15G18G20G22G27G30
 108111476.362 8  84242729.63248  20572922.500                    20572920.420
       -47.527         -37.034          50.500          50.600



 119235173.029 7  92910517.30348  22689700.300                    22689698.540
     -2514.481       -1959.338          47.850          48.200



 132653474.334 6 103366368.54246  25243114.860                    25243119.300
      1257.841         980.137          38.000          38.400    99059437.288 7
  25243119.780         939.319          43.700


 132956164.332 6 103602180.03746  25300732.400                    25300734.420
     -3496.285       -2724.382          41.200          36.800    99285437.502 6
  25300742.100       -2610.945          40.550


 108889444.377 8  84848936.04547  20720962.340                    20720960.220
      1821.981        1419.726          50.550          46.900



 116618968.464 8  90871961.57547  22191834.260                    22191833.540
      2410.469        1878.288          48.650          45.500    87085671.841 8
  22191838.780        1800.063          50.500


 122643112.615 7  95566065.64846  23338204.580                    23338204.400
      3413.075        2659.540          44.800          39.950



 128650520.650 6 100247162.93746  24481378.060                    24481378.620
      1356.583        1057.078          41.400          38.050    96070218.566 7
  24481384.020        1012.901          46.650


 110878268.104 8  86398642.98947  21099432.460                    21099430.700
     -2264.075       -1764.215          49.400          46.400



 120634699.756 7  94001093.63846  22956003.940                    22956004.100
      3057.011        2382.090          45.000          39.800



 133189263.575 6 103783846.21246  25345072.980                    25345073.560
      -306.331        -238.701          39.900          36.350    99459527.355 7
  25345075.100        -228.593          43.150


 109947302.639 8  85673234.80948  20922270.360                    20922270.900
     -1254.311        -977.385          51.050          51.250    82103524.009 9
  20922271.200        -936.673          55.250


 23  9 13 15 56  0.0000000  0 12G05G07G08G11G13G14G15G18G20G22G27G30
 108113219.869 8  84244088.20848  20573254.160                    20573251.960
       -68.774         -53.590          50.700          50.600



 119310717.761 8  92969383.30648  22704076.060                    22704074.060
     -2522.009       -1965.203          48.250          48.450



 132615983.847 6 103337155.21446  25235980.540                    25235984.760
      1241.214         967.180          36.900          36.950    99031441.238 7
  25235985.280         926.984          43.000


 133061039.243 6 103683900.51945  25320689.540                    25320691.860
     -3495.176       -2723.522          41.200          33.950    99363752.943 6
  25320699.320       -2610.213          41.950


 108834950.508 8  84806473.31147  20710592.320                    20710590.200
      1810.684        1410.922          50.350          46.900



 116546868.986 8  90815780.22147  22178114.140                    22178113.880
      2396.130        1867.115          48.400          46.100    87031831.387 8
  22178118.780        1789.271          50.550


 122540782.931 7  95486328.27646  23318731.720                    23318731.520
      3408.510        2655.983          44.000          39.600



 128610112.218 6 100215675.88646  24473688.480                    24473689.240
      1337.163        1041.944          40.950          39.900    96040043.453 7
  24473694.500         998.752          46.000


 110946443.686 8  86451766.79347  21112405.980                    21112403.960
     -2281.018       -1777.417          49.400          46.900



 120543130.923 7  93929741.39746  22938578.820                    22938578.760
      3047.333        2374.549          45.650          39.500



 133198745.149 6 103791234.49446  25346877.260                    25346878.000
      -326.714        -254.583          37.900          36.750    99466607.743 7
  25346879.560        -243.426          44.650


 109985146.223 8  85702723.30148  20929471.820                    20929472.460
     -1268.493        -988.437          50.700          50.650    82131783.812 9
  20929472.840        -947.328          55.300


 23  9 13 15 56 30.0000000  0 12G05G07G08G11G13G14G15G18G20G22G27G30
 108115572.126 8  84245921.12748  20573701.780                    20573699.460
       -88.929         -69.295          50.650          50.600



 119386457.923 7  93028401.55847  22718488.860                    22718486.880
     -2528.359       -1970.151          47.650          47.750



 132578965.832 6 103308310.09445  25228936.280                    25228940.280
      1226.016         955.337          36.850          35.950    99003797.989 7
  25228940.860         915.354          43.650


 133165852.586 6 103765573.01746  25340634.900                    25340637.320
     -3493.206       -2721.988          41.150          36.550    99442022.376 7
  25340644.600       -2608.556          43.300


 108780764.319 8  84764250.30647  20700281.020                    20700278.920
      1800.660        1403.112          50.600          47.050



 116475177.727 7  90759916.96547  22164471.660                    22164471.760
      2382.359        1856.387          47.900          46.250    86978295.767 8
  22164476.380        1779.106          50.850


 122438570.533 7  95406682.27746  23299281.120                    23299280.860
      3404.727        2653.034          43.650          40.750



 128570247.643 6 100184612.60446  24466102.520                    24466103.280
      1319.197        1027.949          40.650          39.300    96010274.474 7
  24466108.420         985.228          46.000


 111015095.683 8  86505261.82247  21125470.180                    21125468.020
     -2296.703       -1789.639          49.550          46.400



 120451825.610 7  93858594.50046  22921203.960                    22921203.920
      3038.710        2367.829          45.250          39.250



 133208797.046 5 103799067.17545  25348790.180                    25348791.440
      -345.328        -269.083          34.150          31.200    99474114.093 7
  25348792.560        -257.709          44.350


 110023389.131 8  85732522.95248  20936749.280                    20936749.880
     -1281.979        -998.945          50.850          50.900    82160341.800 9
  20936750.400        -957.192          55.200


 23  9 13 15 57  0.0000000  0 12G05G07G08G11G13G14G15G18G20G22G27G30
 108118538.985 8  84248232.96148  20574266.480                    20574264.080
      -109.465         -85.297          51.100          50.950



 119462396.950 7  93087574.79447  22732939.560                    22732937.560
     -2534.939       -1975.280          46.100          46.050



 132542426.372 6 103279837.90046  25221983.100                    25221986.900
      1209.533         942.494          37.300          37.050    98976512.104 7
  25221987.580         903.368          42.800


 133270606.469 6 103847199.24845  25360569.060                    25360571.680
     -3491.167       -2720.395          39.400          35.700    99520247.421 7
  25360578.540       -2606.922          43.000


 108726891.608 8  84722271.57647  20690029.520                    20690027.300
      1790.140        1394.915          51.250          46.550



 116403902.244 7  90704377.67347  22150908.280                    22150908.700
      2368.591        1845.656          47.900          45.950    86925070.639 8
  22150913.140        1768.727          51.000


 122336482.205 7  95327132.97346  23279854.040                    23279854.100
      3400.499        2649.741          43.300          40.800



 128530933.490 6 100153978.30446  24458621.340                    24458622.100
      1300.714        1013.546          40.850          39.300    95980916.630 7
  24458627.000         971.545          46.250


 111084226.851 8  86559130.24147  21138625.500                    21138623.260
     -2312.560       -1801.995          49.500          46.350



 120360791.697 7  93787659.06846  22903880.840                    22903880.420
      3029.518        2360.667          45.100          40.100



 133219418.322 5 103807345.17445  25350812.020                    25350813.980
      -363.841        -283.510          35.850          34.950    99482050.044 7
  25350815.120        -271.860          44.350


 110062035.001 8  85762636.60248  20944103.420                    20944103.860
     -1295.134       -1009.195          50.750          50.650    82189200.717 9
  20944104.480        -967.209          55.100


 23  9 13 15 57 30.0000000  0 12G05G07G08G11G13G14G15G18G20G22G27G30
 108122125.171 8  84251027.38148  20574949.020                    20574946.600
      -129.983        -101.286          51.000          51.100



 119538537.819 7  93146905.29547  22747428.680                    22747426.780
     -2541.460       -1980.360          46.250          46.250



 132506372.459 6 103251743.99346  25215122.280                    25215125.800
      1193.401         929.924          37.050          37.300    98949588.810 7
  25215126.700         891.374          43.500


 133375302.916 6 103928780.67745  25380492.200                    25380495.220
     -3489.240       -2718.894          39.400          34.750    99598429.545 7
  25380501.680       -2605.239          43.900


 108673337.928 8  84680541.44647  20679838.700                    20679836.300
      1779.725        1386.799          51.400          46.700



 116333049.507 8  90649167.80747  22137425.400                    22137426.020
      2354.565        1834.728          48.200          46.700    86872161.181 8
  22137430.220        1758.372          51.050


 122234523.928 7  95247685.01846  23260451.760                    23260452.160
      3396.369        2646.523          43.150          40.800



 128492175.283 7 100123777.19046  24451246.100                    24451246.500
      1282.473         999.335          42.000          39.700    95951973.921 7
  24451251.560         957.753          46.150


 111153839.739 8  86613374.02147  21151872.480                    21151870.300
     -2328.497       -1814.414          49.800          46.050



 120270036.441 7  93716940.78346  22886610.740                    22886610.120
      3020.369        2353.538          45.750          39.200



 133230625.171 5 103816077.79645  25352944.380                    25352946.360
      -383.483        -298.816          34.300          33.850    99490418.795 7
  25352947.860        -286.138          45.050


 110101086.872 8  85793066.62448  20951534.820                    20951535.100
     -1308.532       -1019.636          51.100          51.300    82218362.819 9
  20951535.660        -977.098          54.850


 23  9 13 15 58  0.0000000  0 12G05G07G08G11G13G14G15G18G20G22G27G30
 108126327.877 8  84254302.20748  20575748.860                    20575746.460
      -150.731        -117.454          50.950          50.850



 119614876.053 7  93206389.58547  22761955.260                    22761953.620
     -2548.259       -1985.656          46.550          46.450



 132470802.993 6 103224027.59946  25208353.740                    25208357.080
      1176.964         917.113          38.700          38.700    98923027.275 7
  25208358.040         879.011          42.000


 133479936.011 6 104010312.71546  25400403.340                    25400406.360
     -3486.955       -2717.111          39.800          36.000    99676564.383 7
  25400413.040       -2604.000          43.000


 108620101.050 8  84639058.17347  20669708.140                    20669705.680
      1768.910        1378.372          51.600          46.650



 116262618.933 8  90594286.89847  22124022.860                    22124023.560
      2340.344        1823.646          48.700          46.350    86819566.994 8
  22124027.640        1747.522          51.000


 122132694.089 7  95168337.14746  23241074.080                    23241074.600
      3391.921        2643.057          44.200          41.600



 128453971.231 7 100094007.80746  24443976.480                    24443976.380
      1263.981         984.918          42.200          39.300    95923444.980 7
  24443981.480         943.689          45.750


 111223929.339 8  86667989.25947  21165210.140                    21165207.900
     -2344.678       -1827.022          49.650          46.200



 120179559.663 7  93646439.48546  22869393.460                    22869392.720
      3010.909        2346.166          44.950          41.100



 133242408.251 5 103825259.47045  25355186.620                    25355188.000
      -403.069        -314.079          34.900          35.450    99499217.956 7
  25355189.880        -300.774          43.750


 110140540.286 8  85823809.53148  20959042.600                    20959042.780
     -1322.254       -1030.328          51.200          51.250    82247824.778 9
  20959043.280        -987.405          54.450


 23  9 13 15 58 30.0000000  0 12G05G07G08G11G13G14G15G18G20G22G27G30
 108131143.647 8  84258054.74748  20576665.180                    20576662.960
      -170.590        -132.928          50.400          50.500



 119691406.044 7  93266023.29047  22776518.420                    22776517.000
     -2554.017       -1990.146          45.050          44.850



 132435716.298 6 103196687.36946  25201677.220                    25201680.380
      1161.257         904.879          37.950          37.250    98896826.235 7
  25201681.200         867.366          42.700


 133584499.493 6 104091790.44846  25420301.280                    25420304.120
     -3484.269       -2715.027          41.550          37.000    99754647.191 7
  25420310.920       -2601.820          43.650


 108567178.132 8  84597819.55447  20659637.240                    20659634.880
      1758.981        1370.636          50.950          47.050



 116192609.283 8  90539733.96747  22110700.440                    22110701.060
      2326.774        1813.072          48.350          46.850    86767287.121 8
  22110704.940        1737.403          50.800


 122030990.860 7  95089087.93347  23221720.700                    23221721.060
      3388.049        2640.038          45.250          42.300



 128416318.928 7 100064668.44246  24436811.680                    24436811.240
      1245.981         970.898          42.650          40.550    95895328.089 7
  24436816.600         930.285          45.950


 111294490.159 8  86722971.67747  21178637.460                    21178635.320
     -2359.719       -1838.744          49.750          46.700



 120089360.592 7  93576154.58446  22852229.120                    22852228.140
      3002.160        2339.348          45.700          40.300



 133254763.703 5 103834887.10645  25357537.700                    25357539.180
      -422.270        -329.043          33.950          33.350    99508444.425 7
  25357541.040        -314.674          44.150


 110180390.050 8  85854861.28748  20966625.820                    20966625.960
     -1334.837       -1040.133          51.200          51.250    82277582.717 9
  20966626.360        -996.862          54.650


 23  9 13 15 59  0.0000000  0 12G05G07G08G11G13G14G15G18G20G22G27G30
 108136575.000 8  84262286.96648  20577698.500                    20577696.600
      -191.312        -149.075          50.150          50.200



 119768127.909 7  93325806.52947  22791118.060                    22791116.920
     -2560.679       -1995.335          45.000          44.900



 132401115.741 6 103169725.94146  25195092.960                    25195096.380
      1145.283         892.431          36.900          37.150    98870988.225 7
  25195096.880         855.148          43.050


 133688992.169 6 104173213.09146  25440185.800                    25440188.760
     -3482.044       -2713.286          41.950          37.900    99832677.124 7
  25440195.160       -2600.142          43.400


 108514572.092 8  84556827.84747  20649626.540                    20649624.260
      1748.203        1362.237          50.600          47.350



 116123024.886 8  90485512.40447  22097458.980                    22097459.380
      2312.307        1801.799          48.650          46.150    86715324.800 8
  22097463.320        1726.696          50.650


 121929417.433 7  95009939.87246  23202392.040                    23202392.220
      3383.492        2636.489          45.800          41.400



 128379221.365 7 100035761.26246  24429752.420                    24429751.540
      1227.229         956.284          42.300          39.350    95867625.387 7
  24429757.260         916.416          45.800


 111365521.758 8  86778320.93447  21192154.340                    21192152.200
     -2375.596       -1851.115          50.150          46.250



 119999443.997 7  93506089.79046  22835118.380                    22835117.360
      2992.408        2331.748          44.900          39.850



 133267692.901 5 103844961.87145  25359998.080                    25359999.900
      -441.514        -344.037          35.900          33.500    99518099.414 7
  25360001.240        -329.029          44.000


 110220636.588 8  85886222.21648  20974284.500                    20974284.760
     -1348.197       -1050.544          51.500          51.450    82307636.942 9
  20974285.040       -1006.794          54.650


 23  9 13 15 59 30.0000000  0 12G05G07G08G11G13G14G15G18G20G22G27G30
 108142623.146 8  84266999.80548  20578849.260                    20578847.520
      -212.441        -165.538          50.050          49.850



 119845042.505 7  93385739.90747  22805754.240                    22805753.440
     -2567.555       -2000.693          45.100          45.550



 132367005.138 6 103143146.32845  25188601.940                    25188605.380
      1128.498         879.354          36.150          35.900    98845516.108 7
  25188606.000         842.573          44.550


 133793413.489 6 104254580.06846  25460056.660                    25460060.160
     -3480.121       -2711.792          40.550          37.150    99910653.783 6
  25460065.960       -2598.663          41.600


 108462285.700 8  84516085.20647  20639676.700                    20639674.480
      1737.092        1353.578          50.550          47.300



 116053870.211 8  90431625.69247  22084299.240                    22084299.480
      2297.478        1790.243          48.100          46.750    86663683.365 8
  22084303.260        1715.646          50.600


 121827977.087 7  94930895.48146  23183088.640                    23183088.380
      3378.731        2632.779          45.050          41.050



 128342681.895 7 100007289.00946  24422799.100                    24422798.300
      1208.053         941.342          42.400          40.250    95840339.466 7
  24422804.000         902.275          46.000


 111437024.272 8  86834037.13847  21205760.820                    21205758.700
     -2391.688       -1863.655          49.850          46.450



 119909814.530 7  93436248.73846  22818062.320                    22818061.380
      2982.233        2323.821          44.850          40.750



 133281197.436 5 103855484.94845  25362568.020                    25362569.260
      -460.312        -358.681          35.450          35.200    99528184.067 7
  25362570.880        -343.607          43.700


 110261280.454 8  85917892.75248  20982018.800                    20982019.200
     -1361.896       -1061.219          51.300          51.350    82337987.863 9
  20982019.440       -1016.986          54.800


                            4  1
RINEX FILE SPLICE; other post-header comments skipped       COMMENT
 23  9 13 16  0  0.0000000  0 12G05G07G08G11G13G14G15G18G20G22G27G30
 108149288.305 8  84272193.42548  20580117.580                    20580115.740
      -232.277        -180.996          49.950          50.000



 119922148.046 7  93445822.09947  22820426.860                    22820426.400
     -2573.133       -2005.041          45.250          45.350



 132333386.382 6 103116949.93646  25182204.380                    25182207.820
      1112.657         867.009          36.600          36.700    98820411.279 7
  25182208.340         830.861          43.250


 133897760.884 6 104335889.43245  25479913.560                    25479917.500
     -3476.720       -2709.143          39.400          35.600    99988575.184 6
  25479922.840       -2596.288          40.900


 108410319.732 8  84475592.25047  20629787.860                    20629785.700
      1726.978        1345.697          50.700          47.300



 115985147.527 7  90378075.59347  22071221.600                    22071221.680
      2283.715        1779.519          47.850          46.150    86612364.531 8
  22071225.680        1705.304          50.550


 121726671.441 7  94851956.08047  23163810.620                    23163810.360
      3374.793        2629.713          44.550          42.050



 128306701.471 6  99979252.36146  24415951.860                    24415951.480
      1190.295         927.504          40.850          40.650    95813471.028 7
  24415957.160         888.819          46.250


 111508995.709 8  86890118.73647  21219456.540                    21219454.380
     -2406.668       -1875.327          49.650          46.600



 119820475.230 7  93366633.79046  22801061.400                    22801060.340
      2973.367        2316.911          45.400          39.700



 133295276.955 5 103866456.07845  25365246.820                    25365248.720
      -478.984        -373.229          34.250          33.050    99538698.059 7
  25365249.940        -357.440          44.400


 110302320.066 8  85949871.66048  20989828.360                    20989828.920
     -1374.452       -1071.002          50.850          50.900    82368634.315 9
  20989829.100       -1026.368          55.050


 23  9 13 16  0 30.0000000  0 12G05G07G08G11G13G14G15G18G20G22G27G30
 108156568.294 8  84277866.12448  20581503.060                    20581500.980
      -253.303        -197.379          50.750          50.700



 119999440.497 7  93506049.94347  22835135.220                    22835135.040
     -2579.975       -2010.370          45.850          45.800



 132300258.557 6 103091136.09946  25175900.420                    25175903.900
      1095.778         853.853          37.100          37.500    98795673.031 7
  25175903.620         818.112          42.350


 134002028.977 6 104417137.00646  25499755.260                    25499759.340
     -3474.690       -2707.562          40.000          36.900   100066437.421 6
  25499764.280       -2594.692          41.950


 108358672.670 8  84435347.79147  20619959.740                    20619957.620
      1715.822        1337.004          50.700          47.150



 115916856.657 7  90324861.97147  22058226.080                    22058226.200
      2268.743        1767.853          47.500          46.350    86561368.143 8
  22058230.240        1694.185          50.700


 121625499.341 7  94773120.73346  23144557.980                    23144557.960
      3369.830        2625.843          44.550          41.750



 128271278.643 6  99951650.21046  24409210.800                    24409211.360
      1171.124         912.564          41.300          41.000    95787018.979 7
  24409216.080         874.470          46.200


 111581431.007 8  86946561.78747  21233240.580                    21233238.400
     -2422.622       -1887.758          49.550          46.100



 119731426.105 7  93297244.94346  22784115.820                    22784115.020
      2962.970        2308.810          45.600          40.500



 133309928.525 5 103877872.90845  25368034.980                    25368037.380
      -499.508        -389.227          32.250          33.300    99549639.197 7
  25368038.200        -372.165          44.150


 110343751.346 8  85982155.76348  20997712.420                    20997713.140
     -1387.935       -1081.508          50.700          50.700    82399573.244 9
  20997713.240       -1036.518          55.000


 23  9 13 16  1  0.0000000  0 12G05G07G08G11G13G14G15G18G20G22G27G30
 108164461.547 8  84284016.68748  20583005.260                    20583003.040
      -273.718        -213.287          51.100          51.050



 120076916.757 7  93566420.99347  22849878.540                    22849878.740
     -2586.015       -2015.079          45.350          45.600



 132267621.463 6 103065704.65346  25169689.640                    25169693.280
      1079.416         841.104          37.900          38.050    98771301.228 6
  25169692.460         805.903          41.150


 134106213.366 6 104498319.38546  25519581.120                    25519585.380
     -3472.160       -2705.587          39.950          36.300   100144237.089 7
  25519590.200       -2592.515          43.950


 108307343.652 8  84395351.16747  20610192.060                    20610190.120
      1705.327        1328.827          50.850          46.800



 115848998.429 7  90271985.47047  22045312.880                    22045313.000
      2254.284        1756.587          47.050          46.400    86510694.843 8
  22045317.320        1683.321          50.600


 121524460.871 7  94694389.53347  23125330.940                    23125331.180
      3365.413        2622.402          45.300          42.050



 128236413.046 7  99924482.23546  24402575.980                    24402577.060
      1152.506         898.057          43.300          41.250    95760983.019 7
  24402581.340         860.492          46.550


 111654326.976 8  87003363.80347  21247112.200                    21247110.020
     -2437.885       -1899.651          48.900          46.350



 119642668.454 7  93228083.21746  22767225.800                    22767224.920
      2953.448        2301.391          46.300          39.850



 133325150.072 5 103889733.93145  25370931.540                    25370934.160
      -517.394        -403.161          35.900          34.700    99561006.043 7
  25370934.800        -386.357          45.300


 110385571.310 8  86014742.73148  21005670.420                    21005671.180
     -1400.968       -1091.664          51.450          51.600    82430802.412 9
  21005671.280       -1046.181          54.850


 23  9 13 16  1 30.0000000  0 12G05G07G08G11G13G14G15G18G20G22G27G30
 108172975.232 8  84290650.71448  20584625.420                    20584623.260
      -294.404        -229.406          50.600          50.750



 120154582.421 7  93626939.64347  22864657.960                    22864658.200
     -2592.272       -2019.955          44.850          44.900



 132235484.073 6 103040662.62146  25163574.240                    25163577.740
      1062.396         827.843          37.300          37.300    98747302.583 6
  25163576.420         793.698          40.550


 134210318.283 5 104579439.73144  25539391.720                    25539395.980
     -3469.103       -2703.208          34.150          29.200   100221977.395 6
  25539401.060       -2590.347          40.200


 108256340.666 8  84355608.59147  20600486.460                    20600484.680
      1694.300        1320.234          50.700          47.400



 115781582.196 7  90219453.38247  22032483.840                    22032484.100
      2239.652        1745.185          46.950          45.900    86460351.596 8
  22032488.560        1672.440          50.900


 121423564.608 7  94615769.12447  23106131.000                    23106131.220
      3360.612        2618.659          45.100          43.650



 128202112.628 7  99897754.65346  24396048.860                    24396050.260
      1133.750         883.441          42.850          40.950    95735369.086 7
  24396054.400         846.610          47.150


 111727688.458 8  87060528.55647  21261072.320                    21261070.340
     -2453.347       -1911.700          48.750          46.150



 119554212.029 7  93159156.20646  22750393.180                    22750392.500
      2943.308        2293.490          46.250          40.750



 133340948.206 5 103902044.22745  25373937.840                    25373940.260
      -536.793        -418.277          34.950          35.250    99572803.423 7
  25373940.980        -400.578          45.350


 110427785.359 8  86047636.78548  21013703.540                    21013704.100
     -1413.922       -1101.758          51.700          51.600    82462325.879 9
  21013704.240       -1055.844          54.750


 23  9 13 16  2  0.0000000  0 12G05G07G08G11G13G14G15G18G20G22G27G30
 108182104.926 8  84297764.75748  20586362.660                    20586360.740
      -315.006        -245.459          50.600          50.650



 120232431.118 7  93687600.90247  22879472.320                    22879472.400
     -2598.381       -2024.714          46.700          46.650



 132203843.307 6 103016007.53646  25157553.020                    25157556.440
      1045.914         815.001          38.300          37.600    98723674.838 6
  25157555.520         781.022          41.400


 134314427.136 6 104660609.04746  25559185.940                    25559190.060
     -3466.520       -2701.198          40.200          36.550   100299653.407 7
  25559195.800       -2588.521          43.400


 108205660.168 8  84316117.30847  20590842.280                    20590840.600
      1683.563        1311.868          50.900          46.700



 115714606.010 7  90167264.17747  22019738.580                    22019738.980
      2224.669        1733.510          47.000          46.250    86410336.951 8
  22019743.660        1661.303          51.250


 121322807.816 7  94537257.39547  23086957.700                    23086957.700
      3355.822        2614.929          45.650          42.000



 128168374.131 7  99871464.94047  24389628.660                    24389630.240
      1114.917         868.768          42.900          42.300    95710174.791 7
  24389634.580         832.458          47.350


 111801508.819 8  87118050.88247  21275119.780                    21275118.060
     -2468.830       -1923.765          48.600          46.200



 119466055.320 7  93090462.75646  22733617.540                    22733616.980
      2933.063        2285.507          46.550          40.700



 133357317.894 6 103914799.83846  25377052.980                    25377054.800
      -555.670        -432.989          40.000          39.250    99585027.523 7
  25377056.140        -414.996          46.150


 110470387.690 8  86080833.39448  21021810.660                    21021811.000
     -1427.036       -1111.977          51.650          51.850    82494139.288 9
  21021811.020       -1065.601          54.700


 23  9 13 16  2 30.0000000  0 12G05G07G08G11G13G14G15G18G20G22G27G30
 108191847.368 8  84305356.26648  20588216.500                    20588214.740
      -335.491        -261.422          50.250          49.900



 120310457.943 7  93748400.96647  22894320.580                    22894320.360
     -2604.339       -2029.355          47.850          47.900



 132172698.113 6 102991738.64945  25151626.260                    25151629.340
      1029.251         802.018          36.800          35.750    98700417.124 6
  25151628.880         768.778          40.900


 134418353.500 6 104741590.33046  25578962.740                    25578966.520
     -3463.102       -2698.531          40.550          38.500   100377260.384 7
  25578972.640       -2586.179          45.250


 108155299.571 8  84276875.30347  20581259.040                    20581257.260
      1672.835        1303.509          51.050          47.150



 115648068.708 7  90115416.96647  22007076.880                    22007077.340
      2210.056        1722.123          47.300          45.250    86360650.050 8
  22007082.240        1650.395          51.700


 121222188.850 7  94458853.06847  23067810.680                    23067810.280
      3351.232        2611.353          45.900          42.050



 128135195.148 7  99845611.22246  24383314.860                    24383316.520
      1096.171         854.157          43.200          41.250    95685398.321 7
  24383320.800         818.499          47.350


 111875782.473 8  87175926.41647  21289253.500                    21289251.960
     -2483.813       -1935.440          48.850          45.900



 119378197.913 7  93022002.51846  22716898.880                    22716898.360
      2923.145        2277.779          47.000          40.350



 133374255.165 6 103927997.65945  25380276.160                    25380278.020
      -574.540        -447.698          38.850          35.900    99597675.485 7
  25380279.280        -429.008          46.000


 110513373.302 8  86114328.66248  21029990.720                    21029990.880
     -1439.638       -1121.796          51.650          51.450    82526238.930 9
  21029990.780       -1075.123          54.750


 23  9 13 16  3  0.0000000  0 12G05G07G08G11G13G14G15G18G20G22G27G30
 108202207.573 8  84313429.14348  20590187.920                    20590186.160
      -355.666        -277.144          50.550          50.450



 120388666.812 7  93809342.90347  22909203.540                    22909202.900
     -2609.967       -2033.742          47.500          47.400



 132142055.735 6 102967861.49946  25145795.220                    25145797.900
      1012.529         788.988          38.650          38.700    98677534.906 7
  25145798.040         756.413          42.200


 134522190.168 6 104822501.66246  25598722.620                    25598726.280
     -3459.947       -2696.078          37.600          36.900   100454800.343 7
  25598733.000       -2583.495          43.100


 108105265.425 8  84237887.64647  20571738.060                    20571736.020
      1662.389        1295.368          51.550          46.850



 115581978.082 7  90063917.82347  21994500.240                    21994500.900
      2195.554        1710.822          47.900          46.250    86311296.715 8
  21994505.760        1639.490          51.750


 121121714.264 7  94380561.23647  23048691.020                    23048690.420
      3346.811        2607.905          45.800          42.200



 128102582.075 7  99820198.48546  24377108.700                    24377110.100
      1077.871         839.901          42.650          41.300    95661044.442 7
  24377114.700         804.749          47.700


 111950512.622 8  87234157.65247  21303474.200                    21303472.840
     -2498.647       -1947.000          48.850          45.950



 119290647.672 7  92953781.65946  22700238.520                    22700238.340
      2913.162        2270.001          46.950          40.150



 133391764.998 6 103941641.67446  25383608.200                    25383609.660
      -593.155        -462.202          41.150          38.550    99610750.990 7
  25383611.300        -442.937          44.850


 110556746.126 8  86148125.65248  21038244.340                    21038244.380
     -1452.137       -1131.536          51.550          51.500    82558627.709 9
  21038244.240       -1084.422          54.700


 23  9 13 16  3 30.0000000  0 12G05G07G08G11G13G14G15G18G20G22G27G30
 108213184.149 8  84321982.31148  20592276.800                    20592274.900
      -376.648        -293.493          51.150          51.100



 120467054.080 8  93870423.84748  22924120.360                    22924119.240
     -2616.352       -2038.716          48.000          48.400



 132111915.448 6 102944375.63846  25140059.860                    25140062.400
       995.962         776.074          39.000          38.650    98655027.658 7
  25140063.040         743.757          43.050


 134625932.422 6 104903339.43645  25618464.360                    25618467.960
     -3457.458       -2694.136          39.000          35.400   100532269.727 7
  25618475.000       -2581.323          44.550


 108055556.294 8  84199153.25547  20562278.900                    20562276.680
      1650.980        1286.478          51.800          46.950



 115516334.157 8  90012766.75647  21982008.680                    21982009.260
      2180.212        1698.869          48.400          46.200    86262276.962 8
  21982014.280        1628.090          52.000


 121021383.304 7  94302381.32246  23029598.600                    23029597.920
      3341.422        2603.707          45.850          41.550



 128070533.737 7  99795225.77046  24371010.180                    24371011.020
      1058.388         824.719          44.050          39.700    95637112.251 8
  24371016.340         790.405          48.050


 112025695.219 8  87292741.45947  21317781.060                    21317779.600
     -2514.125       -1959.060          49.100          46.150



 119203405.399 7  92885800.75346  22683636.780                    22683636.660
      2902.415        2261.626          46.700          41.350



 133409844.624 6 103955729.67445  25387048.660                    25387049.800
      -612.582        -477.340          40.600          35.500    99624251.996 6
  25387051.520        -457.421          41.650


 110600502.447 8  86182221.46848  21046570.820                    21046570.860
     -1465.439       -1141.901          51.250          51.300    82591302.860 9
  21046570.680       -1094.268          54.800


 23  9 13 16  4  0.0000000  0 12G05G07G08G11G13G14G15G18G20G22G27G30
 108224781.508 8  84331019.19948  20594483.840                    20594481.760
      -396.957        -309.317          51.000          51.300



 120545623.494 7  93931646.71547  22939071.740                    22939070.160
     -2622.154       -2043.238          47.300          47.500



 132082282.839 6 102921285.38045  25134420.900                    25134423.520
       979.466         763.221          37.150          35.650    98632899.515 7
  25134424.620         731.282          42.750


 134729582.566 6 104984105.42945  25638188.760                    25638192.380
     -3453.537       -2691.081          37.850          33.700   100609670.451 7
  25638199.440       -2578.941          42.850


 108006178.097 8  84160676.73947  20552882.620                    20552880.240
      1640.371        1278.211          51.750          46.950



 115451144.617 8  89961969.75747  21969603.600                    21969604.180
      2165.340        1687.279          48.200          46.250    86213596.514 8
  21969609.080        1616.980          51.800


 120921202.931 7  94224318.75347  23010534.860                    23010534.180
      3336.841        2600.138          45.550          42.000



 128039056.358 7  99770697.99846  24365020.200                    24365020.820
      1039.500         810.002          43.600          40.750    95613606.458 7
  24365026.620         776.449          47.750


 112101333.333 8  87351680.21247  21332174.600                    21332173.160
     -2528.689       -1970.408          48.850          46.000



 119116478.954 7  92818065.95946  22667095.060                    22667095.320
      2892.127        2253.608          47.250          41.350



 133428498.815 6 103970265.37545  25390598.600                    25390599.160
      -631.050        -491.726          40.150          32.800    99638182.070 6
  25390601.060        -471.615          40.250


 110644646.030 8  86216619.04848  21054971.000                    21054971.000
     -1477.945       -1151.646          51.000          51.000    82624267.199 9
  21054971.000       -1103.617          54.750


 23  9 13 16  4 30.0000000  0 12G05G07G08G11G13G14G15G18G20G22G27G30
 108236989.570 8  84340531.95948  20596807.060                    20596804.900
      -417.153        -325.055          50.950          51.050



 120624363.122 7  93993002.23847  22954055.440                    22954053.540
     -2627.537       -2047.432          47.850          47.900



 132053150.966 6 102898585.29146  25128877.060                    25128880.160
       962.102         749.689          37.000          36.350    98611145.263 7
  25128881.240         718.861          43.600


 134833128.257 5 105064790.03445  25657893.120                    25657897.240
     -3450.026       -2688.329          35.750          32.550   100686993.093 7
  25657904.200       -2576.265          42.400


 107957121.773 8  84122451.03547  20543547.560                    20543545.060
      1629.777        1269.957          51.450          47.650



 115386401.493 8  89911520.61247  21957283.500                    21957283.840
      2150.571        1675.771          48.750          45.800    86165249.435 8
  21957288.800        1605.902          51.850


 120821164.471 7  94146366.75147  22991498.160                    22991497.520
      3332.240        2596.552          45.600          42.250



 128008140.645 7  99746607.86546  24359137.220                    24359137.300
      1020.964         795.558          43.850          40.500    95590520.102 8
  24359144.080         762.462          48.200


 112177414.212 8  87410963.97347  21346652.400                    21346650.840
     -2543.390       -1981.863          49.300          45.550



 119029860.835 7  92750571.40746  22650611.960                    22650612.400
      2882.046        2245.754          45.850          41.900



 133447716.766 6 103985240.44545  25394255.800                    25394256.460
      -649.829        -506.368          37.400          32.350    99652533.179 7
  25394258.360        -485.635          42.000


 110689165.059 8  86251309.18648  21063442.660                    21063442.680
     -1490.245       -1161.230          50.950          50.850    82657511.914 9
  21063443.020       -1112.921          55.000


 23  9 13 16  5  0.0000000  0 12G05G07G08G11G13G14G15G18G20G22G27G30
 108249818.150 8  84350528.24848  20599248.240                    20599246.120
      -437.917        -341.234          50.550          50.500



 120703281.726 7  94054497.21947  22969073.120                    22969071.180
     -2633.476       -2052.061          47.500          47.400



 132024530.837 6 102876283.99446  25123430.800                    25123434.380
       945.406         736.684          38.200          37.800    98589773.207 7
  25123435.200         706.120          44.150


 134936576.839 6 105145398.93546  25677579.020                    25677583.240
     -3446.656       -2685.718          39.450          36.800   100764243.216 7
  25677590.500       -2573.659          45.300


 107908398.096 8  84084484.54747  20534275.640                    20534273.340
      1618.685        1261.313          51.250          47.750



 115322117.038 8  89861428.88047  21945050.720                    21945050.740
      2135.310        1663.880          48.900          45.600    86117244.866 8
  21945055.700        1594.510          51.750


 120721279.787 7  94068534.57347  22972490.840                    22972490.260
      3327.087        2592.537          46.250          42.250



 127977797.558 7  99722963.96446  24353363.180                    24353363.160
      1001.905         780.708          43.200          40.400    95567861.372 7
  24353370.040         748.214          47.600


 112253945.945 8  87470599.05747  21361216.020                    21361214.240
     -2558.367       -1993.534          49.350          45.350



 118943564.238 7  92683327.37446  22634190.220                    22634190.700
      2871.158        2237.267          46.700          40.850



 133467507.900 6 104000662.14446  25398021.860                    25398022.340
      -668.961        -521.269          38.600          36.400    99667312.284 7
  25398024.220        -499.720          42.850


 110734068.052 8  86286298.51748  21071987.320                    21071987.480
     -1503.049       -1171.207          50.750          50.800    82691043.345 9
  21071988.080       -1122.385          55.050


 23  9 13 16  5 30.0000000  0 12G05G07G08G11G13G14G15G18G20G22G27G30
 108263261.484 8  84361003.56248  20601806.300                    20601804.360
      -458.276        -357.099          50.600          50.550



 120782371.200 7  94116125.32847  22984123.260                    22984121.560
     -2639.144       -2056.478          47.800          47.550



 131996417.096 6 102854377.24046  25118080.900                    25118084.500
       928.741         723.697          38.700          39.100    98568779.289 7
  25118085.320         693.419          42.500


 135039918.433 5 105225924.34745  25697244.480                    25697248.200
     -3443.030       -2682.895          34.800          33.550   100841413.335 6
  25697256.160       -2571.005          38.250


 107860001.203 8  84046772.69147  20525065.940                    20525063.740
      1607.750        1252.793          51.450          47.150



 115258286.834 8  89811691.10447  21932904.340                    21932904.140
      2120.009        1651.958          48.900          45.750    86069579.503 8
  21932909.000        1583.129          51.750


 120621543.297 7  93990817.86047  22953511.800                    22953511.200
      3322.118        2588.665          46.550          42.900



 127948021.245 7  99699761.67746  24347696.860                    24347696.940
       983.045         766.012          43.900          40.400    95545625.872 7
  24347703.240         734.042          47.150


 112330919.540 8  87530578.44847  21375863.700                    21375861.760
     -2573.131       -2005.039          49.600          44.950



 118857584.540 7  92616330.29546  22617828.740                    22617829.300
      2860.695        2229.115          46.750          41.250



 133487864.567 6 104016524.46045  25401895.860                    25401896.360
      -687.998        -536.101          36.650          31.200    99682513.644 7
  25401897.840        -513.733          42.550


 110779346.775 8  86321580.61948  21080603.400                    21080603.760
     -1515.560       -1180.956          50.450          50.550    82724855.351 9
  21080604.480       -1131.755          55.150


 23  9 13 16  6  0.0000000  0 12G05G07G08G11G13G14G15G18G20G22G27G30
 108277322.099 8  84371959.87248  20604481.900                    20604480.060
      -479.101        -373.326          50.150          50.050



 120861633.392 8  94177888.03348  22999206.340                    22999204.820
     -2645.103       -2061.119          48.300          48.200



 131968815.180 6 102832869.30546  25112828.420                    25112831.900
       911.453         710.224          38.050          38.400    98548167.514 7
  25112832.560         680.597          42.750


 135143155.604 6 105306368.49945  25716890.160                    25716893.920
     -3439.275       -2679.963          36.600          32.450   100918505.600 6
  25716901.820       -2568.339          38.350


 107811936.142 8  84009319.40547  20515919.380                    20515917.240
      1596.606        1244.109          51.000          47.650



 115194917.146 8  89762312.17247  21920845.480                    21920844.900
      2104.611        1639.958          48.750          45.900    86022258.044 8
  21920849.960        1571.561          51.300


 120521961.076 7  93913221.36347  22934561.980                    22934561.660
      3316.873        2584.578          46.400          42.700



 127918816.653 7  99677004.88546  24342139.500                    24342139.820
       963.822         751.031          42.750          41.750    95523817.292 7
  24342145.120         719.648          46.600


 112408337.053 8  87590903.75347  21390595.920                    21390593.620
     -2587.987       -2016.614          49.350          45.200



 118771929.043 7  92549585.81846  22601528.940                    22601529.360
      2849.586        2220.458          46.400          41.450



 133508790.386 5 104032830.37545  25405878.000                    25405878.700
      -706.707        -550.682          34.550          32.650    99698140.128 6
  25405879.880        -528.069          41.600


 110825003.734 8  86357157.44548  21089291.560                    21089292.120
     -1528.210       -1190.813          50.400          50.350    82758949.812 9
  21089292.720       -1141.246          54.900


 23  9 13 16  6 30.0000000  0 12G05G07G08G11G13G14G15G18G20G22G27G30
 108291995.333 8  84383393.55348  20607274.060                    20607272.380
      -499.151        -388.949          50.250          50.100



 120941062.651 8  94239780.91048  23014321.200                    23014320.000
     -2650.199       -2065.092          48.450          48.350



 131941722.682 6 102811758.33546  25107672.940                    25107676.460
       894.817         697.261          38.300          38.500    98527936.148 7
  25107676.900         668.209          42.650



                                                                 100995514.717 6
  25736526.420       -2565.507          39.000


 107764199.392 8  83972121.95247  20506835.240                    20506833.320
      1585.890        1235.759          51.250          47.650



 115132005.914 8  89713290.47947  21908873.840                    21908873.220
      2089.537        1628.213          48.600          46.200    85975278.920 8
  21908878.160        1560.354          51.300


 120422530.214 7  93835742.81047  22915640.860                    22915640.800
      3312.005        2580.785          45.700          44.200



 127890180.247 7  99654690.84946  24336690.260                    24336690.780
       945.261         736.568          43.700          39.900    95502433.011 7
  24336695.140         705.808          46.150


 112486191.523 8  87651569.52847  21405411.260                    21405408.640
     -2602.202       -2027.692          49.850          44.800



 118686595.962 7  92483092.57147  22585290.520                    22585290.880
      2839.064        2212.261          45.900          42.300



 133530279.969 5 104049575.59844  25409967.200                    25409968.080
      -725.019        -564.932          34.050          27.900    99714187.604 6
  25409969.080        -541.894          38.150


 110871033.021 8  86393024.40648  21098050.660                    21098051.280
     -1540.336       -1200.263          50.800          50.900    82793322.313 9
  21098051.740       -1150.335          54.800


 23  9 13 16  7  0.0000000  0 12G05G07G08G11G13G14G15G18G20G22G27G30
 108307289.459 8  84395311.03348  20610184.460                    20610182.820
      -520.382        -405.493          50.750          50.800



 121020664.867 8  94301808.56148  23029469.160                    23029467.900
     -2656.634       -2070.105          48.600          48.600



 131915148.378 6 102791051.12846  25102616.080                    25102619.280
       876.789         683.212          37.950          37.450    98508091.751 7
  25102620.040         654.903          43.100


 135349327.512 5 105467030.93345  25756118.080                    25756123.920
     -3432.279       -2674.548          35.300          30.250   101072443.847 6
  25756130.280       -2563.052          41.350


 107716798.767 8  83935186.41247  20497815.080                    20497813.360
      1574.153        1226.613          51.200          47.750



 115069562.519 8  89664633.33347  21896991.180                    21896990.440
      2073.441        1615.670          48.800          46.050    85928649.163 8
  21896995.440        1548.279          51.400


 120323259.858 7  93758389.34047  22896750.100                    22896750.420
      3306.140        2576.214          45.250          44.000



 127862120.092 7  99632825.81146  24331350.640                    24331351.040
       925.561         721.219          43.550          41.050    95481479.017 7
  24331354.940         691.134          46.500


 112564488.007 8  87712579.74147  21420310.740                    21420307.820
     -2617.339       -2039.486          49.950          44.550



 118601595.272 7  92416858.33946  22569115.360                    22569115.500
      2827.589        2203.317          46.700          41.000




                                                                  99730660.950 6
  25414167.040        -556.489          37.500


 110917440.318 8  86429185.92448  21106881.800                    21106882.160
     -1553.393       -1210.436          51.250          51.150    82827977.093 9
  21106882.660       -1160.023          54.850


 23  9 13 16  7 30.0000000  0 12G05G07G08G11G13G14G15G18G20G22G27G30
 108323196.394 8  84407706.03148  20613211.460                    20613209.820
      -540.107        -420.863          50.150          50.600



 121100431.210 8  94363964.12148  23044648.280                    23044646.900
     -2661.334       -2073.768          48.050          48.450



 131889085.803 6 102770742.72046  25097656.200                    25097659.760
       860.059         670.182          36.250          36.200    98488629.506 7
  25097660.240         642.578          42.100


 135452229.417 5 105547213.88245  25775700.100                    25775704.920
     -3427.062       -2670.453          34.300          33.400   101149285.802 6
  25775711.780       -2559.627          36.500


 107669728.366 8  83898508.19447  20488857.900                    20488856.280
      1563.696        1218.466          51.050          47.600



 115007581.887 8  89616336.77847  21885196.600                    21885195.960
      2058.524        1604.046          48.800          45.950    85882364.969 8
  21885200.780        1537.250          51.300


 120224143.707 7  93681156.02647  22877888.620                    22877889.280
      3301.418        2572.536          45.500          42.600



 127834629.658 7  99611404.71346  24326119.160                    24326119.640
       907.103         706.834          42.650          40.850    95460950.466 7
  24326123.440         677.438          46.500


 112643217.130 8  87773927.05647  21435292.520                    21435289.420
     -2631.269       -2050.341          50.200          43.800



 118516922.257 7  92350879.44846  22553002.640                    22553002.600
      2817.234        2195.249          46.800          41.750



 133574966.712 5                  25418468.780
      -762.924                          33.950                    99747554.442 5
  25418471.940        -569.878          34.700


 110964216.737 8  86465635.07148  21115783.240                    21115783.260
     -1565.111       -1219.567          50.850          51.300    82862907.520 9
  21115783.840       -1168.699          54.900


 23  9 13 16  8  0.0000000  0 12G05G07G08G11G13G14G15G18G20G22G27G30
 108339722.592 8  84420583.57848  20616356.220                    20616354.660
      -560.897        -437.063          49.900          50.100



 121180366.895 7  94426251.61047  23059859.500                    23059858.100
     -2667.034       -2078.210          46.750          46.500



 131863543.627 5 102750839.81045  25092794.960                    25092798.880
       843.089         656.957          34.500          34.050    98469555.881 6
  25092799.600         629.629          41.450


 135555019.217 5 105627309.52345  25795261.180                    25795266.560
     -3424.440       -2668.402          33.600          32.250   101226173.806 6
  25795270.820       -2556.771          37.750


 107622995.501 8  83862092.98748  20479965.020                    20479963.300
      1552.484        1209.729          51.350          48.450



 114946073.021 8  89568407.83747  21873491.800                    21873491.240
      2042.760        1591.763          48.900          46.150    85836433.070 8
  21873495.880        1525.460          51.300


 120125190.519 7  93604049.69947  22859058.100                    22859058.960
      3295.974        2568.293          44.850          42.900



 127807716.588 6  99590433.48946  24320997.320                    24320997.840
       887.904         691.874          41.300          40.900    95440853.045 7
  24321002.220         662.979          46.850


 112722383.186 8  87835614.84347  21450357.380                    21450354.280
     -2645.684       -2061.573          49.650          44.850



 118432586.657 7  92285163.45646  22536954.140                    22536953.600
      2805.861        2186.387          47.000          41.000



 133598157.864 5 104102472.29244  25422882.260                    25422882.480
      -782.662        -609.865          34.700          27.150    99764872.692 6
  25422885.320        -584.072          39.000


 111011367.637 8  86502376.02048  21124755.800                    21124755.740
     -1577.514       -1229.231          50.750          50.800    82898117.592 9
  21124756.500       -1178.021          55.300


 23  9 13 16  8 30.0000000  0 12G05G07G08G11G13G14G15G18G20G22G27G30
 108356860.626 8  84433937.88448  20619617.440                    20619615.940
      -581.021        -452.743          49.900          50.000



 121260462.753 7  94488663.90147  23075101.040                    23075100.020
     -2672.300       -2082.314          46.600          47.000



 131838515.816 5 102731337.73045  25088031.720                    25088035.800
       826.281         643.859          34.650          33.900    98450866.443 7
  25088036.840         616.794          42.250


 135657678.268 5 105707306.26745  25814798.320                    25814804.400
     -3419.797       -2664.801          33.550          34.050   101302840.162 6
  25814808.980       -2553.718          41.250


 107576593.273 8  83825935.41047  20471135.140                    20471133.100
      1541.564        1201.219          51.700          47.950



 114885030.319 8  89520842.13447  21861875.740                    21861875.300
      2027.311        1579.724          48.850          46.550    85790849.285 8
  21861879.680        1513.846          51.050


 120026394.294 7  93527065.68147  22840257.640                    22840258.480
      3290.907        2564.345          45.550          42.800



 127781373.791 6  99569906.61746  24315984.040                    24315984.820
       869.071         677.198          40.350          40.500    95421181.465 7
  24315989.780         648.864          46.950


 112801976.121 8  87897635.26147  21465503.420                    21465500.500
     -2659.929       -2072.673          49.650          45.350



 118348583.315 7  92219706.40046  22520968.820                    22520968.060
      2794.877        2177.829          47.950          41.700



 133621908.756 5 104120979.55945  25427401.560                    25427403.960
      -801.361        -624.440          34.000          31.150    99782608.783 6
  25427404.980        -598.068          40.150


 111058883.597 8  86539401.42448  21133797.740                    21133797.800
     -1589.486       -1238.562          50.650          50.700    82933600.268 9
  21133798.840       -1187.088          55.300


