     2.11           OBSERVATION DATA    G (GPS)             RINEX VERSION / TYPE
teqc  2019Feb25                         20230913 22:02:29UTCPGM / RUN BY / DATE
Linux 2.6.32-573.12.1.x86_64|x86_64|gcc|Linux 64|=+         COMMENT
teqc  2019Feb25                         20230913 22:02:29UTCCOMMENT
     2.11           OBSERVATION DATA    M (MIXED)           COMMENT
teqc  2019Feb25     IGN-RGP             20230913 16:04:21UTCCOMMENT
teqc  2019Feb25     Administrateur RGP  20230913 16:04:21UTCCOMMENT
teqc  2019Feb25     IGN-RGP             20230913 16:04:20UTCCOMMENT
teqc  2019Feb25     IGN-RGP             20230913 16:04:20UTCCOMMENT
BIT 2 OF LLI FLAGS DATA COLLECTED UNDER A/S CONDITION       COMMENT
PANA                                                        MARKER NAME
10001M008                                                   MARKER NUMBER
Automatic           Lycee Dorian - Paris 11                 OBSERVER / AGENCY
1700671             LEICA GR10          2.00/4.007          REC # / TYPE / VERS
11311010            LEIAS10         NONE                    ANT # / TYPE
  4201030.6890   175603.7900  4780030.2470                  APPROX POSITION XYZ
        0.0000        0.0000        0.0000                  ANTENNA: DELTA H/E/N
     1     1                                                WAVELENGTH FACT L1/2
    21    L1    L2    C1    P1    P2    D1    D2    S1    S2# / TYPES OF OBSERV
          L5    C5    D5    S5    L7    C7    D7    S7    L8# / TYPES OF OBSERV
          C8    D8    S8                                    # / TYPES OF OBSERV
    30.0000                                                 INTERVAL
DefaultJobName                                              COMMENT
DefaultUserDiscription                                      COMMENT
Project creator:                                            COMMENT
 SNR is mapped to RINEX snr flag value [0-9]                COMMENT
  L1 & L2: min(max(int(snr_dBHz/6), 0), 9)                  COMMENT
    18                                                      LEAP SECONDS
Forced Modulo Decimation to 30 seconds                      COMMENT
teqc_2019 edited: all GLONASS satellites excluded           COMMENT
teqc_2019 edited: all SBAS satellites excluded              COMMENT
teqc_2019 edited: all Galileo satellites excluded           COMMENT
  2023     9    13    15     0    0.0000000     GPS         TIME OF FIRST OBS
                                                            END OF HEADER
 23  9 13 15  0  0.0000000  0  8G05G07G09G11G13G14G20G30
 111512773.407 8  86893068.979 7  21220169.260                    21220164.800
                                        49.700          46.200



 112486561.866 8  87651880.410 7  21405471.640                    21405466.340
                                        49.100          45.450



 125956824.799 7  98148190.915 7  23968783.620                    23968783.820
                                        43.400          43.500



 121647208.502 7  94790034.769 7  23148694.620                    23148691.240
                                        46.400          44.400



 116661930.339 7  90905392.49646  22200022.680                    22200017.560
                                        47.400          40.100



 126565833.860 7  98622734.786 7  24084673.980                    24084672.480
                                        44.100          42.700



 106636988.475 8  83093765.43447  20292338.600                    20292333.440
                                        49.400          47.150



 108545950.878 8  84581283.765 8  20655596.900                    20655594.420
                                        50.550          48.950



 23  9 13 15  0 30.0000000  0  8G05G07G09G11G13G14G20G30
 111453164.015 8  86846620.115 7  21208825.960                    21208821.480
                                        49.650          45.700



 112529598.888 8  87685415.729 7  21413661.320                    21413656.060
                                        49.200          44.850



 126051322.591 7  98221825.439 7  23986766.080                    23986766.300
                                        43.900          42.900



 121739935.784 7  94862289.728 7  23166340.160                    23166336.740
                                        46.200          44.600



 116578321.393 7  90840242.68446  22184112.380                    22184107.320
                                        47.350          40.250



 126465024.991 7  98544182.508 6  24065490.640                    24065489.100
                                        43.250          41.450



 106643994.312 8  83099224.51847  20293671.780                    20293666.600
                                        49.250          47.150



 108532027.249 8  84570434.196 8  20652947.320                    20652944.840
                                        50.550          48.700



 23  9 13 15  1  0.0000000  0  8G05G07G09G11G13G14G20G30
 111394017.046 8  86800531.568 7  21197570.680                    21197566.180
                                        49.650          46.200



 112573022.742 8  87719252.484 7  21421924.620                    21421919.360
                                        49.250          45.050



 126145914.922 7  98295533.616 7  24004766.520                    24004766.780
                                        43.900          43.300



 121832945.949 7  94934765.127 7  23184039.500                    23184036.060
                                        45.900          45.350



 116494929.745 7  90775262.20846  22168243.440                    22168238.420
                                        47.750          40.150



 126364319.911 7  98465711.097 7  24046327.060                    24046325.440
                                        43.050          42.100



 106651582.441 8  83105137.33447  20295115.780                    20295110.580
                                        49.550          47.350



 108518611.362 8  84559980.264 8  20650394.360                    20650391.880
                                        50.500          48.700



 23  9 13 15  1 30.0000000  0  8G05G07G09G11G13G14G20G30
 111335326.167 8  86754798.427 7  21186402.160                    21186397.660
                                        49.550          46.550



 112616824.014 8  87753383.337 7  21430259.740                    21430254.480
                                        49.250          44.550



 126240592.915 7  98369308.579 7  24022783.260                    24022783.500
                                        43.650          42.400



 121926227.834 7  95007452.218 7  23201790.560                    23201787.140
                                        45.400          45.350



 116411748.668 7  90710445.80346  22152414.580                    22152409.620
                                        47.150          40.750



 126263713.337 7  98387316.495 7  24027182.180                    24027180.460
                                        42.400          43.200



 106659745.251 8  83111497.95447  20296669.140                    20296663.920
                                        49.300          46.900



 108505694.863 8  84549915.466 8  20647936.420                    20647933.940
                                        50.400          48.750



 23  9 13 15  2  0.0000000  0  8G05G07G09G11G13G14G20G30
 111277097.649 8  86709425.560 7  21175321.660                    21175317.120
                                        49.350          46.650



 112661005.260 8  87787810.272 7  21438667.160                    21438661.900
                                        49.150          44.750



 126335359.731 7  98443152.747 7  24040816.900                    24040817.160
                                        42.550          42.650



 122019782.316 7  95080351.734 7  23219593.460                    23219590.060
                                        43.750          45.200



 116328783.070 7  90645797.33046  22136626.700                    22136621.780
                                        46.550          41.250



 126163212.081 6  98309003.957 7  24008057.320                    24008055.540
                                        41.350          43.500



 106668486.837 8  83118309.57447  20298332.640                    20298327.380
                                        48.950          47.250



 108493281.549 8  84540242.767 8  20645574.240                    20645571.760
                                        50.300          48.850



 23  9 13 15  2 30.0000000  0  8G05G07G09G11G13G14G20G30
 111219333.598 8  86664414.638 7  21164329.500                    21164324.980
                                        49.500          47.100



 112705564.876 8  87822532.032 7  21447146.580                    21447141.320
                                        49.100          44.750



 126430214.511 7  98517065.432 7  24058867.280                    24058867.560
                                        43.050          42.700



 122113606.198 7  95153461.174 7  23237447.600                    23237444.280
                                        43.300          45.700



 116246033.679 7  90581317.31646  22120879.960                    22120875.100
                                        47.150          40.700



 126062819.030 6  98230775.737 7  23988953.000                    23988951.220
                                        41.850          42.900



 106677807.239 8  83125572.21047  20300106.280                    20300101.000
                                        48.900          47.600



 108481371.146 8  84530961.932 8  20643307.780                    20643305.300
                                        50.200          48.950



 23  9 13 15  3  0.0000000  0  8G05G07G09G11G13G14G20G30
 111162036.653 8  86619767.691 7  21153426.240                    21153421.720
                                        49.350          47.350



 112750501.454 8  87857547.533 7  21455697.720                    21455692.460
                                        48.850          45.100



 126525156.606 6  98591046.168 7  24076934.260                    24076934.580
                                        41.850          42.200



 122207696.538 7  95226778.227 7  23255352.420                    23255349.180
                                        42.200          45.750



 116163501.573 7  90517006.60346  22105174.600                    22105169.800
                                        47.250          41.250



 125962537.036 7  98152634.040 7  23969869.820                    23969868.040
                                        43.250          43.150



 106687707.000 8  83133286.29847  20301990.140                    20301984.880
                                        49.000          47.400



 108469963.549 8  84522072.896 8  20641136.980                    20641134.500
                                        50.250          48.850



 23  9 13 15  3 30.0000000  0  8G05G07G09G11G13G14G20G30
 111105208.849 8  86575486.293 7  21142612.260                    21142607.780
                                        49.450          47.300



 112795812.858 8  87892855.098 7  21464320.200                    21464314.960
                                        48.950          45.200



 126620185.181 7  98665094.263 6  24095017.680                    24095018.060
                                        42.200          41.900



 122302050.075 7  95300300.385 7  23273307.300                    23273304.160
                                        43.300          45.050



 116081187.481 7  90452865.76646  22089510.740                    22089505.980
                                        46.700          41.850



 125862369.186 7  98074581.241 7  23950808.400                    23950806.620
                                        44.150          43.250



 106698186.190 8  83141451.88847  20303984.280                    20303979.020
                                        49.250          47.300



 108459058.475 8  84513575.432 8  20639061.820                    20639059.340
                                        50.500          48.850



 23  9 13 15  4  0.0000000  0  8G05G07G09G11G13G14G20G30
 111048850.470 8  86531570.675 7  21131887.620                    21131883.180
                                        49.850          47.150



 112841496.347 8  87928452.608 7  21473013.480                    21473008.260
                                        49.250          45.550



 126715297.931 7  98739207.981 6  24113117.100                    24113117.520
                                        43.250          41.450



 122396662.398 7  95374024.177 7  23291311.440                    23291308.360
                                        44.700          45.050



 115999090.584 7  90388894.19146  22073888.180                    22073883.480
                                        46.750          41.300



 125762316.803 7  97996618.460 7  23931768.960                    23931767.140
                                        43.900          43.950



 106709243.557 8  83150068.00447  20306088.440                    20306083.180
                                        49.350          47.400



 108448654.222 8  84505468.220 8  20637081.960                    20637079.500
                                        50.400          48.800



 23  9 13 15  4 30.0000000  0  8G05G07G09G11G13G14G20G30
 110992965.225 8  86488023.743 7  21121253.020                    21121248.600
                                        49.700          47.100



 112887550.782 8  87964339.164 7  21481777.340                    21481772.160
                                        49.300          45.450



 126810494.588 7  98813387.092 6  24131232.460                    24131232.920
                                        42.550          41.550



 122491530.757 7  95447947.521 7  23309364.300                    23309361.260
                                        45.900          43.850



 115917212.491 7  90325093.11646  22058307.240                    22058302.620
                                        47.200          40.900



 125662383.249 6  97918748.300 7  23912752.120                    23912750.260
                                        41.500          44.150



 106720879.674 8  83159135.09447  20308302.740                    20308297.480
                                        49.400          47.250



 108438750.969 8  84497751.401 8  20635197.420                    20635194.960
                                        50.300          48.700



 23  9 13 15  5  0.0000000  0  8G05G07G09G11G13G14G20G30
 110937554.413 8  86444846.491 7  21110708.700                    21110704.300
                                        49.600          47.000



 112933975.628 8  88000514.357 7  21490611.680                    21490606.560
                                        49.300          45.400



 126905774.813 7  98887631.305 6  24149363.760                    24149364.240
                                        42.900          41.700



 122586652.567 7  95522068.360 7  23327465.420                    23327462.360
                                        45.650          43.200



 115835554.506 7  90261463.53746  22042768.220                    22042763.680
                                        47.500          40.700



 125562571.811 6  97840973.342 7  23893758.480                    23893756.580
                                        40.650          44.200



 106733095.306 8  83168653.76447  20310627.300                    20310622.040
                                        49.300          47.150



 108429348.925 8  84490425.141 8  20633408.260                    20633405.800
                                        50.350          48.550



 23  9 13 15  5 30.0000000  0  8G05G07G09G11G13G14G20G30
 110882623.080 8  86402042.872 7  21100255.620                    21100251.220
                                        49.400          47.300



 112980771.343 8  88036978.534 7  21499516.620                    21499511.520
                                        49.250          45.300



 127001140.638 7  98961942.196 6  24167511.360                    24167511.900
                                        43.250          41.700



 122682027.556 7  95596386.499 7  23345614.720                    23345611.640
                                        45.700          44.150



 115754120.243 7  90198008.30046  22027271.760                    22027267.280
                                        47.400          39.250



 125462888.363 7  97763298.083 7  23874789.180                    23874787.320
                                        43.050          43.150



 106745893.241 8  83178626.16547  20313062.680                    20313057.440
                                        49.300          47.200



 108420450.626 8  84483491.406 8  20631714.960                    20631712.500
                                        50.450          48.750



 23  9 13 15  6  0.0000000  0  8G05G07G09G11G13G14G20G30
 110828168.889 8  86359611.047 7  21089893.340                    21089888.940
                                        49.800          46.950



 113027932.486 8  88073727.455 7  21508491.120                    21508486.020
                                        49.650          45.650



 127096587.298 7  99036316.110 7  24185674.340                    24185674.900
                                        43.200          42.550



 122777648.573 7  95670896.325 7  23363810.860                    23363807.760
                                        44.800          44.350



 115672906.699 7  90134725.04246  22011817.320                    22011812.860
                                        47.250          40.600



 125363331.798 7  97685721.676 6  23855844.040                    23855842.200
                                        44.150          41.600



 106759269.401 8  83189049.12747  20315608.100                    20315602.860
                                        49.000          47.100



 108412051.689 8  84476946.786 8  20630116.680                    20630114.220
                                        50.600          48.950



 23  9 13 15  6 30.0000000  0  8G05G07G09G11G13G14G20G30
 110774196.643 8  86317554.759 7  21079622.760                    21079618.360
                                        49.550          46.650



 113075458.961 8  88110761.036 7  21517535.140                    21517530.060
                                        49.550          45.900



 127192115.348 7  99110753.382 7  24203852.860                    24203853.500
                                        43.100          43.350



 122873513.881 7  95745596.462 7  23382053.500                    23382050.420
                                        45.050          43.950



 115591915.924 7  90071615.35446  21996405.280                    21996400.820
                                        47.400          40.700



 125263906.311 7  97608247.347 7  23836923.920                    23836922.060
                                        44.100          42.850



 106773225.364 8  83199923.87947  20318263.840                    20318258.620
                                        49.150          47.250



 108404153.181 8  84470792.098 8  20628613.640                    20628611.200
                                        50.600          49.250



 23  9 13 15  7  0.0000000  0  8G05G07G09G11G13G14G20G30
 110720709.168 8  86275876.226 7  21069444.420                    21069440.000
                                        49.600          46.650



 113123350.984 8  88148079.471 7  21526648.720                    21526643.640
                                        49.300          45.850



 127287725.665 7  99185254.762 7  24222047.060                    24222047.760
                                        43.150          43.050



 122969621.911 7  95820485.765 7  23400342.280                    23400339.180
                                        44.850          44.200



 115511150.464 7  90008681.24746  21981036.100                    21981031.660
                                        47.950          40.950



 125164616.376 7  97530878.699 7  23818029.560                    23818027.640
                                        42.250          44.150



 106787763.054 8  83211251.94247  20321030.260                    20321025.060
                                        49.050          46.750



 108396756.341 8  84465028.333 8  20627206.080                    20627203.640
                                        50.900          49.300



 23  9 13 15  7 30.0000000  0  8G05G07G09G11G13G14G20G30
 110667707.953 8  86234576.598 7  21059358.620                    21059354.180
                                        49.800          46.650



 113171606.272 8  88185680.980 7  21535831.420                    21535826.360
                                        49.150          45.700



 127383416.501 7  99259818.916 7  24240256.540                    24240257.320
                                        42.800          42.400



 123065968.658 7  95895561.064 7  23418676.520                    23418673.420
                                        44.500          44.500



 115430610.456 7  89945922.82646  21965709.840                    21965705.380
                                        47.550          40.200



 125065463.949 7  97453617.268 7  23799161.300                    23799159.360
                                        42.300          44.800



 106802881.345 8  83223032.41347  20323907.180                    20323901.980
                                        48.850          46.650



 108389859.898 8  84459654.483 8  20625893.740                    20625891.320
                                        50.900          48.900



 23  9 13 15  8  0.0000000  0  8G05G07G09G11G13G14G20G30
 110615194.525 8  86193657.048 7  21049365.660                    21049361.180
                                        49.850          46.350



 113220222.155 8  88223563.466 7  21545082.740                    21545077.700
                                        49.250          45.800



 127479187.160 7  99334445.289 7  24258481.220                    24258482.040
                                        42.750          42.250



 123162551.016 7  95970819.977 7  23437055.580                    23437052.480
                                        44.150          44.600



 115350296.679 7  89883340.69946  21950426.620                    21950422.160
                                        46.850          40.300



 124966452.025 7  97376465.308 7  23780319.780                    23780317.840
                                        44.350          44.600



 106818580.033 8  83235265.15347  20326894.520                    20326889.340
                                        49.100          46.550



 108383463.479 8  84454670.269 8  20624676.560                    20624674.120
                                        50.850          48.750



 23  9 13 15  8 30.0000000  0  8G05G07G09G11G13G14G20G30
 110563170.478 8  86153118.840 7  21039465.820                    21039461.320
                                        49.550          46.350



 113269196.842 8  88261725.534 7  21554402.320                    21554397.320
                                        49.150          45.900



 127575035.814 7  99409132.430 6  24276720.740                    24276721.580
                                        42.850          41.900



 123259364.839 7  96046259.233 7  23455478.700                    23455475.600
                                        42.950          44.100



 115270208.756 7  89820934.55046  21935186.360                    21935181.900
                                        47.500          39.750



 124867582.506 7  97299424.251 7  23761505.440                    23761503.520
                                        45.300          44.900



 106834858.330 8  83247949.52447  20329992.180                    20329987.000
                                        48.900          46.900



 108377565.661 8  84450074.568 8  20623554.280                    20623551.820
                                        50.700          48.750



 23  9 13 15  9  0.0000000  0  8G05G07G09G11G13G14G20G30
 110511637.842 8  86112963.551 7  21029659.480                    21029654.980
                                        49.500          46.500



 113318528.787 8  88300165.985 7  21563789.900                    21563784.920
                                        49.050          45.650



 127670961.960 7  99483879.959 6  24294975.020                    24294975.840
                                        42.850          41.800



 123356407.254 7  96121876.603 7  23473945.300                    23473942.200
                                        43.750          44.000



 115190348.135 7  89758705.51346  21919989.340                    21919984.900
                                        47.600          40.650



 124768858.530 7  97222496.586 7  23742718.820                    23742716.900
                                        44.800          43.950



 106851716.316 8  83261085.60547  20333200.140                    20333194.980
                                        49.000          47.200



 108372166.340 8  84445867.310 8  20622526.840                    20622524.360
                                        50.550          48.900



 23  9 13 15  9 30.0000000  0  8G05G07G09G11G13G14G20G30
 110460598.768 8  86073192.854 7  21019947.060                    21019942.540
                                        49.550          46.550



 113368216.409 8  88338883.583 7  21573245.160                    21573240.220
                                        49.200          45.700



 127766964.744 7  99558687.219 6  24313243.900                    24313244.660
                                        43.200          41.600



 123453675.104 7  96197669.645 7  23492454.800                    23492451.740
                                        43.100          44.100



 115110715.238 7  89696653.93546  21904835.660                    21904831.220
                                        47.800          40.400



 124670282.932 7  97145684.522 7  23723960.460                    23723958.520
                                        42.550          43.600



 106869154.005 8  83274673.40947  20336518.420                    20336513.280
                                        49.000          47.350



 108367264.979 8  84442048.079 8  20621594.140                    20621591.640
                                        50.250          48.850



 23  9 13 15 10  0.0000000  0  8G05G07G09G11G13G14G20G30
 110410057.200 8  86033809.816 7  21010329.320                    21010324.800
                                        49.700          46.200



 113418260.366 8  88377878.840 7  21582768.240                    21582763.320
                                        49.450          45.550



 127863045.832 7  99633555.490 6  24331527.680                    24331528.380
                                        42.450          41.150



 123551167.620 7  96273637.758 7  23511007.020                    23511004.020
                                        43.400          43.950



 115031313.593 8  89634782.54746  21889726.000                    21889721.520
                                        48.100          40.200



 124571861.010 7  97068992.288 7  23705231.280                    23705229.280
                                        43.100          44.600



 106887173.548 8  83288714.60147  20339947.420                    20339942.300
                                        49.250          47.350



 108362863.574 8  84438618.417 8  20620756.560                    20620754.100
                                        50.450          48.800



 23  9 13 15 10 30.0000000  0  8G05G07G09G11G13G14G20G30
 110360014.585 8  85994815.579 7  21000806.500                    21000802.000
                                        50.150          46.350



 113468658.637 8  88417150.199 7  21592358.740                    21592353.820
                                        49.400          45.900



 127959203.924 6  99708483.757 7  24349826.100                    24349826.740
                                        41.800          42.300



 123648881.169 7  96349778.105 7  23529601.300                    23529598.360
                                        43.650          44.250



 114952143.765 7  89573091.80446  21874660.460                    21874655.940
                                        47.000          41.050



 124473595.184 7  96992421.653 7  23686531.800                    23686529.800
                                        44.200          44.350



 106905774.498 8  83303208.84147  20343487.060                    20343481.960
                                        49.300          47.250



 108358961.106 8  84435577.531 8  20620013.940                    20620011.480
                                        50.800          49.000



 23  9 13 15 11  0.0000000  0  8G05G07G09G11G13G14G20G30
 110310474.507 8  85956212.925 7  20991379.340                    20991374.820
                                        49.850          46.700



 113519409.993 8  88456696.690 7  21602016.420                    21602011.520
                                        49.200          45.800



 128055438.928 6  99783471.951 7  24368139.140                    24368139.760
                                        41.400          42.850



 123746813.256 7  96426088.751 7  23548237.160                    23548234.260
                                        43.100          44.250



 114873206.773 7  89511582.51146  21859639.180                    21859634.640
                                        46.300          41.150



 124375489.153 7  96915975.465 7  23667862.800                    23667860.780
                                        44.700          45.200



 106924957.235 8  83318156.40847  20347137.440                    20347132.340
                                        49.300          47.100



 108355557.819 8  84432925.619 8  20619366.300                    20619363.840
                                        50.650          49.150



 23  9 13 15 11 30.0000000  0  8G05G07G09G11G13G14G20G30
 110261434.884 8  85918000.244 7  20982047.400                    20982042.880
                                        50.000          46.750



 113570509.128 8  88496514.177 7  21611740.280                    21611735.380
                                        49.300          45.550



 128151746.413 6  99858516.614 7  24386465.940                    24386466.600
                                        40.600          42.500



 123844957.168 7  96502564.438 7  23566913.360                    23566910.520
                                        42.800          44.700



 114794500.378 7  89450252.89646  21844661.760                    21844657.260
                                        47.700          40.300



 124277541.966 7  96839653.077 7  23649224.020                    23649221.980
                                        43.750          44.650



 106944718.147 8  83333554.50147  20350897.840                    20350892.720
                                        49.550          46.900



 108352649.556 8  84430659.440 8  20618812.860                    20618810.420
                                        50.800          48.850



 23  9 13 15 12  0.0000000  0  8G05G07G09G11G13G14G20G30
 110212898.913 8  85880180.005 7  20972811.320                    20972806.800
                                        49.900          46.500



 113621956.288 8  88536602.850 7  21621530.360                    21621525.500
                                        49.350          45.100



 128248127.088 6  99933618.305 7  24404806.640                    24404807.360
                                        40.800          42.400



 123943311.192 7  96579203.841 7  23585629.560                    23585626.760
                                        43.250          44.050



 114716026.894 8  89389104.73246  21829728.700                    21829724.240
                                        48.000          39.850



 124179758.094 6  96763457.937 7  23630616.300                    23630614.260
                                        40.950          43.950



 106965058.300 8  83349403.95447  20354768.460                    20354763.340
                                        49.650          47.100



 108350237.256 8  84428779.734 8  20618353.800                    20618351.380
                                        50.900          48.650



 23  9 13 15 12 30.0000000  0  8G05G07G09G11G13G14G20G30
 110164868.659 8  85842753.843 7  20963671.460                    20963666.940
                                        49.950          46.750



 113673749.576 8  88576961.240 7  21631386.320                    21631381.460
                                        49.050          45.250



 128344580.373 6 100008776.564 7  24423161.160                    24423161.980
                                        40.150          42.400



 124041872.283 7  96656004.610 7  23604385.160                    23604382.400
                                        43.950          44.200



 114637786.810 7  89328138.44746  21814840.080                    21814835.640
                                        47.750          40.150



 124082140.542 7  96687392.437 7  23612040.160                    23612038.160
                                        42.850          44.600



 106985977.627 8  83365704.74347  20358749.280                    20358744.160
                                        49.250          47.450



 108348320.537 8  84427286.185 8  20617989.080                    20617986.640
                                        50.750          48.900



 23  9 13 15 13  0.0000000  0  8G05G07G09G11G13G14G20G30
 110117344.013 8  85805721.655 7  20954627.820                    20954623.300
                                        50.000          46.400



 113725885.100 8  88617586.300 7  21641307.400                    21641302.560
                                        49.300          45.050



 128441103.209 6 100083988.998 7  24441528.880                    24441529.860
                                        40.500          42.400



 124140635.117 7  96732962.554 7  23623179.180                    23623176.440
                                        42.850          42.950



 114559779.045 7  89267353.18446  21799995.680                    21799991.220
                                        47.250          38.850



 123984690.135 7  96611457.106 7  23593495.880                    23593493.940
                                        44.100          45.200



 107007473.772 8  83382454.95747  20362839.900                    20362834.800
                                        49.300          46.500



 108346896.698 8  84426176.694 8  20617718.140                    20617715.700
                                        50.550          48.650



 23  9 13 15 13 30.0000000  0  8G05G07G09G11G13G14G20G30
 110070330.600 8  85769087.837 7  20945681.460                    20945676.940
                                        49.950          46.350



 113778364.864 8  88658479.608 7  21651293.980                    21651289.140
                                        49.350          45.250



 128537698.363 6 100159257.805 7  24459910.360                    24459911.460
                                        40.700          42.450



 124239600.142 7  96810078.053 7  23642011.680                    23642008.960
                                        43.250          42.700



 114482007.973 7  89206752.37146  21785196.300                    21785191.820
                                        47.350          40.150



 123887413.235 7  96535657.012 7  23574984.620                    23574982.700
                                        45.750          46.200



 107029549.974 8  83399657.16247  20367040.900                    20367035.780
                                        49.250          46.400



 108345968.635 8  84425453.540 8  20617541.520                    20617539.060
                                        50.500          48.400



 23  9 13 15 14  0.0000000  0  8G05G07G09G11G13G14G20G30
 110023825.491 8  85732850.100 7  20936831.840                    20936827.280
                                        49.700          46.300



 113831183.360 8  88699636.863 7  21661345.040                    21661340.180
                                        49.350          45.550



 128634360.699 6 100234578.957 7  24478304.640                    24478305.840
                                        41.350          42.400



 124338759.695 7  96887345.163 6  23660881.160                    23660878.420
                                        43.200          41.100



 114404470.111 8  89146333.28346  21770441.300                    21770436.800
                                        48.350          39.800



 123790308.238 7  96459990.850 7  23556506.100                    23556504.200
                                        44.550          45.750



 107052201.626 8  83417307.78147  20371351.380                    20371346.220
                                        49.500          46.700



 108345531.414 8  84425112.860 8  20617458.300                    20617455.840
                                        50.750          48.550



 23  9 13 15 14 30.0000000  0  8G05G07G09G11G13G14G20G30
 109977834.971 8  85697013.333 7  20928080.120                    20928075.540
                                        49.600          46.550



 113884341.604 8  88741058.830 7  21671460.740                    21671455.920
                                        48.900          45.700



 128731093.203 6 100309954.803 7  24496712.280                    24496713.560
                                        41.700          42.750



 124438114.522 7  96964764.395 6  23679787.860                    23679785.040
                                        43.050          40.750



 114327170.182 8  89086099.57646  21755731.620                    21755727.080
                                        48.300          40.150



 123693381.965 7  96384463.956 7  23538061.620                    23538059.700
                                        44.100          46.200



 107075432.169 8  83435409.48547  20375772.020                    20375766.860
                                        49.150          47.650



 108345588.244 8  84425157.144 8  20617469.120                    20617466.640
                                        50.850          48.400



 23  9 13 15 15  0.0000000  0  8G05G07G09G11G13G14G20G30
 109932360.287 8  85661578.528 7  20919426.560                    20919421.960
                                        49.500          47.150



 113937838.719 8  88782744.872 7  21681640.920                    21681636.120
                                        48.650          45.650



 128827895.507 7 100385385.043 7  24515133.240                    24515134.560
                                        42.350          42.550



 124537661.699 7  97042333.556 6  23698731.120                    23698728.240
                                        43.300          41.850



 114250109.456 8  89026052.27746  21741067.440                    21741062.860
                                        48.200          40.350



 123596637.592 7  96309078.825 7  23519651.720                    23519649.800
                                        45.050          45.200



 107099241.456 8  83453962.17347  20380302.760                    20380297.660
                                        49.200          46.850



 108346138.830 8  84425586.176 8  20617573.900                    20617571.380
                                        50.600          48.300



 23  9 13 15 15 30.0000000  0  8G05G07G09G11G13G14G20G30
 109887400.472 8  85626544.911 7  20910870.960                    20910866.380
                                        49.700          47.150



 113991669.983 8  88824691.283 7  21691884.680                    21691879.920
                                        48.600          45.550



 128924763.797 7 100460866.685 7  24533566.800                    24533568.120
                                        42.600          43.000



 124637395.092 7  97120047.804 7  23717709.840                    23717706.880
                                        43.750          42.000



 114173285.425 8  88966189.41746  21726448.320                    21726443.700
                                        48.300          40.750



 123500075.102 7  96233835.368 7  23501276.480                    23501274.560
                                        45.100          45.200



 107123626.423 8  83472963.42647  20384943.060                    20384938.000
                                        49.100          46.250



 108347179.535 8  84426397.115 8  20617771.940                    20617769.380
                                        50.400          48.650



 23  9 13 15 16  0.0000000  0  8G05G07G09G11G13G14G20G30
 109842962.412 8  85591917.862 7  20902414.660                    20902410.080
                                        49.650          46.950



 114045838.707 8  88866900.660 7  21702192.660                    21702187.920
                                        48.650          45.300



 129021701.967 7 100536402.781 7  24552013.700                    24552014.980
                                        42.050          42.650



 124737316.249 7  97197908.358 7  23736724.300                    23736721.320
                                        43.250          42.650



 114096703.465 8  88906515.18446  21711875.280                    21711870.600
                                        48.600          41.100



 123403702.005 7  96158739.504 7  23482937.260                    23482935.320
                                        45.650          43.550



 107148591.223 8  83492416.48947  20389693.700                    20389688.660
                                        48.950          45.950



 108348714.412 8  84427593.123 8  20618064.000                    20618061.460
                                        50.350          48.800



 23  9 13 15 16 30.0000000  0  8G05G07G09G11G13G14G20G30
 109799047.037 8  85557698.104 7  20894057.820                    20894053.240
                                        49.900          46.800



 114100341.991 8  88909370.730 7  21712564.300                    21712559.600
                                        49.000          44.900



 129118708.261 7 100611991.941 6  24570473.560                    24570474.800
                                        42.200          41.950



 124837420.991 7  97275911.957 7  23755773.680                    23755770.700
                                        44.100          42.800



 114020363.827 8  88847029.77946  21697348.340                    21697343.620
                                        48.550          40.800



 123307520.197 7  96083792.674 7  23464634.480                    23464632.460
                                        44.900          44.750



 107174134.463 8  83512320.27147  20394554.420                    20394549.360
                                        49.050          46.200



 108350741.802 8  84429172.903 8  20618449.800                    20618447.260
                                        50.700          48.950



 23  9 13 15 17  0.0000000  0  8G05G07G09G11G13G14G20G30
 109755655.392 8  85523886.444 7  20885800.660                    20885796.080
                                        49.750          47.050



 114155177.490 8  88952099.674 7  21722999.140                    21722994.460
                                        48.950          45.050



 129215781.037 6 100687632.936 6  24588946.060                    24588947.200
                                        41.650          41.650



 124937705.331 7  97354055.500 7  23774857.240                    23774854.260
                                        44.300          43.050



 113944266.654 7  88787733.29946  21682867.560                    21682862.780
                                        47.700          41.050



 123211531.675 7  96008996.513 7  23446368.420                    23446366.340
                                        44.900          44.950



 107200254.759 8  83532673.74247  20399524.940                    20399519.840
                                        48.800          46.900



 108353260.155 8  84431135.252 8  20618929.020                    20618926.500
                                        50.750          48.850



 23  9 13 15 17 30.0000000  0  8G05G07G09G11G13G14G20G30
 109712793.292 8  85490487.413 7  20877644.260                    20877639.680
                                        49.700          46.900



 114210347.582 8  88995089.334 7  21733497.680                    21733493.000
                                        49.150          45.000



 129312923.967 6 100763328.609 6  24607431.840                    24607432.940
                                        41.300          41.650



 125038170.458 7  97432339.941 7  23793975.200                    23793972.220
                                        44.000          43.400



 113868416.718 7  88728629.48746  21668433.800                    21668428.980
                                        47.600          41.200



 123115743.708 7  95934356.633 7  23428140.520                    23428138.380
                                        44.950          45.700



 107226956.201 8  83553480.06147  20404606.020                    20404600.940
                                        48.750          47.650



 108356273.232 8  84433483.102 8  20619502.400                    20619499.900
                                        50.800          48.750



 23  9 13 15 18  0.0000000  0  9G05G07G09G11G13G14G20G22G30
 109670455.747 8  85457497.133 7  20869587.700                    20869583.080
                                        49.750          46.950



 114265842.974 8  89038332.476 7  21744058.140                    21744053.420
                                        48.850          44.950



 129410128.802 6 100839072.495 6  24625929.420                    24625930.480
                                        41.800          41.800



 125138805.770 7  97510756.991 7  23813125.540                    23813122.560
                                        43.000          42.750



 113792807.625 8  88669713.34846  21654045.860                    21654041.020
                                        48.000          41.750



 123020151.799 7  95859869.515 7  23409949.920                    23409947.740
                                        43.850          45.400



 107254230.784 8  83574732.97847  20409796.180                    20409791.160
                                        49.250          47.650



 128063969.866 6  99790115.75245  24369763.060                    24369761.280
                                        41.050          32.600



 108359772.812 8  84436210.048 8  20620168.360                    20620165.860
                                        50.750          48.650



 23  9 13 15 18 30.0000000  0  9G05G07G09G11G13G14G20G22G30
 109628647.644 8  85424919.400 7  20861631.860                    20861627.240
                                        49.750          47.300



 114321666.126 8  89081831.013 7  21754680.960                    21754676.220
                                        48.650          45.000



 129507398.694 7 100914867.075 7  24644439.360                    24644440.400
                                        42.050          42.450



 125239612.090 7  97589307.246 7  23832308.460                    23832305.480
                                        42.850          42.700



 113717444.118 8  88610988.56047  21639704.640                    21639699.800
                                        48.750          42.000



 122924762.705 7  95785540.422 7  23391797.900                    23391795.720
                                        44.150          45.350



 107282081.928 8  83596435.15047  20415096.080                    20415091.120
                                        49.250          47.400



 127960594.446 6  99709563.58146  24350091.360                    24350089.740
                                        39.750          36.900



 108363762.130 8  84439318.599 8  20620927.540                    20620925.000
                                        50.650          48.650



 23  9 13 15 19  0.0000000  0  9G05G07G09G11G13G14G20G22G30
 109587369.182 7  85392754.372 7  20853776.820                    20853772.220
                                        46.500          43.150



 114377813.295 7  89125582.066 7  21765365.420                    21765360.620
                                        46.950          43.150



 129604730.874 6 100990710.184 6  24662961.140                    24662962.220
                                        39.900          40.950



 125340584.265 6  97667986.748 7  23851522.900                    23851519.920
                                        38.150          42.050



 113642325.433 7  88552454.55646  21625410.020                    21625405.180
                                        45.700          36.200



 122829577.239 6  95711370.080 7  23373684.580                    23373682.380
                                        41.700          43.900



 107310507.200 7  83618584.69947  20420505.240                    20420500.300
                                        46.150          44.150



 127857267.043 6  99629048.84245  24330428.720                    24330426.720
                                        41.750          30.900



 108368238.614 8  84442806.770 7  20621779.400                    20621776.820
                                        48.550          46.050



 23  9 13 15 19 30.0000000  0  8G05G07G11G13G14G20G22G30
 109546622.736 8  85361003.887 7  20846023.040                    20846018.440
                                        49.950          46.850



 114434283.890 8  89169585.058 7  21776111.500                    21776106.660
                                        48.650          45.300



 125441720.232 6  97746793.857 7  23870768.520                    23870765.580
                                        41.350          43.100



 113567452.815 8  88494112.26946  21611162.240                    21611157.400
                                        48.350          41.750



 122734599.748 7  95637361.636 7  23355610.960                    23355608.800
                                        45.400          45.650



 107339507.156 8  83641182.02347  20426023.800                    20426018.880
                                        49.350          46.850



 127753991.827 6  99548574.72045  24310776.020                    24310774.240
                                        39.250          30.750



 108373202.286 8  84446674.544 8  20622723.960                    20622721.380
                                        50.350          48.750



 23  9 13 15 20  0.0000000  0  8G05G07G11G13G14G20G22G30
 109506405.573 8  85329665.837 7  20838369.980                    20838365.380
                                        49.750          47.100



 114491071.614 8  89213835.208 7  21786917.880                    21786913.020
                                        48.950          45.650



 125543012.131 6  97825722.501 7  23890043.760                    23890040.860
                                        41.950          44.150



 113492822.937 8  88435959.13846  21596960.640                    21596955.800
                                        48.400          41.100



 122639828.100 7  95563513.664 7  23337576.460                    23337574.300
                                        45.700          45.750



 107369076.544 8  83664223.08547  20431650.680                    20431645.760
                                        49.350          46.850



 127650766.758 6  99468139.78245  24291132.720                    24291131.220
                                        40.300          34.750



 108378648.051 8  84450917.991 8  20623760.260                    20623757.680
                                        50.400          48.900



 23  9 13 15 20 30.0000000  0  8G05G07G11G13G14G20G22G30
 109466726.845 8  85298747.351 7  20830819.360                    20830814.780
                                        49.900          46.950



 114548181.503 8  89258336.391 7  21797785.560                    21797780.680
                                        48.900          45.350



 125644463.746 7  97904775.610 7  23909349.400                    23909346.540
                                        42.650          43.700



 113418443.368 8  88378001.03846  21582806.680                    21582801.840
                                        48.650          40.650



 122545272.221 7  95489833.814 7  23319583.020                    23319580.880
                                        44.650          45.450



 107399221.592 8  83687712.70647  20437387.120                    20437382.200
                                        49.250          47.100



 127547601.371 6  99387751.29546  24271500.800                    24271499.560
                                        40.250          37.000



 108384581.940 8  84455541.811 8  20624889.420                    20624886.840
                                        50.600          48.900



 23  9 13 15 21  0.0000000  0  8G05G07G11G13G14G20G22G30
 109427585.197 8  85268247.376 7  20823370.940                    20823366.360
                                        50.000          47.000



 114605609.494 8  89303085.451 7  21808713.780                    21808708.880
                                        48.800          44.950



 125746069.413 7  97983948.742 7  23928684.400                    23928681.560
                                        42.300          43.650



 113344312.432 8  88320236.67546  21568700.040                    21568695.160
                                        48.150          40.050



 122450932.466 7  95416322.380 7  23301630.720                    23301628.580
                                        44.700          45.300



 107429939.411 8  83711648.65247  20443232.560                    20443227.620
                                        49.550          47.150



 127444496.332 6  99307409.86646  24251880.380                    24251879.280
                                        39.850          37.250



 108391000.663 8  84460543.416 8  20626110.840                    20626108.280
                                        50.750          48.950



 23  9 13 15 21 30.0000000  0  8G05G07G11G13G14G20G22G30
 109388985.413 8  85238169.629 7  20816025.640                    20816021.060
                                        49.950          47.000



 114663357.253 8  89348083.676 7  21819702.840                    21819697.940
                                        48.700          44.950



 125847829.407 7  98063242.127 7  23948048.780                    23948045.940
                                        42.000          42.350



 113270434.808 8  88262669.70746  21554641.580                    21554636.680
                                        48.100          40.850



 122356815.151 7  95342984.270 7  23283720.740                    23283718.620
                                        45.050          45.200



 107461232.545 8  83736032.89047  20449187.480                    20449182.540
                                        49.800          47.000



 127341457.762 6  99227120.25146  24232272.580                    24232271.600
                                        41.600          37.850



 108397906.849 8  84465924.851 8  20627425.060                    20627422.520
                                        50.800          49.150



 23  9 13 15 22  0.0000000  0  8G05G07G11G13G14G20G22G30
 109350926.166 8  85208513.074 7  20808783.200                    20808778.620
                                        50.000          46.900



 114721419.488 8  89393326.955 7  21830751.720                    21830746.820
                                        48.900          44.850



 125949736.860 7  98142650.420 7  23967441.220                    23967438.380
                                        43.050          42.950



 113196806.965 8  88205297.39946  21540630.620                    21540625.700
                                        48.100          40.400



 122262919.420 7  95269818.810 7  23265852.920                    23265850.840
                                        44.850          44.750



 107493096.813 8  83760862.17347  20455251.080                    20455246.160
                                        49.750          46.900



 127238485.055 6  99146881.95245  24212677.360                    24212676.380
                                        41.900          33.950



 108405295.960 8  84471682.591 8  20628831.180                    20628828.640
                                        50.900          49.100



 23  9 13 15 22 30.0000000  0  8G05G07G11G13G14G20G22G30
 109313407.462 8  85179277.714 7  20801643.640                    20801639.060
                                        50.050          46.900



 114779791.928 8  89438811.957 7  21841859.620                    21841854.740
                                        48.750          45.300



 126051786.398 7  98222169.438 7  23986860.740                    23986857.860
                                        42.900          43.100



 113123428.031 8  88148119.04146  21526667.020                    21526662.120
                                        48.000          41.200



 122169245.888 7  95196826.500 7  23248027.400                    23248025.320
                                        45.400          44.550



 107525529.258 8  83786134.18047  20461422.840                    20461417.880
                                        49.700          46.650



 127135578.584 6  99066695.26945  24193094.760                    24193093.740
                                        41.400          33.250



 108413164.929 8  84477814.237 8  20630328.620                    20630326.100
                                        50.600          49.000



 23  9 13 15 23  0.0000000  0  8G05G07G11G13G14G20G22G30
 109276435.132 8  85150468.115 7  20794608.060                    20794603.440
                                        50.150          47.050



 114838478.309 8  89484541.574 7  21853027.280                    21853022.420
                                        49.150          45.350



 126153980.353 7  98301800.987 7  24006307.700                    24006304.780
                                        42.500          42.550



 113050304.089 7  88091139.35646  21512751.960                    21512747.120
                                        47.550          40.500



 122075802.925 7  95124013.841 7  23230245.780                    23230243.680
                                        45.700          45.350



 107558535.069 8  83811852.96747  20467703.680                    20467698.700
                                        49.700          46.300



 127032746.662 6  98986566.66345  24173526.400                    24173525.280
                                        41.800          33.700



 108421518.391 8  84484323.416 8  20631918.240                    20631915.740
                                        50.750          48.800



 23  9 13 15 23 30.0000000  0  8G05G07G11G13G14G20G22G30
 109240008.245 8  85122083.532 7  20787676.260                    20787671.620
                                        49.850          47.100



 114897474.151 8  89530512.334 7  21864253.820                    21864248.980
                                        49.350          44.850



 126256312.731 7  98381540.410 7  24025781.000                    24025778.060
                                        42.300          43.000



 112977433.219 7  88034356.88946  21498885.040                    21498880.240
                                        47.550          40.950



 121982590.643 7  95051380.943 7  23212508.060                    23212505.940
                                        45.550          45.700



 107592109.892 8  83838015.15547  20474092.820                    20474087.780
                                        49.400          46.050



 126929989.073 6  98906496.05245  24153972.140                    24153970.940
                                        40.900          30.600



 108430352.752 8  84491207.336 8  20633599.360                    20633596.880
                                        50.800          48.450



 23  9 13 15 24  0.0000000  0  8G05G07G11G13G14G20G22G30
 109204126.109 8  85094123.440 7  20780848.120                    20780843.460
                                        49.950          47.100



 114956775.663 8  89576721.275 7  21875538.520                    21875533.700
                                        49.650          44.750



 126358777.827 7  98461383.213 7  24045279.560                    24045276.660
                                        43.750          44.000



 112904813.550 8  87977770.15446  21485065.940                    21485061.180
                                        48.650          40.200



 121889609.320 7  94978928.032 7  23194814.280                    23194812.140
                                        46.250          46.950



 107626250.749 8  83864618.39347  20480589.660                    20480584.580
                                        49.350          46.550



 126827306.579 7  98826483.89545  24134432.220                    24134430.960
                                        42.200          34.600



 108439664.457 8  84498463.204 8  20635371.340                    20635368.840
                                        50.850          48.450



 23  9 13 15 24 30.0000000  0  8G05G07G11G13G14G20G22G30
 109168794.553 8  85066592.370 7  20774124.760                    20774120.060
                                        50.000          47.350



 115016385.049 8  89623170.129 7  21886881.840                    21886876.980
                                        49.850          44.300



 126461376.969 7  98541330.477 7  24064803.620                    24064800.760
                                        43.800          44.050



 112832450.721 8  87921383.55946  21471295.700                    21471290.960
                                        48.950          40.900



 121796866.247 7  94906660.770 7  23177165.860                    23177163.680
                                        45.900          47.050



 107660961.659 8  83891665.82847  20487194.960                    20487189.840
                                        49.750          46.650



 126724706.628 7  98746536.02546  24114908.020                    24114906.740
                                        42.000          36.700



 108449457.205 8  84506093.908 8  20637234.860                    20637232.320
                                        50.750          48.700



 23  9 13 15 25  0.0000000  0  8G05G07G11G13G14G20G22G30
 109134012.170 8  85039489.208 7  20767505.900                    20767501.160
                                        49.950          47.200



 115076297.551 8  89669855.171 7  21898282.820                    21898277.940
                                        49.400          44.200



 126564104.123 7  98621377.523 7  24084352.040                    24084349.220
                                        43.650          44.300



 112760342.451 8  87865195.31146  21457573.960                    21457569.200
                                        48.750          41.600



 121704361.387 7  94834579.139 7  23159562.760                    23159560.580
                                        45.750          46.400



 107696238.465 8  83919154.23047  20493907.940                    20493902.820
                                        49.400          46.450



 126622188.779 6  98666652.20845  24095399.400                    24095398.060
                                        40.500          35.600



 108459727.068 8  84514096.393 8  20639189.160                    20639186.600
                                        50.600          48.550



 23  9 13 15 25 30.0000000  0  8G05G07G11G13G14G20G22G30
 109099783.291 8  85012817.365 7  20760992.360                    20760987.600
                                        49.850          47.600



 115136514.474 8  89716777.424 7  21909741.760                    21909736.840
                                        49.400          43.750



 126666958.494 7  98701523.669 7  24103924.680                    24103921.920
                                        43.950          43.300



 112688491.933 8  87809207.91146  21443901.260                    21443896.500
                                        49.000          41.250



 121612099.896 7  94762687.096 7  23142006.020                    23142003.800
                                        45.700          45.700



 107732083.051 8  83947085.06147  20500728.960                    20500723.860
                                        49.250          46.250



 126519758.229 7  98586836.41245  24075907.400                    24075906.000
                                        42.200          34.150



 108470475.578 8  84522471.860 8  20641234.520                    20641231.960
                                        50.600          48.650



 23  9 13 15 26  0.0000000  0  8G05G07G11G13G14G20G22G30
 109066108.178 8  84986577.007 7  20754584.220                    20754579.420
                                        49.900          47.600



 115197032.314 8  89763934.148 7  21921257.960                    21921252.980
                                        49.550          43.850



 126769935.783 7  98781765.602 7  24123520.720                    24123518.040
                                        44.550          43.700



 112616898.890 8  87753421.13746  21430277.560                    21430272.800
                                        49.450          41.700



 121520083.592 7  94690986.115 7  23124495.900                    23124493.660
                                        45.900          45.750



 107768493.526 8  83975456.84147  20507657.680                    20507652.580
                                        49.250          45.950



 126417416.763 7  98507089.95646  24056432.400                    24056430.960
                                        42.500          36.000



 108481700.684 8  84531218.689 8  20643370.580                    20643368.020
                                        50.550          48.650



 23  9 13 15 26 30.0000000  0  8G05G07G11G13G14G20G22G30
 109032990.997 8  84960771.407 7  20748282.240                    20748277.440
                                        50.050          47.850



 115257852.092 8  89811326.156 7  21932831.620                    21932826.580
                                        49.350          43.800



 126873035.603 7  98862102.989 7  24143140.080                    24143137.460
                                        45.050          44.000



 112545566.842 8  87697837.73246  21416703.540                    21416698.780
                                        49.150          41.950



 121428317.992 7  94619480.504 7  23107033.480                    23107031.200
                                        44.900          45.600



 107805471.476 8  84004270.80447  20514694.360                    20514689.280
                                        49.300          45.650



 126315169.887 6  98427417.25045  24036975.380                    24036973.880
                                        41.650          34.500



 108493404.178 8  84540338.295 8  20645597.680                    20645595.120
                                        50.650          48.400



 23  9 13 15 27  0.0000000  0  8G05G07G11G13G14G20G22G30
 109000430.763 8  84935399.808 7  20742086.220                    20742081.420
                                        49.850          47.950



 115318969.513 8  89858950.090 7  21944461.900                    21944456.820
                                        49.050          44.000



 126976252.114 7  98942531.361 7  24162781.640                    24162779.080
                                        44.850          44.600



 112474494.085 8  87642456.39046  21403178.860                    21403174.080
                                        48.700          41.600



 121336803.342 7  94548170.436 7  23089618.780                    23089616.480
                                        45.700          45.750



 107843013.468 8  84033524.28547  20521838.380                    20521833.280
                                        49.100          45.200



 126213017.991 6  98347818.53445  24017536.440                    24017534.860
                                        41.850          33.050



 108505582.434 8  84549827.845 8  20647915.120                    20647912.560
                                        50.650          48.000



 23  9 13 15 27 30.0000000  0  8G05G07G11G13G14G20G22G30
 108968427.747 8  84910462.407 7  20735996.260                    20735991.460
                                        49.900          47.900



 115380382.719 8  89906804.515 7  21956148.480                    21956143.360
                                        49.050          44.650



 127079582.205 7  99023048.188 7  24182444.840                    24182442.340
                                        44.500          44.300



 112403681.315 8  87587277.64146  21389703.620                    21389698.840
                                        48.850          41.250



 121245542.454 7  94477058.101 7  23072252.400                    23072250.040
                                        46.200          46.150



 107881118.611 8  84063216.57947  20529089.540                    20529084.440
                                        49.250          45.550



 126110964.028 6  98268296.05345  23998116.160                    23998114.560
                                        40.800          32.850



 108518234.442 8  84559686.554 7  20650322.700                    20650320.140
                                        50.600          47.800



 23  9 13 15 28  0.0000000  0  8G05G07G11G13G14G20G22G30
 108936986.870 8  84885963.025 7  20730013.260                    20730008.460
                                        50.150          47.750



 115442092.201 8  89954889.804 7  21967891.420                    21967886.300
                                        48.900          45.200



 127183024.953 7  99103652.798 7  24202129.480                    24202127.040
                                        44.200          44.700



 112333131.607 8  87532303.85546  21376278.480                    21376273.640
                                        49.150          41.250



 121154540.324 7  94406147.410 7  23054935.240                    23054932.840
                                        46.350          46.250



 107919788.060 8  84093348.59147  20536448.100                    20536442.980
                                        49.250          44.950



 126009012.942 6  98188853.78845  23978715.420                    23978713.760
                                        41.450          34.150



 108531361.478 8  84569915.399 7  20652820.700                    20652818.120
                                        50.850          47.800



 23  9 13 15 28 30.0000000  0  8G05G07G11G13G14G20G22G30
 108906108.342 8  84861901.844 7  20724137.260                    20724132.480
                                        50.050          47.700



 115504094.751 8  90003203.452 7  21979690.140                    21979685.020
                                        49.050          45.400



 127286575.383 7  99184341.330 7  24221834.600                    24221832.240
                                        44.550          43.850



 112262844.008 8  87477534.31546  21362903.200                    21362898.320
                                        48.950          41.550



 121063797.969 7  94335439.149 7  23037667.520                    23037665.060
                                        46.750          46.700



 107959019.235 8  84123918.31647  20543913.560                    20543908.420
                                        49.700          45.050



 125907165.859 7  98109492.53145  23959334.460                    23959332.760
                                        42.200          33.100



 108544960.688 8  84580512.180 8  20655408.560                    20655405.940
                                        50.800          48.000



 23  9 13 15 29  0.0000000  0  8G05G07G11G13G14G20G22G30
 108875794.105 8  84838280.363 7  20718368.660                    20718363.880
                                        49.800          47.600



 115566389.673 8  90051744.909 7  21991544.500                    21991539.420
                                        48.900          45.100



 127390231.714 7  99265112.364 7  24241559.880                    24241557.600
                                        43.800          44.000



 112192820.673 8  87422970.70347  21349578.200                    21349573.300
                                        48.700          42.450



 120973319.598 7  94264936.583 7  23020450.060                    23020447.540
                                        45.950          46.450



 107998812.613 8  84154926.13247  20551485.980                    20551480.820
                                        49.400          46.300



 125805426.670 7  98030215.37645  23939974.020                    23939972.260
                                        42.600          32.950



 108559032.474 8  84591477.207 7  20658086.340                    20658083.680
                                        50.650          47.950



 23  9 13 15 29 30.0000000  0  8G05G07G11G13G14G20G22G30
 108846043.562 8  84815098.132 8  20712707.300                    20712702.520
                                        49.850          48.250



 115628973.570 8  90100511.545 7  22003453.860                    22003448.800
                                        48.900          45.300



 127493989.252 7  99345962.275 7  24261304.400                    24261302.220
                                        43.150          44.050



 112123060.934 8  87368612.48747  21336303.340                    21336298.460
                                        48.750          43.150



 120883106.481 7  94194640.727 7  23003283.060                    23003280.480
                                        45.600          46.150



 108039165.434 8  84186369.86447  20559164.900                    20559159.720
                                        49.050          46.600



 125703796.888 7  97951023.48745  23920634.400                    23920632.560
                                        42.250          34.300



 108573574.240 8  84602808.452 8  20660853.540                    20660850.860
                                        50.650          48.000



 23  9 13 15 30  0.0000000  0  8G05G07G11G13G14G20G22G30
 108816857.226 8  84792355.533 8  20707153.340                    20707148.560
                                        49.950          48.100



 115691843.713 8  90149501.224 7  22015417.680                    22015412.660
                                        48.900          45.400



 127597843.696 7  99426887.699 7  24281067.380                    24281065.240
                                        43.050          43.900



 112053564.461 8  87314459.41047  21323078.580                    21323073.760
                                        48.300          42.600



 120793160.235 7  94124552.797 7  22986166.840                    22986164.240
                                        45.950          46.100



 108080075.567 8  84218247.85747  20566949.860                    20566944.720
                                        49.150          46.350



 125602278.641 7  97871918.48745  23901316.020                    23901314.080
                                        42.300          33.700



 108588583.730 8  84614504.151 8  20663709.760                    20663707.060
                                        50.400          48.300



 23  9 13 15 30 30.0000000  0  9G05G07G11G13G14G15G20G22G30
 108788240.487 8  84770056.771 7  20701707.740                    20701703.000
                                        49.750          47.950



 115755002.518 8  90198715.836 7  22027436.440                    22027431.440
                                        48.750          45.050



 127701796.014 7  99507889.337 7  24300849.000                    24300846.940
                                        43.250          43.050



 111984335.967 7  87260515.13647  21309904.800                    21309900.040
                                        47.950          42.450



 120703487.766 7  94054678.193 7  22969102.720                    22969100.080
                                        46.500          45.600



 127872381.245 6                  24333305.400
                                        38.250



 108121546.134 8  84250562.55647  20574841.480                    20574836.340
                                        49.350          46.250



 125500878.386 7  97792905.45145  23882020.100                    23882018.060
                                        42.350          33.650



 108604063.993 8  84626566.683 8  20666655.560                    20666652.840
                                        50.250          48.350



 23  9 13 15 31  0.0000000  0  9G05G07G11G13G14G15G20G22G30
 108760195.613 8  84748203.633 7  20696370.960                    20696366.240
                                        50.000          47.300



 115818448.987 8  90248154.614 7  22039509.940                    22039504.940
                                        49.000          44.950



 127805843.901 7  99588965.502 7  24320648.760                    24320646.760
                                        42.100          42.900



 111915377.260 8  87206781.10046  21296782.340                    21296777.620
                                        48.350          41.050



 120614092.723 7  93985019.759 7  22952091.420                    22952088.720
                                        47.150          44.700



 127765693.144 6  99557685.582 6  24313003.340                    24313002.060
                                        40.250          41.150



 108163576.814 8  84283313.71547  20582839.680                    20582834.540
                                        49.550          46.250



 125399599.698 7  97713987.09545  23862747.340                    23862745.200
                                        42.300          32.650



 108620014.867 8  84638995.938 8  20669690.900                    20669688.160
                                        50.650          48.450



 23  9 13 15 31 30.0000000  0  9G05G07G11G13G14G15G20G22G30
 108732715.503 8  84726790.562 7  20691141.660                    20691136.940
                                        49.950          47.550



 115882171.849 8  90297808.762 7  22051636.020                    22051631.040
                                        48.750          45.200



 127909975.319 6  99670106.740 7  24340464.440                    24340462.480
                                        41.900          42.550



 111846680.413 8  87153251.08746  21283709.720                    21283705.020
                                        48.550          41.600



 120524969.000 7  93915572.719 7  22935131.760                    22935129.000
                                        47.250          45.850



 127659054.872 6  99474590.877 6  24292711.140                    24292709.640
                                        41.300          41.500



 108206157.644 8  84316493.55247  20590942.580                    20590937.440
                                        49.400          45.850



 125298436.755 7  97635158.95445  23843496.600                    23843494.340
                                        43.050          33.150



 108636426.325 8  84651784.072 8  20672813.900                    20672811.180
                                        50.700          48.400



 23  9 13 15 32  0.0000000  0  9G05G07G11G13G14G15G20G22G30
 108705807.898 8  84705823.595 7  20686021.320                    20686016.560
                                        50.050          47.900



 115946177.162 8  90347683.005 7  22063815.860                    22063810.900
                                        48.600          45.200



 128014194.252 7  99751316.169 7  24360296.760                    24360294.840
                                        42.450          42.500



 111778252.909 8  87099930.97047  21270688.340                    21270683.660
                                        48.450          42.000



 120436126.409 7  93846344.760 7  22918225.600                    22918222.760
                                        47.000          46.100



 127552474.539 6  99391541.306 6  24272429.960                    24272428.140
                                        41.450          41.650



 108249294.543 8  84350106.69147  20599151.280                    20599146.140
                                        49.250          46.400



 125197399.791 7  97556428.97145  23824269.860                    23824267.460
                                        44.500          33.750



 108653304.324 8  84664935.756 8  20676025.660                    20676022.960
                                        50.650          48.350



 23  9 13 15 32 30.0000000  0  9G05G07G11G13G14G15G20G22G30
 108679473.775 8  84685303.503 7  20681010.100                    20681005.340
                                        49.750          47.900



 116010462.644 8  90397775.566 7  22076048.980                    22076044.060
                                        48.250          45.150



 128118497.144 6  99832591.042 7  24380145.040                    24380143.120
                                        41.650          43.300



 111710095.632 8  87046821.44147  21257718.360                    21257713.740
                                        48.200          42.550



 120347567.435 7  93777337.824 7  22901373.380                    22901370.480
                                        46.200          46.350



 127445952.510 6  99308537.173 6  24252159.780                    24252157.800
                                        40.650          41.700



 108292986.141 8  84384152.07547  20607465.520                    20607460.400
                                        49.200          46.050



 125096491.194 7  97477799.00245  23805067.580                    23805065.020
                                        43.250          35.000



 108670647.449 8  84678449.881 8  20679325.940                    20679323.240
                                        50.600          48.050



 23  9 13 15 33  0.0000000  0  9G05G07G11G13G14G15G20G22G30
 108653717.480 8  84665233.653 7  20676108.840                    20676104.100
                                        50.000          47.900



 116075029.685 8  90448087.507 7  22088335.680                    22088330.820
                                        48.700          45.450



 128222884.104 6  99913931.364 7  24400009.340                    24400007.480
                                        41.700          42.900



 111642212.227 8  86993925.28947  21244800.520                    21244795.960
                                        48.300          42.550



 120259297.989 7  93708556.502 7  22884576.240                    22884573.280
                                        45.800          47.150



 127339492.873 6  99225581.665 7  24231901.380                    24231899.340
                                        41.100          42.250



 108337234.401 8  84418631.20547  20615885.700                    20615880.600
                                        49.250          45.800



 124995716.753 7  97399273.59345  23785890.820                    23785888.100
                                        43.800          34.350



 108688457.766 8  84692328.032 8  20682715.140                    20682712.440
                                        50.550          48.050



 23  9 13 15 33 30.0000000  0  9G05G07G11G13G14G15G20G22G30
 108628536.919 8  84645612.442 7  20671317.140                    20671312.400
                                        49.900          47.900



 116139872.264 8  90498614.170 7  22100674.820                    22100670.000
                                        48.800          45.100



 128327348.087 7  99995331.760 7  24419888.260                    24419886.480
                                        42.650          43.500



 111574599.842 8  86941240.31446  21231934.280                    21231929.760
                                        49.100          41.100



 120171316.987 7  93639999.949 7  22867833.980                    22867830.980
                                        45.850          47.150



 127233093.331 6  99142672.995 7  24211654.320                    24211652.320
                                        40.850          42.250



 108382034.083 8  84453540.02747  20624410.820                    20624405.720
                                        49.300          45.650



 124895075.490 7  97320851.94846  23766739.380                    23766736.540
                                        43.200          36.300



 108706730.207 8  84706566.298 8  20686192.280                    20686189.580
                                        50.800          48.400



 23  9 13 15 34  0.0000000  0  9G05G07G11G13G14G15G20G22G30
 108603934.587 8  84626441.790 7  20666635.480                    20666630.740
                                        49.850          47.700



 116204990.034 8  90549355.246 7  22113066.320                    22113061.540
                                        48.850          44.750



 128431887.070 7 100076790.548 7  24439781.480                    24439779.800
                                        43.250          43.800



 111507260.257 8  86888767.92046  21219119.980                    21219115.440
                                        49.100          41.900



 120083628.304 7  93571671.176 7  22851147.320                    22851144.320
                                        45.700          47.300



 127126756.130 6  99059812.902 7  24191419.040                    24191417.120
                                        41.150          42.050



 108427384.900 8  84488878.29947  20633040.820                    20633035.720
                                        49.400          45.400



 124794571.432 7  97242537.23045  23747614.000                    23747611.080
                                        42.850          33.000



 108725464.768 8  84721164.649 8  20689757.360                    20689754.640
                                        50.650          48.300



 23  9 13 15 34 30.0000000  0  9G05G07G11G13G14G15G20G22G30
 108579908.789 8  84607720.393 8  20662063.520                    20662058.780
                                        50.150          48.100



 116270378.905 8  90600307.586 7  22125509.400                    22125504.660
                                        49.100          44.300



 128536495.690 7 100158303.625 7  24459687.940                    24459686.340
                                        43.850          44.100



 111440192.186 8  86836507.10047  21206357.340                    21206352.780
                                        49.550          42.100



 119996232.406 7  93503570.530 7  22834516.380                    22834513.420
                                        45.750          47.750



 127020479.956 6  98977000.364 6  24171195.320                    24171193.520
                                        41.550          41.300



 108473283.880 8  84524643.70847  20641775.120                    20641770.020
                                        49.200          45.050



 124694204.957 7  97164329.71946  23728514.800                    23728511.800
                                        43.200          37.350



 108744658.039 8  84736120.434 8  20693409.720                    20693407.020
                                        50.750          48.250



 23  9 13 15 35  0.0000000  0  9G05G07G11G13G14G15G20G22G30
 108556463.309 8  84589451.181 7  20657602.020                    20657597.280
                                        50.000          47.650



 116336039.730 8  90651471.843 7  22138004.240                    22137999.500
                                        48.950          44.200



 128641173.503 7 100239870.643 7  24479607.540                    24479606.020
                                        43.100          44.250



 111373398.986 8  86784460.47346  21193647.020                    21193642.400
                                        49.100          41.700



 119909134.712 7  93435702.256 7  22817942.160                    22817939.260
                                        45.650          47.000



 126914268.871 7  98894238.506 6  24150984.000                    24150982.280
                                        42.450          40.500



 108519732.282 8  84560837.23947  20650613.960                    20650608.880
                                        49.150          45.350



 124593981.662 7  97086233.79646  23709442.820                    23709439.780
                                        42.900          36.650



 108764311.486 8  84751434.818 7  20697149.640                    20697146.940
                                        50.650          47.950



 23  9 13 15 35 30.0000000  0  9G05G07G11G13G14G15G20G22G30
 108533596.687 8  84571633.036 7  20653250.640                    20653245.900
                                        50.150          47.650



 116401968.472 8  90702844.862 7  22150550.080                    22150545.340
                                        48.950          44.000



 128745914.863 7 100321487.130 7  24499539.300                    24499537.860
                                        44.350          44.300



 111306879.015 8  86732626.75646  21180988.700                    21180984.000
                                        49.300          41.700



 119822335.497 7  93368066.561 7  22801424.760                    22801421.880
                                        45.700          47.100



 126808121.490 7  98811526.279 6  24130784.840                    24130783.140
                                        43.100          39.400



 108566726.424 8  84597456.03147  20659556.660                    20659551.580
                                        49.150          45.600



 124493902.339 7  97008250.04145  23690398.240                    23690395.200
                                        43.850          35.350



 108784421.484 8  84767104.941 7  20700976.460                    20700973.740
                                        50.750          47.600



 23  9 13 15 36  0.0000000  0  9G05G07G11G13G14G15G20G22G30
 108511310.312 8  84554267.031 7  20649009.700                    20649004.940
                                        49.950          47.850



 116468163.537 8  90754425.403 7  22163146.600                    22163141.840
                                        48.550          44.300



 128850716.842 7 100403150.870 7  24519482.580                    24519481.220
                                        43.900          44.700



 111240633.095 8  86681006.56946  21168382.540                    21168377.800
                                        49.150          41.950



 119735837.676 7  93300665.715 7  22784964.720                    22784961.880
                                        45.900          46.950



 126702038.977 7  98728864.606 6  24110598.020                    24110596.220
                                        43.000          39.500



 108614265.188 8  84634499.20147  20668602.980                    20668597.920
                                        49.100          45.450



 124393969.625 7  96930380.50545  23671381.600                    23671378.560
                                        43.600          35.700



 108804986.971 8  84783129.987 7  20704889.940                    20704887.200
                                        50.750          47.750



 23  9 13 15 36 30.0000000  0  9G05G07G11G13G14G15G20G22G30
 108489609.930 8  84537357.635 7  20644880.280                    20644875.500
                                        49.700          47.650



 116534627.305 8  90806215.318 7  22175794.260                    22175789.480
                                        48.350          44.100



 128955580.901 7 100484862.975 7  24539437.700                    24539436.440
                                        43.600          45.050



 111174666.695 8  86629604.19447  21155829.560                    21155824.800
                                        48.600          42.100



 119649648.463 7  93233505.336 7  22768563.400                    22768560.600
                                        46.250          47.550



 126596026.813 7  98646257.770 6  24090424.580                    24090422.640
                                        43.350          38.550



 108662351.517 8  84671969.02447  20677753.540                    20677748.480
                                        49.050          45.850



 124294190.951 6  96852630.97946  23652394.280                    23652391.260
                                        41.700          37.100



 108826011.272 8  84799512.551 7  20708890.740                    20708887.980
                                        50.550          47.550



 23  9 13 15 37  0.0000000  0  9G05G07G11G13G14G15G20G22G30
 108468495.013 8  84520904.458 7  20640862.260                    20640857.460
                                        49.850          47.800



 116601355.695 8  90858211.427 7  22188492.280                    22188487.500
                                        48.550          44.650



 129060501.736 7 100566619.332 7  24559403.600                    24559402.420
                                        43.100          44.300



 111108978.455 8  86578418.57047  21143329.480                    21143324.720
                                        48.950          42.050



 119563768.474 7  93166585.924 7  22752220.940                    22752218.160
                                        46.900          47.500



 126490084.400 7  98563705.287 6  24070264.420                    24070262.300
                                        42.650          39.950



 108710982.209 8  84709863.04147  20687007.680                    20687002.640
                                        49.300          45.700



 124194567.044 6  96775002.08245  23633436.380                    23633433.360
                                        41.350          34.150



 108847491.054 8  84816250.041 7  20712978.220                    20712975.420
                                        50.400          47.900



 23  9 13 15 37 30.0000000  0 10G05G07G11G13G14G15G18G20G22G30
 108447967.607 8  84504909.077 7  20636956.020                    20636951.240
                                        49.750          47.600



 116668348.837 8  90910413.847 7  22201240.680                    22201235.880
                                        48.750          44.150



 129165477.935 7 100648418.821 7  24579380.040                    24579378.940
                                        42.000          43.550



 111043570.707 8  86527451.52146  21130882.780                    21130878.020
                                        49.050          41.500



 119478202.011 7  93099910.811 7  22735938.160                    22735935.400
                                        46.450          47.750



 126384214.487 7  98481209.319 6  24050118.020                    24050115.780
                                        42.450          40.700



 130448287.121 6 101648016.856 6  24823483.780
                                        41.900          41.550



 108760157.464 8  84748181.40647  20696365.440                    20696360.400
                                        49.350          45.050



 124095102.177 7  96697497.10946  23614508.740                    23614505.720
                                        42.450          36.050



 108869426.623 8  84833342.687 7  20717152.400                    20717149.600
                                        50.600          47.700



 23  9 13 15 38  0.0000000  0 10G05G07G11G13G14G15G18G20G22G30
 108428021.700 8  84489366.809 7  20633160.440                    20633155.640
                                        49.700          47.350



 116735597.899 8  90962815.678 7  22214037.780                    22214032.980
                                        48.950          44.150



 129270499.154 6 100730253.381 7  24599365.020                    24599364.040
                                        41.950          43.600



 110978437.212 8  86476698.17146  21118488.280                    21118483.500
                                        49.300          41.950



 119392944.583 7  93033476.511 7  22719714.180                    22719711.440
                                        45.950          47.500



 126278410.491 6  98398764.718 6  24029984.160                    24029981.840
                                        41.850          40.950



 130389109.875 6 101601904.728 6  24812222.760                    24812220.980
                                        40.850          41.550



 108809868.479 8  84786917.23347  20705825.180                    20705820.100
                                        49.250          45.700



 123995792.301 7  96620112.92346  23595610.580                    23595607.580
                                        45.000          37.000



 108891809.619 8  84850783.966 7  20721411.760                    20721408.920
                                        50.850          47.800



 23  9 13 15 38 30.0000000  0 10G05G07G11G13G14G15G18G20G22G30
 108408665.990 8  84474284.428 7  20629477.180                    20629472.380
                                        49.600          47.700



 116803109.311 8  91015421.932 7  22226884.820                    22226880.020
                                        48.850          44.850



 129375570.338 7 100812126.883 7  24619359.500                    24619358.620
                                        42.900          42.900



 110913586.958 8  86426165.50746  21106147.680                    21106142.880
                                        49.150          41.750



 119308007.038 7  92967291.483 7  22703551.040                    22703548.340
                                        46.550          47.550



 126172682.236 6  98316379.130 6  24009864.680                    24009862.320
                                        40.500          41.100



 130330425.052 6 101556176.329 6  24801055.440                    24801053.420
                                        41.350          41.500



 108860122.067 8  84826075.83947  20715388.160                    20715383.060
                                        49.350          45.300



 123896648.503 7  96542858.12846  23576744.080                    23576741.080
                                        45.100          37.800



 108914646.839 8  84868579.190 8  20725757.540                    20725754.700
                                        50.750          48.000



 23  9 13 15 39  0.0000000  0 10G05G07G11G13G14G15G18G20G22G30
 108389899.478 8  84459661.163 7  20625906.020                    20625901.220
                                        49.800          47.750



 116870877.872 8  91068228.581 7  22239780.760                    22239776.000
                                        48.900          45.050



 129480685.317 6 100894034.498 7  24639362.300                    24639361.540
                                        41.850          42.750



 110849017.441 8  86375851.60846  21093860.500                    21093855.680
                                        49.050          41.550



 119223388.867 7  92901355.299 7  22687448.700                    22687446.020
                                        46.250          47.300



 126067027.769 6  98234051.042 6  23989759.240                    23989756.860
                                        41.600          41.450



 130272231.081 6 101510830.419 6  24789981.500                    24789979.400
                                        39.650          41.600



 108910913.767 8  84865653.76147  20725053.520                    20725048.420
                                        49.600          45.100



 123797669.960 7  96465732.10745  23557909.040                    23557906.020
                                        44.750          34.700



 108937933.919 8  84886724.962 8  20730188.940                    20730186.080
                                        51.000          48.250



 23  9 13 15 39 30.0000000  0 10G05G07G11G13G14G15G18G20G22G30
 108371724.702 8  84445499.004 7  20622447.460                    20622442.660
                                        49.350          47.650



 116938904.099 8  91121235.989 7  22252725.760                    22252721.020
                                        48.750          45.350



 129585843.396 7 100975975.717 6  24659373.320                    24659372.640
                                        42.000          41.800



 110784731.678 8  86325758.80247  21081627.320                    21081622.460
                                        49.250          42.600



 119139095.240 7  92835671.996 7  22671408.120                    22671405.460
                                        45.350          47.300



 125961450.599 6  98151783.191 6  23969668.460                    23969666.080
                                        40.600          41.600



 130214532.426 6 101465870.457 7  24779001.700                    24778999.820
                                        39.950          43.350



 108962244.530 8  84905651.73447  20734821.460                    20734816.360
                                        49.300          45.750



 123698862.234 7  96388739.15445  23539106.520                    23539103.500
                                        42.950          32.150



 108961671.991 8  84905222.154 8  20734706.160                    20734703.280
                                        50.850          48.600



 23  9 13 15 40  0.0000000  0 10G05G07G11G13G14G15G18G20G22G30
 108354145.899 8  84431801.246 7  20619102.300                    20619097.500
                                        49.400          47.650



 117007189.323 8  91174445.228 7  22265720.040                    22265715.340
                                        48.750          45.650



 129691044.251 6 101057950.253 6  24679392.460                    24679391.860
                                        41.900          41.550



 110720733.483 8  86275890.09747  21069448.840                    21069443.980
                                        49.650          43.250



 119055131.523 7  92770245.815 7  22655430.260                    22655427.640
                                        44.750          46.800



 125855954.359 6  98069578.392 6  23949593.120                    23949590.700
                                        41.850          41.800



 130157333.632 6 101421300.029 7  24768116.960                    24768115.380
                                        40.100          43.200



 109014115.748 8  84946070.84247  20744692.260                    20744687.140
                                        49.300          45.100



 123600230.954 7  96311883.67945  23520337.560                    23520334.540
                                        43.100          33.650



 108985862.522 8  84924071.912 8  20739309.500                    20739306.600
                                        50.550          48.600



 23  9 13 15 40 30.0000000  0 10G05G07G11G13G14G15G18G20G22G30
 108337154.425 8  84418561.130 7  20615868.920                    20615864.120
                                        49.500          47.950



 117075722.529 8  91227847.687 7  22278761.500                    22278756.840
                                        48.700          45.300



 129796275.952 6 101139948.834 6  24699417.500                    24699416.960
                                        41.400          41.300



 110657014.518 8  86226238.97547  21057323.520                    21057318.640
                                        49.650          43.150



 118971491.595 7  92705071.913 7  22639514.020                    22639511.440
                                        45.100          45.950



 125750531.555 7  97987430.820 7  23929531.740                    23929529.300
                                        42.250          42.200



 130100627.414 6 101377113.407 7  24757326.000                    24757324.580
                                        39.300          42.250



 109066516.959 8  84986902.92947  20754663.900                    20754658.780
                                        49.350          45.400



 123501770.074 7  96235160.95846  23501601.020                    23501597.980
                                        44.100          36.000



 109010495.354 8  84943266.320 8  20743997.000                    20743994.100
                                        50.350          48.400



 23  9 13 15 41  0.0000000  0 10G05G07G11G13G14G15G18G20G22G30
 108320757.043 8  84405783.945 7  20612748.600                    20612743.820
                                        49.400          47.900



 117144507.388 8  91281446.240 7  22291850.860                    22291846.260
                                        48.550          44.900



 129901540.776 7 101221973.206 6  24719448.840                    24719448.320
                                        42.450          40.500



 110593581.321 8  86176810.53947  21045252.580                    21045247.720
                                        49.550          43.050



 118888183.442 7  92640156.498 7  22623660.940                    22623658.380
                                        45.250          46.050



 125645188.760 7  97905345.605 7  23909485.600                    23909483.120
                                        43.350          42.800



 130044421.297 6 101333316.545 6  24746630.220                    24746628.820
                                        39.150          41.950



 109119451.841 8  85028150.86047  20764737.100                    20764731.980
                                        48.900          45.450



 123403487.642 7  96158577.31846  23482898.420                    23482895.360
                                        44.900          37.150



 109035574.530 8  84962808.525 8  20748769.420                    20748766.560
                                        50.400          48.100



 23  9 13 15 41 30.0000000  0 10G05G07G11G13G14G15G18G20G22G30
 108304951.454 8  84393467.898 8  20609740.880                    20609736.120
                                        49.800          48.000



 117213539.499 8  91335237.459 7  22304987.240                    22304982.720
                                        48.450          45.250



 130006832.543 7 101304018.594 6  24739485.320                    24739484.820
                                        42.250          40.750



 110530431.263 8  86127602.72247  21033235.520                    21033230.660
                                        49.250          43.200



 118805206.666 7  92575499.308 7  22607870.900                    22607868.340
                                        44.550          46.600



 125539924.198 7  97823321.332 7  23889454.380                    23889451.880
                                        43.750          43.550



 129988713.719 6 101289908.119 7  24736029.400                    24736027.920
                                        39.700          43.600



 109172916.067 8  85069811.27147  20774911.020                    20774905.900
                                        49.000          45.700



 123305383.700 7  96082132.78246  23464229.780                    23464226.720
                                        44.500          38.150



 109061095.668 8  84982695.117 8  20753625.940                    20753623.100
                                        50.600          48.550



 23  9 13 15 42  0.0000000  0 10G05G07G11G13G14G15G18G20G22G30
 108289743.287 8  84381617.384 8  20606846.860                    20606842.100
                                        49.950          48.250



 117282822.058 8  91389223.835 7  22318171.280                    22318166.840
                                        48.450          45.000



 130112153.769 6 101386086.930 7  24759527.380                    24759526.900
                                        41.100          42.100



 110467570.678 8  86078620.47147  21021273.540                    21021268.680
                                        49.600          42.750



 118722569.346 7  92511106.690 7  22592145.420                    22592142.860
                                        44.250          47.050



 125434744.427 7  97741363.135 7  23869439.340                    23869436.800
                                        44.550          43.250



 129933511.826 6 101246893.671 7  24725524.900                    24725523.360
                                        41.000          44.000



 109226913.672 8  85111887.29447  20785186.420                    20785181.340
                                        49.200          45.000



 123207466.390 7  96005833.70546  23445596.620                    23445593.560
                                        44.000          36.400



 109087062.931 8  85002929.343 8  20758567.340                    20758564.520
                                        50.550          48.450



 23  9 13 15 42 30.0000000  0 10G05G07G11G13G14G15G18G20G22G30
 108275131.716 8  84370231.744 8  20604066.380                    20604061.640
                                        49.900          48.050



 117352350.828 8  91443402.069 7  22331402.160                    22331397.780
                                        48.550          44.800



 130217498.835 6 101468173.820 6  24779574.020                    24779573.540
                                        41.100          39.650



 110404998.151 8  86029862.65847  21009366.380                    21009361.520
                                        49.650          42.450



 118640271.786 7  92446978.789 7  22576484.600                    22576482.080
                                        45.250          47.550



 125329648.447 7  97659470.216 7  23849440.240                    23849437.680
                                        44.700          42.800



 129878815.171 6 101204272.921 6  24715116.520                    24715114.880
                                        41.000          41.850



 109281440.400 8  85154375.60947  20795562.540                    20795557.480
                                        48.750          45.300



 123109736.157 7  95929680.35045  23426999.100                    23426996.060
                                        44.250          35.450



 109113472.559 8  85023508.265 7  20763592.920                    20763590.120
                                        50.400          47.750



 23  9 13 15 43  0.0000000  0  9G05G07G13G14G15G18G20G22G30
 108261115.283 8  84359309.845 8  20601399.180                    20601394.420
                                        49.850          48.000



 117422121.009 8  91497768.419 7  22344678.980                    22344674.660
                                        48.700          44.650



 110342711.093 8  85981327.29847  20997513.540                    20997508.680
                                        50.000          42.600



 118558313.315 7  92383115.092 7  22560888.340                    22560885.860
                                        46.100          47.550



 125224633.868 7  97577640.727 7  23829456.660                    23829454.040
                                        44.200          42.000



 129824622.181 6 101162044.667 7  24704803.960                    24704802.240
                                        40.050          42.950



 109336491.810 8  85197272.77347  20806038.480                    20806033.460
                                        49.150          44.950



 123012192.561 7  95853672.39546  23408437.120                    23408434.100
                                        44.500          36.800



 109140319.910 8  85044428.254 7  20768701.800                    20768699.020
                                        50.600          47.500



 23  9 13 15 43 30.0000000  0  9G05G07G13G14G15G18G20G22G30
 108247698.862 8  84348855.499 8  20598846.120                    20598841.360
                                        49.850          48.300



 117492136.051 8  91552325.574 7  22358002.380                    22357998.140
                                        48.850          44.350



 110280715.440 8  85933019.01147  20985716.160                    20985711.300
                                        50.100          42.850



 118476701.808 7  92319521.749 7  22545358.140                    22545355.680
                                        46.550          46.950



 125119707.576 7  97495880.050 6  23809489.840                    23809487.160
                                        43.900          41.450



 129770939.608 6 101120214.162 7  24694588.480                    24694586.720
                                        39.300          43.750



 109392071.178 8  85240581.34447  20816614.900                    20816609.900
                                        49.200          44.950



 122914843.602 7  95777816.10445  23389912.180                    23389909.180
                                        45.000          34.350



 109167608.909 8  85065692.395 7  20773894.720                    20773891.940
                                        50.800          47.650



 23  9 13 15 44  0.0000000  0  9G05G07G13G14G15G18G20G22G30
 108234884.600 8  84338870.368 8  20596407.660                    20596402.900
                                        50.100          48.450



 117562395.707 8  91607073.332 7  22371372.360                    22371368.140
                                        48.800          44.200



 110219013.533 8  85884939.61847  20973974.700                    20973969.820
                                        49.850          42.900



 118395441.344 7  92256201.946 7  22529894.740                    22529892.300
                                        46.500          46.150



 125014871.791 7  97414189.890 6  23789540.240                    23789537.500
                                        43.300          40.250



 129717770.699 6 101078783.915 7  24684470.720                    24684468.960
                                        41.900          43.700



 109448178.188 8  85284301.06647  20827291.720                    20827286.740
                                        49.100          45.000



 122817693.627 7  95702114.90046  23371425.100                    23371422.100
                                        44.750          37.800



 109195339.655 8  85087300.767 7  20779171.720                    20779168.880
                                        50.900          47.900



 23  9 13 15 44 30.0000000  0  9G05G07G13G14G15G18G20G22G30
 108222668.364 8  84329351.212 8  20594083.000                    20594078.260
                                        49.850          48.650



 117632893.127 8  91662006.353 7  22384787.580                    22384783.380
                                        48.600          43.750



 110157601.071 8  85837085.75546  20962288.300                    20962283.420
                                        49.400          41.950



 118314529.366 7  92193153.690 7  22514497.680                    22514495.200
                                        46.100          46.200



 124910122.798 7  97332567.359 6  23769607.140                    23769604.320
                                        43.550          39.900



 129665111.967 6 101037751.173 7  24674450.100                    24674448.340
                                        41.250          43.000



 109504806.395 8  85328426.91147  20838067.740                    20838062.760
                                        49.050          44.550



 122720740.491 7  95626567.09046  23352975.460                    23352972.500
                                        44.750          38.350



 109223505.613 8  85109248.264 8  20784531.540                    20784528.680
                                        51.000          48.350



 23  9 13 15 45  0.0000000  0  9G05G07G13G14G15G18G20G22G30
 108211052.208 8  84320299.654 8  20591872.540                    20591867.820
                                        49.850          48.500



 117703627.607 8  91717124.093 7  22398247.920                    22398243.740
                                        48.500          43.550



 110096480.051 8  85789458.99047  20950657.360                    20950652.460
                                        49.500          42.350



 118233970.035 7  92130380.204 7  22499167.760                    22499165.200
                                        45.850          46.250



 124805463.407 7  97251014.638 6  23749691.080                    23749688.200
                                        44.100          40.850



 129612966.739 6 100997118.542 7  24664527.200                    24664525.440
                                        40.800          44.150



 109561955.615 8  85372958.73847  20848942.880                    20848937.940
                                        48.900          44.850



 122623988.036 7  95551175.62646  23334564.020                    23334561.140
                                        44.250          39.400



 109252106.895 8  85131534.965 8  20789974.220                    20789971.320
                                        50.800          48.450



 23  9 13 15 45 30.0000000  0  9G05G07G13G14G15G18G20G22G30
 108200036.676 8  84311716.121 8  20589776.380                    20589771.680
                                        49.900          48.300



 117774597.696 8  91772425.421 7  22411753.100                    22411748.920
                                        48.550          43.900



 110035651.517 8  85742060.14147  20939082.060                    20939077.140
                                        49.500          42.800



 118153765.908 7  92067883.502 7  22483905.400                    22483902.800
                                        45.350          46.750



 124700894.812 7  97169532.667 6  23729792.300                    23729789.380
                                        44.650          41.200



 129561336.409 6 100956887.199 7  24654702.240                    24654700.440
                                        40.400          43.750



 109619624.038 8  85417895.13847  20859916.840                    20859911.920
                                        49.100          45.000



 122527439.615 7  95475943.15846  23316191.420                    23316188.580
                                        43.900          38.250



 109281142.075 8  85154159.756 8  20795499.460                    20795496.580
                                        50.600          48.750



 23  9 13 15 46  0.0000000  0  9G05G07G13G14G15G18G20G22G30
 108189626.566 8  84303604.353 8  20587795.420                    20587790.720
                                        49.900          48.400



 117845805.361 8  91827911.878 7  22425303.480                    22425299.280
                                        48.400          44.250



 109975119.739 8  85694892.55247  20927563.220                    20927558.280
                                        49.700          43.400



 118073923.248 7  92005668.508 7  22468711.800                    22468709.140
                                        45.000          46.800



 124596421.777 7  97088125.183 6  23709911.720                    23709908.740
                                        45.050          41.900



 129510226.426 6 100917061.309 7  24644976.300                    24644974.480
                                        40.250          44.200



 109677813.574 8  85463237.61147  20870989.960                    20870985.040
                                        48.900          44.550



 122431101.667 7  95400874.70146  23297858.820                    23297856.060
                                        43.350          38.450



 109310613.514 8  85177124.506 8  20801107.720                    20801104.840
                                        50.400          49.000



 23  9 13 15 46 30.0000000  0  9G05G07G13G14G15G18G20G22G30
 108179820.276 8  84295963.088 8  20585929.360                    20585924.660
                                        49.700          48.550



 117917246.162 8  91883580.002 7  22438898.240                    22438894.020
                                        48.150          44.000



 109914883.059 8  85647954.88647  20916100.560                    20916095.620
                                        49.400          43.150



 117994441.919 7  91943735.058 7  22453586.940                    22453584.260
                                        44.800          46.150



 124492043.089 7  97006791.204 6  23690049.120                    23690046.120
                                        44.850          41.500



 129459635.485 6 100877639.823 7  24635349.140                    24635347.320
                                        40.650          43.950



 109736519.832 8  85508982.69447  20882161.440                    20882156.500
                                        48.850          44.700



 122334974.004 7  95325970.10246  23279566.240                    23279563.580
                                        44.100          37.900



 109340517.065 8  85200425.954 8  20806798.180                    20806795.360
                                        50.400          48.950



 23  9 13 15 47  0.0000000  0  9G05G07G13G14G15G18G20G22G30
 108170616.736 8  84288791.488 8  20584178.000                    20584173.300
                                        50.150          48.600



 117988917.394 8  91939427.679 7  22452536.860                    22452532.600
                                        48.050          44.300



 109854941.429 8  85601247.12247  20904694.040                    20904689.100
                                        49.650          43.650



 117915323.587 7  91882084.442 7  22438531.160                    22438528.480
                                        44.950          46.500



 124387758.886 7  96925530.853 6  23670204.520                    23670201.460
                                        44.150          41.200



 129409564.272 6 100838623.335 7  24625820.840                    24625819.040
                                        40.300          43.850



 109795740.246 8  85555128.43847  20893430.720                    20893425.780
                                        49.300          44.550



 122239058.566 7  95251230.88346  23261314.020                    23261311.440
                                        44.200          37.800



 109370850.312 8  85224062.240 8  20812570.400                    20812567.640
                                        50.850          48.900



 23  9 13 15 47 30.0000000  0  9G05G07G13G14G15G18G20G22G30
 108162019.266 8  84282092.161 8  20582541.960                    20582537.260
                                        49.950          48.200



 118060819.578 7  91995455.319 7  22466219.400                    22466215.140
                                        47.850          44.150



 109795298.048 8  85554771.77447  20893344.260                    20893339.340
                                        49.800          43.350



 117836573.596 7  91820720.856 7  22423545.460                    22423542.760
                                        44.850          46.200



 124283573.435 7  96844347.451 6  23650378.680                    23650375.580
                                        43.400          40.050



 129360017.264 6 100800015.320 7  24616392.300                    24616390.540
                                        40.250          43.600



 109855475.860 8  85601675.64847  20904798.040                    20904793.080
                                        48.900          44.150



 122143360.852 7  95176661.33246  23243103.240                    23243100.720
                                        43.950          39.850



 109401614.714 8  85248034.495 8  20818424.680                    20818421.960
                                        50.900          48.650



 23  9 13 15 48  0.0000000  0  9G05G07G13G14G15G18G20G22G30
 108154026.442 8  84275863.982 7  20581021.000                    20581016.280
                                        49.900          47.900



 118132948.379 7  92051659.541 7  22479945.080                    22479940.820
                                        47.850          43.750



 109735951.156 8  85508527.46847  20882050.900                    20882045.980
                                        49.850          43.000



 117758191.823 7  91759644.199 7  22408629.820                    22408627.120
                                        45.100          46.300



 124179485.179 7  96763239.779 6  23630571.300                    23630568.160
                                        44.250          39.600



 129310993.196 6 100761814.772 7  24607063.280                    24607061.540
                                        41.550          43.150



 109915722.317 8  85648620.91047  20916262.580                    20916257.620
                                        48.450          44.700



 122047881.251 7  95102261.74146  23224933.960                    23224931.500
                                        44.600          39.400



 109432806.087 8  85272339.453 8  20824360.200                    20824357.520
                                        50.850          48.400



 23  9 13 15 48 30.0000000  0  9G05G07G13G14G15G18G20G22G30
 108146639.441 8  84270107.875 7  20579615.320                    20579610.560
                                        49.950          47.850



 118205303.580 8  92108040.188 7  22493713.840                    22493709.580
                                        48.350          43.600



 109676902.514 8  85462515.55147  20870814.300                    20870809.360
                                        49.850          43.700



 117680181.599 7  91698857.071 7  22393784.900                    22393782.160
                                        45.950          46.400



 124075496.344 7  96682209.560 6  23610782.820                    23610779.620
                                        44.750          39.700



 129262494.400 7 100724023.543 7  24597834.220                    24597832.480
                                        42.350          43.100



 109976478.486 8  85695963.35347  20927824.080                    20927819.120
                                        48.900          44.600



 121952623.714 7  95028035.19246  23206806.940                    23206804.520
                                        45.200          39.600



 109464423.815 8  85296976.631 8  20830376.880                    20830374.200
                                        50.750          48.350



 23  9 13 15 49  0.0000000  0  9G05G07G13G14G15G18G20G22G30
 108139855.335 8  84264821.548 8  20578324.360                    20578319.580
                                        50.050          48.200



 118277879.924 8  92164593.153 7  22507524.700                    22507520.420
                                        48.450          43.200



 109618149.302 8  85416733.84047  20859633.920                    20859628.980
                                        49.850          42.800



 117602542.047 7  91638358.755 7  22379010.540                    22379007.780
                                        46.900          46.250



 123971604.718 7  96601255.106 6  23591012.840                    23591009.560
                                        45.400          39.750



 129214518.966 6 100686640.111 7  24588704.800                    24588703.020
                                        41.950          42.800



 110037739.177 8  85743698.92847  20939481.600                    20939476.660
                                        48.900          44.450



 121857587.444 7  94953981.02746  23188722.080                    23188719.680
                                        45.750          38.500



 109496463.020 8  85321942.227 8  20836473.760                    20836471.060
                                        50.700          48.250



 23  9 13 15 49 30.0000000  0  9G05G07G13G14G15G18G20G22G30
 108133679.951 8  84260009.549 7  20577149.240                    20577144.440
                                        49.800          47.800



 118350680.836 8  92221321.106 7  22521378.280                    22521374.000
                                        48.200          42.950



 109559698.197 8  85371187.51847  20848511.040                    20848506.120
                                        49.600          43.300



 117525281.609 7  91578155.876 7  22364308.340                    22364305.520
                                        47.050          46.600



 123867817.292 7  96520381.830 6  23571262.720                    23571259.340
                                        44.950          40.950



 129167074.220 6 100649670.228 7  24579676.340                    24579674.520
                                        41.900          42.600



 110099508.454 8  85791830.80547  20951235.900                    20951230.980
                                        48.450          44.350



 121762780.576 7  94880105.62546  23170680.860                    23170678.480
                                        45.250          38.450



 109528928.156 8  85347239.723 8  20842651.700                    20842648.960
                                        50.650          48.400



 23  9 13 15 50  0.0000000  0  9G05G07G13G14G15G18G20G22G30
 108128113.389 8  84255671.968 7  20576089.960                    20576085.120
                                        50.050          47.700



 118423703.582 7  92278221.906 7  22535274.080                    22535269.780
                                        47.950          42.900



 109501548.778 8  85325876.29247  20837445.560                    20837440.640
                                        49.700          43.300



 117448401.546 7  91518249.375 7  22349678.560                    22349675.660
                                        47.100          46.350



 123764134.480 7  96439590.086 7  23551532.500                    23551529.040
                                        45.250          42.000



 129120160.419 6 100613114.089 6  24570748.900                    24570747.040
                                        40.150          41.850



 110161783.247 8  85840356.57547  20963086.420                    20963081.540
                                        48.350          44.950



 121668205.070 7  94806410.50746  23152683.700                    23152681.280
                                        45.250          37.850



 109561816.541 8  85372867.022 8  20848910.160                    20848907.420
                                        50.650          48.850



 23  9 13 15 50 30.0000000  0  9G05G07G13G14G15G18G20G22G30
 108123157.178 8  84251809.984 7  20575146.840                    20575141.960
                                        49.750          47.900



 118496948.272 7  92335295.649 7  22549212.120                    22549207.800
                                        47.600          43.100



 109443703.210 8  85280801.84347  20826437.900                    20826433.000
                                        49.850          43.350



 117371905.690 7  91458642.263 7  22335121.880                    22335118.920
                                        46.850          45.900



 123660558.706 7  96358881.750 7  23531822.660                    23531819.140
                                        44.700          42.200



 129073780.356 6 100576973.821 7  24561923.060                    24561921.160
                                        40.800          42.400



 110224562.993 8  85889275.82347  20975033.000                    20975028.160
                                        48.400          44.700



 121573864.844 7  94732898.74446  23134731.280                    23134728.840
                                        44.500          37.250



 109595128.011 8  85398824.005 8  20855249.120                    20855246.400
                                        50.550          48.950



 23  9 13 15 51  0.0000000  0  9G05G07G13G14G15G18G20G22G30
 108118810.039 8  84248422.590 7  20574319.600                    20574314.700
                                        50.000          47.750



 118570410.669 7  92392539.037 7  22563191.560                    22563187.280
                                        47.650          43.350



 109386160.151 8  85235963.11847  20815487.800                    20815482.880
                                        49.850          43.000



 117295794.749 7  91399335.085 7  22320638.460                    22320635.380
                                        46.900          46.150



 123557089.336 7  96278256.316 7  23512133.060                    23512129.520
                                        44.500          42.250



 129027933.661 7 100541249.163 6  24553198.720                    24553196.780
                                        42.100          41.400



 110287844.204 8  85938585.81647  20987075.040                    20987070.240
                                        48.600          44.750



 121479761.135 7  94659571.26846  23116823.860                    23116821.420
                                        44.750          38.850



 109628859.266 8  85425108.092 8  20861667.980                    20861665.280
                                        50.300          49.000



 23  9 13 15 51 30.0000000  0  9G05G07G13G14G15G18G20G22G30
 108115076.434 8  84245513.287 7  20573609.140                    20573604.200
                                        50.050          47.750



 118644092.820 7  92449953.654 7  22577212.820                    22577208.560
                                        47.500          43.550



 109328924.536 8  85191363.94547  20804596.220                    20804591.300
                                        49.850          43.050



 117220074.722 7  91340332.512 7  22306229.420                    22306226.260
                                        47.400          46.450



 123453731.265 7  96197717.602 7  23492464.620                    23492461.100
                                        44.600          42.600



 128982625.203 7 100505943.909 6  24544576.800                    24544574.800
                                        42.000          40.850



 110351628.274 8  85988287.64647  20999212.760                    20999208.000
                                        48.850          43.950



 121385900.011 7  94586432.83646  23098962.600                    23098960.160
                                        45.200          39.050



 109663012.380 8  85451720.888 8  20868167.100                    20868164.460
                                        50.300          49.000



 23  9 13 15 52  0.0000000  0  9G05G07G13G14G15G18G20G22G30
 108111950.794 8  84243077.718 7  20573014.360                    20573009.380
                                        49.900          47.700



 118717988.143 7  92507534.399 7  22591274.640                    22591270.420
                                        47.650          43.300



 109271991.710 8  85147000.71547  20793762.260                    20793757.300
                                        50.050          42.400



 117144743.076 7  91281632.588 7  22291894.300                    22291891.040
                                        47.350          46.300



 123350480.669 7  96117262.652 6  23472816.620                    23472813.100
                                        45.000          41.750



 128937851.271 6 100471055.174 7  24536056.600                    24536054.560
                                        40.700          42.100



 110415908.401 8  86038376.01847  21011444.880                    21011440.140
                                        49.350          44.000



 121292279.489 7  94513481.86846  23081147.140                    23081144.700
                                        44.850          38.750



 109697580.779 8  85478657.292 8  20874745.240                    20874742.660
                                        50.400          48.850



 23  9 13 15 52 30.0000000  0  9G05G07G13G14G15G18G20G22G30
 108109437.376 8  84241119.204 7  20572536.060                    20572531.080
                                        49.900          47.900



 118792098.064 7  92565282.367 7  22605377.300                    22605373.120
                                        47.400          43.150



 109215365.863 8  85102876.69047  20782986.700                    20782981.740
                                        50.100          43.750



 117069805.640 7  91223239.852 7  22277634.160                    22277630.820
                                        46.700          46.950



 123247342.826 7  96036895.548 7  23453190.080                    23453186.560
                                        45.050          43.000



 128893616.671 6 100436586.749 7  24527638.940                    24527636.900
                                        40.650          42.400



 110480686.170 8  86088852.19147  21023771.700                    21023766.920
                                        49.550          44.150



 121198905.601 7  94440723.09546  23063378.600                    23063376.160
                                        45.100          38.000



 109732566.385 8  85505918.799 8  20881402.760                    20881400.240
                                        50.550          48.700



 23  9 13 15 53  0.0000000  0  9G05G07G13G14G15G18G20G22G30
 108107533.755 8  84239635.855 7  20572173.820                    20572168.840
                                        49.800          47.850



 118866418.233 7  92623194.154 7  22619519.960                    22619515.820
                                        47.650          43.250



 109159045.012 8  85058990.31947  20772269.200                    20772264.240
                                        50.250          44.000



 116995262.252 7  91165154.142 7  22263449.020                    22263445.640
                                        46.350          47.050



 123144315.861 7  95956614.850 7  23433584.640                    23433581.140
                                        44.550          42.750



 128849920.120 6 100402537.515 7  24519323.720                    24519321.720
                                        41.150          42.200



 110545956.855 8  86139712.42947  21036192.360                    21036187.540
                                        49.100          44.300



 121105778.708 7  94368156.77146  23045657.080                    23045654.640
                                        45.550          37.800



 109767965.032 8  85533502.144 8  20888138.900                    20888136.420
                                        50.350          48.650



 23  9 13 15 53 30.0000000  0  9G05G07G13G14G15G18G20G22G30
 108106243.103 8  84238630.150 8  20571928.200                    20571923.220
                                        49.600          48.350



 118940949.666 8  92681270.560 7  22633702.840                    22633698.760
                                        48.100          43.350



 109103033.039 8  85015344.63047  20761610.480                    20761605.540
                                        50.700          44.100



 116921117.953 7  91107379.427 7  22249339.780                    22249336.380
                                        47.050          47.050



 123041403.922 7  95876423.777 7  23414001.100                    23413997.600
                                        44.400          43.300



 128806765.483 6 100368910.580 6  24511111.600                    24511109.620
                                        40.650          41.500



 110611721.144 8  86190957.29647  21048706.940                    21048702.100
                                        49.200          44.750



 121012903.802 7  94295786.79246  23027983.520                    23027981.080
                                        45.700          38.150



 109803777.788 8  85561408.172 8  20894953.840                    20894951.400
                                        50.400          48.700



 23  9 13 15 54  0.0000000  0  9G05G07G13G14G15G18G20G22G30
 108105563.288 8  84238100.403 8  20571798.820                    20571793.860
                                        49.950          48.150



 119015688.619 8  92739508.679 7  22647925.200                    22647921.160
                                        48.600          43.000



 109047328.284 8  84971938.33347  20751010.240                    20751005.280
                                        50.600          44.100



 116847373.118 7  91049915.971 7  22235306.580                    22235303.160
                                        46.800          47.200



 122938606.442 7  95796321.900 7  23394439.340                    23394435.860
                                        43.950          43.100



 128764152.080 6 100335705.372 6  24503002.480                    24503000.520
                                        40.650          40.650



 110677975.057 8  86242583.69347  21061314.700                    21061309.840
                                        49.050          44.500



 120920281.726 7  94223613.83846  23010358.060                    23010355.600
                                        45.600          38.700



 109840001.100 8  85589634.116 8  20901846.920                    20901844.480
                                        50.550          48.000



 23  9 13 15 54 30.0000000  0  9G05G07G13G14G15G18G20G22G30
 108105498.370 8  84238049.814 8  20571786.460                    20571781.520
                                        50.050          48.000



 119090636.689 8  92797909.730 7  22662187.400                    22662183.360
                                        48.250          43.050



 108991934.839 8  84928774.61747  20740469.240                    20740464.280
                                        50.500          44.150



 116774033.573 7  90992768.326 7  22221350.500                    22221347.060
                                        46.650          47.600



 122835927.902 7  95716312.703 7  23374900.200                    23374896.780
                                        43.150          42.650



 128722084.541 7 100302925.531 6  24494997.220                    24494995.260
                                        42.550          38.500



 110744719.961 8  86294592.67547  21074015.880                    21074011.000
                                        48.750          43.850



 120827918.768 7  94151642.80046  22992781.920                    22992779.440
                                        46.200          38.950



 109876636.858 8  85618181.440 7  20908818.480                    20908816.060
                                        50.550          47.850



 23  9 13 15 55  0.0000000  0  9G05G07G13G14G15G18G20G22G30
 108106047.237 8  84238477.517 7  20571890.880                    20571885.940
                                        49.800          47.750



 119165790.271 8  92856470.933 7  22676488.680                    22676484.640
                                        48.350          42.600



 108936851.907 8  84885852.87647  20729987.320                    20729982.320
                                        50.400          43.850



 116701100.041 7  90935937.060 7  22207471.680                    22207468.240
                                        46.850          47.350



 122733367.765 7  95636395.782 7  23355383.560                    23355380.200
                                        43.250          43.250



 128680562.322 6 100270570.582 6  24487095.760                    24487093.780
                                        41.950          39.900



 110811951.866 8  86346981.14347  21086809.700                    21086804.840
                                        48.750          43.850



 120735815.898 7  94079874.42446  22975255.260                    22975252.760
                                        46.350          38.600



 109913681.810 8  85647047.624 7  20915867.920                    20915865.460
                                        50.350          47.700



 23  9 13 15 55 30.0000000  0  9G05G07G13G14G15G18G20G22G30
 108107208.553 8  84239382.432 8  20572111.880                    20572106.940
                                        49.950          48.050



 119241146.867 8  92915190.322 7  22690828.600                    22690824.560
                                        48.150          42.600



 108882079.674 8  84843173.22547  20719564.540                    20719559.500
                                        50.250          43.850



 116628574.007 7  90879423.335 7  22193670.400                    22193666.960
                                        46.750          47.150



 122630926.898 7  95556571.776 7  23335889.600                    23335886.340
                                        43.200          43.400



 128639585.849 6 100238640.928 6  24479298.120                    24479296.120
                                        41.400          39.850



 110879668.056 8  86399746.96447  21099695.700                    21099690.840
                                        49.000          44.050



 120643974.891 7  94008310.08546  22957778.460                    22957775.920
                                        46.550          39.400



 109951133.484 8  85676230.740 7  20922994.740                    20922992.260
                                        50.400          47.500



 23  9 13 15 56  0.0000000  0  9G05G07G13G14G15G18G20G22G30
 108108982.721 8  84240764.893 7  20572449.500                    20572444.560
                                        50.050          47.800



 119316704.899 7  92974066.678 7  22705206.860                    22705202.820
                                        47.900          42.700



 108827618.706 8  84800736.11647  20709200.960                    20709195.920
                                        50.050          44.000



 116556458.125 7  90823229.182 7  22179947.180                    22179943.760
                                        46.250          46.900



 122528607.090 7  95476842.088 7  23316418.700                    23316415.540
                                        42.450          42.850



 128599156.560 7 100207137.610 6  24471604.660                    24471602.660
                                        42.400          39.350



 110947866.674 8  86452888.71447  21112673.500                    21112668.660
                                        48.550          43.550



 120552399.066 7  93936952.39046  22940352.120                    22940349.560
                                        45.750          40.400



 109988990.615 8  85705729.793 7  20930198.700                    20930196.200
                                        50.200          47.050



 23  9 13 15 56 30.0000000  0  9G05G07G13G14G15G18G20G22G30
 108111372.115 8  84242626.748 7  20572904.200                    20572899.260
                                        49.950          47.650



 119392464.967 7  93033100.452 7  22719623.560                    22719619.500
                                        47.900          42.850



 108773472.145 8  84758544.00147  20698897.220                    20698892.160
                                        50.200          43.950



 116484756.881 7  90767358.137 7  22166302.840                    22166299.420
                                        45.900          46.950



 122426411.298 7  95397209.047 7  23296971.380                    23296968.300
                                        42.650          42.900



 128559277.703 7 100176063.161 6  24464015.980                    24464013.980
                                        43.150          39.550



 111016548.119 8  86506406.69347  21125743.160                    21125738.340
                                        48.750          43.400



 120461093.096 7  93865804.98446  22922977.100                    22922974.540
                                        45.800          39.800



 110027253.716 8  85735545.192 7  20937479.920                    20937477.380
                                        50.550          47.500



 23  9 13 15 57  0.0000000  0  9G05G07G13G14G15G18G20G22G30
 108114376.143 8  84244967.543 7  20573475.880                    20573470.900
                                        49.850          47.950



 119468424.072 8  93092289.330 7  22734078.120                    22734074.060
                                        48.050          43.100



 108719639.365 8  84716596.39047  20688653.180                    20688648.100
                                        50.250          44.300



 116413471.379 7  90711811.035 7  22152737.620                    22152734.220
                                        46.150          47.750



 122324339.846 7  95317672.898 7  23277547.700                    23277544.740
                                        43.050          43.150



 128519949.396 7 100145417.841 6  24456531.980                    24456529.940
                                        43.900          40.650



 111085708.727 8  86560298.03847  21138904.020                    21138899.200
                                        48.700          43.350



 120370058.453 7  93794869.00846  22905653.700                    22905651.160
                                        45.700          39.500



 110065919.994 8  85765674.749 8  20944837.880                    20944835.320
                                        50.600          48.050



 23  9 13 15 57 30.0000000  0  9G05G07G13G14G15G18G20G22G30
 108117993.092 8  84247785.940 8  20574164.180                    20574159.180
                                        49.800          48.200



 119544578.734 8  93151630.589 7  22748569.900                    22748565.840
                                        48.250          43.100



 108666119.503 8  84674892.61047  20678468.680                    20678463.620
                                        50.100          44.150



 116342602.152 7  90656588.318 7  22139251.580                    22139248.220
                                        46.050          47.600



 122222392.282 7  95238233.309 7  23258147.600                    23258144.700
                                        43.850          42.700



 128481170.779 7 100115200.796 6  24449152.660                    24449150.560
                                        43.600          39.300



 111155344.599 8  86614559.71847  21152155.320                    21152150.500
                                        48.550          43.050



 120279295.961 7  93724145.06846  22888382.120                    22888379.580
                                        45.950          38.850



 110104986.080 8  85796115.837 8  20952271.940                    20952269.340
                                        50.500          48.250



 23  9 13 15 58  0.0000000  0  9G05G07G13G14G15G18G20G22G30
 108122225.944 8  84251084.263 7  20574969.680                    20574964.660
                                        49.700          47.650



 119620930.264 8  93211125.251 7  22763099.160                    22763095.060
                                        48.200          43.150



 108612916.092 8  84633435.42147  20668344.400                    20668339.340
                                        50.000          43.900



 116272154.424 7  90601694.062 7  22125845.720                    22125842.420
                                        45.650          47.800



 122120572.811 7  95158893.519 7  23238771.880                    23238769.060
                                        44.600          42.400



 128442945.727 7 100085415.074 6  24441878.680                    24441876.520
                                        42.900          37.350



 111225456.466 8  86669192.30947  21165497.200                    21165492.380
                                        48.450          43.400



 120188811.260 7  93653637.59346  22871163.380                    22871160.840
                                        45.250          38.550



 110144453.235 8  85826869.446 7  20959782.300                    20959779.700
                                        50.200          47.800



 23  9 13 15 58 30.0000000  0  9G05G07G13G14G15G18G20G22G30
 108127074.334 8  84254862.211 7  20575892.300                    20575887.280
                                        50.100          47.700



 119697476.143 8  93270771.335 7  22777665.400                    22777661.280
                                        48.050          42.800



 108560029.378 8  84592224.99347  20658280.400                    20658275.360
                                        50.400          43.750



 116202129.988 7  90547129.610 7  22112520.440                    22112517.220
                                        46.600          47.600



 122018882.628 7  95079654.454 7  23219420.840                    23219418.020
                                        45.350          42.600



 128405274.990 7 100056061.359 6  24434710.120                    24434707.860
                                        42.750          37.950



 111296041.963 8  86724193.94547  21178929.220                    21178924.400
                                        49.050          43.100



 120098606.609 7  93583348.33346  22853997.960                    22853995.360
                                        45.750          38.250



 110184319.390 8  85857933.976 7  20967368.600                    20967365.960
                                        50.500          47.550



 23  9 13 15 59  0.0000000  0  9G05G07G13G14G15G18G20G22G30
 108132539.576 8  84259120.831 7  20576932.320                    20576927.280
                                        49.800          47.700



 119774215.308 7  93330568.044 7  22792268.420                    22792264.280
                                        47.750          43.250



 108507461.067 8  84551262.68547  20648276.960                    20648271.940
                                        50.550          44.250



 116132532.049 7  90492897.498 7  22099276.320                    22099273.180
                                        46.350          47.100



 121917323.815 7  95000517.768 7  23200094.820                    23200091.980
                                        44.950          42.850



 128368160.351 6 100027140.847 6  24427647.480                    24427645.140
                                        41.000          37.800



 111367099.420 8  86779563.35847  21192451.040                    21192446.220
                                        48.900          43.650



 120008685.650 7  93513280.12846  22836886.520                    22836883.880
                                        45.750          39.550



 110224583.758 8  85889308.792 7  20975030.660                    20975028.020
                                        50.300          47.400



 23  9 13 15 59 30.0000000  0  9G05G07G13G14G15G18G20G22G30
 108138620.943 8  84263859.547 7  20578089.600                    20578084.520
                                        49.400          47.550



 119851146.615 7  93390514.458 7  22806908.020                    22806903.860
                                        47.900          43.300



 108455212.005 8  84510549.13547  20638334.300                    20638329.260
                                        50.650          44.300



 116063363.089 7  90438999.632 7  22086113.860                    22086110.760
                                        46.600          46.650



 121815897.663 7  94921484.458 7  23180794.060                    23180791.180
                                        45.250          43.750



 128331603.313 6  99998654.911 6  24420690.840                    24420688.420
                                        41.400          40.300



 111438627.071 8  86835299.15347  21206062.360                    21206057.520
                                        49.000          44.100



 119919051.051 7  93443435.09646  22819829.560                    22819826.840
                                        45.100          38.700



 110265244.966 8  85920992.840 7  20982768.240                    20982765.600
                                        50.600          47.400



                            4  1
RINEX FILE SPLICE; other post-header comments skipped       COMMENT
 23  9 13 16  0  0.0000000  0  9G05G07G13G14G15G18G20G22G30
 108145318.107 8  84269078.119 7  20579364.020                    20579358.940
                                        49.750          47.600



 119928267.810 7  93450608.850 7  22821583.740                    22821579.560
                                        47.800          43.350



 108403282.425 8  84470084.53847  20628452.440                    20628447.360
                                        50.500          44.200



 115994624.881 7  90385437.423 7  22073033.380                    22073030.300
                                        46.550          46.950



 121714605.280 7  94842555.390 7  23161518.740                    23161515.840
                                        45.100          43.000



 128295604.186 7  99970603.670 6  24413840.380                    24413837.980
                                        42.350          39.500



 111510622.371 8  86891399.36047  21219762.640                    21219757.820
                                        48.800          43.350



 119829705.314 7  93373815.14446  22802827.540                    22802824.800
                                        45.050          40.000



 110306300.894 8  85952984.462 7  20990580.920                    20990578.260
                                        50.550          47.650



 23  9 13 16  0 30.0000000  0  9G05G07G13G14G15G18G20G22G30
 108152633.936 8  84274778.761 7  20580756.160                    20580751.080
                                        49.750          47.700



 120005579.884 7  93510851.982 7  22836295.800                    22836291.580
                                        47.800          43.350



 108351675.874 8  84429871.64447  20618632.060                    20618626.940
                                        50.100          44.400



 115926322.269 7  90332214.634 7  22060035.780                    22060032.740
                                        46.300          47.200



 121613450.564 7  94763733.580 7  23142269.640                    23142266.700
                                        45.200          42.300



 128260166.579 7  99942989.962 6  24407096.800                    24407094.400
                                        43.200          40.900



 111583085.321 8  86947863.96247  21233551.920                    21233547.120
                                        48.600          43.750



 119740653.506 7  93304424.20746  22785881.460                    22785878.700
                                        45.700          39.900



 110347752.512 8  85985284.411 7  20998468.900                    20998466.240
                                        50.400          47.700



 23  9 13 16  1  0.0000000  0  9G05G07G13G14G15G18G20G22G30
 108160563.317 8  84280957.468 7  20582265.080                    20582260.000
                                        49.550          47.800



 120083076.150 7  93571238.635 7  22851042.900                    22851038.640
                                        47.600          43.050



 108300387.903 8  84389907.00547  20608872.260                    20608867.120
                                        50.000          44.650



 115858452.524 7  90279329.158 7  22047120.540                    22047117.520
                                        46.350          47.400



 121512430.022 7  94685016.307 7  23123046.060                    23123043.120
                                        45.000          42.550



 128225286.528 7  99915810.710 6  24400459.320                    24400456.940
                                        44.050          40.700



 111656009.170 8  87004687.70347  21247428.900                    21247424.120
                                        48.100          44.200



 119651893.359 7  93235260.53146  22768990.900                    22768988.120
                                        46.100          40.400



 110389593.257 8  86017887.575 7  21006430.940                    21006428.280
                                        50.350          47.950



 23  9 13 16  1 30.0000000  0  9G05G07G13G14G15G18G20G22G30
 108169107.426 8  84287615.206 7  20583890.960                    20583885.880
                                        49.600          47.350



 120160756.276 7  93631768.569 7  22865824.980                    22865820.700
                                        47.750          43.350



 108249420.525 8  84350192.17147  20599173.480                    20599168.340
                                        50.350          44.400



 115791019.052 7  90226783.635 7  22034288.340                    22034285.340
                                        46.750          47.500



 121411546.226 7  94606405.613 7  23103848.460                    23103845.540
                                        45.050          43.050



 128190966.088 7  99889067.529 6  24393928.360                    24393926.000
                                        44.150          41.050



 111729392.764 8  87061869.68147  21261393.360                    21261388.620
                                        48.250          44.000



 119563428.644 7  93166327.06946  22752156.560                    22752153.740
                                        45.850          39.800



 110431822.580 8  86050793.533 7  21014466.920                    21014464.260
                                        50.600          47.850



 23  9 13 16  2  0.0000000  0  9G05G07G13G14G15G18G20G22G30
 108178267.397 8  84294752.842 7  20585634.040                    20585628.960
                                        49.450          47.350



 120238619.369 7  93692441.056 7  22880641.900                    22880637.580
                                        47.650          43.200



 108198775.762 8  84310728.72947  20589536.100                    20589530.960
                                        50.250          44.550



 115724025.395 7  90174580.826 7  22021539.840                    22021536.840
                                        46.950          47.750



 121310801.960 7  94527903.646 7  23084677.420                    23084674.500
                                        45.050          43.250



 128157207.535 7  99862762.184 6  24387504.320                    24387501.980
                                        43.850          41.550



 111803235.024 8  87119409.06247  21275445.100                    21275440.400
                                        48.050          43.350



 119475263.377 7  93097626.95946  22735379.180                    22735376.340
                                        45.700          38.450



 110474440.200 8  86084002.054 7  21022576.800                    21022574.140
                                        50.650          47.700



 23  9 13 16  2 30.0000000  0  9G05G07G13G14G15G18G20G22G30
 108188044.317 8  84302371.223 7  20587494.500                    20587489.420
                                        49.050          47.800



 120316664.962 7  93753255.748 7  22895493.540                    22895489.200
                                        47.700          43.650



 108148455.366 8  84271518.04147  20579960.440                    20579955.300
                                        50.200          44.300



 115657474.793 7  90122723.259 7  22008875.660                    22008872.660
                                        47.400          47.600



 121210200.010 7  94449512.580 7  23065533.460                    23065530.540
                                        45.400          42.950



 128124012.819 7  99836896.187 6  24381187.580                    24381185.260
                                        44.350          41.450



 111877534.736 7  87177304.89847  21289583.880                    21289579.220
                                        47.900          43.150



 119387401.567 7  93029163.29546  22718659.560                    22718656.680
                                        45.450          38.900



 110517445.500 8  86117512.669 7  21030760.440                    21030757.800
                                        50.850          47.700



 23  9 13 16  3  0.0000000  0  9G05G07G13G14G15G18G20G22G30
 108198439.040 8  84310470.992 7  20589472.520                    20589467.480
                                        49.700          47.950



 120394892.716 7  93814212.384 7  22910379.840                    22910375.500
                                        47.150          43.650



 108098461.691 8  84232561.93947  20570446.960                    20570441.800
                                        50.000          44.100



 115591370.830 7  90071213.732 7  21996296.460                    21996293.460
                                        47.700          47.650



 121109742.687 7  94371234.222 7  23046417.040                    23046414.060
                                        45.300          42.450



 128091384.165 7  99811471.309 6  24374978.540                    24374976.200
                                        44.400          40.600



 111952290.897 7  87235556.42647  21303809.500                    21303804.860
                                        47.300          43.900



 119299846.848 7  92960938.91946  22701998.380                    22701995.440
                                        46.000          38.300



 110560838.201 8  86151325.157 7  21039017.820                    21039015.200
                                        50.700          47.700



 23  9 13 16  3 30.0000000  0  9G05G07G13G14G15G18G20G22G30
 108209450.891 8  84319051.643 7  20591568.000                    20591562.980
                                        49.850          47.900



 120473299.768 7  93875308.735 7  22925300.260                    22925295.920
                                        46.900          43.250



 108048794.062 8  84193859.88547  20560995.520                    20560990.360
                                        50.100          43.950



 115525714.293 7  90020052.844 7  21983802.420                    21983799.400
                                        47.900          47.700



 121009430.045 7  94293068.566 7  23027328.160                    23027325.160
                                        45.300          42.650



 128059321.081 7  99786487.122 6  24368877.120                    24368874.740
                                        45.400          40.050



 112027500.216 7  87294161.03747  21318121.340                    21318116.780
                                        47.400          43.000



 119212600.771 7  92892955.04046  22685395.940                    22685392.920
                                        45.850          38.850



 110604615.335 8  86185437.195 7  21047348.360                    21047345.740
                                        50.650          47.500



 23  9 13 16  4  0.0000000  0  9G05G07G13G14G15G18G20G22G30
 108221078.992 8  84328112.491 8  20593780.760                    20593775.740
                                        49.600          48.100



 120551884.564 7  93936543.586 7  22940254.500                    22940250.160
                                        46.350          43.500



 107999453.118 8  84155412.40647  20551606.220                    20551601.060
                                        50.050          44.350



 115460507.585 8  89969242.467 7  21971394.000                    21971390.960
                                        48.250          47.950



 120909263.785 7  94215016.970 7  23008267.140                    23008264.080
                                        45.100          43.200



 128027824.539 7  99761944.392 6  24362883.540                    24362881.120
                                        45.250          40.950



 112103160.506 7  87353117.06047  21332519.000                    21332514.500
                                        47.650          43.100



 119125665.960 7  92825213.71946  22668852.720                    22668849.620
                                        45.900          38.800



 110648775.384 8  86219847.605 7  21055751.760                    21055749.140
                                        50.250          47.400



 23  9 13 16  4 30.0000000  0  9G05G07G13G14G15G18G20G22G30
 108233323.694 8  84337653.801 8  20596110.860                    20596105.860
                                        49.650          48.400



 120630645.601 7  93997915.780 7  22955242.240                    22955237.940
                                        46.000          43.000



 107950440.188 8  84117220.52947  20542279.340                    20542274.180
                                        50.400          44.500



 115395753.141 8  89918784.506 7  21959071.640                    21959068.560
                                        48.450          47.700



 120809245.567 7  94137080.739 7  22989234.260                    22989231.200
                                        45.250          43.400



 127996895.721 7  99737844.067 6  24356997.980                    24356995.480
                                        45.400          41.350



 112179269.353 8  87412422.62847  21347002.000                    21346997.540
                                        48.400          42.550



 119039045.281 7  92757717.16946  22652369.280                    22652366.100
                                        45.850          38.700



 110693316.947 8  86254555.303 7  21064227.760                    21064225.140
                                        50.450          47.300



 23  9 13 16  5  0.0000000  0  9G05G07G13G14G15G18G20G22G30
 108246182.916 8  84347673.970 8  20598557.900                    20598552.900
                                        49.450          48.100



 120709579.747 7  94059422.845 7  22970262.940                    22970258.680
                                        46.000          42.900



 107901754.215 8  84079283.39747  20533014.700                    20533009.560
                                        50.250          44.650



 115331451.344 8  89868679.249 7  21946835.420                    21946832.300
                                        48.200          47.300



 120709375.352 7  94059259.848 7  22970229.560                    22970226.480
                                        45.700          43.600



 127966533.626 7  99714185.292 7  24351220.300                    24351217.760
                                        44.900          42.100



 112255823.031 8  87472074.80047  21361569.700                    21361565.260
                                        48.300          42.700



 118952740.023 7  92690466.41246  22635945.860                    22635942.620
                                        45.550          38.300



 110738236.664 8  86289557.668 7  21072775.720                    21072773.080
                                        50.350          46.950



 23  9 13 16  5 30.0000000  0  9G05G07G13G14G15G18G20G22G30
 108259658.861 8  84358174.693 7  20601122.280                    20601117.320
                                        49.550          47.950



 120788686.818 7  94121064.671 7  22985316.500                    22985312.320
                                        45.850          42.900



 107853397.234 8  84041602.62547  20523812.680                    20523807.540
                                        50.350          44.650



 115267605.719 7  89818929.464 7  21934686.000                    21934682.820
                                        47.750          47.100



 120609655.571 7  93981556.175 7  22951253.480                    22951250.400
                                        46.350          44.050



 127936740.358 7  99690969.803 7  24345550.820                    24345548.240
                                        44.050          43.200



 112332820.472 7  87532072.76347  21376221.860                    21376217.400
                                        47.900          42.850



 118866753.591 7  92623464.07546  22619583.120                    22619579.820
                                        46.100          40.000



 110783534.258 8  86324854.478 7  21081395.580                    21081392.920
                                        50.500          47.100



 23  9 13 16  6  0.0000000  0  9G05G07G13G14G15G18G20G22G30
 108273751.902 8  84369156.271 7  20603804.100                    20603799.180
                                        49.750          47.950



 120867966.553 7  94182841.057 7  23000402.920                    23000398.780
                                        46.200          42.900



 107805372.148 8  84004180.49247  20514673.800                    20514668.680
                                        50.450          44.700



 115204220.414 7  89769538.371 7  21922624.160                    21922620.940
                                        47.800          47.350



 120510090.148 7  93903972.768 7  22932306.800                    22932303.740
                                        46.150          44.050



 127907518.734 7  99668199.733 7  24339990.120                    24339987.560
                                        44.000          42.400



 112410261.615 8  87592416.46647  21390958.460                    21390953.960
                                        48.050          42.300



 118781091.027 7  92556714.11146  22603282.020                    22603278.660
                                        46.050          37.350



 110829210.072 8  86360446.014 7  21090087.400                    21090084.700
                                        50.450          46.950



 23  9 13 16  6 30.0000000  0  9G05G07G13G14G15G18G20G22G30
 108288461.542 8  84380618.317 8  20606603.240                    20606598.360
                                        50.150          48.250



 120947417.479 7  94244750.802 7  23015521.940                    23015517.880
                                        46.200          42.950



 107757679.640 8  83967017.51547  20505598.200                    20505593.100
                                        50.600          44.800



 115141297.460 8  89720507.557 7  21910650.300                    21910647.060
                                        48.100          47.500



 120410680.316 7  93826510.620 7  22913389.720                    22913386.660
                                        45.600          43.500



 127878869.437 7  99645875.655 6  24334538.300                    24334535.740
                                        43.050          41.450



 112488143.635 8  87653103.71747  21405778.960                    21405774.420
                                        48.050          42.400



 118695754.798 7  92490218.42846  22587043.040                    22587039.580
                                        46.050          38.250



 110875262.400 8  86396330.924 7  21098850.900                    21098848.160
                                        50.350          47.000



 23  9 13 16  7  0.0000000  0  9G05G07G13G14G15G18G20G22G30
 108303787.580 8  84392560.663 8  20609519.720                    20609514.840
                                        49.900          48.450



 121027036.955 7  94306791.895 7  23030673.020                    23030669.040
                                        46.350          42.600



 107710319.035 8  83930113.15847  20496585.780                    20496580.700
                                        50.450          45.400



 115078837.843 7  89671837.766 7  21898764.640                    21898761.340
                                        47.750          47.350



 120311426.769 7  93749170.249 7  22894502.400                    22894499.300
                                        45.600          43.650



 127850791.980 7  99623997.125 6  24329195.320                    24329192.780
                                        42.550          41.950



 112566463.128 8  87714131.85447  21420682.720                    21420678.140
                                        48.500          42.300



 118610746.425 7  92423978.19546  22570866.440                    22570862.920
                                        46.550          39.250



 110921688.397 8  86432507.009 7  21107685.480                    21107682.720
                                        50.200          47.150



 23  9 13 16  7 30.0000000  0  9G05G07G13G14G15G18G20G22G30
 108319728.041 8  84404981.776 8  20612553.120                    20612548.260
                                        50.000          48.000



 121106822.364 7  94368962.300 7  23045855.680                    23045851.760
                                        46.700          42.700



 107663290.540 8  83893467.59047  20487636.560                    20487631.480
                                        50.350          45.100



 115016842.563 7  89623529.801 7  21886967.320                    21886964.000
                                        47.150          46.400



 120212329.360 7  93671951.530 7  22875644.780                    22875641.680
                                        46.100          43.400



 127823286.007 7  99602563.918 6  24323961.040                    24323958.540
                                        43.600          41.850



 112645216.797 8  87775498.31147  21435669.100                    21435664.480
                                        48.450          42.350



 118526067.267 7  92357994.51346  22554752.500                    22554748.900
                                        46.700          39.850



 110968485.347 8  86468972.161 7  21116590.660                    21116587.860
                                        50.200          47.100



 23  9 13 16  8  0.0000000  0  9G05G07G13G14G15G18G20G22G30
 108336282.767 8  84417881.564 8  20615703.400                    20615698.540
                                        49.750          48.100



 121186772.197 7  94431260.823 7  23061069.640                    23061065.760
                                        46.600          42.550



 107616594.844 8  83857081.34147  20478750.660                    20478745.600
                                        50.500          44.950



 114955314.049 7  89575585.528 7  21875258.840                    21875255.480
                                        47.150          45.500



 120113390.193 7  93594856.128 7  22856817.260                    22856814.140
                                        46.550          43.750



 127796352.474 7  99581576.771 6  24318835.720                    24318833.220
                                        42.200          41.850



 112724402.381 8  87837201.32647  21450737.680                    21450733.020
                                        48.650          42.300



 118441720.434 7  92292269.78446  22538701.800                    22538698.160
                                        46.400          40.750



 111015651.944 8  86505725.333 7  21125566.180                    21125563.380
                                        50.150          47.650



 23  9 13 16  8 30.0000000  0  9G05G07G13G14G15G18G20G22G30
 108353453.889 8  84431261.645 8  20618970.980                    20618966.120
                                        49.750          48.450



 121266886.837 7  94493687.764 7  23076314.960                    23076311.120
                                        47.000          42.750



 107570234.577 8  83820956.46847  20469928.600                    20469923.540
                                        50.750          44.750



 114894256.212 7  89528008.010 7  21863639.900                    21863636.480
                                        47.300          46.050



 120014612.799 7  93517886.772 7  22838020.540                    22838017.400
                                        46.550          43.750



 127769993.915 7  99561037.649 7  24313819.800                    24313817.340
                                        43.200          43.950



 112804019.334 8  87899240.47047  21465888.340                    21465883.660
                                        48.300          42.250



 118357710.355 7  92226807.44946  22522715.180                    22522711.520
                                        46.750          40.600



 111063188.314 8  86542766.642 7  21134612.060                    21134609.260
                                        50.400          47.700



 23  9 13 16  9  0.0000000  0  9G05G07G13G14G15G18G20G22G30
 108371238.968 8  84445120.140 8  20622355.380                    20622350.540
                                        49.700          48.350



 121347163.933 7  94556241.290 7  23091591.200                    23091587.380
                                        46.250          42.150



 107524210.112 8  83785093.25347  20461170.440                    20461165.360
                                        50.550          44.500



 114833670.404 7  89480798.309 7  21852110.780                    21852107.300
                                        46.850          47.050



 119915997.936 7  93441044.054 7  22819254.760                    22819251.600
                                        45.300          43.250



 127744210.270 7  99540946.522 7  24308913.280                    24308910.860
                                        42.200          43.950



 112884064.972 8  87961613.64946  21481120.580                    21481115.880
                                        48.100          41.550



 118274038.929 7  92161609.01546  22506793.000                    22506789.320
                                        45.750          40.600



 111111092.124 8  86580094.266 7  21143727.860                    21143725.100
                                        50.250          47.700



 23  9 13 16  9 30.0000000  0  9G05G07G13G14G15G18G20G22G30
 108389641.816 8  84459459.999 8  20625857.340                    20625852.520
                                        50.000          48.350



 121427605.047 7  94618922.632 6  23106898.660                    23106894.820
                                        46.150          41.500



 107478525.080 8  83749494.52647  20452476.880                    20452471.800
                                        50.400          44.800



 114773561.847 7  89433960.491 7  21840672.440                    21840668.960
                                        46.950          47.300



 119817550.136 7  93364331.533 7  22800520.720                    22800517.580
                                        44.500          43.300



 127719005.352 7  99521306.286 7  24304116.960                    24304114.620
                                        42.400          44.350



 112964539.910 7  88024321.34447  21496434.480                    21496429.800
                                        47.900          42.500



 118190711.805 7  92096678.87646  22490936.320                    22490932.640
                                        45.400          39.200



 111159364.865 8  86617709.359 7  21152913.900                    21152911.140
                                        50.300          47.700



 23  9 13 16 10  0.0000000  0  9G05G07G13G14G15G18G20G22G30
 108408656.463 8  84474276.586 8  20629475.740                    20629470.920
                                        50.100          48.000



 121508203.956 7  94681726.920 6  23122236.160                    23122232.320
                                        46.200          41.150



 107433175.401 8  83714157.12447  20443847.120                    20443842.020
                                        50.400          44.600



 114713927.615 7  89387492.296 7  21829324.360                    21829320.900
                                        46.900          47.500



 119719265.846 7  93287746.424 7  22781817.780                    22781814.640
                                        45.200          43.050



 127694374.774 7  99502113.637 7  24299429.900                    24299427.620
                                        43.500          43.850



 113045436.581 8  88087357.66647  21511828.640                    21511823.960
                                        48.350          42.250



 118107726.678 7  92032015.22346  22475144.700                    22475141.040
                                        46.050          39.250



 111208000.000 8  86655606.841 7  21162168.880                    21162166.140
                                        50.400          47.750



 23  9 13 16 10 30.0000000  0  9G05G07G13G14G15G18G20G22G30
 108428284.930 8  84489571.483 8  20633210.920                    20633206.120
                                        49.850          48.300



 121588961.368 7  94744654.734 6  23137603.820                    23137599.940
                                        46.150          40.950



 107388164.236 8  83679083.49547  20435281.780                    20435276.660
                                        50.150          45.200



 114654772.009 7  89341397.067 7  21818067.340                    21818063.900
                                        46.600          47.900



 119621149.265 7  93211291.980 7  22763146.760                    22763143.640
                                        45.700          43.300



 127670321.373 7  99483370.715 7  24294852.660                    24294850.480
                                        43.100          43.850



 113126754.941 8  88150722.57147  21527303.040                    21527298.360
                                        48.000          42.750



 118025088.526 7  91967621.92946  22459419.120                    22459415.460
                                        46.700          38.950



 111256998.029 8  86693787.103 7  21171492.940                    21171490.200
                                        50.250          47.600



 23  9 13 16 11  0.0000000  0  9G05G07G13G14G15G18G20G22G30
 108448522.563 8  84505341.047 8  20637062.040                    20637057.240
                                        49.800          48.650



 121669870.519 7  94807700.762 6  23153000.380                    23152996.440
                                        46.050          41.150



 107343487.658 8  83644270.58847  20426780.100                    20426775.000
                                        50.100          45.650



 114596092.539 7  89295672.843 8  21806900.900                    21806897.540
                                        47.150          48.200



 119523197.188 7  93134965.719 7  22744507.060                    22744503.940
                                        46.350          43.900



 127646841.202 6  99465074.504 6  24290384.480                    24290382.340
                                        41.600          41.850



 113208488.132 8  88214410.73046  21542856.380                    21542851.720
                                        48.050          41.800



 117942795.635 7  91903497.65446  22443759.240                    22443755.600
                                        46.900          39.750



 111306352.860 8  86732245.394 7  21180884.880                    21180882.140
                                        50.150          47.550



 23  9 13 16 11 30.0000000  0  9G05G07G13G14G15G18G20G22G30
 108469374.546 8  84521589.319 8  20641030.060                    20641025.300
                                        49.400          48.300



 121750935.842 7  94870868.497 6  23168426.660                    23168422.680
                                        45.550          40.900



 107299152.125 8  83609723.43547  20418343.300                    20418338.240
                                        49.900          45.250



 114537896.723 7  89250325.481 8  21795826.540                    21795823.240
                                        47.400          48.000



 119425416.796 7  93058773.261 7  22725900.020                    22725896.880
                                        45.950          43.900



 127623940.291 7  99447229.645 7  24286026.560                    24286024.400
                                        43.100          42.750



 113290639.016 8  88278424.36347  21558489.200                    21558484.560
                                        48.000          42.850



 117860855.580 7  91839648.32846  22428166.520                    22428162.840
                                        46.100          38.300



 111356068.291 8  86770984.681 7  21190345.440                    21190342.700
                                        49.900          47.200



 23  9 13 16 12  0.0000000  0  9G05G07G13G14G15G18G20G22G30
 108490838.181 8  84538314.227 8  20645114.460                    20645109.700
                                        49.600          48.450



 121832154.551 7  94934155.732 6  23183882.140                    23183878.120
                                        46.000          41.350



 107255157.320 8  83575441.77147  20409971.340                    20409966.340
                                        49.900          45.250



 114480185.211 7  89205355.487 7  21784844.360                    21784841.100
                                        47.600          47.950



 119327808.351 7  92982714.775 7  22707325.740                    22707322.560
                                        45.750          44.100



 127601617.802 7  99429835.524 7  24281778.700                    24281776.520
                                        43.550          43.350



 113373204.036 7  88342760.68147  21574200.820                    21574196.240
                                        47.850          44.100



 117779269.754 7  91776075.02746  22412641.200                    22412637.500
                                        45.850          39.900



 111406141.419 8  86810002.681 7  21199874.060                    21199871.340
                                        49.950          47.300



 23  9 13 16 12 30.0000000  0  9G05G07G13G14G15G18G20G22G30
 108512918.146 8  84555519.370 8  20649316.140                    20649311.420
                                        49.750          48.350



 121913529.083 7  94997564.398 6  23199367.260                    23199363.200
                                        46.350          41.000



 107211507.831 8  83541429.19547  20401665.100                    20401660.120
                                        50.200          45.800



 114422964.181 8  89160767.702 7  21773955.520                    21773952.280
                                        48.300          47.650



 119230378.028 7  92906795.092 7  22688785.320                    22688782.140
                                        45.200          43.750



 127579878.461 7  99412895.778 7  24277641.840                    24277639.640
                                        42.550          44.150



 113456184.948 7  88407421.07747  21589991.600                    21589987.060
                                        47.900          43.350



 117698044.936 7  91712783.03846  22397184.580                    22397180.860
                                        46.650          40.950



 111456574.720 8  86849301.338 7  21209471.200                    21209468.500
                                        50.100          47.150



 23  9 13 16 13  0.0000000  0  9G05G07G13G14G15G18G20G22G30
 108535609.696 8  84573201.085 8  20653634.220                    20653629.500
                                        50.050          48.200



 121995054.839 7  95061090.887 6  23214881.160                    23214877.080
                                        46.500          41.650



 107168201.615 8  83507684.09347  20393424.180                    20393419.240
                                        50.500          45.750



 114366232.534 8  89116561.246 7  21763159.840                    21763156.600
                                        48.450          47.600



 119133123.953 7  92831012.733 7  22670278.440                    22670275.280
                                        44.800          43.900



 127558719.618 7  99396408.400 7  24273615.420                    24273613.200
                                        42.250          44.050



 113539575.997 8  88472401.05247  21605860.440                    21605855.940
                                        48.450          42.300



 117617180.802 7  91649772.10146  22381796.580                    22381792.860
                                        46.600          40.300



 111507363.440 8  86888876.941 7  21219136.000                    21219133.280
                                        49.800          47.250



 23  9 13 16 13 30.0000000  0  9G05G07G13G14G15G18G20G22G30
 108558913.311 8  84591359.720 8  20658068.760                    20658064.080
                                        49.700          48.350



 122076730.610 7  95124734.286 6  23230423.600                    23230419.500
                                        46.150          40.900



 107125239.178 8  83474206.87347  20385248.700                    20385243.780
                                        50.250          45.550



 114309992.248 8  89072737.673 7  21752457.680                    21752454.380
                                        48.050          47.900



 119036047.783 7  92755369.032 7  22651805.360                    22651802.220
                                        44.950          43.800



 127538141.834 6  99380373.745 7  24269699.600                    24269697.380
                                        41.750          43.600



 113623374.787 8  88537698.76947  21621806.840                    21621802.380
                                        48.400          42.800



 117536679.849 7  91587044.17346  22366477.660                    22366473.960
                                        46.100          40.200



 111558506.070 8  86928728.317 7  21228868.120                    21228865.420
                                        49.350          47.150



 23  9 13 16 14  0.0000000  0  9G05G07G13G14G15G18G20G22G30
 108582823.386 8  84609990.937 8  20662618.720                    20662614.040
                                        49.700          48.250



 122158550.790 7  95188490.209 6  23245993.520                    23245989.380
                                        46.550          40.900



 107082617.453 8  83440995.13447  20377138.040                    20377133.160
                                        50.350          45.300



 114254241.285 8  89029295.401 8  21741848.620                    21741845.280
                                        48.200          48.150



 118939147.031 7  92679861.987 7  22633365.680                    22633362.580
                                        45.900          43.000



 127518141.474 7  99364789.075 7  24265893.640                    24265891.400
                                        42.250          44.550



 113707575.049 8  88603309.31946  21637829.660                    21637825.200
                                        49.000          41.800



 117456540.416 7  91524597.91746  22351227.560                    22351223.900
                                        47.250          40.350



 111609996.926 8  86968851.035 7  21238666.520                    21238663.800
                                        49.300          47.200



 23  9 13 16 14 30.0000000  0  9G05G07G13G14G15G18G20G22G30
 108607344.351 8  84629098.164 7  20667284.920                    20667280.240
                                        49.400          47.700



 122240517.745 7  95252360.517 6  23261591.360                    23261587.180
                                        46.500          40.100



 107040341.917 8  83408053.17047  20369093.260                    20369088.400
                                        50.200          44.850



 114198985.783 8  88986239.198 8  21731333.840                    21731330.480
                                        48.400          48.300



 118842428.163 7  92604496.683 7  22614960.620                    22614957.520
                                        46.000          42.000



 127498723.154 7  99349657.933 7  24262198.440                    24262196.200
                                        42.950          44.550



 113792178.450 8  88669234.01546  21653929.200                    21653924.720
                                        48.600          41.900



 117376769.535 7  91462438.84646  22336047.620                    22336043.940
                                        47.150          39.350



 111661838.539 8  87009247.079 7  21248531.640                    21248528.940
                                        49.250          47.050



 23  9 13 16 15  0.0000000  0  9G05G07G13G14G15G18G20G22G30
 108632474.588 8  84648680.129 7  20672067.060                    20672062.400
                                        49.500          47.750



 122322629.816 7  95316343.883 6  23277216.820                    23277212.620
                                        46.100          40.550



 106998412.383 8  83375380.81447  20361114.320                    20361109.480
                                        50.050          44.700



 114144227.163 8  88943570.170 8  21720913.600                    21720910.260
                                        48.600          48.450



 118745891.612 7  92529273.447 7  22596590.280                    22596587.140
                                        46.250          42.150



 127479886.823 7  99334980.289 7  24258613.980                    24258611.740
                                        43.100          45.200



 113877181.981 8  88735470.48146  21670104.920                    21670100.380
                                        48.600          41.750



 117297368.955 7  91400568.27746  22320938.180                    22320934.460
                                        46.650          38.750



 111714028.779 8  87049914.774 7  21258463.100                    21258460.440
                                        49.450          47.050



 23  9 13 16 15 30.0000000  0  9G05G07G13G14G15G18G20G22G30
 108658215.848 8  84668738.246 7  20676965.460                    20676960.800
                                        49.350          47.600



 122404887.285 7  95380440.569 6  23292869.940                    23292865.680
                                        46.400          40.500



 106956831.810 8  83342980.37847  20353201.780                    20353196.940
                                        50.150          44.550



 114089969.210 8  88901291.287 8  21710588.660                    21710585.300
                                        48.750          48.650



 118649541.259 7  92454195.303 6  22578255.380                    22578252.160
                                        45.850          41.150



 127461634.758 7  99320757.913 7  24255140.720                    24255138.500
                                        43.200          44.200



 113962584.949 7  88802018.20346  21686356.640                    21686352.060
                                        47.950          41.800



 117218343.274 7  91338989.88246  22305900.060                    22305896.260
                                        46.300          38.500



 111766567.870 8  87090854.315 7  21268460.920                    21268458.300
                                        49.300          47.000



 23  9 13 16 16  0.0000000  0  9G05G07G13G14G15G18G20G22G30
 108684564.943 8  84689269.982 7  20681979.520                    20681974.880
                                        49.550          47.350



 122487286.336 7  95444647.554 6  23308550.000                    23308545.740
                                        46.300          41.000



 106915598.576 8  83310850.58547  20345355.340                    20345350.480
                                        50.200          44.200



 114036211.637 8  88859402.292 8  21700358.940                    21700355.580
                                        48.050          48.700



 118553376.422 7  92379261.676 6  22559955.800                    22559952.540
                                        45.650          41.100



 127443964.969 7  99306989.265 7  24251778.280                    24251776.020
                                        42.700          44.300



 114048382.783 8  88868873.61246  21702683.520                    21702678.880
                                        48.250          41.400



 117139692.827 7  91277703.89346  22290933.320                    22290929.480
                                        47.150          40.150



 111819451.982 8  87132062.679 7  21278524.440                    21278521.840
                                        49.300          47.050



 23  9 13 16 16 30.0000000  0  9G05G07G13G14G15G18G20G22G30
 108711523.496 8  84710276.632 7  20687109.580                    20687104.920
                                        49.850          47.850



 122569828.290 7  95508965.888 6  23324257.260                    23324253.000
                                        45.850          41.600



 106874716.011 8  83278994.05147  20337575.640                    20337570.760
                                        50.300          44.650



 113982958.761 7  88817906.597 8  21690225.260                    21690221.860
                                        47.500          48.650



 118457401.242 7  92304475.881 7  22541692.280                    22541688.960
                                        45.800          43.350



 127426880.321 7  99293676.589 7  24248527.180                    24248524.880
                                        43.250          43.900



 114134575.352 8  88936036.61546  21719085.480                    21719080.780
                                        48.550          41.200



 117061422.626 7  91216714.20146  22276038.940                    22276035.080
                                        47.700          41.850



 111872681.986 8  87173540.582 7  21288653.760                    21288651.200
                                        49.450          47.600



 23  9 13 16 17  0.0000000  0  9G05G07G13G14G15G18G20G22G30
 108739090.334 8  84731757.259 7  20692355.380                    20692350.740
                                        49.850          47.900



 122652511.020 7  95573393.914 6  23339991.320                    23339987.080
                                        45.650          41.700



 106834184.577 8  83247411.11347  20329862.780                    20329857.840
                                        50.500          44.550



 113930211.894 7  88776805.194 8  21680187.820                    21680184.460
                                        47.800          48.600



 118361617.224 7  92229839.011 7  22523465.160                    22523461.820
                                        46.200          43.350



 127410380.592 7  99280819.684 7  24245387.380                    24245385.040
                                        43.050          44.200



 114221159.705 8  89003504.89346  21735562.000                    21735557.260
                                        48.650          41.350



 116983534.469 7  91156022.19846  22261217.280                    22261213.420
                                        47.900          41.950



 111926255.654 8  87215286.264 7  21298848.500                    21298845.980
                                        49.600          47.600



 23  9 13 16 17 30.0000000  0  9G05G07G13G14G15G18G20G22G30
 108767261.660 8  84753708.933 7  20697716.220                    20697711.560
                                        49.700          47.250



 122735329.985 7  95637928.099 6  23355751.280                    23355747.080
                                        45.700          41.550



 106794002.037 8  83216100.05247  20322216.300                    20322211.300
                                        50.500          44.700



 113877969.905 7  88736097.207 7  21670246.440                    21670243.100
                                        47.800          47.950



 118266022.499 7  92155349.663 7  22505274.060                    22505270.680
                                        46.250          43.400



 127394463.116 7  99268416.470 7  24242358.380                    24242356.040
                                        43.150          44.150



 114308130.332 8  89071274.15346  21752112.020                    21752107.260
                                        48.100          41.900



 116906028.242 7  91095627.80046  22246468.300                    22246464.460
                                        47.950          41.250



 111980168.374 8  87257296.158 7  21309107.740                    21309105.280
                                        49.700          47.600



 23  9 13 16 18  0.0000000  0  9G05G07G13G14G15G18G20G22G30
 108796038.841 8  84776132.694 7  20703192.340                    20703187.680
                                        49.700          47.750



 122818285.844 7  95702568.964 6  23371537.300                    23371533.140
                                        45.200          41.900



 106754171.015 8  83185062.89647  20314636.720                    20314631.680
                                        50.150          45.400



 113826236.614 8  88695785.587 7  21660401.880                    21660398.540
                                        48.000          47.900



 118170621.058 7  92081010.924 7  22487119.720                    22487116.360
                                        46.550          45.000



 127379129.994 7  99256468.616 7  24239440.560                    24239438.220
                                        42.650          44.200



 114395486.849 7  89139344.10947  21768735.440                    21768730.700
                                        47.700          42.250



 116828908.101 7  91035534.23846  22231792.820                    22231788.960
                                        47.750          40.950



 112034420.464 8  87299570.489 8  21319431.600                    21319429.160
                                        49.700          48.000



 23  9 13 16 18 30.0000000  0  9G05G07G13G14G15G18G20G22G30
 108825418.922 8  84799026.233 7  20708783.220                    20708778.540
                                        49.800          47.350



 122901375.072 7  95767313.748 6  23387348.700                    23387344.580
                                        45.450          41.100



 106714690.393 8  83154298.78347  20307123.800                    20307118.740
                                        50.200          45.600



 113775011.810 8  88655870.186 8  21650654.080                    21650650.740
                                        48.450          48.000



 118075412.772 7  92006822.694 7  22469002.160                    22468998.800
                                        46.250          44.850



 127364379.538 7  99244974.795 7  24236633.640                    24236631.260
                                        43.100          43.350



 114483224.445 7  89207711.02947  21785431.360                    21785426.660
                                        47.650          42.000



 116752174.604 7  90975741.95646  22217190.920                    22217187.020
                                        47.950          40.100



 112089008.291 8  87342106.443 7  21329819.340                    21329816.920
                                        49.800          47.850



 23  9 13 16 19  0.0000000  0  9G05G07G13G14G15G18G20G22G30
 108855405.292 8  84822392.219 8  20714489.440                    20714484.760
                                        49.600          48.000



 122984600.215 7  95832164.437 6  23403185.980                    23403181.880
                                        44.850          41.150



 106675564.904 8  83123811.39347  20299678.480                    20299673.380
                                        50.000          45.600



 113724301.209 8  88616355.444 7  21641004.140                    21641000.820
                                        48.650          47.500



 117980402.873 7  91932789.045 7  22450922.360                    22450919.020
                                        46.050          45.400



 127350215.920 7  99233938.213 7  24233938.400                    24233936.020
                                        43.600          43.800



 114571344.524 7  89276375.97747  21802200.060                    21802195.400
                                        47.600          42.250



 116675834.328 7  90916256.08446  22202663.840                    22202659.900
                                        47.900          41.550



 112143934.182 8  87384905.812 7  21340271.420                    21340269.020
                                        49.800          47.650



 23  9 13 16 19 30.0000000  0  9G05G07G13G14G15G18G20G22G30
 108885993.910 8  84846227.483 7  20720310.280                    20720305.600
                                        49.550          47.800



 123067956.678 7  95897117.457 6  23419048.220                    23419044.180
                                        45.250          40.350



 106636792.312 8  83093598.98447  20292300.280                    20292295.200
                                        50.050          45.350



 113674103.416 8  88577240.293 7  21631451.820                    21631448.460
                                        48.600          46.450



 117885590.199 7  91858909.072 7  22432880.100                    22432876.800
                                        46.550          45.900



 127336636.067 7  99223356.500 7  24231354.260                    24231351.860
                                        43.100          43.500



 114659841.127 7  89345334.31746  21819040.400                    21819035.800
                                        47.150          41.950



 116599886.319 7  90857075.86446  22188211.400                    22188207.460
                                        47.850          40.800



 112199193.281 8  87427964.814 7  21350786.940                    21350784.520
                                        49.900          47.550



 23  9 13 16 20  0.0000000  0  9G05G07G13G14G15G18G20G22G30
 108917184.968 8  84870532.179 8  20726245.760                    20726241.100
                                        49.550          48.000



 123151444.375 7  95962172.744 6  23434935.460                    23434931.440
                                        45.950          40.750



 106598374.626 8  83063663.13747  20284989.640                    20284984.560
                                        49.850          45.650



 113624421.609 8  88538527.219 7  21621997.680                    21621994.260
                                        48.050          46.600



 117790977.800 7  91785185.186 7  22414875.940                    22414872.680
                                        46.650          45.600



 127323641.584 7  99213230.914 7  24228881.520                    24228879.120
                                        43.250          43.550



 114748713.567 7  89414585.50746  21835952.280                    21835947.740
                                        46.500          41.750



 116524334.514 7  90798204.39346  22173834.340                    22173830.380
                                        47.700          41.150



 112254785.356 8  87471283.283 7  21361365.800                    21361363.380
                                        49.600          47.650



 23  9 13 16 20 30.0000000  0  9G05G07G13G14G15G18G20G22G30
 108948978.235 8  84895306.133 8  20732295.820                    20732291.200
                                        49.500          48.100



 123235062.297 7  96027329.507 6  23450847.460                    23450843.460
                                        45.950          40.950



 106560313.075 8  83034004.79747  20277746.740                    20277741.660
                                        50.000          45.600



 113575257.833 7  88500217.804 7  21612642.100                    21612638.620
                                        47.600          46.600



 117696567.740 7  91711618.939 7  22396910.320                    22396907.080
                                        46.850          45.000



 127311232.950 7  99203561.840 7  24226520.260                    24226517.860
                                        43.950          43.750



 114837959.519 7  89484127.74047  21852935.200                    21852930.780
                                        46.400          42.050



 116449181.836 8  90739643.91146  22159533.240                    22159529.300
                                        48.050          40.800



 112310709.080 8  87514860.185 7  21372007.760                    21372005.360
                                        49.400          47.800



 23  9 13 16 21  0.0000000  0  9G05G07G13G14G15G18G20G22G30
 108981371.170 8  84920547.364 8  20738460.000                    20738455.400
                                        50.150          48.000



 123318807.688 7  96092585.609 6  23466783.720                    23466779.740
                                        46.200          41.200



 106522607.362 8  83004623.71847  20270571.560                    20270566.500
                                        50.400          45.450



 113526612.666 8  88462312.506 7  21603385.200                    21603381.680
                                        48.050          46.750



 117602360.512 7  91638210.739 7  22378983.300                    22378980.060
                                        46.750          44.300



 127299409.060 7  99194348.452 7  24224270.240                    24224267.800
                                        43.250          43.400



 114927575.034 7  89553957.94446  21869988.460                    21869984.140
                                        47.800          41.100



 116374429.172 8  90681395.13746  22145308.240                    22145304.300
                                        48.400          41.400



 112366961.663 8  87558693.343 7  21382712.320                    21382709.900
                                        49.600          47.850



 23  9 13 16 21 30.0000000  0  9G05G07G13G14G15G18G20G22G30
 109014365.782 8  84946257.446 8  20744738.700                    20744734.100
                                        49.700          48.100



 123402681.131 7  96157941.483 6  23482744.360                    23482740.400
                                        46.300          41.150



 106485260.419 8  82975522.21447  20263464.680                    20263459.600
                                        50.200          45.400



 113478489.723 8  88424814.156 7  21594227.660                    21594224.080
                                        48.050          47.300



 117508360.048 7  91564963.657 7  22361095.620                    22361092.360
                                        47.200          43.450



 127288171.915 7  99185592.262 7  24222131.880                    24222129.420
                                        43.150          43.850



 115017559.439 7  89624075.60746  21887111.940                    21887107.680
                                        47.950          41.000



 116300080.993 7  90623461.54646  22131160.240                    22131156.300
                                        47.800          41.250



 112423543.355 8  87602782.957 7  21393479.460                    21393477.080
                                        49.350          47.700



 23  9 13 16 22  0.0000000  0  9G05G07G13G14G15G18G20G22G30
 109047958.704 8  84972433.726 8  20751131.260                    20751126.660
                                        49.750          48.250



 123486679.617 7  96223394.777 6  23498728.820                    23498724.860
                                        45.700          41.300



 106448270.910 8  82946699.22347  20256425.820                    20256420.720
                                        50.000          45.600



 113430889.052 7  88387722.763 8  21585169.500                    21585165.920
                                        47.850          48.050



 117414566.288 7  91491877.621 7  22343247.280                    22343244.000
                                        46.700          43.550



 127277519.984 7  99177292.034 7  24220104.900                    24220102.460
                                        43.950          43.300



 115107908.497 7  89694477.41746  21904304.840                    21904300.600
                                        47.700          41.050



 116226138.317 7  90565843.93846  22117089.380                    22117085.440
                                        47.600          41.500



 112480450.888 8  87647126.463 7  21404308.620                    21404306.260
                                        49.400          47.900



 23  9 13 16 22 30.0000000  0  9G05G07G13G14G15G18G20G22G30
 109082150.390 8  84999076.592 8  20757637.740                    20757633.160
                                        49.850          48.100



 123570803.370 7  96288945.688 6  23514737.120                    23514733.160
                                        45.800          41.600



 106411641.163 8  82918156.55947  20249455.400                    20249450.320
                                        49.950          45.700



 113383813.669 8  88351040.663 8  21576211.320                    21576207.760
                                        48.150          48.050



 117320982.021 7  91418954.844 7  22325438.780                    22325435.480
                                        46.700          43.550



 127267454.579 7  99169448.875 7  24218189.500                    24218187.060
                                        43.600          42.950



 115198621.166 7  89765162.57346  21921566.920                    21921562.680
                                        47.350          41.100



 116152604.766 8  90508545.11846  22103096.380                    22103092.440
                                        48.350          40.900



 112537683.989 8  87691723.645 7  21415199.740                    21415197.420
                                        49.550          47.800



 23  9 13 16 23  0.0000000  0  9G05G07G13G14G15G18G20G22G30
 109116938.856 8  85026184.466 7  20764257.800                    20764253.240
                                        49.850          47.900



 123655049.429 7  96354591.903 6  23530768.680                    23530764.720
                                        45.850          41.900



 106375371.216 8  82889894.26847  20242553.460                    20242548.360
                                        50.200          45.600



 113337264.258 8  88314768.427 7  21567353.220                    21567349.660
                                        48.350          47.800



 117227608.391 7  91346196.198 7  22307670.340                    22307667.020
                                        46.300          43.550



 127257974.771 7  99162062.012 7  24216385.560                    24216383.080
                                        43.250          42.600



 115289693.966 7  89836128.33546  21938897.540                    21938893.300
                                        47.100          40.500



 116079481.504 7  90451565.98446  22089181.480                    22089177.500
                                        47.800          40.900



 112595240.002 8  87736572.466 7  21426152.300                    21426150.000
                                        49.350          47.900



 23  9 13 16 23 30.0000000  0  9G05G07G13G14G15G18G20G22G30
 109152326.638 8  85053759.342 8  20770991.920                    20770987.340
                                        50.100          48.450



 123739420.627 7  96420335.619 6  23546824.040                    23546820.100
                                        45.900          41.700



 106339465.327 8  82861915.66447  20235720.780                    20235715.680
                                        50.350          45.600



 113291246.172 8  88278910.195 7  21558596.260                    21558592.700
                                        48.800          47.800



 117134451.029 7  91273606.085 7  22289943.040                    22289939.700
                                        46.550          43.750



 127249084.312 7  99155134.400 7  24214693.740                    24214691.240
                                        42.600          42.300



 115381127.775 7  89907375.40146  21956296.860                    21956292.620
                                        47.550          40.800



 116006774.925 7  90394911.55647  22075345.840                    22075341.860
                                        47.600          42.000



 112653121.025 8  87781674.535 8  21437166.700                    21437164.440
                                        49.600          48.100



 23  9 13 16 24  0.0000000  0  9G05G07G13G14G15G18G20G22G30
 109188308.728 8  85081797.310 8  20777839.120                    20777834.560
                                        50.000          48.600



 123823911.011 7  96486172.212 7  23562902.100                    23562898.140
                                        46.350          42.100



 106303920.070 8  82834218.06347  20228956.740                    20228951.640
                                        50.200          45.450



 113245756.667 8  88243463.856 8  21549939.900                    21549936.320
                                        49.250          48.550



 117041506.874 7  91201182.087 7  22272256.300                    22272252.980
                                        46.600          43.650



 127240778.750 7  99148662.543 7  24213113.200                    24213110.700
                                        42.950          43.300



 115472915.320 8  89978898.10946  21973763.500                    21973759.260
                                        48.000          40.700



 115934483.094 7  90338580.31447  22061589.120                    22061585.120
                                        47.950          42.550



 112711321.013 8  87827025.153 8  21448241.800                    21448239.580
                                        49.700          48.200



 23  9 13 16 24 30.0000000  0  9G05G07G13G14G15G18G20G22G30
 109224883.657 8  85110297.223 8  20784799.160                    20784794.580
                                        49.650          48.650



 123908519.121 7  96552100.548 6  23579002.560                    23578998.560
                                        45.700          41.900



 106268736.128 8  82806802.00647  20222261.460                    20222256.360
                                        50.000          45.650



 113200797.082 8  88208430.448 8  21541384.380                    21541380.760
                                        48.900          48.650



 116948777.501 7  91128925.490 7  22254610.420                    22254607.080
                                        46.200          44.000



 127233057.752 7  99142646.188 7  24211643.900                    24211641.420
                                        43.200          43.350



 115565054.209 7  90050694.59746  21991297.000                    21991292.740
                                        47.300          40.050



 115862607.623 8  90282573.49847  22047911.620                    22047907.660
                                        48.000          42.200



 112769838.079 8  87872622.840 7  21459377.240                    21459375.060
                                        49.650          47.850



 23  9 13 16 25  0.0000000  0  9G05G07G13G14G15G18G20G22G30
 109262052.735 8  85139260.121 8  20791872.240                    20791867.660
                                        49.700          48.000



 123993245.966 7  96618121.385 7  23595125.620                    23595121.620
                                        45.950          42.000



 106233916.676 8  82779669.97447  20215635.540                    20215630.440
                                        50.100          45.950



 113156371.425 8  88173813.091 8  21532930.460                    21532926.820
                                        48.650          48.050



 116856267.442 7  91056839.780 7  22237006.260                    22237002.920
                                        46.700          43.550



 127225923.752 7  99137087.223 7  24210286.320                    24210283.880
                                        42.700          43.250



 115657544.194 7  90122764.65246  22008897.320                    22008893.040
                                        46.750          40.550



 115791153.465 8  90226894.98346  22034314.320                    22034310.360
                                        48.350          41.300



 112828673.047 8  87918468.251 7  21470573.200                    21470571.040
                                        49.400          47.650



 23  9 13 16 25 30.0000000  0  9G05G07G13G14G15G18G20G22G30
 109299811.876 8  85168682.810 8  20799057.580                    20799053.020
                                        49.450          48.250



 124078086.960 7  96684231.204 6  23611270.380                    23611266.360
                                        45.550          41.900



 106199459.490 8  82752820.22947  20209078.540                    20209073.440
                                        50.050          46.050



 113112478.426 8  88139610.787 7  21524577.880                    21524574.260
                                        48.000          47.900



 116763975.603 7  90984924.094 7  22219443.660                    22219440.320
                                        46.750          44.200



 127219373.692 7  99131983.284 7  24209039.840                    24209037.420
                                        42.950          42.200



 115750379.509 7  90195103.80546  22026563.320                    22026559.060
                                        47.050          40.350



 115720120.202 8  90171544.43646  22020797.120                    22020793.140
                                        48.400          41.150



 112887821.421 8  87964557.881 7  21481828.780                    21481826.640
                                        49.550          47.700



 23  9 13 16 26  0.0000000  0  9G05G07G13G14G15G18G20G22G30
 109338162.439 8  85198566.341 8  20806355.480                    20806350.940
                                        49.600          48.650



 124163042.946 7  96750430.579 7  23627437.060                    23627433.020
                                        45.650          42.000



 106165367.376 8  82726254.95347  20202591.020                    20202585.920
                                        50.050          46.250



 113069121.525 8  88105826.213 7  21516327.320                    21516323.700
                                        48.100          47.650



 116671905.482 7  90913181.192 7  22201923.260                    22201919.880
                                        47.650          44.650



 127213409.429 7  99127335.829 6  24207904.840                    24207902.400
                                        42.950          41.650



 115843559.598 7  90267711.59946  22044294.960                    22044290.720
                                        46.900          40.200



 115649512.098 8  90116525.17546  22007360.820                    22007356.840
                                        48.200          41.900



 112947283.464 8  88010891.924 7  21493144.040                    21493141.920
                                        49.400          47.600



 23  9 13 16 26 30.0000000  0  9G05G07G13G14G15G18G20G22G30
 109377105.862 8  85228911.847 8  20813766.180                    20813761.660
                                        49.650          48.150



 124248115.278 7  96816720.642 6  23643625.860                    23643621.800
                                        45.300          41.750



 106131643.549 8  82699976.66347  20196173.560                    20196168.480
                                        50.050          46.550



 113026304.870 8  88072462.609 7  21508179.540                    21508175.940
                                        48.300          47.600



 116580061.537 7  90841614.519 7  22184445.920                    22184442.540
                                        47.800          44.350



 127208033.357 7  99123146.692 7  24206881.760                    24206879.320
                                        42.650          43.150



 115937084.242 7  90340587.87646  22062092.160                    22062087.940
                                        46.850          40.250



 115579334.053 7  90061841.02447  21994006.360                    21994002.360
                                        47.950          42.100



 113007060.178 8  88057471.160 7  21504519.200                    21504517.100
                                        49.150          47.400



 23  9 13 16 27  0.0000000  0  9G05G07G13G14G15G18G20G22G30
 109416635.337 8  85259714.015 7  20821288.400                    20821283.920
                                        50.000          47.750



 124333298.023 7  96883096.721 6  23659835.660                    23659831.600
                                        45.050          41.600



 106098284.271 8  82673982.42247  20189825.500                    20189820.440
                                        50.050          46.400



 112984025.140 8  88039517.383 7  21500133.940                    21500130.340
                                        48.450          47.250



 116488440.803 7  90770221.768 7  22167011.080                    22167007.660
                                        47.600          44.050



 127203240.552 7  99119412.026 7  24205969.700                    24205967.260
                                        43.250          42.850



 116030946.183 7  90413726.98746  22079953.520                    22079949.360
                                        47.650          40.350



 115509584.035 8  90007490.40946  21980733.340                    21980729.360
                                        48.200          41.900



 113067145.087 8  88104290.540 7  21515953.000                    21515950.920
                                        48.900          47.300



 23  9 13 16 27 30.0000000  0  9G05G07G13G14G15G18G20G22G30
 109456753.274 8  85290974.712 7  20828922.620                    20828918.140
                                        49.900          47.600



 124418592.404 7  96949559.814 6  23676066.680                    23676062.640
                                        44.750          41.650



 106065292.806 8  82648274.79647  20183547.420                    20183542.380
                                        50.000          46.300



 112942286.722 8  88006993.946 7  21492191.360                    21492187.780
                                        48.900          47.350



 116397047.804 7  90699006.481 7  22149619.560                    22149616.140
                                        47.050          43.700



 127199033.557 7  99116133.898 7  24205169.100                    24205166.600
                                        43.500          42.650



 116125145.637 7  90487129.09746  22097879.140                    22097875.000
                                        47.300          39.900



 115440266.615 7  89953476.86747  21967542.660                    21967538.680
                                        47.850          42.450



 113127539.444 8  88151351.044 7  21527445.700                    21527443.620
                                        48.750          47.150



 23  9 13 16 28  0.0000000  0  9G05G07G13G14G15G18G20G22G30
 109497458.255 8  85322692.851 7  20836668.560                    20836664.060
                                        49.450          47.400



 124503997.503 7  97016109.160 6  23692318.780                    23692314.740
                                        44.400          41.000



 106032670.770 8  82622855.04047  20177339.640                    20177334.620
                                        49.700          46.500



 112901091.442 8  87974893.747 7  21484352.160                    21484348.540
                                        49.000          47.650



 116305884.991 7  90627970.531 7  22132271.860                    22132268.420
                                        46.750          43.350



 127195412.641 7  99113312.413 7  24204480.060                    24204477.540
                                        43.050          42.700



 116219680.357 7  90560792.44346  22115868.560                    22115864.440
                                        46.700          39.400



 115371384.461 7  89899802.50546  21954434.780                    21954430.820
                                        47.850          41.250



 113188242.006 8  88198651.717 7  21538997.020                    21538994.960
                                        48.700          47.050



 23  9 13 16 28 30.0000000  0  9G05G07G13G14G15G18G20G22G30
 109538747.329 8  85354866.138 8  20844525.620                    20844521.100
                                        49.150          48.000



 124589510.150 7  97082742.341 6  23708591.300                    23708587.280
                                        44.550          40.700



 106000416.973 8  82597722.21347  20171201.960                    20171196.940
                                        49.600          46.250



 112860438.764 8  87943216.358 7  21476616.200                    21476612.580
                                        49.150          47.950



 116214952.162 7  90557113.822 7  22114967.880                    22114964.440
                                        46.550          44.750



 127192375.519 7  99110945.816 7  24203902.140                    24203899.580
                                        43.650          43.750



 116314545.374 7  90634713.18346  22133920.820                    22133916.700
                                        47.100          39.750



 115302937.740 8  89846467.42846  21941409.780                    21941405.820
                                        48.200          41.050



 113249249.093 8  88246189.679 7  21550606.280                    21550604.260
                                        48.800          47.000



 23  9 13 16 29  0.0000000  0  9G05G07G13G14G15G18G20G22G30
 109580620.264 8  85387494.389 8  20852493.780                    20852489.280
                                        48.900          48.550



 124675129.964 7  97149459.010 6  23724884.220                    23724880.240
                                        45.050          40.650



 105968533.223 8  82572877.73647  20165134.680                    20165129.660
                                        49.850          46.250



 112820331.219 8  87911963.758 7  21468984.000                    21468980.320
                                        49.350          47.950



 116124252.215 7  90486438.583 7  22097708.200                    22097704.780
                                        46.800          44.750



 127189922.986 7  99109034.727 7  24203435.500                    24203432.900
                                        43.850          44.550



 116409739.545 7  90708890.40846  22152035.740                    22152031.600
                                        47.200          38.950



 115234929.932 8  89793474.37246  21928468.280                    21928464.300
                                        48.250          41.900



 113310560.233 8  88293964.567 7  21562273.400                    21562271.400
                                        49.150          47.300



 23  9 13 16 29 30.0000000  0  9G05G07G13G14G15G18G20G22G30
 109623076.815 8  85420577.401 8  20860572.980                    20860568.520
                                        48.900          48.550



 124760856.369 7  97216258.735 6  23741197.440                    23741193.460
                                        45.350          40.350



 105937020.864 8  82548322.65747  20159138.060                    20159133.060
                                        49.950          46.050



 112780771.007 8  87881137.636 7  21461455.960                    21461452.240
                                        49.550          47.900



 116033787.881 7  90415946.929 7  22080493.340                    22080489.980
                                        47.100          44.850



 127188055.549 7  99107579.604 7  24203080.160                    24203077.500
                                        43.150          43.600



 116505260.293 7  90783322.07846  22170212.820                    22170208.660
                                        46.500          40.050



 115167364.121 8  89740825.72447  21915610.900                    21915606.900
                                        48.250          42.400



 113372174.559 8  88341975.704 7  21573998.240                    21573996.220
                                        48.950          47.300



 23  9 13 16 30  0.0000000  0  9G05G07G13G14G15G18G20G22G30
 109666115.371 8  85454113.910 7  20868762.920                    20868758.540
                                        48.450          47.900



 124846687.920 7  97283140.409 6  23757530.660                    23757526.680
                                        44.650          39.550



 105905880.766 8  82524057.65747  20153212.280                    20153207.280
                                        49.700          46.100



 112741759.258 8  87850738.874 7  21454032.300                    21454028.540
                                        49.300          47.650



 115943560.488 7  90345639.898 7  22063323.600                    22063320.280
                                        46.700          44.750



 127186772.621 7  99106579.942 7  24202836.040                    24202833.340
                                        42.850          43.250



 116601104.998 7  90858006.17446  22188451.540                    22188447.380
                                        46.850          40.150



 115100242.204 8  89688522.95747  21902838.000                    21902834.000
                                        48.600          42.450



 113434090.202 8  88390221.620 7  21585780.440                    21585778.400
                                        48.600          47.100



 23  9 13 16 30 30.0000000  0  9G05G07G13G14G15G18G20G22G30
 109709735.484 8  85488103.580 7  20877063.500                    20877059.220
                                        48.800          47.300



 124932624.340 7  97350103.782 6  23773883.840                    23773879.900
                                        45.250          39.000



 105875114.738 8  82500084.13047  20147357.680                    20147352.700
                                        49.900          46.250



 112703298.431 8  87820769.425 7  21446713.480                    21446709.640
                                        49.350          47.900



 115853573.037 7  90275519.854 7  22046199.520                    22046196.200
                                        47.700          44.050



 127186074.881 7  99106036.282 7  24202703.240                    24202700.540
                                        43.350          44.350



 116697272.279 7  90932941.67446  22206751.620                    22206747.400
                                        46.850          39.000



 115033567.349 8  89636568.55747  21890150.180                    21890146.140
                                        48.250          42.250



 113496306.632 8  88438701.925 7  21597619.860                    21597617.820
                                        48.450          47.500



 23  9 13 16 31  0.0000000  0  9G05G07G13G14G15G18G20G22G30
 109753933.575 8  85522543.632 7  20885474.080                    20885469.860
                                        48.600          46.850



 125018661.654 7  97417145.804 6  23790256.220                    23790252.280
                                        44.900          38.950



 105844720.470 8  82476400.28947  20141573.840                    20141568.860
                                        49.700          46.400



 112665387.216 8  87791228.257 8  21439499.220                    21439495.340
                                        48.900          48.000



 115763824.809 7  90205586.190 7  22029120.980                    22029117.660
                                        47.650          44.100



 127185959.407 7  99105946.294 7  24202681.280                    24202678.620
                                        44.050          44.150



 116793756.669 7  91008124.26246  22225112.040                    22225107.780
                                        47.100          38.800



 114967339.149 7  89584962.20647  21877547.360                    21877543.280
                                        47.650          42.250



 113558819.533 8  88487413.235 7  21609515.680                    21609513.640
                                        48.300          47.500



 23  9 13 16 31 30.0000000  0  9G05G07G13G14G15G18G20G22G30
 109798709.548 8  85557433.973 7  20893994.640                    20893990.420
                                        49.400          47.150



 125104799.815 7  97484266.369 6  23806647.820                    23806643.880
                                        45.600          38.850



 105814700.273 8  82453007.93447  20135861.200                    20135856.220
                                        49.800          46.300



 112628027.912 8  87762117.157 7  21432389.960                    21432386.060
                                        49.200          47.500



 115674318.627 8  90135841.167 7  22012088.500                    22012085.120
                                        48.050          43.900



 127186426.688 7  99106310.400 7  24202770.220                    24202767.580
                                        43.800          44.200



 116890556.343 7  91083552.52146  22243532.460                    22243528.160
                                        46.950          40.700



 114901561.142 8  89533706.68246  21865030.160                    21865026.060
                                        48.300          41.050



 113621628.316 8  88536355.109 7  21621467.820                    21621465.780
                                        48.950          47.300



 23  9 13 16 32  0.0000000  0  9G05G07G13G14G15G18G20G22G30
 109844061.845 8  85592773.408 7  20902624.860                    20902620.660
                                        48.800          47.050



 125191038.833 7  97551465.544 6  23823058.620                    23823054.660
                                        45.050          39.400



 105785055.998 8  82429908.50547  20130220.060                    20130215.080
                                        49.550          46.300



 112591223.278 8  87733438.275 7  21425386.240                    21425382.300
                                        48.900          46.800



 115585057.906 7  90066287.372 7  21995102.740                    21995099.320
                                        47.600          43.400



 127187477.808 7  99107129.455 7  24202970.280                    24202967.620
                                        43.550          43.750



 116987670.176 7  91159225.57846  22262012.660                    22262008.340
                                        46.000          40.500



 114836236.456 8  89482804.36646  21852599.260                    21852595.140
                                        48.450          41.750



 113684732.744 8  88585527.371 7  21633476.180                    21633474.160
                                        48.700          46.900



 23  9 13 16 32 30.0000000  0  9G05G07G13G14G15G18G20G22G30
 109889989.423 8  85628561.104 7  20911364.580                    20911360.380
                                        48.650          47.300



 125277376.819 7  97618741.838 6  23839488.240                    23839484.280
                                        44.550          39.550



 105755787.938 8  82407102.23147  20124650.540                    20124645.540
                                        49.650          46.550



 112554973.925 8  87705192.066 7  21418488.200                    21418484.180
                                        48.850          46.550



 115496043.709 7  89996925.699 7  21978163.880                    21978160.400
                                        47.400          43.400



 127189111.572 7  99108402.548 7  24203281.180                    24203278.460
                                        44.150          44.150



 117085094.514 7  91235140.55446  22280551.940                    22280547.660
                                        45.050          41.450



 114771366.587 8  89432256.43546  21840254.920                    21840250.760
                                        48.400          41.750



 113748130.535 8  88634928.218 7  21645540.380                    21645538.380
                                        48.000          46.600



 23  9 13 16 33  0.0000000  0  9G05G07G13G14G15G18G20G22G30
 109936493.163 8  85664797.758 7  20920213.940                    20920209.760
                                        48.950          47.550



 125363813.839 7  97686095.278 6  23855936.720                    23855932.760
                                        44.750          39.800



 105726898.512 8  82384590.99047  20119153.060                    20119148.060
                                        49.850          46.550



 112519282.642 8  87677380.701 7  21411696.360                    21411692.280
                                        49.150          46.650



 115407279.381 7  89927758.704 7  21961272.600                    21961269.040
                                        47.850          43.050



 127191328.997 7  99110130.429 7  24203703.140                    24203700.400
                                        44.050          44.550



 117182828.362 7  91311296.71246  22299150.100                    22299145.880
                                        45.650          39.750



 114706955.481 8  89382065.98946  21827997.880                    21827993.700
                                        48.600          41.700



 113811821.607 8  88684557.606 7  21657660.380                    21657658.360
                                        48.000          46.350



 23  9 13 16 33 30.0000000  0  9G05G07G13G14G15G18G20G22G30
 109983566.018 8  85701477.887 7  20929171.600                    20929167.420
                                        49.000          47.550



 125450344.281 7  97753521.527 6  23872403.000                    23872399.020
                                        44.250          40.500



 105698383.534 8  82362371.52647  20113726.820                    20113721.840
                                        49.900          46.600



 112484146.119 8  87650001.623 7  21405010.100                    21405005.940
                                        49.400          47.050



 115318762.181 7  89858784.298 7  21944428.300                    21944424.700
                                        47.800          43.550



 127194125.086 7  99112309.213 7  24204235.240                    24204232.480
                                        44.200          44.550



 117280864.441 7  91387688.39646  22317805.760                    22317801.580
                                        46.300          40.300



 114643000.459 8  89332230.94047  21815827.640                    21815823.420
                                        48.900          42.250



 113875799.733 7  88734410.673 7  21669834.980                    21669832.980
                                        47.950          46.300



 23  9 13 16 34  0.0000000  0  9G05G07G13G14G15G18G20G22G30
 110031209.678 8  85738602.808 7  20938237.880                    20938233.700
                                        48.800          47.100



 125536969.449 7  97821021.588 6  23888887.280                    23888883.320
                                        43.950          39.800



 105670246.794 8  82340446.79847  20108372.580                    20108367.600
                                        49.950          46.300



 112449568.245 8  87623057.858 7  21398430.140                    21398425.940
                                        49.550          47.200



 115230496.866 7  89790006.159 7  21927631.960                    21927628.300
                                        47.550          44.000



 127197502.011 7  99114940.606 7  24204877.860                    24204875.080
                                        44.350          44.800



 117379202.848 7  91464315.65646  22336518.960                    22336514.840
                                        46.350          39.800



 114579506.241 8  89282754.95046  21803745.080                    21803740.840
                                        48.900          41.850



 113940066.005 8  88784488.269 7  21682064.420                    21682062.420
                                        48.350          46.650



 23  9 13 16 34 30.0000000  0  9G05G07G13G14G15G18G20G22G30
 110079423.241 8  85776171.802 7  20947412.620                    20947408.460
                                        48.950          47.200



 125623688.699 7  97888594.944 6  23905389.460                    23905385.540
                                        43.650          39.650



 105642489.471 8  82318817.71947  20103090.540                    20103085.560
                                        49.850          45.950



 112415550.751 8  87596550.750 7  21391956.820                    21391952.560
                                        49.300          46.500



 115142485.658 7  89721426.009 7  21910883.960                    21910880.300
                                        47.950          44.300



 127201459.660 7  99118024.511 7  24205630.980                    24205628.220
                                        44.300          44.200



 117477840.767 7  91541176.29246  22355289.180                    22355285.100
                                        46.250          39.900



 114516475.609 8  89233640.21147  21791750.740                    21791746.460
                                        48.300          42.400



 114004619.339 8  88834789.550 7  21694348.500                    21694346.500
                                        48.350          46.700



 23  9 13 16 35  0.0000000  0  9G05G07G13G14G15G18G20G22G30
 110128204.395 8  85814183.081 7  20956695.360                    20956691.200
                                        49.100          47.200



 125710500.716 7  97956240.609 6  23921909.280                    23921905.400
                                        43.300          39.750



 105615112.108 8  82297484.72147  20097880.800                    20097875.800
                                        49.750          46.400



 112382094.746 8  87570481.169 7  21385590.360                    21385586.040
                                        49.300          46.300



 115054730.273 7  89653045.229 7  21894184.640                    21894180.940
                                        47.900          44.500



 127205997.433 7  99121560.450 7  24206494.500                    24206491.720
                                        44.200          43.550



 117576775.901 7  91618268.55346  22374115.940                    22374111.900
                                        45.900          39.000



 114453910.265 8  89184888.06047  21779844.900                    21779840.620
                                        48.050          42.250



 114069458.032 8  88885313.186 7  21706686.900                    21706684.900
                                        48.650          46.850



 23  9 13 16 35 30.0000000  0  9G05G07G13G14G15G18G20G22G30
 110177552.552 8  85852636.153 7  20966086.040                    20966081.860
                                        49.150          46.700



 125797405.161 7  98023958.303 6  23938446.680                    23938442.840
                                        43.100          39.850



 105588116.638 8  82276449.28847  20092743.740                    20092738.720
                                        49.750          46.050



 112349202.263 8  87544850.677 7  21379331.140                    21379326.740
                                        49.000          46.000



 114967233.901 7  89584866.262 7  21877534.620                    21877530.920
                                        47.800          44.600



 127211115.593 7  99125548.635 7  24207468.480                    24207465.680
                                        44.050          43.900



 117676006.373 7  91695590.92346  22392998.900                    22392994.940
                                        46.050          40.400



 114391813.466 8  89136500.99147  21768028.220                    21768023.960
                                        48.300          42.900



 114134581.356 8  88936058.607 7  21719079.460                    21719077.480
                                        48.650          46.850



 23  9 13 16 36  0.0000000  0  9G05G07G13G14G15G18G20G22G30
 110227464.611 8  85891528.654 7  20975584.020                    20975579.780
                                        49.400          47.050



 125884398.471 7  98091745.245 6  23955000.980                    23954997.200
                                        43.050          40.850



 105561501.234 8  82255710.01247  20087679.000                    20087673.980
                                        49.900          46.700



 112316872.194 8  87519658.426 7  21373178.920                    21373174.440
                                        49.050          46.700



 114879996.071 8  89516888.765 7  21860933.780                    21860930.080
                                        48.100          44.800



 127216811.255 7  99129986.816 7  24208552.340                    24208549.560
                                        43.150          44.150



 117775526.905 7  91773139.32446  22411937.080                    22411933.180
                                        46.550          40.900



 114330184.946 8  89088478.80647  21756300.640                    21756296.420
                                        48.400          42.900



 114199985.417 8  88987022.784 7  21731525.460                    21731523.480
                                        48.600          46.950



 23  9 13 16 36 30.0000000  0  9G05G07G13G14G15G18G20G22G30
 110277940.422 8  85930860.431 7  20985189.280                    20985185.000
                                        48.850          47.350



 125971481.219 7  98159601.850 6  23971572.320                    23971568.600
                                        42.200          40.050



 105535268.780 8  82235269.13947  20082687.140                    20082682.100
                                        49.650          46.650



 112285107.583 8  87494906.793 7  21367134.300                    21367129.760
                                        48.800          47.550



 114793020.437 7  89449115.582 7  21844382.840                    21844379.140
                                        47.200          44.600



 127223085.663 7  99134875.966 7  24209746.320                    24209743.560
                                        43.000          44.500



 117875336.690 7  91850913.11946  22430930.300                    22430926.460
                                        45.700          40.050



 114269028.721 8  89040824.64547  21744662.960                    21744658.740
                                        48.550          43.200



 114265670.462 8  89038205.909 7  21744024.940                    21744022.940
                                        48.400          46.600



 23  9 13 16 37  0.0000000  0  9G05G07G13G14G15G18G20G22G30
 110328975.600 8  85970628.077 7  20994900.980                    20994896.680
                                        48.850          47.550



 126058649.070 7  98227524.779 6  23988159.860                    23988156.180
                                        42.400          40.250



 105509416.387 8  82215124.42947  20077767.580                    20077762.540
                                        49.800          47.000



 112253906.411 8  87470594.221 8  21361196.900                    21361192.320
                                        49.000          48.200



 114706305.486 7  89381545.525 7  21827881.480                    21827877.800
                                        47.650          44.500



 127229935.063 7  99140213.181 7  24211049.680                    24211046.960
                                        43.200          43.950



 117975430.028 7  91928907.84846  22449977.500                    22449973.700
                                        46.000          40.300



 114208343.391 8  88993537.40947  21733114.900                    21733110.700
                                        48.750          43.050



 114331631.962 8  89089604.460 7  21756577.020                    21756575.000
                                        48.600          46.800



 23  9 13 16 37 30.0000000  0  9G05G07G13G14G15G18G20G22G30
 110380574.184 8  86010834.747 7  21004719.900                    21004715.580
                                        49.250          47.100



 126145906.608 7  98295517.603 6  24004764.440                    24004760.820
                                        42.400          40.050



 105483950.784 8  82195281.11547  20072921.640                    20072916.580
                                        49.900          47.000



 112223274.946 8  87446725.573 8  21355367.900                    21355363.320
                                        48.700          48.200



 114619858.620 7  89314184.369 7  21811431.140                    21811427.460
                                        47.700          44.100



 127237363.946 7  99146001.952 7  24212463.320                    24212460.620
                                        42.500          43.500



 118075809.172 7  92007125.29146  22469079.080                    22469075.320
                                        46.150          40.500



 114148136.268 8  88946622.80947  21721657.820                    21721653.660
                                        48.450          42.050



 114397873.405 8  89141221.144 7  21769182.360                    21769180.360
                                        48.550          46.800



 23  9 13 16 38  0.0000000  0  9G05G07G13G14G15G18G20G22G30
 110432730.419 8  86051475.961 7  21014644.900                    21014640.560
                                        49.150          47.000



 126233248.651 7  98363576.259 6  24021385.120                    24021381.560
                                        42.600          40.150



 105458869.572 8  82175737.31547  20068148.860                    20068143.800
                                        49.950          47.000



 112193210.938 8  87423299.104 8  21349646.860                    21349642.320
                                        48.450          48.400



 114533678.614 8  89247031.127 7  21795031.620                    21795027.920
                                        48.200          44.300



 127245368.329 7  99152239.138 7  24213986.460                    24213983.820
                                        42.950          44.150



 118176468.247 7  92085560.88746  22488233.940                    22488230.200
                                        46.000          40.550



 114088406.045 8  88900079.81947  21710291.500                    21710287.340
                                        48.200          42.050



 114464389.873 8  89193052.140 7  21781840.040                    21781838.040
                                        48.650          47.200



 23  9 13 16 38 30.0000000  0  9G05G07G13G14G15G18G20G22G30
 110485442.431 8  86092550.228 7  21024675.700                    21024671.340
                                        49.100          47.200



 126320673.659 7  98431699.551 6  24038021.600                    24038018.100
                                        43.150          40.500



 105434171.728 8  82156492.24647  20063449.040                    20063443.960
                                        49.900          47.600



 112163715.097 8  87400315.358 8  21344033.920                    21344029.440
                                        48.500          48.300



 114447767.081 8  89180087.117 7  21778683.160                    21778679.440
                                        48.450          44.650



 127253946.944 7  99158923.795 7  24215618.840                    24215616.280
                                        43.750          44.500



 118277404.238 7  92164212.24746  22507441.480                    22507437.780
                                        44.550          39.550



 114029154.261 7  88853909.64747  21699016.200                    21699012.060
                                        47.900          42.400



 114531179.437 8  89245095.935 7  21794549.680                    21794547.700
                                        48.900          47.800



 23  9 13 16 39  0.0000000  0  9G05G07G13G14G15G18G20G22G30
 110538709.194 8  86134056.760 7  21034812.040                    21034807.680
                                        49.050          46.650



 126408181.204 7  98499887.164 6  24054673.800                    24054670.340
                                        42.950          39.750



 105409860.115 8  82137548.12447  20058822.700                    20058817.640
                                        49.600          47.550



 112134788.899 8  87377775.506 8  21338529.380                    21338524.960
                                        48.800          48.150



 114362126.341 7  89113354.085 7  21762386.280                    21762382.500
                                        47.750          44.800



 127263099.702 6  99166055.833 7  24217360.500                    24217358.020
                                        41.950          43.750



 118378614.448 7  92243077.22546  22526701.220                    22526697.580
                                        45.250          39.200



 113970382.833 7  88808113.76847  21687832.300                    21687828.180
                                        47.900          42.050



 114598240.991 8  89297351.659 7  21807311.100                    21807309.120
                                        48.850          47.600



 23  9 13 16 39 30.0000000  0  9G05G07G13G14G15G18G20G22G30
 110592528.821 8  86175994.105 7  21045053.600                    21045049.200
                                        49.100          46.700



 126495770.206 7  98568138.255 6  24071341.480                    24071338.080
                                        43.150          40.150



 105385934.504 8  82118904.79247  20054269.820                    20054264.800
                                        49.550          47.200



 112106433.484 8  87355680.405 7  21333133.460                    21333129.100
                                        49.200          47.950



 114276758.098 7  89046833.407 7  21746141.240                    21746137.400
                                        47.700          45.250



 127272825.948 7  99173634.718 7  24219211.320                    24219208.900
                                        42.450          43.600



 118480096.482 7  92322154.06146  22546012.660                    22546009.040
                                        46.700          40.050



 113912094.839 8  88762694.58847  21676740.400                    21676736.280
                                        49.050          42.550



 114665573.075 8  89349818.192 7  21820123.980                    21820122.040
                                        49.150          47.400



 23  9 13 16 40  0.0000000  0  9G05G07G13G14G15G18G20G22G30
 110646899.523 8  86218360.865 7  21055400.020                    21055395.580
                                        49.050          47.050



 126583438.888 7  98636451.442 6  24088024.340                    24088020.980
                                        43.550          40.700



 105362394.714 8  82100562.10947  20049790.340                    20049785.340
                                        49.550          47.300



 112078649.176 8  87334030.317 7  21327846.260                    21327841.900
                                        49.350          47.850



 114191664.092 7  88980526.430 7  21729948.360                    21729944.500
                                        47.900          45.600



 127283124.078 7  99181659.251 7  24221170.940                    24221168.580
                                        43.150          43.650



 118581846.785 7  92401439.96746  22565375.140                    22565371.520
                                        47.000          39.550



 113854291.464 8  88717653.02447  21665740.740                    21665736.600
                                        49.250          43.250



 114733173.431 8  89402493.771 7  21832987.940                    21832986.000
                                        49.300          47.600



 23  9 13 16 40 30.0000000  0  9G05G07G13G14G15G18G20G22G30
 110701820.787 8  86261156.635 7  21065851.200                    21065846.740
                                        48.800          46.800



 126671187.957 7  98704827.265 6  24104722.500                    24104719.180
                                        44.050          39.600



 105339245.750 8  82082523.95947  20045385.220                    20045380.280
                                        49.450          47.200



 112051438.781 8  87312827.433 7  21322668.280                    21322663.920
                                        49.300          47.750



 114106848.082 8  88914436.065 7  21713808.380                    21713804.500
                                        48.000          45.400



 127293995.164 7  99190130.244 7  24223239.580                    24223237.280
                                        42.750          42.700



 118683864.523 7  92480934.25546  22584788.540                    22584784.900
                                        46.450          39.550



 113796975.974 8  88672991.65547  21654833.920                    21654829.780
                                        48.850          43.050



 114801042.385 8  89455378.633 7  21845903.020                    21845901.080
                                        49.250          47.250



 23  9 13 16 41  0.0000000  0  9G05G07G13G14G15G18G20G22G30
 110757290.915 8  86304380.073 7  21076406.840                    21076402.380
                                        48.850          46.950



 126759015.538 7  98773264.276 6  24121435.620                    24121432.300
                                        43.850          39.850



 105316484.890 8  82064788.23147  20041053.960                    20041049.060
                                        49.900          46.800



 112024802.428 8  87292071.859 7  21317599.520                    21317595.160
                                        49.550          47.800



 114022310.970 8  88848563.026 7  21697721.460                    21697717.580
                                        48.400          45.400



 127305437.602 7  99199046.442 7  24225416.980                    24225414.680
                                        43.750          42.850



 118786146.211 7  92560634.20546  22604252.180                    22604248.520
                                        46.050          39.750



 113740149.660 8  88628711.45547  21644020.200                    21644016.040
                                        48.800          42.600



 114869177.530 8  89508470.930 7  21858868.760                    21858866.780
                                        49.350          47.050



 23  9 13 16 41 30.0000000  0  9G05G07G13G14G15G18G20G22G30
 110813309.767 8  86348031.089 7  21087066.880                    21087062.420
                                        48.700          46.950



 126846922.178 7  98841762.873 6  24138163.800                    24138160.480
                                        44.350          39.850



 105294115.933 8  82047357.87347  20036797.300                    20036792.400
                                        49.900          46.400



 111998743.001 8  87271765.812 7  21312640.580                    21312636.220
                                        49.700          47.600



 113938056.805 8  88782910.460 7  21681688.400                    21681684.520
                                        48.600          45.050



 127317452.445 7  99208408.663 7  24227703.320                    24227701.000
                                        44.200          42.950



 118888690.771 7  92640538.96346  22623765.860                    22623762.200
                                        45.300          40.400



 113683816.009 8  88584815.14447  21633300.240                    21633296.060
                                        48.400          42.550



 114937579.279 8  89561770.963 7  21871885.220                    21871883.240
                                        49.200          47.000



 23  9 13 16 42  0.0000000  0  9G05G07G13G14G15G18G20G22G30
 110869873.316 8  86392106.571 7  21097830.560                    21097826.120
                                        49.150          47.150



 126934904.368 7  98910320.378 6  24154906.320                    24154903.000
                                        43.600          39.650



 105272137.352 8  82030231.71347  20032614.920                    20032610.020
                                        49.650          46.350



 111973259.167 8  87251908.304 7  21307791.160                    21307786.780
                                        49.800          47.800



 113854085.398 8  88717478.244 7  21665709.140                    21665705.240
                                        48.250          45.450



 127330036.597 7  99218214.479 7  24230098.020                    24230095.680
                                        44.250          42.500



 118991493.614 7  92720644.97846  22643328.680                    22643325.060
                                        45.300          39.200



 113627974.972 8  88541302.70147  21622673.980                    21622669.800
                                        48.700          42.950



 115006243.798 8  89615275.758 7  21884951.680                    21884949.680
                                        48.900          47.000



 23  9 13 16 42 30.0000000  0  9G05G07G13G14G15G18G20G22G30
 110926977.734 8  86436603.506 7  21108697.160                    21108692.720
                                        49.000          47.150



 127022959.400 7  98978934.620 6  24171662.720                    24171659.420
                                        43.850          40.050



 105250546.552 8  82013407.71447  20028506.320                    20028501.440
                                        49.750          46.200



 111948349.818 8  87232498.440 7  21303051.060                    21303046.660
                                        49.900          47.800



 113770396.562 7  88652266.197 7  21649783.680                    21649779.740
                                        47.800          45.950



 127343187.073 7  99228461.632 7  24232600.480                    24232598.080
                                        45.250          42.650



 119094549.625 7  92800948.28446  22662939.640                    22662936.040
                                        45.600          39.800



 113572626.305 8  88498173.90747  21612141.440                    21612137.260
                                        48.850          43.000



 115075167.558 8  89668982.556 7  21898067.460                    21898065.480
                                        49.200          47.100



 23  9 13 16 43  0.0000000  0  9G05G07G13G14G15G18G20G22G30
 110984624.299 8  86481522.879 7  21119666.960                    21119662.540
                                        48.850          46.850



 127111089.432 7  99047607.276 6  24188433.400                    24188430.140
                                        43.050          39.400



 105229349.941 8  81996890.86847  20024472.760                    20024467.860
                                        49.800          46.100



 111924019.227 8  87213539.546 7  21298421.120                    21298416.700
                                        49.800          47.650



 113686995.675 7  88587278.520 7  21633912.980                    21633909.080
                                        46.950          46.500



 127356906.363 7  99239151.986 7  24235211.220                    24235208.720
                                        43.700          42.950



 119197859.579 7  92881449.47546  22682598.920                    22682595.340
                                        46.100          38.600



 113517775.220 8  88455432.84047  21601703.580                    21601699.400
                                        48.900          42.900



 115144352.396 8  89722892.797 7  21911232.940                    21911230.920
                                        49.250          46.850



 23  9 13 16 43 30.0000000  0  9G05G07G13G14G15G18G20G22G30
 111042812.300 8  86526864.158 7  21130739.800                    21130735.340
                                        49.000          46.600



 127199294.588 7  99116338.504 6  24205218.360                    24205215.100
                                        42.750          39.300



 105208548.803 8  81980682.18947  20020514.440                    20020509.520
                                        50.100          46.300



 111900269.359 8  87195033.174 8  21293901.680                    21293897.240
                                        49.650          48.000



 113603885.645 7  88522517.500 7  21618097.580                    21618093.760
                                        47.600          46.100



 127371194.631 7  99250285.679 7  24237930.240                    24237927.700
                                        43.900          43.700



 119301421.330 7  92962146.89246  22702306.120                    22702302.500
                                        46.400          38.150



 113463424.829 8  88413081.92947  21591361.000                    21591356.820
                                        49.100          42.800



 115213797.913 8  89777006.164 7  21924448.000                    21924445.980
                                        49.050          46.850



 23  9 13 16 44  0.0000000  0  9G05G07G13G14G15G18G20G22G30
 111101537.393 8  86572623.948 7  21141914.840                    21141910.380
                                        49.150          46.600



 127287569.635 7  99185124.206 6  24222016.580                    24222013.360
                                        42.650          39.350



 105188138.103 8  81964777.75647  20016630.420                    20016625.460
                                        49.950          46.400



 111877097.286 8  87176977.056 7  21289492.180                    21289487.700
                                        49.500          47.900



 113521065.101 7  88457982.048 7  21602337.280                    21602333.540
                                        47.700          46.250



 127386047.148 7  99261859.068 7  24240756.600                    24240754.060
                                        45.200          42.950



 119405229.033 7  93043035.95246  22722060.140                    22722056.480
                                        44.950          38.800



 113409573.015 8  88371119.51447  21581113.300                    21581109.100
                                        48.950          43.200



 115283498.849 8  89831318.547 7  21937711.700                    21937709.660
                                        49.000          46.800



 23  9 13 16 44 30.0000000  0 10G05G07G13G14G15G18G20G22G24G30
 111160798.835 8  86618801.658 7  21153191.960                    21153187.480
                                        49.400          46.700



 127375915.839 7  99253965.310 6  24238828.380                    24238825.180
                                        42.750          38.950



 105168123.704 8  81949182.12447  20012821.820                    20012816.840
                                        49.750          46.400



 111854505.891 8  87159373.388 7  21285193.180                    21285188.700
                                        49.300          47.550



 113438538.090 7  88393675.331 7  21586632.840                    21586629.180
                                        47.800          46.150



 127401465.009 7  99273873.036 6  24243690.500                    24243687.900
                                        44.400          41.050



 119509281.962 7  93124116.04446  22741860.840                    22741857.180
                                        44.350          38.600



 113356223.671 8  88329548.63247  21570961.240                    21570957.020
                                        49.500          42.650



 128768973.769 6 100339460.698 6  24503922.040                    24503923.060
                                        41.500          41.000



 115353455.697 8  89885830.337 7  21951024.100                    21951022.020
                                        48.700          46.850



 23  9 13 16 45  0.0000000  0 10G05G07G13G14G15G18G20G22G24G30
 111220601.864 8  86665401.394 7  21164572.140                    21164567.640
                                        49.600          46.550



 127464339.039 7  99322866.453 6  24255654.780                    24255651.620
                                        43.300          39.150



 105148512.327 8  81933900.53147  20009089.920                    20009084.920
                                        49.300          46.650



 111832503.168 8  87142228.411 7  21281006.200                    21281001.720
                                        48.950          47.550



 113356313.680 7  88329604.395 7  21570986.000                    21570982.400
                                        47.950          45.800



 127417454.524 7  99286332.367 6  24246733.260                    24246730.580
                                        44.550          41.550



 119613584.266 7  93205390.48246  22761708.980                    22761705.300
                                        45.300          37.700



 113303385.688 8  88288376.20347  21560906.500                    21560902.260
                                        49.050          43.600



 128659808.589 6 100254396.969 6  24483148.180                    24483149.680
                                        40.900          41.750



 115423674.222 8  89940546.036 7  21964386.280                    21964384.180
                                        48.400          46.800



 23  9 13 16 45 30.0000000  0 10G05G07G13G14G15G18G20G22G24G30
 111280925.181 8  86712406.545 7  21176051.340                    21176046.800
                                        49.400          46.750



 127552818.812 7  99391811.674 6  24272491.960                    24272488.800
                                        43.750          38.200



 105129282.928 8  81918916.60047  20005430.660                    20005425.660
                                        49.400          46.200



 111811069.948 8  87125527.230 7  21276927.560                    21276923.080
                                        49.300          47.700



 113274374.014 7  88265755.354 7  21555393.320                    21555389.760
                                        47.850          45.850



 127433994.504 7  99299220.649 7  24249880.740                    24249878.000
                                        44.800          43.050



 119718113.579 7  93286841.81846  22781600.280                    22781596.620
                                        46.350          38.500



 113251041.007 8  88247588.18647  21550945.600                    21550941.340
                                        48.800          42.700



 128550743.190 6 100169411.066 7  24462393.380                    24462395.060
                                        40.800          42.250



 115494132.865 8  89995448.838 7  21977794.140                    21977792.020
                                        48.200          46.800



 23  9 13 16 46  0.0000000  0 10G05G07G13G14G15G18G20G22G24G30
 111341780.596 8  86759826.333 7  21187631.780                    21187627.220
                                        49.400          46.900



 127641367.899 7  99460810.895 6  24289342.320                    24289339.180
                                        42.850          38.850



 105110453.550 8  81904244.35847  20001847.540                    20001842.540
                                        49.400          46.400



 111790221.651 8  87109281.832 7  21272960.220                    21272955.760
                                        49.400          47.900



 113192735.900 8  88202141.266 7  21539858.080                    21539854.540
                                        48.250          45.650



 127451098.648 7  99312548.556 7  24253135.580                    24253132.760
                                        44.300          42.650



 119822881.306 7  93368478.95046  22801537.000                    22801533.300
                                        46.700          38.850



 113199206.102 8  88207197.38547  21541081.720                    21541077.460
                                        48.900          43.600



 128441793.545 6 100084515.350 7  24441660.740                    24441662.460
                                        39.750          43.200



 115564844.856 8  90050549.054 7  21991250.200                    21991248.100
                                        48.450          46.850



 23  9 13 16 46 30.0000000  0 10G05G07G13G14G15G18G20G22G24G30
 111403163.535 8  86807657.173 7  21199312.620                    21199308.040
                                        49.100          46.900



 127729982.687 7  99529861.305 6  24306205.220                    24306202.060
                                        42.900          38.950



 105092020.039 8  81889880.59147  19998339.720                    19998334.720
                                        49.300          46.450



 111769955.484 8  87093490.044 7  21269103.660                    21269099.220
                                        49.500          47.850



 113111397.407 7  88138760.641 7  21524379.860                    21524376.320
                                        47.900          45.550



 127468762.360 7  99326312.495 7  24256496.880                    24256494.020
                                        43.350          42.700



 119927881.276 7  93450297.04346  22821517.920                    22821514.180
                                        46.350          39.300



 113147879.028 8  88167202.29947  21531314.480                    21531310.220
                                        48.550          43.500



 128332957.357 6  99999708.069 7  24420949.680                    24420951.460
                                        39.900          43.250



 115635805.155 8  90105842.763 7  22004753.520                    22004751.400
                                        48.350          46.900



 23  9 13 16 47  0.0000000  0 10G05G07G13G14G15G18G20G22G24G30
 111465075.263 8  86855900.055 7  21211094.080                    21211089.460
                                        49.100          46.900



 127818664.766 7  99598964.160 6  24323080.900                    24323077.760
                                        43.250          39.100



 105073986.039 8  81875828.13447  19994907.960                    19994902.940
                                        49.600          46.500



 111750275.287 8  87078154.833 7  21265358.660                    21265354.200
                                        49.600          47.750



 113030363.883 7  88075617.663 7  21508959.680                    21508956.120
                                        47.950          45.050



 127486987.674 7  99340514.038 7  24259965.040                    24259962.160
                                        43.800          43.600



 120033114.160 7  93532296.61346  22841543.200                    22841539.400
                                        45.900          39.300



 113097064.755 8  88127606.80547  21521644.780                    21521640.540
                                        49.150          43.050



 128224239.157 6  99914992.691 7  24400261.080                    24400263.000
                                        41.700          42.600



 115707015.376 8  90161331.225 7  22018304.400                    22018302.280
                                        48.450          46.800



 23  9 13 16 47 30.0000000  0 10G05G07G13G14G15G18G20G22G24G30
 111527510.873 8  86904551.136 7  21222975.240                    21222970.600
                                        49.150          47.250



 127907409.900 7  99668116.129 6  24339968.600                    24339965.480
                                        42.400          39.450



 105056350.776 8  81862086.37547  19991552.060                    19991547.060
                                        49.600          46.550



 111731178.582 8  87063274.299 8  21261724.680                    21261720.220
                                        49.400          48.350



 112949634.391 8  88012711.607 7  21493597.340                    21493593.760
                                        48.350          45.450



 127505770.319 7  99355149.851 7  24263539.240                    24263536.400
                                        43.000          43.850



 120138573.933 7  93614472.96346  22861611.640                    22861607.820
                                        44.550          40.150



 113046761.971 8  88088409.85547  21512072.460                    21512068.200
                                        49.100          43.950



 128115636.963 6  99830367.664 7  24379594.640                    24379596.640
                                        41.500          42.200



 115778470.897 8  90217010.816 7  22031901.960                    22031899.860
                                        48.100          46.900



 23  9 13 16 48  0.0000000  0 10G05G07G13G14G15G18G20G22G24G30
 111590469.400 8  86953609.703 7  21234955.880                    21234951.260
                                        49.200          47.050



 127996218.791 7  99737317.778 6  24356868.440                    24356865.320
                                        42.350          39.550



 105039114.893 8  81848655.82347  19988272.180                    19988267.160
                                        49.400          46.550



 111712667.607 8  87048850.183 8  21258202.160                    21258197.720
                                        49.650          48.300



 112869212.692 7  87950045.362 7  21478293.600                    21478290.000
                                        47.750          46.000



 127525110.649 7  99370220.212 7  24267219.560                    24267216.800
                                        42.950          43.500



 120244259.247 7  93696825.07046  22881722.980                    22881719.180
                                        44.500          40.500



 112996973.303 8  88049613.52747  21502597.960                    21502593.700
                                        48.750          44.600



 128007153.697 6  99745835.342 7  24358950.860                    24358952.860
                                        40.300          42.400



 115850171.776 8  90272881.604 7  22045546.180                    22045544.100
                                        48.000          47.000



 23  9 13 16 48 30.0000000  0 10G05G07G13G14G15G18G20G22G24G30
 111653946.913 8  87003072.671 7  21247035.300                    21247030.660
                                        48.900          47.000



 128085088.001 7  99806566.454 6  24373779.740                    24373776.640
                                        42.050          39.800



 105022276.908 8  81835535.32147  19985068.000                    19985062.980
                                        49.450          46.800



 111694740.647 8  87034881.136 7  21254790.780                    21254786.340
                                        49.750          47.850



 112789098.355 8  87887618.632 7  21463048.320                    21463044.720
                                        48.300          46.000



 127545005.263 7  99385722.541 7  24271005.300                    24271002.620
                                        43.400          43.250



 120350165.041 7  93779348.99146  22901876.240                    22901872.460
                                        44.350          39.650



 112947698.507 8  88011217.63547  21493221.240                    21493216.980
                                        49.050          44.300



 127898788.192 6  99661394.825 7  24338329.460                    24338331.440
                                        39.800          42.650



 115922114.199 8  90328940.603 7  22059236.400                    22059234.340
                                        48.300          46.950



 23  9 13 16 49  0.0000000  0 10G05G07G13G14G15G18G20G22G24G30
 111717943.237 8  87052939.915 7  21259213.420                    21259208.760
                                        48.550          46.850



 128174018.289 7  99875862.688 6  24390702.680                    24390699.620
                                        42.000          38.900



 105005840.531 8  81822727.76147  19981940.260                    19981935.240
                                        49.150          46.900



 111677400.331 8  87021369.219 7  21251491.020                    21251486.580
                                        49.700          47.200



 112709294.966 8  87825434.191 7  21447862.240                    21447858.620
                                        48.100          45.800



 127565454.894 7  99401657.343 7  24274896.680                    24274894.060
                                        42.900          43.200



 120456290.503 7  93862044.07146  22922071.300                    22922067.580
                                        43.850          38.900



 112898941.429 8  87973225.15647  21483943.020                    21483938.780
                                        48.800          44.550



 127790543.771 6  99577048.681 7  24317731.120                    24317733.020
                                        40.000          43.800



 115994298.643 7  90385188.193 7  22072972.660                    22072970.600
                                        47.950          47.000



 23  9 13 16 49 30.0000000  0 10G05G07G13G14G15G18G20G22G24G30
 111782453.789 7  87103207.834 7  21271489.400                    21271484.760
                                        47.900          46.850



 128263006.095 7  99945203.746 6  24407636.560                    24407633.540
                                        42.250          39.700



 104989802.988 8  81810230.96847  19978888.420                    19978883.400
                                        49.400          46.700



 111660644.343 8  87008312.595 7  21248302.480                    21248298.020
                                        49.650          46.800



 112629802.047 8  87763491.674 7  21432735.240                    21432731.600
                                        48.650          46.350



 127586455.516 7  99418021.437 7  24278892.980                    24278890.380
                                        44.150          42.950



 120562630.134 7  93944906.01346  22942307.120                    22942303.460
                                        43.950          38.650



 112850700.461 8  87935634.84247  21474763.040                    21474758.800
                                        48.600          44.900



 127682418.909 6  99492795.661 7  24297155.560                    24297157.380
                                        41.100          43.550



 116066720.718 8  90441620.955 7  22086754.140                    22086752.080
                                        48.350          47.000



 23  9 13 16 50  0.0000000  0 10G05G07G13G14G15G18G20G22G24G30
 111847479.635 7  87153877.283 7  21283863.420                    21283858.820
                                        47.950          46.950



 128352054.035 6 100014591.697 6  24424581.840                    24424578.860
                                        41.650          39.700



 104974168.659 8  81798048.38447  19975913.300                    19975908.280
                                        49.600          46.900



 111644476.874 8  86995714.582 7  21245225.920                    21245221.380
                                        49.300          46.750



 112550625.102 8  87701795.382 7  21417668.360                    21417664.680
                                        48.350          46.550



 127608009.380 7  99434816.679 7  24282994.520                    24282991.940
                                        43.150          42.350



 120669184.694 7  94027935.47446  22962583.800                    22962580.200
                                        44.600          39.100



 112802980.834 8  87898450.77547  21465682.240                    21465678.040
                                        48.950          44.300



 127574418.337 6  99408639.492 7  24276603.680                    24276605.420
                                        40.800          42.650



 116139382.597 8  90498240.578 7  22100581.260                    22100579.200
                                        48.650          47.150



