     2.11           OBSERVATION DATA    G (GPS)             RINEX VERSION / TYPE
teqc  2019Feb25                         20230913 22:02:29UTCPGM / RUN BY / DATE
Linux 2.6.32-573.12.1.x86_64|x86_64|gcc|Linux 64|=+         COMMENT
teqc  2019Feb25                         20230913 22:02:29UTCCOMMENT
     2.11           OBSERVATION DATA    M (MIXED)           COMMENT
teqc  2019Feb25     IGN-RGP             20230913 16:04:42UTCCOMMENT
teqc  2019Feb25     Administrateur RGP  20230913 16:04:42UTCCOMMENT
teqc  2019Feb25     IGN-RGP             20230913 16:04:40UTCCOMMENT
ssrcrin-13.0.1x                         13-SEP-23 15:00     COMMENT
(000000000000583293750002) Septentrio proprietary           COMMENT
SBGS                                                        MARKER NAME
18310M001                                                   MARKER NUMBER
Automatic           SBGS                                    OBSERVER / AGENCY
3025670             SEPT ASTERX-U       4.4.2               REC # / TYPE / VERS
VP6050C1808200003   TWIVP6050_CONE  NONE                    ANT # / TYPE
  4197054.1780   158843.9130  4784067.3690                  APPROX POSITION XYZ
        0.0000        0.0000        0.0000                  ANTENNA: DELTA H/E/N
     1     1                                                WAVELENGTH FACT L1/2
    13    C1    L1    L2    P2    P1    C5    L5    C6    L6# / TYPES OF OBSERV
          C7    L7    C8    L8                              # / TYPES OF OBSERV
    30.0000                                                 INTERVAL
For GPS, L2 corresponds to the L2P carrier phase.           COMMENT
For GLONASS, L2 corresponds to the L2CA carrier phase.      COMMENT
    18                                                      LEAP SECONDS
Forced Modulo Decimation to 30 seconds                      COMMENT
teqc_2019 edited: all GLONASS satellites excluded           COMMENT
teqc_2019 edited: all SBAS satellites excluded              COMMENT
teqc_2019 edited: all Galileo satellites excluded           COMMENT
  2023     9    13    15     0    0.0000000     GPS         TIME OF FIRST OBS
                                                            END OF HEADER
 23  9 13 15  0  0.0000000  0  8G07G13G11G05G20G09G30G14
  21412316.206 7 112522550.200 7  87679937.082 8  21412315.226 8  21412315.786 8


  22186145.395 7 116589030.652 7  90848602.497 5  22186144.777 5  22186144.926 5


  23143342.394 7 121619105.286 7  94768142.675 5  23143342.874 5  23143342.256 5
  23143346.756 8  90819480.533 8

  21209190.838 8 111455095.357 8  86848132.229 7  21209190.333 7  21209190.646 7


  20288982.591 8 106619366.330 8  83080052.897 7  20288980.867 7  20288981.447 7


  23984357.533 6 126038677.138 6  98211987.995 6  23984362.054 6  23984357.118 6
  23984361.628 7  94119823.982 7

  20659245.851 8 108565135.964 8  84596250.033 9  20659247.419 9  20659245.020 9
  20659245.940 8  81071411.304 8

  24098029.118 6 126636033.709 6  98677449.597 4  24098031.922 4  24098028.859 4
  24098034.631 7  94565912.546 7

 23  9 13 15  0 30.0000000  0  9G07G13G11G05G22G20G09G30G14
  21420516.130 8 112565641.166 8  87713514.435 8  21420514.903 8  21420515.706 8


  22170252.076 7 116505511.100 7  90783522.356 5  22170251.666 5  22170251.629 5


  23161013.748 7 121711968.422 7  94840503.489 5  23161014.302 5  23161013.610 5
  23161018.055 8  90888826.302 8

  21197891.377 8 111395717.390 8  86801863.701 7  21197890.925 7  21197891.190 7


  25071091.664 6 131749480.287 6                  25071094.384 2  25071091.865 2


  20290364.606 8 106626627.952 8  83085711.297 7  20290363.099 7  20290363.462 7


  24002370.254 6 126133331.444 6  98285744.468 6  24002374.125 6  24002369.807 6
  24002373.832 7  94190507.246 7

  20656603.458 8 108551250.771 8  84585430.402 9  20656605.136 9  20656602.627 9
  20656603.691 8  81061042.491 8

  24078851.277 6 126535257.050 6  98598922.462 4  24078854.689 4  24078851.018 4
  24078857.536 7  94490657.383 7

 23  9 13 15  1  0.0000000  0  8G07G13G11G05G20G09G30G14
  21428788.348 8 112609112.042 8  87747387.824 8  21428786.817 8  21428787.928 8


  22154399.327 7 116422202.742 7  90718606.784 5  22154398.217 5  22154398.907 5


  23178737.539 7 121805106.784 7  94913078.763 5  23178738.157 5  23178737.405 5
  23178741.686 8  90958377.595 8

  21186678.596 8 111336794.345 8  86755949.650 7  21186677.933 7  21186678.404 7


  20291855.514 8 106634463.528 8  83091816.927 7  20291854.146 7  20291854.370 7


  24020399.145 6 126228071.376 6  98359567.656 6  24020402.412 6  24020398.698 6
  24020402.499 7  94261254.435 7

  20654056.649 8 108537866.427 8  84575001.042 9  20654058.176 9  20654055.818 9
  20654056.682 8  81051047.688 8

  24059692.056 6 126434575.319 6  98520469.313 4  24059695.353 4  24059691.793 4
  24059698.443 7  94415473.119 7

 23  9 13 15  1 30.0000000  0  9G07G13G11G05G20G18G09G30G14
  21437133.844 8 112652967.053 8  87781560.541 8  21437131.949 8  21437133.424 8


  22138587.632 7 116339112.511 7  90653861.178 5  22138586.394 5  22138587.217 5


  23196514.147 7 121898522.828 7  94985870.409 5  23196514.768 5  23196514.022 5
  23196518.323 8  91028136.231 8

  21175554.076 8 111278333.565 8  86710395.801 7  21175553.157 7  21175553.889 7


  20293456.982 8 106642879.116 8  83098374.516 7  20293455.154 7  20293455.833 7


  25840298.858 5 135791688.838 5 105811710.622 2  25840299.893 2  25840299.103 2
  25840305.141 6 101402908.036 6

  24038444.539 6 126322901.699 6  98433461.291 6  24038448.219 6  24038444.079 6
  24038448.211 7  94332069.143 7

  20651605.920 8 108524988.262 8  84564966.112 9  20651607.433 9  20651605.089 9
  20651606.109 8  81041430.881 8

  24040552.945 6 126333996.940 6  98442096.690 4  24040555.473 4  24040552.677 4
  24040559.057 7  94340366.027 7

 23  9 13 15  2  0.0000000  0  8G07G13G11G05G20G09G30G14
  21445551.526 8 112697202.280 8  87816029.532 8  21445549.830 8  21445551.106 8


  22122817.765 7 116256238.878 7  90589284.349 5  22122816.376 5  22122817.327 5


  23214342.397 7 121992211.006 7  95058874.106 5  23214342.937 5  23214342.272 5
  23214346.656 8  91098098.093 8

  21164517.388 8 111220334.855 8  86665202.005 7  21164516.136 7  21164517.201 7


  20295168.236 8 106651872.357 8  83105382.224 7  20295166.396 7  20295167.087 7


  24056506.667 6 126417819.086 6  98507422.763 6  24056510.540 6  24056506.180 6
  24056510.548 7  94402948.860 7

  20649250.932 8 108512613.619 8  84555323.533 9  20649252.493 9  20649250.101 9
  20649251.141 8  81032190.079 8

  24021433.160 6 126233522.295 6  98363804.885 4  24021435.447 4  24021432.892 4
  24021439.308 7  94265336.402 7

 23  9 13 15  2 30.0000000  0  8G07G13G11G05G20G09G30G14
  21454041.314 8 112741816.804 8  87850794.079 8  21454040.258 8  21454040.899 8


  22107088.657 7 116173583.190 7  90524877.355 5  22107087.886 5  22107088.201 5


  23232221.938 7 122086168.724 7  95132087.843 5  23232222.713 5  23232221.818 5
  23232226.349 8  91168261.245 8

  21153568.630 8 111162800.942 8  86620370.399 7  21153568.002 7  21153568.438 7


  20296989.709 8 106661443.914 8  83112840.565 7  20296988.086 7  20296988.560 7


  24074586.224 6 126512823.392 6  98581451.958 6  24074589.343 6  24074585.737 6
  24074589.465 7  94473893.472 7

  20646992.161 8 108500742.867 8  84546073.597 9  20646993.581 9  20646991.330 9
  20646992.239 8  81023325.560 8

  24002333.427 6 126133154.843 6  98285596.615 4  24002335.959 4  24002333.146 4
  24002339.895 7  94190386.839 7

 23  9 13 15  3  0.0000000  0  8G07G13G11G05G20G09G30G14
  21462602.947 8 112786808.142 8  87885852.244 8  21462602.352 8  21462602.536 8


  22091401.425 7 116091145.446 7  90460640.178 5  22091400.346 5  22091400.965 5


  23250151.958 7 122180391.959 7  95205508.480 5  23250152.941 5  23250151.838 5
  23250156.412 8  91238622.664 8

  21142709.093 8 111105733.411 8  86575902.207 7  21142708.334 7  21142708.901 7


  20298920.855 8 106671593.227 8  83120749.104 7  20298919.573 7  20298919.706 7


  24092680.718 6 126607912.810 6  98655547.485 6  24092684.534 6  24092680.236 6
  24092684.557 7  94544901.657 7

  20644828.910 8 108489374.825 8  84537215.383 9  20644830.630 9  20644828.079 9
  20644828.850 8  81014836.440 8

  23983254.802 6 126032896.476 6  98207473.334 4  23983257.153 4  23983254.507 4
  23983261.334 7  94115518.733 7

 23  9 13 15  3 30.0000000  0  8G07G13G11G05G20G09G30G14
  21471236.364 8 112832176.679 8  87921204.332 8  21471235.839 8  21471235.953 8


  22075755.461 7 116008928.949 7  90396575.406 5  22075754.906 5  22075754.996 5


  23268132.572 7 122274880.110 7  95279135.541 5  23268133.694 5  23268132.456 5
  23268136.774 8  91309181.918 8

  21131939.138 8 111049136.811 8  86531800.967 7  21131938.034 7  21131938.946 7


  20300962.696 8 106682322.924 8  83129109.893 7  20300961.489 7  20300961.552 7


  24110791.705 6 126703089.032 6  98729710.654 6  24110796.180 6  24110791.205 6
  24110795.999 7  94615974.672 7

  20642761.803 8 108478511.757 8  84528750.660 9  20642763.562 9  20642760.972 9
  20642761.637 8  81006724.417 8

  23964197.727 6 125932752.639 6  98129439.296 4  23964199.996 4  23964197.423 4
  23964204.229 7  94040736.167 7

 23  9 13 15  4  0.0000000  0  8G07G13G11G05G20G09G30G14
  21479940.892 8 112877919.569 8  87956848.119 8  21479940.219 8  21479940.486 8


  22060152.284 7 115926932.749 7  90332682.291 5  22060151.976 5  22060151.828 5


  23286162.849 7 122369628.537 7  95352965.403 5  23286163.873 5  23286162.729 5
  23286166.958 8  91379935.530 8

  21121258.945 8 110993011.276 8  86488066.794 7  21121257.970 7  21121258.758 7


  20303114.768 8 106693631.618 8  83137921.848 7  20303113.573 7  20303113.624 7


  24128919.326 6 126798349.761 6  98803939.667 6  24128923.839 6  24128918.844 6
  24128923.577 7  94687110.791 7

  20640790.287 8 108468151.847 8  84520678.007 9  20640791.903 9  20640789.451 9
  20640790.366 8  80998988.132 8

  23945163.108 6 125832724.654 6  98051495.544 4  23945165.351 4  23945162.813 4
  23945169.300 7  93966040.105 7

 23  9 13 15  4 30.0000000  0  8G07G13G11G05G20G09G30G14
  21488716.144 8 112924034.768 8  87992782.023 8  21488715.250 8  21488715.733 8


  22044590.806 7 115845157.613 7  90268961.428 5  22044590.900 5  22044590.355 5


  23304241.831 7 122464633.681 7  95426995.309 5  23304243.044 5  23304241.715 5
  23304246.155 8  91450880.830 8

  21110668.661 8 110937359.713 8  86444701.955 7  21110668.033 7  21110668.474 7


  20305376.879 8 106705519.015 8  83147184.741 7  20305375.596 7  20305375.735 7


  24147063.294 6 126893693.798 6  98878233.607 6  24147067.262 6  24147062.812 6
  24147067.167 7  94758309.121 7

  20638914.556 8 108458294.418 8  84512996.897 9  20638915.715 9  20638913.720 9
  20638914.778 8  80991627.066 8

  23926150.966 6 125732814.989 6  97973644.002 4  23926153.436 4  23926150.689 4
  23926156.927 7  93891432.420 7

 23  9 13 15  5  0.0000000  0  8G07G13G11G05G20G09G30G14
  21497561.986 8 112970519.003 8  88029003.487 8  21497560.649 8  21497561.575 8


  22029071.422 7 115763602.007 7  90205411.628 5  22029071.235 5  22029070.980 5


  23322368.421 7 122559890.160 7  95501221.049 5  23322369.774 5  23322368.314 5
  23322372.635 7  91522013.825 7

  21100168.469 8 110882180.563 8  86401705.225 7  21100168.054 7  21100168.282 7


  20307748.885 8 106717983.134 8  83156897.026 7  20307747.319 7  20307747.736 7


  24165221.705 6 126989117.968 6  98952589.972 6  24165225.991 6  24165221.227 6
  24165225.896 7  94829567.261 7

  20637133.829 8 108448936.899 8  84505705.326 9  20637134.959 9  20637132.998 9
  20637134.119 8  80984639.312 8

  23907161.779 6 125633024.288 6  97895885.175 4  23907164.102 4  23907161.498 4
  23907167.248 7  93816913.564 7

 23  9 13 15  5 30.0000000  0  8G07G13G11G05G20G09G30G14
  21506478.552 8 113017375.587 8  88065515.089 8  21506477.222 8  21506478.141 8


  22013595.019 7 115682272.492 7  90142038.009 5  22013594.652 5  22013594.586 5


  23340543.528 7 122655400.604 7  95575644.698 5  23340544.747 5  23340543.408 5
  23340547.581 7  91593336.477 7

  21089759.904 8 110827481.823 8  86359082.841 7  21089759.546 7  21089759.721 7


  20310231.325 8 106731029.592 8  83167063.086 7  20310230.099 7  20310230.181 7


  24183396.830 6 127084627.233 6  99027012.641 6  24183401.219 6  24183396.379 6
  24183400.893 7  94900888.967 7

  20635449.237 8 108440084.680 8  84498807.497 9  20635450.570 9  20635448.401 9
  20635449.667 9  80978028.892 9

  23888196.045 7 125533361.178 7  97818225.751 4  23888198.547 4  23888195.782 4
  23888201.894 7  93742489.968 7

 23  9 13 15  6  0.0000000  0  9G07G13G11G05G20G22G09G30G14
  21515465.039 8 113064599.424 8  88102312.865 8  21515463.784 8  21515464.628 8


  21998161.403 7 115601166.370 7  90078838.450 5  21998160.116 5  21998160.965 5


  23358766.147 7 122751158.153 7  95650260.890 5  23358767.249 5  23358766.013 5
  23358769.883 7  91664843.658 7

  21079441.763 8 110773261.453 8  86316833.216 7  21079442.120 7  21079441.580 7


  20312824.244 8 106744654.684 8  83177680.024 7  20312823.036 7  20312823.100 7


  24854617.161 6 130611889.978 6 101775513.211 2  24854619.880 2  24854616.835 2


  24201587.009 6 127180217.127 6  99101498.140 6  24201591.618 6  24201586.553 6
  24201591.092 7  94972270.887 7

  20633860.208 8 108431733.772 8  84492300.304 9  20633861.474 9  20633859.372 9
  20633860.759 9  80971792.823 9

  23869254.693 7 125433824.788 7  97740665.083 4  23869257.286 4  23869254.430 4
  23869260.504 7  93668161.041 7

 23  9 13 15  6 30.0000000  0  9G07G13G11G05G20G22G09G30G14
  21524521.336 7 113112191.526 7  88139397.600 8  21524520.438 8  21524520.925 8


  21982770.638 7 115520286.804 7  90015815.434 5  21982769.245 5  21982770.187 5


  23377034.812 7 122847162.201 7  95725069.155 5  23377036.411 5  23377034.674 5
  23377039.087 7  91736534.911 7

  21069216.280 8 110719525.339 8  86274960.935 7  21069215.901 7  21069216.097 7


  20315527.752 8 106758861.037 8  83188749.896 7  20315526.216 7  20315526.608 7


  24834901.796 6 130508285.592 6 101694782.850 3  24834905.553 3  24834901.300 3


  24219793.048 6 127275889.313 6  99176047.755 6  24219797.646 6  24219792.615 6
  24219796.916 7  95043714.243 7

  20632366.770 8 108423886.312 8  84486185.402 9  20632368.286 9  20632365.934 9
  20632367.586 9  80965932.705 9

  23850338.929 6 125334420.554 6  97663207.396 4  23850341.034 4  23850338.679 4
  23850344.430 7  93593930.769 7

 23  9 13 15  7  0.0000000  0  9G07G13G11G05G20G22G09G30G14
  21533646.653 8 113160144.668 8  88176763.664 8  21533645.801 8  21533646.242 8


  21967421.851 7 115439628.912 7  89952965.155 5  21967420.632 5  21967421.395 5


  23395349.235 7 122943403.803 7  95800062.542 5  23395350.230 5  23395349.101 5
  23395353.317 7  91808403.552 7

  21059081.726 8 110666268.876 8  86233462.406 7  21059080.993 7  21059081.543 7


  20318340.595 8 106773643.208 8  83200268.455 7  20318339.337 7  20318339.446 7


  24815181.260 6 130404656.950 6 101614033.547 3  24815185.736 3  24815180.688 3


  24238013.185 6 127371637.302 6  99250656.434 5  24238017.967 5  24238012.752 5
  24238017.396 7  95115214.201 7

  20630968.124 8 108416536.119 8  84480457.984 9  20630969.594 9  20630967.288 9
  20630969.028 9  80960443.924 9

  23831447.213 6 125235145.536 6  97585850.402 4  23831449.812 4  23831446.972 4
  23831453.061 7  93519797.028 7

 23  9 13 15  7 30.0000000  0  9G07G13G11G05G20G22G09G30G14
  21542841.506 8 113208464.114 8  88214415.162 8  21542840.531 8  21542841.095 8


  21952116.290 7 115359200.391 7  89890293.611 5  21952115.814 5  21952115.830 5


  23413709.120 6 123039886.421 6  95875243.741 5  23413710.015 5  23413709.000 5
  23413713.576 8  91880452.159 8

  21049040.526 8 110613501.123 8  86192344.682 7  21049039.010 7  21049040.352 7


  20321264.344 8 106789007.537 8  83212240.643 7  20321263.389 7  20321263.195 7


  24795458.814 6 130301013.733 6 101533272.889 3  24795463.174 3  24795458.242 3


  24256249.263 6 127467466.858 6  99325328.674 5  24256253.737 5  24256248.798 5
  24256253.095 6  95186775.069 6

  20629665.114 8 108409689.467 8  84475122.935 9  20629666.772 9  20629664.278 9
  20629666.321 9  80955331.158 9

  23812581.703 6 125136009.210 6  97508601.475 4  23812584.516 4  23812581.475 4
  23812587.989 7  93445766.833 7

 23  9 13 15  8  0.0000000  0  9G07G13G11G05G20G22G09G30G14
  21552105.209 8 113257144.022 8  88252347.538 8  21552103.771 8  21552104.798 8


  21936854.377 7 115278998.856 7  89827798.936 5  21936854.085 5  21936853.912 5


  23432113.969 7 123136603.805 7  95950607.862 5  23432115.005 5  23432113.853 5
  23432118.370 8  91952676.088 8

  21039091.675 8 110561220.365 8  86151606.433 7  21039090.042 7  21039091.501 7


  20324298.103 8 106804950.676 8  83224663.857 7  20324297.201 7  20324296.954 7


  24775732.828 6 130197355.285 6 101452500.332 3  24775737.588 3  24775732.256 3


  24274499.772 6 127563374.003 6  99400061.385 5  24274504.044 5  24274499.299 5
  24274503.852 6  95258393.916 6

  20628457.590 8 108403342.805 8  84470177.482 9  20628459.164 9  20628456.754 9
  20628458.384 9  80950591.767 9

  23793743.420 6 125037011.361 6  97431460.413 4  23793745.102 4  23793743.192 4
  23793749.185 7  93371840.051 7

 23  9 13 15  8 30.0000000  0  9G07G13G11G05G20G22G09G30G14
  21561437.499 8 113306185.598 8  88290561.733 8  21561436.110 8  21561437.093 8


  21921636.224 7 115199026.897 7  89765483.145 5  21921635.774 5  21921635.773 5


  23450563.140 7 123233554.820 7  96026154.024 5  23450564.195 5  23450563.011 5
  23450567.509 7  92025074.474 7

  21029236.598 8 110509431.213 8  86111251.257 7  21029234.980 7  21029236.420 7


  20327442.503 8 106821474.820 8  83237539.802 7  20327441.479 7  20327441.359 7


  24756005.704 6 130093686.475 6 101371719.713 3  24756009.739 3  24756005.101 3


  24292765.616 6 127659360.061 6  99474855.591 5  24292769.496 5  24292765.120 5
  24292769.428 6  95330071.670 6

  20627345.195 8 108397497.722 8  84465622.877 9  20627346.662 9  20627344.364 9
  20627345.520 8  80946226.941 8

  23774931.360 6 124938156.886 6  97354431.074 4  23774933.393 4  23774931.164 4
  23774937.490 7  93298020.315 7

 23  9 13 15  9  0.0000000  0  9G07G13G11G05G20G22G09G30G14
  21570837.684 8 113355584.456 8  88329054.325 8  21570836.534 8  21570837.278 8


  21906461.275 7 115119283.132 7  89703345.169 5  21906460.937 5  21906460.828 5


  23469055.875 7 123330733.754 7  96101877.789 5  23469056.860 5  23469055.732 5
  23469060.290 8  92097643.072 8

  21019474.936 8 110458132.883 8  86071278.536 7  21019473.519 7  21019474.758 7


  20330697.223 8 106838577.213 8  83250866.328 7  20330695.996 7  20330696.074 7


  24736275.512 6 129990007.676 6 101290931.280 3  24736279.773 3  24736274.900 3


  24311045.364 6 127755421.592 6  99549708.615 5  24311049.500 5  24311044.882 5
  24311049.615 6  95401805.790 6

  20626327.869 8 108392151.276 8  84461456.821 9  20626328.772 9  20626327.038 9
  20626327.520 8  80942234.476 8

  23756147.397 6 124839446.096 6  97277513.671 4  23756149.141 4  23756147.250 4
  23756153.238 7  93224307.855 7

 23  9 13 15  9 30.0000000  0  9G07G13G11G05G20G22G09G30G14
  21580306.248 8 113405341.806 8  88367826.263 8  21580305.170 8  21580305.846 8


  21891330.800 7 115039770.811 7  89641387.543 5  21891330.146 5  21891330.353 5


  23487591.551 7 123428140.263 7  96177778.890 5  23487592.788 5  23487591.382 5
  23487596.211 8  92170381.598 8

  21009807.427 8 110407330.310 8  86031692.132 7  21009806.848 7  21009807.244 7


  20334062.069 8 106856260.679 8  83264645.640 7  20334060.709 7  20334060.925 7


  24716545.333 6 129886324.215 6 101210139.195 2  24716549.087 2  24716544.739 2


  24329340.250 6 127851560.628 6  99624622.029 5  24329344.265 5  24329339.785 5
  24329344.342 6  95473597.790 6

  20625405.844 8 108387305.752 8  84457681.098 8  20625406.405 8  20625405.008 8
  20625405.609 8  80938616.074 8

  23737391.504 6 124740884.683 6  97200712.681 4  23737393.889 4  23737391.375 4
  23737397.046 7  93150706.931 7

 23  9 13 15 10  0.0000000  0  9G07G13G11G05G20G22G09G30G14
  21589841.997 8 113455452.495 8  88406873.529 8  21589841.166 8  21589841.595 8


  21876243.663 7 114960487.635 7  89579608.466 5  21876243.134 5  21876243.216 5


  23506169.611 7 123525767.767 7  96253852.192 5  23506171.229 5  23506169.446 5
  23506174.276 8  92243285.156 8

  21000233.867 8 110357021.627 8  85992490.581 7  21000234.190 7  21000233.684 7


  20337537.113 8 106874521.549 8  83278874.877 7  20337535.325 7  20337535.964 7


  24696813.553 6 129782635.582 6 101129343.079 3  24696817.328 3  24696812.945 3


  24347648.792 6 127947772.934 6  99699592.534 5  24347652.974 5  24347648.310 5
  24347653.169 6  95545444.490 6

  20624578.404 8 108382957.329 8  84454292.726 8  20624578.381 8  20624577.568 8
  20624578.328 8  80935368.877 8

  23718664.676 6 124642472.149 6  97124027.702 4  23718666.696 4  23718664.556 4
  23718669.695 7  93077217.162 7

 23  9 13 15 10 30.0000000  0  9G07G13G11G05G20G22G09G30G14
  21599444.886 8 113505915.649 8  88446195.438 8  21599444.271 8  21599444.489 8


  21861200.647 7 114881435.328 7  89518009.293 5  21861200.397 5  21861200.205 5


  23524789.218 7 123623613.779 7  96330095.754 5  23524790.686 5  23524789.066 5
  23524793.509 7  92316351.882 7

  20990755.262 8 110307209.390 8  85953675.870 7  20990755.280 7  20990755.079 7


  20341122.063 8 106893360.522 8  83293554.580 7  20341120.715 7  20341120.914 7


  24677081.682 6 129678945.189 6 101048545.607 2  24677085.867 2  24677081.052 2


  24365971.328 6 128044058.406 6  99774620.049 5  24365975.601 5  24365970.855 5
  24365975.456 6  95617345.833 6

  20623845.447 8 108379106.132 8  84451291.807 9  20623845.613 9  20623844.611 9
  20623845.627 8  80932492.982 8

  23699966.381 6 124544212.015 6  97047461.480 4  23699968.773 4  23699966.283 4
  23699971.355 7  93003841.182 7

 23  9 13 15 11  0.0000000  0  9G07G13G11G05G20G22G09G30G14
  21609115.441 8 113556734.601 8  88485794.596 8  21609114.840 8  21609115.048 8


  21846202.592 7 114802619.469 7  89456594.367 5  21846202.127 5  21846202.145 5


  23543450.793 7 123721680.378 7  96406511.186 5  23543451.864 5  23543450.646 5
  23543455.136 7  92389583.343 7

  20981372.140 8 110257901.736 8  85915254.335 7  20981372.145 7  20981371.962 7


  20344817.743 8 106912782.510 8  83308688.582 7  20344816.920 7  20344816.599 7


  24657350.862 6 129575261.248 6 100967753.115 3  24657354.551 3  24657350.160 3


  24384308.411 6 128140421.473 6  99849708.027 5  24384312.927 5  24384307.996 5
  24384312.768 6  95689305.133 6

  20623208.132 8 108375756.932 8  84448682.050 9  20623208.879 9  20623207.296 9
  20623208.318 8  80929991.960 8

  23681298.174 6 124446112.385 6  96971020.323 4  23681300.989 4  23681298.094 4
  23681303.800 7  92930585.073 7

 23  9 13 15 11 30.0000000  0  9G07G13G11G05G20G22G09G30G14
  21618852.212 8 113607902.221 8  88525665.445 8  21618851.645 8  21618851.819 8


  21831248.166 7 114724035.983 7  89395360.507 5  21831247.713 5  21831247.715 5


  23562152.579 7 123819959.017 7  96483091.851 5  23562153.487 5  23562152.432 5
  23562157.279 8  92462973.152 8

  20972084.148 8 110209094.796 8  85877222.964 7  20972083.852 7  20972083.965 7


  20348623.732 8 106932782.116 8  83324272.679 7  20348622.514 7  20348622.601 7


  24637620.735 6 129471580.360 6 100886963.002 2  24637624.020 2  24637620.011 2


  24402659.444 6 128236855.905 6  99924851.614 5  24402663.465 5  24402659.015 5
  24402663.674 6  95761317.732 6

  20622665.203 8 108372903.803 8  84446458.845 9  20622666.173 9  20622664.363 9
  20622665.460 8  80927861.377 8

  23662660.719 6 124348170.770 6  96894702.269 5  23662663.338 5  23662660.657 5
  23662666.177 7  92857446.938 7

 23  9 13 15 12  0.0000000  0  9G07G13G11G05G20G22G09G30G14
  21628655.192 8 113659417.583 8  88565807.257 8  21628654.607 8  21628654.790 8


  21816338.803 7 114645685.981 7  89334308.585 5  21816337.921 5  21816338.347 5


  23580893.820 7 123918446.793 7  96559835.488 4  23580894.723 4  23580893.660 4
  23580899.122 8  92536519.108 8

  20962892.458 8 110160790.538 8  85839583.293 7  20962891.738 7  20962892.284 7


  20352539.200 8 106953359.172 8  83340306.737 7  20352538.221 7  20352538.069 7


  24617892.727 6 129367906.034 6 100806178.047 2  24617895.390 2  24617892.025 2


  24421023.906 6 128333361.213 6 100000050.423 4  24421027.405 4  24421023.473 4
  24421027.928 6  95833383.236 6

  20622216.492 8 108370546.482 8  84444621.977 9  20622218.197 9  20622215.652 9
  20622216.804 8  80926101.040 8

  23644053.324 6 124250390.326 6  96818509.812 4  23644056.210 4  23644053.271 4
  23644059.106 7  92784429.172 7

 23  9 13 15 12 30.0000000  0  9G07G13G11G05G20G22G09G30G14
  21638524.576 7 113711279.974 7  88606219.489 8  21638523.542 8  21638524.179 8


  21801474.094 7 114567571.215 7  89273439.953 5  21801473.085 5  21801473.638 5


  23599675.183 7 124017141.899 7  96636740.685 4  23599675.853 4  23599675.031 4
  23599680.319 8  92610219.885 8

  20953796.619 8 110112992.253 8  85802337.880 7  20953795.587 7  20953796.441 7


  20356565.316 8 106974514.874 8  83356791.680 7  20356564.070 7  20356564.185 7


  24598165.484 6 129264242.256 6 100725401.280 2  24598168.922 2  24598164.782 2


  24439402.262 5 128429937.983 5 100075304.938 4  24439405.607 4  24439401.847 4
  24439406.310 6  95905502.129 6

  20621862.545 8 108368685.800 8  84443172.094 9  20621864.811 9  20621861.705 9
  20621862.663 8  80924711.573 8

  23625477.563 6 124152775.300 6  96742446.225 4  23625480.373 4  23625477.510 4
  23625483.712 7  92711534.956 7

 23  9 13 15 13  0.0000000  0  9G07G13G11G05G20G22G09G30G14
  21648459.519 7 113763489.736 7  88646902.399 8  21648458.606 8  21648459.117 8


  21786654.691 7 114489694.827 7  89212757.080 5  21786654.253 5  21786654.235 5


  23618495.888 7 124116043.213 7  96713806.574 4  23618496.260 4  23618495.736 4
  23618500.659 8  92684074.647 8

  20944797.750 8 110065704.035 8  85765489.922 7  20944796.173 7  20944797.572 7


  20360701.454 8 106996251.028 8  83373728.926 7  20360700.044 7  20360700.323 7


  24578442.110 5 129160593.955 5 100644636.584 2  24578445.621 2  24578441.422 2


  24457794.579 6 128526587.474 6 100150616.090 4  24457797.687 4  24457794.155 4
  24457798.246 6  95977675.294 6

  20621603.101 8 108367323.285 8  84442110.384 9  20621605.525 9  20621602.256 9
  20621603.426 8  80923694.108 8

  23606934.835 6 124055330.678 6  96666515.426 4  23606937.318 4  23606934.777 4
  23606940.508 7  92638767.964 7

 23  9 13 15 13 30.0000000  0  9G07G13G11G05G20G22G09G30G14
  21658460.335 8 113816044.397 8  88687854.059 8  21658459.530 8  21658459.929 8


  21771880.377 7 114412056.703 7  89152259.863 5  21771880.602 5  21771879.926 5


  23637354.127 7 124215146.743 7  96791030.012 5  23637355.411 5  23637353.975 5
  23637359.251 7  92758080.429 7

  20935896.890 8 110018927.052 8  85729040.331 7  20935894.615 7  20935896.703 7


  20364947.887 8 107018566.422 8  83391117.526 7  20364946.847 7  20364946.756 7


  24558721.888 6 129056963.226 6 100563885.569 2  24558725.081 2  24558721.151 2


  24476199.246 6 128623307.973 6 100225982.590 4  24476203.326 4  24476198.808 4
  24476203.928 6  96049901.491 6

  20621438.512 8 108366457.362 8  84441435.627 9  20621441.206 9  20621437.667 9
  20621438.742 9  80923047.480 9

  23588424.384 7 123958058.402 7  96590718.913 5  23588426.798 5  23588424.304 5
  23588429.991 7  92566129.659 7

 23  9 13 15 14  0.0000000  0  9G07G13G11G05G20G22G09G30G14
  21668525.972 7 113868938.882 7  88729070.519 8  21668525.114 8  21668525.566 8


  21757151.343 7 114334653.747 7  89091945.901 5  21757151.238 5  21757150.892 5


  23656250.051 6 124314445.202 6  96868405.344 4  23656251.699 4  23656249.908 4
  23656254.968 7  92832231.785 7

  20927092.188 8 109972658.790 8  85692987.145 7  20927090.596 7  20927092.001 7


  20369303.976 8 107041456.853 8  83408954.211 7  20369303.141 7  20369302.850 7


  24539004.426 6 128953348.597 6 100483147.110 3  24539007.305 3  24539003.653 3


  24494618.071 5 128720094.646 5 100301400.619 4  24494621.696 4  24494617.656 4
  24494621.997 6  96122177.087 6

  20621367.325 8 108366083.522 8  84441144.300 9  20621370.558 9  20621366.480 9
  20621367.678 9  80922768.310 9

  23569946.763 7 123860957.344 7  96515055.805 5  23569949.103 5  23569946.656 5
  23569952.228 7  92493619.213 7

 23  9 13 15 14 30.0000000  0  9G07G13G11G05G20G22G09G30G14
  21678656.678 7 113922176.699 7  88770554.511 8  21678655.917 8  21678656.258 8


  21742468.064 7 114257493.203 7  89031820.833 5  21742467.208 5  21742467.613 5


  23675183.984 6 124413941.849 6  96945935.094 5  23675185.616 5  23675183.806 5
  23675188.880 7  92906531.129 7

  20918385.798 8 109926907.973 8  85657337.160 7  20918384.672 7  20918385.611 7


  20373770.261 8 107064928.253 8  83427243.599 7  20373769.340 7  20373769.130 7


  24519291.447 6 128849759.355 6 100402428.407 3  24519295.034 3  24519290.602 3


  24513049.198 6 128816953.181 6 100376874.685 4  24513053.035 4  24513048.805 4
  24513053.728 6  96194506.346 6

  20621391.050 8 108366207.443 8  84441240.853 9  20621392.911 9  20621390.205 9
  20621391.340 9  80922860.849 9

  23551503.284 7 123764036.752 7  96439533.336 5  23551505.635 5  23551503.182 5
  23551508.777 7  92421243.513 7

 23  9 13 15 15  0.0000000  0  9G07G13G11G05G20G22G09G30G14
  21688851.418 7 113975749.539 7  88812299.562 8  21688850.604 8  21688850.998 8


  21727830.273 7 114180568.989 7  88971879.897 5  21727828.104 5  21727829.817 5


  23694153.414 6 124513626.390 6  97023611.260 4  23694155.009 4  23694153.240 4
  23694158.387 7  92980970.756 7

  20909777.183 8 109881668.527 8  85622085.654 7  20909776.519 7  20909776.996 7


  20378346.043 8 107088973.100 8  83445979.829 7  20378345.074 7  20378344.903 7


  24499583.614 6 128746191.050 6 100321726.003 3  24499586.183 3  24499582.747 3


  24531493.266 6 128913875.661 6 100452398.580 4  24531496.741 4  24531492.913 4
  24531497.594 6  96266883.363 6

  20621507.746 8 108366821.484 8  84441719.340 9  20621507.651 9  20621506.901 9
  20621508.204 9  80923319.383 9

  23533093.201 7 123667292.415 7  96364148.201 5  23533095.931 5  23533093.103 5
  23533098.669 7  92348999.443 7

 23  9 13 15 15 30.0000000  0 10G07G13G11G18G05G20G22G09G30G14
  21699110.841 7 114029663.409 7  88854310.346 8  21699110.190 8  21699110.408 8


  21713238.128 7 114103889.263 7  88912129.477 5  21713236.319 5  21713237.663 5


  23713159.643 6 124613503.380 6  97101437.398 4  23713161.027 4  23713159.465 4
  23713164.327 7  93055554.111 7

  25392859.730 5 133440367.342 5
  25392865.020 7  99647057.363 7

  20901267.471 8 109836950.143 8  85587240.171 7  20901267.095 7  20901267.284 7


  20383032.232 8 107113599.038 8  83465168.850 7  20383031.258 7  20383031.092 7


  24479881.210 6 128642654.060 6 100241047.997 3  24479883.848 3  24479880.312 3


  24549950.279 6 129010868.938 6 100527977.637 4  24549953.908 4  24549949.886 4
  24549955.111 7  96339313.255 7

  20621719.137 8 108367932.682 8  84442585.224 9  20621719.256 9  20621718.292 9
  20621719.576 9  80924149.175 9

  23514718.913 6 123570734.958 6  96288908.705 5  23514721.635 5  23514718.824 5
  23514724.224 7  92276894.940 7

 23  9 13 15 16  0.0000000  0 11G07G15G13G11G18G05G20G22G09G30G14
  21709434.020 7 114083911.559 7  88896581.611 8  21709433.164 8  21709433.587 8


  24908316.953 6 130894090.262 6


  21698692.037 7 114027449.368 7  88852565.938 5  21698690.653 5  21698691.564 5


  23732200.064 6 124713564.343 6  97179406.880 4  23732202.302 4  23732199.890 4
  23732205.181 7  93130274.845 7

  25377883.291 5 133361669.262 5 103918199.502 3  25377885.785 3  25377883.402 3
  25377889.652 7  99588289.270 7

  20892856.356 8 109792749.662 8  85552798.250 7  20892856.417 7  20892856.173 7


  20387827.905 8 107138800.141 8  83484806.053 7  20387826.580 7  20387826.761 7


  24460184.010 6 128539146.138 6 100160392.585 4  24460186.615 4  24460183.094 4


  24568420.060 6 129107926.961 6 100603607.137 4  24568423.853 4  24568419.663 4
  24568424.774 7  96411791.485 7

  20622024.170 8 108369535.085 8  84443833.854 9  20622025.556 9  20622023.325 9
  20622024.480 8  80925345.770 8

  23496379.652 6 123474361.938 6  96213812.932 5  23496382.520 5  23496379.563 5
  23496385.200 7  92204928.169 7

 23  9 13 15 16 30.0000000  0 11G07G15G13G11G18G05G20G22G09G30G14
  21719820.583 7 114138492.530 7  88939112.217 8  21719819.459 8  21719820.145 8


  24887801.774 5 130786276.558 5 101911393.119 3  24887801.635 3  24887801.359 3


  21684192.094 7 113951250.966 7  88793190.588 5  21684191.460 5  21684191.616 5


  23751275.822 6 124813806.504 6  97257517.543 4  23751277.869 4  23751275.639 4
  23751280.673 7  93205130.889 7

  25362981.112 5 133283359.453 5 103857178.963 3  25362984.066 3  25362981.125 3
  25362987.078 7  99529811.247 7

  20884544.141 8 109749069.438 8  85518761.724 7  20884544.440 7  20884543.954 7


  20392732.965 8 107164576.451 8  83504891.470 7  20392731.893 7  20392731.821 7


  24440493.019 6 128435670.409 6 100079762.295 3  24440495.453 3  24440492.125 3


  24586901.985 6 129205049.333 6 100679286.748 5  24586906.297 5  24586901.574 5
  24586906.799 7  96484317.740 7

  20622422.546 8 108371628.418 8  84445465.017 9  20622424.546 9  20622421.701 9
  20622422.691 8  80926908.973 8

  23478076.320 6 123378176.663 6  96138863.458 4  23478079.030 4  23478076.227 4
  23478082.085 7  92133101.591 7

 23  9 13 15 17  0.0000000  0 11G07G15G13G11G18G05G20G22G09G30G14
  21730270.537 7 114193408.308 7  88981903.713 8  21730269.592 8  21730270.108 8


  24867289.509 6 130678489.583 6 101827403.329 4  24867291.681 4  24867289.264 4


  21669739.276 7 113875298.556 7  88734006.927 6  21669738.723 6  21669738.794 6


  23770386.065 6 124914230.199 6  97335769.663 4  23770387.832 4  23770385.882 4
  23770391.110 7  93280122.518 7

  25348154.607 5 133205443.922 5 103796465.536 3  25348157.829 3  25348154.723 3
  25348160.775 7  99471627.585 7

  20876332.436 8 109705914.812 8  85485134.751 7  20876331.992 7  20876332.249 7


  20397748.044 8 107190930.926 8  83525427.411 7  20397747.240 7  20397746.900 7


  24420809.927 6 128332233.325 6  99999162.072 3  24420811.920 3  24420809.060 3


  24605396.176 6 129302238.786 6 100755018.652 5  24605400.595 5  24605395.734 5
  24605401.562 7  96556894.114 7

  20622914.783 8 108374215.482 8  84447480.906 9  20622916.713 9  20622913.938 9
  20622915.016 8  80928840.867 8

  23459809.777 6 123282185.461 6  96064065.200 4  23459811.819 4  23459809.688 4
  23459815.607 7  92061419.947 7

 23  9 13 15 17 30.0000000  0 11G07G15G13G11G18G05G20G22G09G30G14
  21740783.562 7 114248654.204 7  89024952.444 8  21740782.600 8  21740783.133 8


  24846782.163 6 130570727.879 6 101743433.230 4  24846787.661 4  24846781.904 4


  21655332.152 7 113799589.911 7  88675013.201 6  21655331.699 6  21655331.674 6


  23789529.839 6 125014829.641 6  97414158.748 4  23789530.689 4  23789529.674 4
  23789534.757 7  93355245.358 7

  25333401.868 5 133127922.374 5 103736059.207 3  25333406.035 3  25333401.944 3
  25333408.178 7  99413738.187 7

  20868220.122 8 109663284.580 8  85451916.399 7  20868219.275 7  20868219.930 7


  20402872.330 8 107217860.605 8  83546411.561 7  20402871.425 7  20402871.186 7


  24401133.506 6 128228834.908 6  99918591.996 3  24401136.267 3  24401132.670 3


  24623903.422 5 129399491.919 5 100830800.178 5  24623907.002 5  24623902.971 5
  24623908.349 7  96629518.048 7

  20623500.302 8 108377292.988 8  84449878.960 9  20623502.183 9  20623499.457 9
  20623500.614 8  80931139.000 8

  23441580.006 7 123186388.615 7  95989418.379 4  23441582.070 4  23441579.904 4
  23441585.905 8  91989883.447 8

 23  9 13 15 18  0.0000000  0 11G07G15G13G11G18G05G20G22G09G30G14
  21751359.039 7 114304229.026 7  89068257.483 8  21751358.362 8  21751358.606 8


  24826280.701 6 130462992.966 6 101659484.003 4  24826286.331 4  24826280.433 4


  21640971.652 7 113724126.651 7  88616210.678 5  21640970.799 5  21640971.174 5


  23808706.087 6 125115602.289 6  97492682.813 4  23808706.741 4  23808705.913 4
  23808711.264 7  93430497.535 7

  25318726.104 5 133050797.921 5 103675962.291 3  25318728.535 3  25318726.144 3
  25318732.327 7  99356145.301 7

  20860208.082 8 109621181.834 8  85419109.074 7  20860207.292 7  20860207.886 7


  20408106.242 8 107245365.550 8  83567843.970 7  20408105.463 7  20408105.102 7


  24381465.369 6 128125478.583 6  99838054.706 3  24381468.383 3  24381464.556 3


  24642422.228 5 129496808.590 5 100906631.210 5  24642426.071 5  24642421.808 5
  24642427.324 7  96702189.435 7

  20624179.337 8 108380860.835 8  84452659.095 9  20624180.854 9  20624178.492 9
  20624179.600 8  80933803.298 8

  23423388.087 7 123090789.606 7  95914925.699 4  23423389.846 4  23423387.985 4
  23423393.825 8  91918494.675 8

 23  9 13 15 18 30.0000000  0 11G07G15G13G11G18G05G20G22G09G30G14
  21761996.873 7 114360130.910 7  89111817.369 8  21761996.354 8  21761996.435 8


  24805786.677 6 130355285.419 6 101575556.062 4  24805786.929 4  24805786.436 4


  21626658.250 7 113648909.234 7  88557599.707 5  21626656.694 5  21626657.777 5


  23827914.884 7 125216544.621 7  97571339.088 4  23827915.802 4  23827914.701 4
  23827919.898 7  93505876.427 7

  25304126.314 5 132974072.620 5 103616176.341 3  25304128.426 3  25304126.331 3
  25304132.486 7  99298850.418 7

  20852296.802 8 109579607.150 8  85386713.213 7  20852295.420 7  20852296.606 7


  20413449.580 8 107273444.886 8  83589723.949 7  20413449.373 7  20413448.440 7


  24361804.781 6 128022166.881 6  99757552.174 3  24361808.406 3  24361803.918 3


  24660952.868 5 129594187.608 5 100982510.822 5  24660956.735 5  24660952.471 5
  24660957.985 7  96774907.371 7

  20624951.329 8 108384917.925 8  84455820.461 9  20624952.615 9  20624950.484 9
  20624951.665 8  80936832.941 8

  23405234.122 7 122995390.966 7  95840589.148 4  23405236.346 4  23405233.997 4
  23405240.174 7  91847255.516 7

 23  9 13 15 19  0.0000000  0 11G07G15G13G11G18G05G20G22G09G30G14
  21772696.644 7 114416358.843 7  89155631.321 8  21772696.155 8  21772696.197 8


  24785295.076 6 130247606.865 6 101491650.760 3  24785294.079 3  24785294.826 3


  21612392.249 8 113573939.561 8  88499181.796 6  21612391.174 6  21612391.784 6


  23847155.422 7 125317654.340 7  97650125.778 4  23847156.900 4  23847155.239 4
  23847160.668 7  93581380.325 7

  25289601.900 5 132897749.763 5 103556704.018 3  25289605.005 3  25289601.874 3
  25289608.504 7  99241856.126 7

  20844486.335 8 109538563.410 8  85354731.077 7  20844484.532 7  20844486.139 7


  20418902.292 8 107302098.903 8  83612051.730 7  20418901.788 7  20418901.152 7


  24342154.162 5 127918903.412 5  99677087.280 2  24342158.307 2  24342153.259 2


  24679496.081 5 129691629.090 5 101058439.112 5  24679499.412 5  24679495.684 5
  24679500.688 7  96847671.940 7

  20625816.736 8 108389464.362 8  84459363.140 9  20625817.928 9  20625815.891 9
  20625816.805 8  80940228.001 8

  23387118.610 6 122900196.384 6  95766411.621 4  23387121.379 4  23387118.472 4
  23387124.769 7  91776168.732 7

 23  9 13 15 19 30.0000000  0 11G07G15G13G11G18G05G20G22G09G30G14
  21783458.163 7 114472910.418 7  89199697.459 8  21783457.442 8  21783457.734 8


  24764809.612 6 130139957.739 6 101407768.364 4  24764810.930 4  24764809.353 4


  21598173.000 8 113499217.216 8  88440956.618 6  21598172.900 6  21598172.531 6


  23866427.281 7 125418927.320 7  97729039.688 4  23866428.537 4  23866427.116 4
  23866432.261 7  93657006.147 7

  25275154.461 5 132821830.930 5 103497546.533 3  25275159.398 3  25275154.368 3
  25275161.595 7  99185163.555 7

  20836777.167 8 109498051.237 8  85323163.148 7  20836775.192 7  20836776.971 7


  20424464.100 8 107331326.343 8  83634826.341 7  20424463.251 7  20424462.960 7


  24322513.245 6 127815690.374 6  99596661.659 3  24322516.944 3  24322512.347 3


  24698049.969 6 129789131.336 6 101134414.735 5  24698053.905 5  24698049.558 5
  24698054.789 7  96920481.888 7

  20626774.564 8 108394498.516 8  84463285.855 9  20626776.029 9  20626773.719 9
  20626774.736 8  80943987.270 8

  23369043.457 6 122805207.849 6  95692394.655 5  23369045.690 5  23369043.337 5
  23369049.001 7  91705235.803 7

 23  9 13 15 20  0.0000000  0 11G07G15G13G11G18G05G20G22G09G30G14
  21794280.859 7 114529784.407 7  89244014.827 8  21794280.172 8  21794280.427 8


  24744330.294 6 130032339.514 6 101323910.063 4  24744334.760 4  24744330.044 4


  21584001.144 7 113424743.803 7  88382925.412 6  21584001.306 6  21584000.684 6


  23885729.154 6 125520361.003 6  97808078.815 4  23885730.561 4  23885728.980 4
  23885734.726 7  93732751.957 7

  25260784.886 5 132746318.990 5 103438706.110 3  25260788.818 3  25260784.775 3
  25260791.602 7  99128774.831 7

  20829169.642 8 109458072.873 8  85292011.176 7  20829168.013 7  20829169.446 7


  20430134.939 8 107361126.984 8  83658047.599 7  20430134.538 7  20430133.808 7


  24302883.337 6 127712530.956 6  99516277.874 3  24302886.146 3  24302882.470 3


  24716614.973 6 129886694.117 6 101210437.525 5  24716619.982 5  24716614.526 5
  24716620.793 7  96993337.025 7

  20627825.238 8 108400020.177 8  84467588.446 9  20627826.779 9  20627824.398 9
  20627825.513 8  80948110.583 8

  23351007.664 7 122710428.836 7  95618540.957 5  23351009.835 5  23351007.521 5
  23351012.855 7  91634459.331 7

 23  9 13 15 20 30.0000000  0 11G07G15G13G11G18G05G20G22G09G30G14
  21805164.561 7 114586978.774 7  89288581.840 8  21805163.876 8  21805164.128 8


  24723858.113 5 129924752.887 5 101240076.439 3  24723862.617 3  24723857.885 3


  21569876.738 7 113350519.873 7  88325088.609 6  21569876.271 6  21569876.278 6


  23905061.234 6 125621952.062 6  97887240.579 4  23905062.650 4  23905061.060 4
  23905067.223 8  93808615.279 8

  25246494.627 5 132671215.986 5 103380184.258 3  25246496.977 3  25246494.493 3
  25246500.248 7  99072691.365 7

  20821663.741 8 109418630.474 8  85261276.843 7  20821663.142 7  20821663.554 7


  20435915.056 8 107391500.028 8  83681714.885 7  20435914.032 7  20435913.934 7


  24283263.357 6 127609427.668 6  99435937.789 3  24283265.519 3  24283262.427 3


  24735192.550 6 129984316.503 6 101286506.771 5  24735197.174 5  24735192.081 5
  24735197.797 7  97066236.704 7

  20628968.650 8 108406028.423 8  84472270.190 9  20628970.163 9  20628967.810 9
  20628968.875 8  80952597.250 8

  23333012.251 7 122615862.049 7  95544852.611 5  23333014.340 5  23333012.104 5
  23333017.510 7  91563841.335 7

 23  9 13 15 21  0.0000000  0 11G07G15G13G11G18G05G20G22G09G30G14
  21816108.832 7 114644490.938 7  89333396.489 8  21816108.023 8  21816108.412 8


  24703391.083 6 129817198.099 6 101156267.576 4  24703392.729 4  24703390.909 4


  21555799.951 7 113276545.213 7  88267446.027 6  21555798.191 6  21555799.491 6


  23924422.637 7 125723696.260 7  97966521.682 4  23924424.325 4  23924422.481 4
  23924428.626 8  93884592.954 8

  25232280.823 5 132596523.519 5 103321982.340 3  25232283.376 3  25232280.743 3
  25232286.784 7  99016914.521 7

  20814260.016 8 109379724.114 8  85230960.209 7  20814259.966 7  20814259.829 7


  20441803.684 8 107422444.042 8  83705827.090 7  20441801.986 7  20441802.562 7


  24263654.012 6 127506382.605 6  99355643.098 3  24263656.340 3  24263652.993 3


  24753780.363 5 130081996.719 5 101362621.080 5  24753785.214 5  24753779.881 5
  24753785.746 7  97139179.515 7

  20630204.148 8 108412521.396 8  84477329.643 9  20630205.595 9  20630203.308 9
  20630204.522 8  80957445.893 8

  23315058.001 7 122521509.316 7  95471331.063 5  23315059.689 5  23315057.867 5
  23315062.819 7  91493383.186 7

 23  9 13 15 21 30.0000000  0 11G07G15G13G11G18G05G20G22G09G30G14
  21827113.883 7 114702323.982 7  89378461.175 8  21827113.321 8  21827113.463 8


  24682930.494 6 129709681.180 6 101072488.195 4  24682929.694 4  24682930.325 4


  21541771.294 8 113202825.975 8  88210002.478 6  21541769.505 6  21541770.834 6


  23943814.165 7 125825595.348 7  98045923.481 4  23943815.449 4  23943814.054 4
  23943819.494 8  93960686.305 8

  25218146.416 5 132522248.778 5 103264105.947 3  25218149.192 3  25218146.376 3
  25218153.082 7  98961449.633 7

  20806959.692 8 109341360.041 8  85201066.139 7  20806959.848 7  20806959.509 7


  20447801.597 8 107453963.021 8  83730387.314 7  20447799.907 7  20447800.475 7


  24244057.636 6 127403403.271 6  99275399.623 3  24244060.461 3  24244056.604 3


  24772380.205 6 130179738.822 6 101438783.622 5  24772385.306 5  24772379.714 5
  24772385.560 7  97212168.601 7

  20631532.860 8 108419503.187 8  84482769.995 9  20631533.998 9  20631532.015 9
  20631533.122 8  80962659.565 8

  23297145.138 7 122427378.390 7  95397982.353 5  23297147.004 5  23297144.991 5
  23297150.160 7  91423090.684 7

 23  9 13 15 22  0.0000000  0 11G07G15G13G11G18G05G20G22G09G30G14
  21838179.079 7 114760471.674 7  89423771.039 8  21838178.578 8  21838178.668 8


  24662476.800 6 129602198.222 6 100988735.281 4  24662476.489 4  24662476.653 4


  21527790.855 8 113129357.640 8  88152754.446 6  21527789.641 6  21527790.386 6


  23963232.632 6 125927641.472 6  98125439.836 4  23963234.485 4  23963232.534 4
  23963238.300 7  94036889.443 7

  25204091.995 5 132448389.565 5 103206553.375 3  25204094.965 3  25204091.951 3
  25204098.117 7  98906295.105 7

  20799762.267 8 109303535.902 8  85171592.794 7  20799762.497 7  20799762.084 7


  20453907.599 8 107486051.779 8  83755391.519 7  20453906.216 7  20453906.468 7


  24224473.569 6 127300488.077 6  99195206.141 3  24224475.522 3  24224472.528 3


  24790990.059 6 130277537.392 6 101514990.159 5  24790995.820 5  24790989.572 5
  24790996.192 7  97285199.839 7

  20632953.203 8 108426968.269 8  84488586.938 9  20632954.395 9  20632952.358 9
  20632953.662 8  80968234.133 8

  23279274.203 7 122333467.444 7  95324805.063 5  23279276.227 5  23279274.065 5
  23279279.683 7  91352962.472 7

 23  9 13 15 22 30.0000000  0 11G07G15G13G11G18G05G20G22G09G30G14
  21849303.740 7 114818932.690 7  89469325.053 8  21849303.375 8  21849303.325 8


  24642031.419 6 129494750.639 6 100905009.957 4  24642032.580 4  24642031.241 4


  21513858.340 8 113056142.318 8  88095703.568 6  21513857.874 6  21513857.867 6


  23982678.955 6 126029832.212 6  98205068.850 4  23982681.313 4  23982678.835 4
  23982684.426 7  94113200.583 7

  25190116.066 5 132374948.833 5 103149326.896 3  25190119.006 3  25190116.031 3
  25190122.439 7  98851453.052 7

  20792667.673 8 109266254.704 8  85142542.517 7  20792667.945 7  20792667.486 7


  20460122.339 8 107518710.357 8  83780839.744 7  20460121.155 7  20460121.199 7


  24204902.132 6 127197640.489 6  99115065.358 3  24204904.858 3  24204901.122 3


  24809611.984 6 130375392.367 6 101591240.664 6  24809617.268 6  24809611.493 6
  24809617.568 7  97358273.209 7

  20634465.857 8 108434916.562 8  84494780.407 9  20634466.904 9  20634465.017 9
  20634466.099 8  80974169.537 8

  23261445.941 7 122239780.103 7  95251801.996 5  23261447.650 5  23261445.794 5
  23261451.300 7  91283001.203 7

 23  9 13 15 23  0.0000000  0 11G07G15G13G11G18G05G20G22G09G30G14
  21860488.499 7 114877706.182 7  89515122.552 8  21860487.601 8  21860488.088 8


  24621592.320 6 129387340.640 6 100821313.889 4  24621596.333 4  24621592.146 4


  21499974.582 7 112983181.443 7  88038850.973 6  21499974.438 6  21499974.113 6


  24002152.077 6 126132165.327 6  98284808.818 4  24002154.757 4  24002151.939 4
  24002157.606 7  94189618.045 7

  25176221.146 5 132301929.730 5 103092428.958 3  25176224.069 3  25176221.129 3
  25176227.373 7  98796925.888 7

  20785677.164 8 109229517.686 8  85113916.276 7  20785676.192 7  20785676.968 7


  20466445.751 8 107551939.337 8  83806732.433 7  20466444.397 7  20466444.607 7


  24185344.400 6 127094864.112 6  99034980.054 4  24185347.287 4  24185343.417 4


  24828244.270 6 130473303.917 6 101667535.238 6  24828249.646 6  24828243.770 6
  24828249.612 7  97431388.819 7

  20636070.457 8 108443348.100 8  84501350.434 9  20636071.417 9  20636069.630 9
  20636070.542 8  80980465.810 8

  23243661.179 7 122146320.091 7  95178976.069 5  23243663.151 5  23243661.023 5
  23243666.471 7  91213209.712 7

 23  9 13 15 23 30.0000000  0 11G07G15G13G11G18G05G20G22G09G30G14
  21871731.507 7 114936790.668 7  89561162.385 8  21871731.015 8  21871731.101 8


  24601158.958 6 129279969.674 6 100737648.248 4  24601163.074 4  24601158.766 4


  21486138.969 8 112910476.162 8  87982197.528 6  21486138.711 6  21486138.500 6


  24021652.683 6 126234637.878 6  98364657.440 4  24021654.728 4  24021652.531 4
  24021657.697 7  94266139.641 7

  25162406.378 5 132229334.947 5 103035861.674 3  25162409.051 3  25162406.356 3
  25162412.717 7  98742715.581 7

  20778790.337 8 109193326.892 8  85085715.662 7  20778789.023 7  20778790.141 7


  20472877.184 8 107585737.372 8  83833068.540 7  20472875.684 7  20472876.035 7


  24165800.315 6 126992161.890 6  98954952.546 4  24165803.482 4  24165799.318 4


  24846886.832 6 130571271.509 6 101743873.504 6  24846892.409 6  24846886.314 6
  24846892.289 7  97504546.283 7

  20637766.593 8 108452262.283 8  84508296.547 9  20637767.913 9  20637765.762 9
  20637766.762 8  80987122.502 8

  23225920.129 7 122053090.570 7  95106329.739 5  23225921.889 5  23225919.986 5
  23225925.134 7  91143590.319 7

 23  9 13 15 24  0.0000000  0 11G07G15G13G11G18G05G20G22G09G30G14
  21883033.611 7 114996183.248 7  89607442.281 8  21883033.047 8  21883033.205 8


  24580734.236 6 129172637.173 6 100654012.590 4  24580735.397 4  24580734.049 4


  21472351.951 8 112838025.440 8  87925742.428 6  21472351.071 6  21472351.486 6


  24041178.090 6 126337245.009 6  98444610.941 4  24041179.830 4  24041177.925 4
  24041183.218 7  94342761.726 7

  25148673.991 5 132157164.891 5 102979625.284 3  25148675.540 3  25148673.983 3
  25148679.658 7  98688822.389 7

  20772007.028 8 109157682.509 8  85057940.820 7  20772006.413 7  20772006.832 7


  20479416.762 8 107620102.347 8  83859846.420 6  20479414.907 6  20479415.613 6


  24146271.050 6 126889535.225 6  98874983.899 3  24146274.120 3  24146270.044 3


  24865539.664 6 130669292.571 6 101820253.403 6  24865545.520 6  24865539.159 6
  24865545.219 7  97577743.667 7

  20639554.366 8 108461656.447 8  84515616.666 9  20639555.644 9  20639553.539 9
  20639554.384 8  80994137.621 8

  23208222.855 7 121960092.612 7  95033863.847 5  23208225.125 5  23208222.690 5
  23208228.257 7  91074143.848 7

 23  9 13 15 24 30.0000000  0 11G07G15G13G11G18G05G20G22G09G30G14
  21894394.363 7 115055883.366 7  89653961.827 8  21894393.576 8  21894393.957 8


  24560317.585 6 129065345.913 6 100570409.035 4  24560318.101 4  24560317.420 4


  21458614.013 8 112765832.234 8  87869488.000 6  21458612.963 6  21458613.548 6


  24060728.698 6 126439985.341 6  98524668.237 4  24060730.401 4  24060728.529 4
  24060734.354 7  94419483.266 7

  25135021.331 5 132085423.908 5 102923723.260 3  25135023.493 3  25135021.362 3
  25135027.506 7  98635249.623 7

  20765328.687 8 109122587.648 8  85030594.181 7  20765327.874 7  20765328.491 7


  20486064.267 8 107655035.579 8  83887067.102 7  20486062.538 7  20486063.123 7


  24126757.202 6 126786989.053 6  98795077.986 3  24126759.535 3  24126756.187 3


  24884202.893 6 130767368.225 6 101896675.863 6  24884208.828 6  24884202.406 6
  24884208.389 8  97650981.829 8

  20641433.556 8 108471531.569 8  84523311.559 9  20641434.777 9  20641432.729 9
  20641433.578 8  81001511.891 8

  23190571.062 7 121867330.906 7  94961582.063 5  23190573.178 5  23190570.915 5
  23190576.357 8  91004873.811 8

 23  9 13 15 25  0.0000000  0 11G07G15G13G11G18G05G20G22G09G30G14
  21905813.520 7 115115891.069 7  89700721.044 8  21905812.676 8  21905813.114 8


  24539910.289 6 128958098.741 6 100486839.884 4  24539911.088 4  24539910.173 4


  21444925.772 8 112693899.031 8  87813436.171 6  21444925.051 6  21444925.307 6


  24080305.360 6 126542857.581 6  98604828.309 4  24080306.477 4  24080305.177 4
  24080310.261 7  94496303.318 7

  25121451.760 5 132014116.024 5 102868158.709 3  25121454.754 3  25121451.827 3
  25121458.396 7  98582000.277 7

  20758755.656 8 109088045.661 8  85003678.349 7  20758753.952 7  20758755.460 7


  20492820.274 8 107690537.678 8  83914731.051 7  20492818.559 7  20492819.134 7


  24107259.015 6 126684527.612 6  98715238.065 4  24107261.807 4  24107258.014 4


  24902875.955 6 130865499.530 6 101973141.682 6  24902882.711 6  24902875.477 6
  24902882.328 8  97724261.551 8

  20643404.366 8 108481888.502 8  84531381.890 9  20643405.768 9  20643403.539 9
  20643404.483 8  81009245.956 8

  23172964.438 7 121774810.158 7  94889488.033 5  23172966.652 5  23172964.286 5
  23172970.384 8  90935783.715 8

 23  9 13 15 25 30.0000000  0 11G07G15G13G11G18G05G20G22G09G30G14
  21917290.362 7 115176202.342 7  89747716.810 8  21917289.538 8  21917289.947 8


  24519508.962 6 128850893.680 6 100403303.548 4  24519512.327 4  24519508.869 4


  21431286.617 7 112622223.726 7  87757585.310 6  21431286.364 6  21431286.139 6


  24099905.001 6 126645855.630 6  98685086.414 4  24099906.442 4  24099904.823 4
  24099910.320 7  94573217.314 7

  25107964.398 5 131943240.534 5 102812931.086 3  25107967.955 3  25107964.496 3
  25107970.897 7  98529073.799 7

  20752287.316 8 109054055.592 8  84977192.581 7  20752285.489 7  20752287.129 7


  20499683.670 8 107726605.241 8  83942835.622 7  20499682.173 7  20499682.526 7


  24087777.574 6 126582150.763 6  98635464.075 3  24087779.920 3  24087776.591 3


  24921560.745 6 130963682.726 6 102049647.938 6  24921566.303 6  24921560.272 6
  24921566.111 8  97797580.009 8

  20645466.079 8 108492723.495 8  84539824.738 9  20645467.853 9  20645465.252 9
  20645466.343 8  81017337.017 8

  23155404.547 7 121682530.234 7  94817581.652 5  23155406.231 5  23155404.378 5
  23155410.213 8  90866873.446 8

 23  9 13 15 26  0.0000000  0 11G07G15G13G11G18G05G20G22G09G30G14
  21928824.365 7 115236813.039 7  89794945.896 8  21928823.225 8  21928823.950 8


  24499115.358 6 128743729.982 6 100319799.448 4  24499119.830 4  24499115.229 4


  21417696.015 7 112550805.368 7  87701934.668 6  21417695.541 6  21417695.537 6


  24119528.363 7 126748974.599 7  98765438.754 4  24119529.309 4  24119528.194 4
  24119533.145 7  94650221.611 7

  25094559.638 5 131872797.902 5 102758040.740 3  25094562.506 3  25094559.696 3
  25094566.181 7  98476470.570 7

  20745924.351 8 109020617.040 8  84951136.562 7  20745923.092 7  20745924.168 7


  20506654.253 8 107763235.697 8  83971378.816 7  20506652.792 7  20506653.104 7


  24068311.845 6 126479859.714 6  98555756.940 3  24068314.469 3  24068310.920 3


  24940253.782 6 131061915.352 6 102126192.702 6  24940259.370 6  24940253.335 6
  24940259.278 8  97870935.371 8

  20647618.582 8 108504033.840 8  84548637.991 9  20647620.178 9  20647617.755 9
  20647618.626 8  81025783.050 8

  23137890.350 7 121590492.263 7  94745863.783 5  23137891.865 5  23137890.167 5
  23137895.727 8  90798143.873 8

 23  9 13 15 26 30.0000000  0 11G07G15G13G11G18G05G20G22G09G30G14
  21940416.007 7 115297727.637 7  89842411.786 8  21940414.809 8  21940415.592 8


  24478732.504 6 128636615.019 6 100236333.295 4  24478734.196 4  24478732.357 4


  21404155.444 8 112479650.960 8  87646489.694 6  21404154.477 6  21404154.971 6


  24139174.539 7 126852217.512 7  98845887.672 4  24139175.889 4  24139174.365 4
  24139179.870 7  94727318.472 7

  25081239.624 5 131802796.735 5 102703494.462 3  25081241.620 3  25081239.580 3
  25081245.444 7  98424197.078 7

  20739667.765 8 108987737.627 8  84925516.240 7  20739666.596 7  20739667.578 7


  20513732.645 8 107800434.131 8  84000364.587 7  20513731.355 7  20513731.496 7


  24048864.432 6 126377663.491 6  98476123.693 3  24048867.270 3  24048863.565 3


  24958957.407 6 131160202.735 6 102202780.142 6  24958963.021 6  24958956.969 6
  24958962.910 8  97944331.651 8

  20649862.177 8 108515824.770 8  84557825.725 9  20649863.983 9  20649861.355 9
  20649862.413 8  81034587.958 8

  23120423.934 7 121498705.310 7  94674341.516 5  23120425.565 5  23120423.742 5
  23120429.284 8  90729601.719 8

 23  9 13 15 27  0.0000000  0 11G07G15G13G11G18G05G20G22G09G30G14
  21952064.443 7 115358940.795 7  89890110.320 8  21952063.391 8  21952064.028 8


  24458358.489 6 128529546.463 6 100152903.300 4  24458358.184 4  24458358.355 4


  21390664.972 8 112408757.766 8  87591248.258 6  21390663.359 6  21390664.503 6


  24158843.118 6 126955577.570 6  98926427.864 4  24158844.825 4  24158842.935 4
  24158848.995 7  94804502.780 7

  25068001.822 5 131733235.530 5 102649290.995 3  25068004.092 3  25068001.684 3
  25068008.333 7  98372252.118 7

  20733516.601 8 108955415.351 8  84900330.053 7  20733515.235 7  20733516.418 7


  20520918.707 8 107838196.020 8  84029789.417 7  20520917.352 7  20520917.558 7


  24029434.622 6 126275561.472 6  98396563.841 3  24029438.283 3  24029433.742 3


  24977670.070 6 131258540.560 6 102279406.903 6  24977676.261 6  24977669.641 6
  24977676.158 8  98017765.597 8

  20652196.379 8 108528091.638 8  84567384.317 9  20652198.314 9  20652195.552 9
  20652196.692 8  81043748.278 8

  23103005.112 7 121407168.473 7  94603014.152 5  23103006.931 5  23103004.907 5
  23103010.037 7  90661246.352 7

 23  9 13 15 27 30.0000000  0 11G07G15G13G11G18G05G20G22G09G30G14
  21963769.092 7 115420448.846 7  89938038.640 8  21963768.086 8  21963768.677 8


  24437992.794 6 128422523.208 6 100069508.635 4  24437992.477 4  24437992.669 4


  21377223.883 8 112338124.672 8  87536209.488 6  21377222.604 6  21377223.423 6


  24178533.461 6 127059049.787 6  99007055.441 4  24178535.330 4  24178533.278 4
  24178539.147 7  94881770.855 7

  25054848.912 5 131664114.613 5 102595430.589 3  25054851.590 3  25054848.756 3
  25054854.974 7  98320635.901 7

  20727472.149 8 108923648.644 8  84875576.779 7  20727470.367 7  20727471.966 7


  20528211.367 8 107876518.700 8  84059651.221 7  20528210.512 7  20528210.218 7


  24010023.614 6 126173554.633 6  98317078.143 3  24010026.676 3  24010022.702 3


  24996393.214 6 131356926.144 6 102356070.865 6  24996398.640 6  24996392.794 6
  24996398.463 8  98091235.203 8

  20654620.959 8 108540831.654 8  84577311.599 9  20654622.576 9  20654620.137 9
  20654620.994 8  81053261.921 8

  23085634.125 7 121315882.814 7  94531882.524 5  23085635.935 5  23085633.920 5
  23085638.860 7  90593078.538 7

 23  9 13 15 28  0.0000000  0 11G07G15G13G11G18G05G20G22G09G30G14
  21975529.832 7 115482252.533 7  89986197.329 8  21975529.046 8  21975529.417 8


  24417635.841 6 128315548.940 6  99986152.117 4  24417637.050 4  24417635.707 4


  21363832.921 8 112267754.954 8  87481375.962 6  21363832.891 6  21363832.474 6


  24198245.230 6 127162633.514 6  99087769.923 4  24198246.915 4  24198245.020 4
  24198250.619 7  94959122.194 7

  25041780.740 5 131595438.725 5 102541916.939 3  25041783.230 3  25041780.647 3
  25041786.127 7  98269352.002 7

  20721533.586 8 108892442.651 8  84851260.422 7  20721532.715 7  20721533.403 7


  20535610.988 8 107915403.559 8  84089951.085 7  20535609.923 7  20535609.839 7


  23990631.339 6 126071648.312 6  98237670.773 3  23990634.135 3  23990630.409 3


  25015124.628 6 131455361.186 6 102432773.365 6  25015130.337 6  25015124.226 6
  25015130.146 8  98164741.739 8

  20657135.599 8 108554046.276 8  84587608.703 9  20657137.115 9  20657134.777 9
  20657135.713 8  81063129.978 8

  23068311.523 7 121224853.619 7  94460950.739 5  23068313.572 5  23068311.309 5
  23068316.322 7  90525102.244 7

 23  9 13 15 28 30.0000000  0 11G07G15G13G11G18G05G20G22G09G30G14
  21987346.664 7 115544351.039 7  90034585.748 8  21987346.192 8  21987346.244 8


  24397288.645 6 128208625.002 6  99902834.834 4  24397291.594 4  24397288.507 4


  21350492.673 8 112197650.113 8  87426748.836 6  21350492.755 6  21350492.226 6


  24217977.003 6 127266326.166 6  99168569.277 4  24217978.809 4  24217976.775 4
  24217982.813 7  95036554.886 7

  25028797.464 5 131527210.671 5 102488752.255 3  25028800.361 3  25028797.397 3
  25028802.625 7  98218402.519 7

  20715702.395 8 108861800.016 8  84827383.046 7  20715702.099 7  20715702.212 7


  20543117.351 8 107954850.422 8  84120688.884 7  20543116.473 7  20543116.202 7


  23971258.999 6 125969845.797 6  98158344.268 3  23971261.536 3  23971258.092 3


  25033865.278 6 131553845.558 6 102509514.298 6  25033871.393 6  25033864.854 6
  25033871.235 8  98238285.119 8

  20659740.589 8 108567735.120 8  84598275.332 9  20659741.730 9  20659739.767 9
  20659740.639 8  81073352.162 8

  23051039.062 7 121134084.267 7  94390221.438 5  23051040.579 5  23051038.848 5
  23051043.781 7  90457319.996 7

 23  9 13 15 29  0.0000000  0 11G07G15G13G11G18G05G20G22G09G30G14
  21999219.443 7 115606742.771 7  90083202.652 8  21999219.090 8  21999219.028 8


  24376951.393 6 128101753.211 6  99819558.177 4  24376954.585 4  24376951.277 4


  21337202.987 8 112127811.401 8  87372329.089 6  21337202.897 6  21337202.536 6


  24237729.303 6 127370125.097 6  99249451.421 4  24237731.115 4  24237729.067 4
  24237735.091 7  95114066.927 7

  25015899.134 5 131459433.039 5 102435938.534 3  25015901.412 3  25015899.050 3
  25015905.176 7  98167789.387 7

  20709978.944 8 108831721.736 8  84803945.434 7  20709978.439 7  20709978.761 7


  20550730.960 8 107994858.893 8  84151864.296 7  20550730.081 7  20550729.816 7


  23951906.970 6 125868150.333 6  98079101.168 3  23951909.489 3  23951906.063 3


  25052615.617 6 131652378.934 6 102586293.430 6  25052621.692 6  25052615.184 6
  25052621.606 8  98311865.095 8

  20662435.536 8 108581897.635 8  84609311.053 9  20662436.537 9  20662434.709 9
  20662435.628 8  81083928.061 8

  23033815.958 7 121043578.105 7  94319697.215 5  23033817.553 5  23033815.744 5
  23033820.909 7  90389734.272 7

 23  9 13 15 29 30.0000000  0 11G07G15G13G11G18G05G20G22G09G30G14
  22011147.710 7 115669425.216 7  90132046.091 8  22011147.166 8  22011147.295 8


  24356625.034 6 127994934.095 6  99736322.574 4  24356626.039 4  24356624.941 4


  21323963.850 8 112058239.011 8  87318116.854 6  21323962.842 6  21323963.399 6


  24257501.530 6 127474026.500 6  99330413.431 4  24257502.903 4  24257501.280 4
  24257507.217 7  95191655.482 7

  25003087.705 6 131392107.371 6 102383476.991 3  25003088.816 3  25003087.589 3
  25003093.069 7  98117513.765 7

  20704362.488 8 108802208.125 8  84780947.823 7  20704362.683 7  20704362.305 7


  20558450.634 8 108035427.032 8  84183475.808 7  20558449.769 7  20558449.490 7


  23932576.066 6 125766564.273 6  97999943.297 3  23932577.630 3  23932575.159 3


  25071375.140 6 131750959.873 6 102663109.641 6  25071381.035 6  25071374.716 6
  25071381.029 7  98385480.592 7

  20665220.318 8 108596532.135 8  84620714.558 9  20665221.418 9  20665219.491 9
  20665220.548 8  81094856.410 8

  23016643.780 7 120953337.270 7  94249379.724 5  23016645.138 5  23016643.570 5
  23016648.619 7  90322346.683 7

 23  9 13 15 30  0.0000000  0 11G07G15G13G11G18G05G20G22G09G30G14
  22023130.054 7 115732392.508 7  90181111.488 8  22023129.437 8  22023129.639 8


  24336307.589 6 127888164.648 6  99653125.655 4  24336307.130 4  24336307.522 4


  21310774.762 8 111988929.513 8  87264109.464 6  21310772.885 6  21310774.311 6


  24277291.461 6 127578022.884 6  99411449.457 4  24277292.936 4  24277291.216 4
  24277297.269 7  95269314.980 7

  24990361.655 6 131325231.502 6 102331365.984 3  24990364.615 3  24990361.530 3
  24990367.221 7  98067574.016 7

  20698853.313 8 108773256.556 8  84758388.165 7  20698853.640 7  20698853.126 7


  20566275.989 8 108076549.617 8  84215519.362 7  20566274.902 7  20566274.849 7


  23913265.621 6 125665086.623 6  97920869.904 3  23913266.907 3  23913264.696 3


  25090142.931 6 131849583.384 6 102739958.999 6  25090148.415 6  25090142.502 6
  25090148.626 8  98459127.879 8

  20668094.058 8 108611633.241 8  84632481.653 9  20668095.196 9  20668093.231 9
  20668094.197 8  81106133.211 8

  22999521.524 7 120863360.228 7  94179267.781 5  22999522.869 5  22999521.296 5
  22999526.655 8  90255156.091 8

 23  9 13 15 30 30.0000000  0 11G07G15G13G11G18G05G20G22G09G30G14
  22035167.683 7 115795651.312 7  90230404.034 8  22035167.242 8  22035167.272 8


  24316000.669 6 127781453.934 6  99569974.491 4  24316000.695 4  24316000.607 4


  21297637.043 8 111919891.812 8  87210313.859 6  21297635.020 6  21297636.601 6


  24297100.223 6 127682119.461 6  99492563.555 4  24297102.047 4  24297100.018 4
  24297106.341 7  95347049.282 7

  24977722.700 6 131258815.905 6 102279613.630 3  24977726.498 3  24977722.584 3
  24977728.950 7  98017978.031 7

  20693452.887 8 108744876.631 8  84736273.943 7  20693452.549 7  20693452.700 7


  20574208.114 8 108118234.000 8  84248000.674 7  20574207.587 7  20574206.970 7


  23893976.895 6 125563728.087 6  97841889.310 3  23893979.021 3  23893975.948 3


  25108919.598 6 131948256.907 6 102816847.334 6  25108925.447 6  25108919.156 6
  25108925.777 8  98532812.497 8

  20671057.859 8 108627208.225 8  84644618.001 9  20671059.153 9  20671057.032 9
  20671058.096 8  81117763.874 8

  22982451.656 7 120773658.132 7  94109370.096 5  22982453.168 5  22982451.420 5
  22982456.658 7  90188170.834 7

 23  9 13 15 31  0.0000000  0 11G07G15G13G11G18G05G20G22G09G30G14
  22047259.729 7 115859194.899 7  90279918.487 8  22047259.042 8  22047259.327 8


  24295704.914 6 127674798.095 6  99486866.091 4  24295706.280 4  24295704.821 4


  21284550.285 8 111851122.039 8  87156727.037 6  21284549.518 6  21284549.847 6


  24316926.571 6 127786308.299 6  99573749.522 4  24316928.849 4  24316926.397 4
  24316932.621 7  95424852.469 7

  24965172.083 5 131192857.811 5 102228217.715 3  24965175.342 3  24965171.958 3
  24965177.271 7  97968723.616 7

  20688160.480 8 108717064.921 8  84714602.489 7  20688159.645 7  20688160.293 7


  20582246.160 8 108160474.142 8  84280915.045 7  20582245.565 7  20582245.020 7


  23874711.664 6 125462486.341 6  97762999.748 4  23874713.180 4  23874710.725 4


  25127705.333 6 132046974.825 6 102893770.258 6  25127710.881 6  25127704.877 6
  25127711.186 7  98606530.276 7

  20674110.725 8 108643251.212 8  84657119.027 9  20674112.109 9  20674109.898 9
  20674110.976 8  81129744.022 8

  22965433.841 7 120684228.946 7  94039685.079 5  22965435.503 5  22965433.600 5
  22965438.805 7  90121389.354 7

 23  9 13 15 31 30.0000000  0 11G07G15G13G11G18G05G20G22G09G30G14
  22059405.113 7 115923020.042 7  90329652.338 8  22059404.319 8  22059404.711 8


  24275419.777 6 127568197.867 6  99403801.041 4  24275422.057 4  24275419.666 4


  21271515.050 8 111782620.295 8  87103349.077 6  21271515.079 6  21271514.617 6


  24336770.391 6 127890585.386 6  99655004.271 4  24336772.487 4  24336770.213 4
  24336776.001 7  95502721.567 7

  24952708.124 6 131127358.595 6 102177179.382 3  24952709.956 3  24952708.008 3
  24952713.524 7  97919811.902 7

  20682976.224 8 108689822.359 8  84693374.526 7  20682975.849 7  20682976.037 7


  20590389.711 8 108203268.154 8  84314261.004 7  20590388.873 7  20590388.571 7


  23855468.686 6 125361363.801 6  97684203.067 4  23855470.096 4  23855467.756 4


  25146498.619 6 132145735.623 6 102970726.606 6  25146504.468 6  25146498.163 6
  25146504.998 7  98680280.091 7

  20677252.150 8 108659760.239 8  84669983.203 9  20677253.742 9  20677251.323 9
  20677252.571 8  81142072.185 8

  22948468.285 7 120595074.604 7  93970214.233 5  22948470.108 5  22948468.053 5
  22948473.271 7  90054813.127 7

 23  9 13 15 32  0.0000000  0 11G07G15G13G11G18G05G20G22G09G30G14
  22071604.769 7 115987129.210 7  90379607.508 8  22071603.748 8  22071604.367 8


  24255145.862 6 127461657.879 6  99320782.916 4  24255148.133 4  24255145.733 4


  21258531.433 8 111714390.524 8  87050183.051 6  21258531.706 6  21258531.000 6


  24356630.178 6 127994951.058 6  99736328.036 4  24356632.815 4  24356629.995 4
  24356636.492 7  95580656.835 7

  24940332.046 6 131062323.731 6 102126502.970 3  24940333.189 3  24940331.939 3
  24940337.493 7  97871247.001 7

  20677901.524 8 108663153.127 8  84672593.306 7  20677900.857 7  20677901.337 7


  20598639.038 8 108246618.365 8  84348040.362 7  20598638.307 7  20598637.898 7


  23836249.227 6 125260367.087 6  97605504.460 4  23836251.411 4  23836248.324 4


  25165301.063 6 132244541.865 6 103047718.368 6  25165306.803 6  25165300.612 6
  25165307.179 7  98754063.846 7

  20680483.066 8 108676737.683 8  84683212.376 9  20680484.456 9  20680482.239 9
  20680483.300 9  81154750.141 9

  22931556.204 7 120506201.345 7  93900962.406 5  22931558.194 5  22931555.976 5
  22931561.221 8  89988446.795 8

 23  9 13 15 32 30.0000000  0 11G07G15G13G11G18G05G20G22G09G30G14
  22083857.843 7 116051518.974 7  90429781.325 8  22083856.838 8  22083857.441 8


  24234882.581 6 127355177.334 6  99237811.142 4  24234884.634 4  24234882.434 4


  21245599.593 8 111646432.427 8  86997228.714 6  21245598.886 6  21245599.160 6


  24376506.666 6 128099400.682 6  99817717.220 4  24376509.098 4  24376506.488 4
  24376512.772 7  95658654.769 7

  24928044.565 6 130997753.798 6 102076188.787 3  24928046.196 3  24928044.454 3
  24928050.263 7  97823029.263 7

  20672935.355 8 108637057.006 8  84652258.667 7  20672934.415 7  20672935.163 7


  20606993.691 8 108290522.240 8  84382251.147 7  20606992.620 7  20606992.556 7


  23817054.022 6 125159497.377 6  97526904.814 3  23817056.659 3  23817053.177 3


  25184111.876 6 132343391.397 6 103124743.876 6  25184117.331 6  25184111.420 6
  25184117.848 7  98827879.927 7

  20683802.431 8 108694180.955 8  84696804.531 9  20683803.534 9  20683801.604 9
  20683802.705 8  81167775.953 8

  22914697.869 7 120417610.505 7  93831930.641 5  22914699.772 5  22914697.637 5
  22914702.953 8  89922291.357 8

 23  9 13 15 33  0.0000000  0 11G07G15G13G11G18G05G20G22G09G30G14
  22096163.620 7 116116187.164 7  90480172.089 8  22096162.858 8  22096163.218 8


  24214631.311 6 127248756.763 6  99154886.057 4  24214632.524 4  24214631.146 4


  21232719.155 8 111578746.083 8  86944486.117 6  21232717.387 6  21232718.717 6


  24396398.303 6 128203930.776 6  99899169.115 4  24396400.697 4  24396398.129 4
  24396404.166 7  95736712.797 7

  24915846.292 6 130933650.471 6 102026238.137 3  24915848.125 3  24915846.105 3
  24915851.832 7  97775159.914 7

  20668078.532 8 108611534.801 8  84632371.235 7  20668077.737 7  20668078.345 7


  20615453.427 8 108334978.184 8  84416892.116 7  20615452.002 7  20615452.292 7


  23797883.900 5 125058756.984 5  97448405.969 3  23797886.242 3  23797883.096 3


  25202930.647 6 132442283.003 6 103201802.150 6  25202935.876 6  25202930.205 6
  25202936.346 7  98901727.426 7

  20687210.066 8 108712088.587 8  84710758.524 9  20687211.235 9  20687209.235 9
  20687210.402 8  81181148.526 8

  22897893.454 7 120329304.494 7  93763120.815 5  22897895.509 5  22897893.235 5
  22897898.911 8  89856348.630 8

 23  9 13 15 33 30.0000000  0 10G07G15G13G11G18G05G20G22G30G14
  22108522.009 7 116181130.209 7  90530777.030 8  22108521.164 8  22108521.607 8


  24194391.423 6 127142396.250 6  99072007.794 4  24194392.796 4  24194391.254 4


  21219890.474 8 111511331.059 8  86891954.939 6  21219888.433 6  21219890.036 6


  24416304.194 6 128308536.728 6  99980680.107 4  24416306.819 4  24416304.016 4
  24416310.353 7  95814827.480 7

  24903736.291 6 130870014.379 6 101976651.614 4  24903738.896 4  24903736.081 4
  24903741.829 7  97727639.494 7

  20663331.179 8 108586586.822 8  84612931.246 7  20663330.322 7  20663331.001 7


  20624017.458 8 108379983.390 8  84451961.079 7  20624016.524 7  20624016.332 7


  23778738.663 5 124958147.329 5  97370008.993 3  23778740.440 3  23778737.912 3


  20690705.685 8 108730457.927 8  84725072.287 9  20690707.080 9  20690704.858 9
  20690705.978 8  81194865.880 8

  22881143.909 7 120241284.572 7  93694533.914 5  22881145.705 5  22881143.699 5
  22881149.266 8  89790619.531 8

 23  9 13 15 34  0.0000000  0 10G07G15G13G11G18G05G20G22G30G14
  22120932.957 7 116246350.151 7  90581597.734 8  22120932.255 8  22120932.555 8


  24174164.313 6 127036100.515 6  98989180.007 4  24174165.500 4  24174164.103 4


  21207114.349 8 111444191.594 8  86839638.488 6  21207112.854 6  21207113.925 6


  24436225.238 6 128413219.027 6 100062250.582 4  24436227.131 4  24436225.069 4
  24436230.878 7  95892999.162 7

  24891717.176 6 130806851.145 6 101927433.573 4  24891718.948 4  24891716.971 4
  24891722.424 7  97680472.204 7

  20658693.931 8 108562218.007 8  84593942.554 7  20658692.325 7  20658693.753 7


  20632686.838 8 108425540.007 8  84487459.711 7  20632686.040 7  20632685.707 7


  23759619.052 6 124857674.971 6  97291719.011 3  23759620.987 3  23759618.319 3


  20694289.585 8 108749291.412 8  84739747.724 9  20694291.030 9  20694288.758 9
  20694289.859 8  81208929.835 8

  22864450.032 7 120153557.088 7  93626174.887 5  22864451.686 5  22864449.831 5
  22864455.115 8  89725108.829 8

 23  9 13 15 34 30.0000000  0 10G07G15G13G11G18G05G20G22G30G14
  22133396.173 7 116311844.065 7  90632631.920 8  22133395.428 8  22133395.776 8


  24153949.633 6 126929869.396 6  98906402.575 4  24153950.936 4  24153949.419 4


  21194390.320 8 111377327.541 8  86787536.652 6  21194389.948 6  21194389.896 6


  24456158.343 6 128517973.422 6 100143877.252 4  24456161.137 4  24456158.165 4
  24456164.419 7  95971224.697 7

  24879787.298 6 130744161.590 6 101878584.627 4  24879789.028 4  24879787.106 4
  24879792.942 7  97633658.647 7

  20654166.883 8 108538427.819 8  84575404.744 7  20654164.572 7  20654166.700 7


  20641460.294 8 108471646.222 8  84523386.601 7  20641459.788 7  20641459.163 7


  23740525.805 6 124757341.374 6  97213537.134 3  23740528.391 3  23740525.090 3


  20697961.344 8 108768586.778 8  84754783.066 9  20697962.809 9  20697960.517 9
  20697961.622 8  81223338.700 8

  22847812.120 7 120066123.682 7  93558045.012 5  22847813.542 5  22847811.919 5
  22847817.032 8  89659817.714 8

 23  9 13 15 35  0.0000000  0 10G07G15G13G11G18G05G20G22G30G14
  22145910.524 7 116377607.198 7  90683875.889 8  22145909.741 8  22145910.135 8


  24133746.039 6 126823701.302 6  98823674.253 4  24133747.747 4  24133745.838 4


  21181718.526 8 111310736.619 8  86735647.650 6  21181718.512 6  21181718.106 6


  24476105.033 6 128622793.814 6 100225555.316 4  24476108.386 4  24476104.814 4
  24476111.321 7  96049499.512 7

  24867947.887 6 130681944.750 6 101830104.030 4  24867950.127 4  24867947.695 4
  24867953.433 7  97587198.061 7

  20649749.527 8 108515214.394 8  84557316.358 7  20649747.585 7  20649749.340 7


  20650337.877 8 108518297.619 8  84559738.311 7  20650337.248 7  20650336.746 7


  23721459.060 6 124657146.525 6  97135463.349 4  23721461.672 4  23721458.341 4


  20701720.376 8 108788339.858 8  84770175.068 9  20701721.809 9  20701719.549 9
  20701720.581 8  81238089.366 8

  22831229.852 7 119978984.126 7  93490144.119 5  22831231.394 5  22831229.647 5
  22831234.834 8  89594746.040 8

 23  9 13 15 35 30.0000000  0 10G07G15G13G11G18G05G20G22G30G14
  22158476.906 7 116443644.250 7  90735333.299 8  22158476.148 8  22158476.517 8


  24113556.852 6 126717603.644 6  98741000.793 4  24113557.507 4  24113556.692 4


  21169099.961 8 111244425.984 8  86683977.048 6  21169099.914 6  21169099.537 6


  24496065.167 6 128727683.426 6 100307287.354 3  24496068.160 3  24496064.935 3
  24496071.138 7  96127825.991 7

  24856199.924 6 130620208.947 6 101781998.238 4  24856202.702 4  24856199.732 4
  24856205.243 7  97541096.686 7

  20645443.201 8 108492585.052 8  84539683.098 7  20645441.863 7  20645443.009 7


  20659320.066 8 108565499.369 8  84596518.866 7  20659319.361 7  20659318.935 7


  23702421.296 6 124557099.837 6  97057505.014 4  23702422.984 4  23702420.563 4


  20705567.330 8 108808555.813 8  84785927.749 9  20705568.864 9  20705566.499 9
  20705567.520 9  81253185.687 9

  22814705.126 7 119892147.500 7  93422479.280 5  22814706.684 5  22814704.916 5
  22814710.185 8  89529900.579 8

 23  9 13 15 36  0.0000000  0 10G07G15G13G11G18G05G20G22G30G14
  22171094.217 7 116509948.835 7  90786999.179 8  22171093.536 8  22171093.815 8


  24093379.292 6 126611572.786 6  98658379.410 4  24093379.653 4  24093379.158 4


  21156534.048 8 111178391.625 8  86632521.721 6  21156533.091 6  21156533.619 6


  24516037.228 6 128832634.389 6 100389067.210 3  24516039.886 3  24516037.005 3
  24516042.456 7  96206198.328 7

  24844543.027 6 130558951.461 6 101734265.173 4  24844545.807 4  24844542.840 4
  24844547.936 7  97495352.519 7

  20641247.915 8 108470536.358 8  84522502.292 8  20641246.192 8  20641247.719 8


  20668405.977 8 108613245.492 8  84633723.607 7  20668405.220 7  20668404.842 7


  23683410.588 6 124457199.214 6  96979660.479 4  23683412.280 4  23683409.837 4


  20709501.151 8 108829228.760 8  84802036.527 9  20709502.918 9  20709500.320 9
  20709501.424 8  81268623.270 8

  22798238.234 7 119805611.875 7  93355048.976 5  22798239.237 5  22798238.029 5
  22798242.899 8  89465279.887 8

 23  9 13 15 36 30.0000000  0 10G07G15G13G11G18G05G20G22G30G14
  22183762.252 7 116576519.374 7  90838872.290 8  22183761.481 8  22183761.850 8


  24073214.954 6 126505610.331 6  98575811.299 4  24073215.078 4  24073214.838 4


  21144020.865 8 111112635.083 8  86581282.866 6  21144019.102 6  21144020.432 6


  24536019.628 6 128937644.325 6 100470892.984 3  24536023.128 3  24536019.423 3
  24536025.618 7  96284614.679 7

  24832977.271 6 130498174.877 6 101686906.822 4  24832979.487 4  24832977.093 4
  24832982.808 7  97449967.433 7

  20637162.955 8 108449070.169 8  84505775.391 9  20637161.298 9  20637162.745 9


  20677594.904 8 108661534.993 8  84671351.758 7  20677594.200 7  20677593.764 7


  23664428.937 6 124357448.263 6  96901932.568 3  23664429.959 3  23664428.195 3


  20713522.079 8 108850358.128 8  84818500.962 9  20713523.809 9  20713521.243 9
  20713522.183 8  81284401.685 8

  22781829.018 7 119719380.592 7  93287855.826 5  22781829.873 5  22781828.817 5
  22781833.656 8  89400886.463 8

 23  9 13 15 37  0.0000000  0 10G07G15G13G11G18G05G20G22G30G14
  22196480.922 7 116643356.108 7  90890952.826 8  22196479.988 8  22196480.507 8


  24053064.772 6 126399719.858 6  98493299.308 4  24053065.129 4  24053064.634 4


  21131561.350 8 111047159.283 8  86530262.768 6  21131559.439 6  21131560.926 6


  24556012.680 6 129042712.242 6 100552763.932 3  24556017.045 3  24556012.475 3
  24556019.774 7  96363074.304 7

  24821504.430 6 130437883.344 6 101639926.461 4  24821505.605 4  24821504.247 4
  24821509.830 7  97404944.596 7

  20633189.475 8 108428190.185 8  84489505.270 9  20633188.204 9  20633189.261 9


  20686887.936 8 108710369.008 8  84709404.206 7  20686886.913 7  20686886.796 7


  23645475.887 6 124257851.934 6  96824325.123 3  23645477.566 3  23645475.159 3


  20717629.831 8 108871944.853 8  84835321.778 9  20717631.569 9  20717628.995 9
  20717629.995 8  81300521.632 8

  22765478.566 7 119633458.510 7  93220903.606 5  22765479.378 5  22765478.379 5
  22765483.072 8  89336723.954 8

 23  9 13 15 37 30.0000000  0 10G07G15G13G11G18G05G20G22G30G14
  22209249.282 7 116710453.710 7  90943236.640 8  22209248.211 8  22209248.867 8


  24032927.742 6 126293898.754 6  98410841.376 4  24032928.467 4  24032927.595 4


  21119154.509 8 110981961.152 8  86479459.038 6  21119153.549 6  21119154.089 6


  24576017.245 6 129147831.125 6 100634674.610 3  24576019.799 3  24576017.040 3
  24576023.484 7  96441571.983 7

  24810122.702 6 130378074.751 6 101593322.413 4  24810124.412 4  24810122.510 4
  24810128.723 7  97360282.376 7

  20629327.305 8 108407893.031 8  84473689.297 9  20629325.797 9  20629327.091 9


  20696283.472 8 108759742.273 8  84747876.850 7  20696282.529 7  20696282.332 7


  23626552.597 6 124158409.090 6  96746837.292 3  23626554.129 3  23626551.887 3


  20721823.512 8 108893983.780 8  84852494.959 9  20721825.150 9  20721822.681 9
  20721823.839 8  81316979.258 8

  22749186.456 7 119547844.511 7  93154191.462 5  22749187.732 5  22749186.260 5
  22749191.133 8  89272791.501 8

 23  9 13 15 38  0.0000000  0 10G07G15G13G11G18G05G20G22G30G14
  22222067.748 7 116777815.528 7  90995726.333 8  22222066.850 8  22222067.315 8


  24012805.188 6 126188152.720 6  98328441.930 4  24012805.956 4  24012805.045 4


  21106801.823 8 110917046.642 8  86428876.325 6  21106801.862 6  21106801.403 6


  24596030.880 6 129253002.988 6 100716626.550 3  24596033.489 3  24596030.688 3
  24596037.230 7  96520109.240 7

  24798835.494 6 130318756.097 6 101547100.075 4  24798836.592 4  24798835.298 4
  24798840.981 7  97315986.001 7

  20625576.815 8 108388184.887 8  84458332.301 9  20625575.312 9  20625576.592 9


  20705782.173 8 108809658.204 8  84786772.354 6  20705780.882 6  20705781.038 6


  23607660.018 6 124059127.838 6  96669475.376 4  23607661.271 4  23607659.294 4


  20726104.181 8 108916478.765 8  84870023.514 9  20726105.398 9  20726103.345 9
  20726104.494 8  81333777.453 8

  22732954.820 7 119462546.375 7  93087725.441 5  22732956.177 5  22732954.615 5
  22732959.364 8  89209094.911 8

 23  9 13 15 38 30.0000000  0 10G07G15G13G11G18G05G20G22G30G14
  22234936.355 7 116845439.337 7  91048420.182 7  22234935.257 7  22234935.926 7


  23992696.685 6 126082482.748 6  98246101.761 4  23992697.781 4  23992696.547 4


  21094503.081 8 110852416.040 8  86378514.840 6  21094503.279 6  21094502.657 6


  24616053.481 6 129358224.100 6 100798616.884 3  24616056.229 3  24616053.312 3
  24616060.708 7  96598683.262 7

  24787640.428 6 130259928.786 6 101501260.647 4  24787642.476 4  24787640.227 4
  24787646.344 7  97272056.559 7

  20621938.320 8 108369065.777 8  84443434.290 9  20621937.346 9  20621938.088 9


  20715383.914 8 108860114.908 8  84826089.239 6  20715382.439 6  20715382.779 6


  23588798.490 6 123960010.584 6  96592241.269 4  23588800.050 4  23588797.766 4


  20730471.162 8 108939427.952 8  84887905.988 9  20730472.292 9  20730470.326 9
  20730471.558 8  81350914.822 8

  22716783.547 7 119377566.198 7  93021507.191 5  22716784.931 5  22716783.337 5
  22716787.928 7  89145635.754 7

 23  9 13 15 39  0.0000000  0 10G07G15G13G11G18G05G20G22G30G14
  22247853.364 7 116913319.310 7  91101313.634 7  22247852.374 7  22247852.944 7


  23972602.099 6 125976886.350 6  98163818.916 4  23972603.163 4  23972601.956 4


  21082257.648 8 110788066.188 8  86328372.116 6  21082257.374 6  21082257.237 6


  24636084.484 6 129463487.629 6 100880640.267 4  24636087.308 4  24636084.341 4
  24636091.429 7  96677288.954 7

  24776539.541 6 130201590.838 6 101455802.563 4  24776540.805 4  24776539.340 4
  24776544.893 7  97228492.566 7

  20618412.222 8 108350534.059 8  84428993.982 9  20618411.647 9  20618411.986 9


  20725087.450 8 108911107.312 8  84865823.549 6  20725086.362 6  20725086.319 6


  23569967.766 6 123861055.963 6  96515133.865 3  23569969.510 3  23569967.056 3


  20734923.714 8 108962826.310 8  84906138.466 9  20734924.952 9  20734922.878 9
  20734924.090 8  81368387.611 8

  22700672.738 7 119292902.869 7  92955535.836 5  22700673.915 5  22700672.528 5
  22700677.006 7  89082413.206 7

 23  9 13 15 39 30.0000000  0 10G07G15G13G11G18G05G20G22G30G14
  22260819.528 7 116981457.161 7  91154408.033 7  22260818.663 7  22260819.104 7


  23952522.569 6 125871368.273 6  98081597.112 4  23952524.031 4  23952522.409 4


  21070066.401 8 110724001.405 8  86278451.514 6  21070065.334 6  21070065.990 6


  24656124.083 6 129568794.126 6 100962697.113 4  24656127.095 4  24656123.936 4
  24656130.621 7  96755926.756 7

  24765532.131 6 130143747.700 6 101410730.029 4  24765533.663 4  24765531.944 4
  24765537.402 7  97185298.078 7

  20614998.023 8 108332593.510 8  84415014.333 9  20614997.632 9  20614997.773 9


  20734893.548 8 108962637.607 8  84905977.001 6  20734891.873 6  20734892.422 6


  23551169.360 6 123762270.735 6  96438158.439 3  23551170.772 3  23551168.609 3


  20739462.140 8 108986676.223 8  84924722.803 9  20739463.631 9  20739461.304 9
  20739462.534 8  81386197.596 8

  22684622.893 7 119208562.794 7  92889816.363 5  22684624.304 5  22684622.683 5
  22684627.717 8  89019432.054 8

 23  9 13 15 40  0.0000000  0 10G07G15G13G11G18G05G20G22G30G14
  22273834.208 7 117049849.982 7  91207701.108 7  22273833.460 7  22273833.784 7


  23932457.703 6 125765927.884 6  97999435.822 4  23932458.963 4  23932457.547 4


  21057929.469 8 110660221.155 8  86228752.623 6  21057928.036 6  21057929.054 6


  24676170.696 6 129674139.008 6 101044783.899 4  24676173.437 4  24676170.544 4
  24676177.522 7  96834593.208 7

  24754618.967 6 130086399.711 6 101366043.333 4  24754620.483 4  24754618.762 4
  24754624.419 7  97142473.312 7

  20611696.540 8 108315244.034 8  84401495.266 9  20611695.752 9  20611696.286 9


  20744800.984 8 109014702.868 8  84946547.313 6  20744799.359 6  20744799.858 6


  23532403.449 6 123663656.194 6  96361316.022 3  23532404.252 3  23532402.707 3


  20744086.047 8 109010974.848 8  84943656.788 9  20744087.587 9  20744085.211 9
  20744086.394 8  81404342.666 8

  22668635.322 7 119124547.102 7  92824349.649 5  22668636.454 5  22668635.108 5
  22668640.024 8  88956693.133 8

 23  9 13 15 40 30.0000000  0 10G07G15G13G11G18G05G20G22G30G14
  22286896.780 7 117118493.538 7  91261189.561 7  22286895.891 7  22286896.360 7


  23912407.879 6 125660564.392 6  97917334.478 4  23912408.923 4  23912407.736 4


  21045846.200 8 110596723.920 8  86179274.266 6  21045845.067 6  21045845.789 6


  24696223.528 6 129779517.072 6 101126896.543 4  24696226.981 4  24696223.363 4
  24696229.856 7  96913284.454 7

  24743800.540 6 130029546.683 6 101321742.319 4  24743802.435 4  24743800.339 4
  24743806.029 7  97100018.182 7

  20608507.097 8 108298483.840 8  84388435.376 9  20608506.573 9  20608506.847 9


  20754809.824 8 109067299.462 8  84987531.645 6  20754808.471 6  20754808.698 6


  23513669.250 6 123565213.122 6  96284607.222 3  23513671.156 3  23513668.495 3


  20748795.080 8 109035718.842 8  84962937.812 9  20748796.137 9  20748794.249 9
  20748795.099 8  81422820.312 8

  22652709.447 7 119040856.401 7  92759136.173 5  22652710.687 5  22652709.242 5
  22652714.095 8  88894196.905 8

 23  9 13 15 41  0.0000000  0 10G07G15G13G11G18G05G20G22G30G14
  22300007.700 7 117187391.995 7  91314876.640 7  22300006.836 7  22300007.271 7


  23892374.429 6 125555284.975 6  97835298.623 4  23892374.034 4  23892374.273 4


  21033818.222 8 110533516.751 8  86130021.947 6  21033817.541 6  21033817.807 6


  24716283.264 6 129884931.168 6 101209037.229 4  24716286.993 4  24716283.126 4
  24716289.871 7  96992002.589 7

  24733077.299 6 129973196.250 6 101277832.967 4  24733079.432 4  24733077.112 4
  24733082.706 7  97057938.420 7

  20605431.011 8 108282320.163 8  84375840.304 9  20605430.696 9  20605430.761 9


  20764920.676 8 109120431.580 8  85028933.270 6  20764918.981 6  20764919.550 6


  23494970.755 6 123466950.112 6  96208038.733 3  23494972.050 3  23494969.946 3


  20753589.133 8 109060912.760 8  84982569.431 9  20753590.520 9  20753588.302 9
  20753589.359 8  81441633.948 8

  22636847.078 7 118957499.211 7  92694182.577 5  22636848.417 5  22636846.882 5
  22636851.689 8  88831949.721 8

 23  9 13 15 41 30.0000000  0 10G07G15G13G11G18G05G20G22G30G14
  22313166.365 7 117256540.099 7  91368758.246 7  22313165.427 7  22313165.932 7


  23872355.451 6 125450087.004 6  97753326.246 4  23872355.610 4  23872355.299 4


  21021844.538 8 110470596.184 8  86080992.951 6  21021843.994 6  21021844.123 6


  24736349.018 6 129990374.312 6 101291200.581 4  24736352.371 4  24736348.880 4
  24736355.341 7  97070742.421 7

  24722448.854 6 129917346.253 6 101234313.535 4  24722451.129 4  24722448.671 4
  24722454.823 7  97016232.312 7

  20602468.125 8 108266749.891 8  84363707.630 9  20602467.571 9  20602467.880 9


  20775132.276 8 109174094.069 8  85070748.176 6  20775130.912 6  20775131.145 6


  23476306.510 6 123368866.348 6  96131609.895 3  23476307.648 3  23476305.656 3


  20758468.009 8 109086551.399 8  85002547.584 9  20758469.702 9  20758467.178 9
  20758468.355 8  81460779.672 8

  22621047.899 7 118874474.351 7  92629487.939 5  22621049.444 5  22621047.703 5
  22621052.547 8  88769950.700 8

 23  9 13 15 42  0.0000000  0 10G07G15G13G11G18G05G20G22G30G14
  22326372.348 7 117325936.811 7  91422833.577 8  22326371.321 8  22326371.919 8


  23852352.332 7 125344972.750 7  97671419.078 4  23852353.336 4  23852352.149 4


  21009926.499 8 110407964.279 8  86032188.886 6  21009924.815 6  21009926.084 6


  24756418.822 6 130095844.666 6 101373385.099 4  24756423.011 4  24756418.688 4
  24756425.450 7  97149502.560 7

  24711917.026 6 129861999.482 6 101191186.244 4  24711918.782 4  24711916.857 4
  24711922.470 7  96974902.003 7

  20599618.349 8 108251774.384 8  84352038.405 9  20599618.203 9  20599618.104 9


  20785444.550 8 109228286.669 8  85112976.146 6  20785443.717 6  20785443.415 6


  23457676.525 6 123270965.790 6  96055323.832 4  23457678.124 4  23457675.631 4


  20763431.482 8 109112634.628 8  85022872.166 9  20763433.201 9  20763430.651 9
  20763431.887 8  81480257.390 8

  22605312.982 7 118791785.647 7  92565055.241 5  22605314.459 5  22605312.781 5
  22605317.382 8  88708202.708 8

 23  9 13 15 42 30.0000000  0 10G07G15G13G11G18G05G20G22G30G14
  22339624.767 7 117395579.255 7  91477100.386 7  22339623.858 7  22339624.329 7


  23832365.342 6 125239942.572 6  97589577.428 4  23832367.029 4  23832365.146 4


  20998062.752 8 110345620.991 8  85983609.709 6  20998060.766 6  20998062.337 6


  24776494.200 6 130201338.183 6 101455587.682 4  24776497.978 4  24776494.084 4
  24776500.570 7  97228280.000 7

  24701480.544 6 129807156.978 6 101148451.851 4  24701481.464 4  24701480.357 4
  24701486.082 7  96933948.224 7

  20596881.997 8 108237394.178 8  84340833.046 9  20596881.752 9  20596881.765 9


  20795857.426 8 109283006.530 8  85155614.973 6  20795856.346 6  20795856.295 6


  23439082.311 6 123173250.213 6  95979181.886 4  23439083.558 4  23439081.404 4


  20768479.129 8 109139160.107 8  85043541.359 9  20768480.863 9  20768478.298 9
  20768479.531 8  81500065.362 8

  22589642.415 7 118709434.715 7  92500885.731 5  22589643.497 5  22589642.196 5
  22589646.515 8  88646706.928 8

 23  9 13 15 43  0.0000000  0 10G07G15G13G11G18G05G20G22G30G14
  22352923.620 7 117465466.237 7  91531557.747 7  22352922.982 7  22352923.173 7


  23812395.012 6 125134997.780 6  97507802.328 4  23812397.296 4  23812394.820 4


  20986254.301 8 110283567.362 8  85935256.253 6  20986252.980 6  20986253.886 6


  24796572.331 6 130306852.058 6 101537806.114 4  24796576.682 4  24796572.206 4
  24796579.357 7  97307072.649 7

  24691140.709 6 129752820.703 6 101106111.951 4  24691141.768 4  24691140.495 4
  24691146.397 7  96893372.495 7

  20594259.176 8 108223611.435 8  84330093.246 9  20594258.625 9  20594258.944 9


  20806370.617 8 109338252.817 8  85198663.999 6  20806369.279 6  20806369.482 6


  23420523.543 6 123075722.736 6  95903186.524 4  23420524.901 4  23420522.640 4


  20773610.788 8 109166126.766 8  85064554.328 9  20773612.526 9  20773609.957 9
  20773611.054 8  81520202.792 8

  22574036.162 7 118627424.524 7  92436981.729 5  22574037.231 5  22574035.934 5
  22574040.667 8  88585465.602 8

 23  9 13 15 43 30.0000000  0 10G07G15G13G11G18G05G20G22G30G14
  22366269.856 7 117535599.423 7  91586206.951 7  22366269.072 7  22366269.409 7


  23792442.817 6 125030143.407 6  97426097.687 4  23792444.028 4  23792442.652 4


  20974501.854 8 110221807.518 8  85887131.719 6  20974500.867 6  20974501.434 6


  24816655.559 6 130412386.680 6 101620040.712 4  24816659.419 4  24816655.443 4
  24816662.146 7  97385880.777 7

  24680898.275 6 129698995.742 6 101064170.454 4  24680899.624 4  24680898.070 4
  24680904.005 7  96853178.575 7

  20591750.563 8 108210429.199 8  84319821.375 9  20591750.134 9  20591750.331 9


  20816984.106 8 109394027.027 8  85242124.394 6  20816983.123 6  20816982.980 6


  23402001.689 6 122978389.626 6  95827342.619 4  23402002.943 4  23402000.818 4


  20778826.923 8 109193536.743 8  85085912.736 9  20778828.591 9  20778826.092 9
  20778826.993 8  81540671.264 8

  22558496.073 7 118545761.190 7  92373347.999 5  22558497.084 5  22558495.841 5
  22558500.660 8  88524483.293 8

 23  9 13 15 44  0.0000000  0 10G07G15G13G11G18G05G20G22G30G14
  22379661.235 7 117605973.078 7  91641043.533 7  22379660.822 7  22379660.762 7


  23772506.164 6 124925376.242 6  97344461.000 4  23772507.082 4  23772506.030 4


  20962804.724 8 110160338.351 8  85839233.681 6  20962803.750 6  20962804.304 6


  24836740.771 6 130517935.040 6 101702286.030 4  24836744.459 4  24836740.642 4
  24836747.665 7  97464699.185 7

  24670752.417 6 129645679.808 6 101022625.603 4  24670753.576 4  24670752.212 4
  24670758.358 7  96813364.781 7

  20589355.869 8 108197844.164 8  84310014.852 9  20589355.432 9  20589355.637 9


  20827696.998 8 109450323.386 8  85285991.657 6  20827695.781 6  20827695.872 6


  23383516.968 6 122881249.744 6  95751649.287 4  23383518.220 4  23383516.132 4


  20784125.978 8 109221384.683 8  85107612.420 9  20784127.967 9  20784125.142 9
  20784126.293 8  81561466.791 8

  22543021.621 7 118464443.337 7  92309983.484 5  22543022.795 5  22543021.402 5
  22543026.305 8  88463758.981 8

 23  9 13 15 44 30.0000000  0 10G07G15G13G11G18G05G20G22G30G14
  22393098.804 7 117676587.181 7  91696067.478 7  22393098.141 7  22393098.317 7


  23752586.612 6 124820699.392 6  97262894.688 4  23752587.171 4  23752586.514 4


  20951163.374 8 110099162.404 8  85791564.115 6  20951162.224 6  20951162.954 6


  24856829.199 6 130623495.807 6 101784541.015 4  24856832.142 4  24856829.061 4
  24856835.145 7  97543526.845 7

  24660704.318 6 129592876.238 6 100981479.987 4  24660705.482 4  24660704.104 4
  24660709.831 7  96773933.574 7

  20587075.457 8 108185859.041 8  84300675.797 9  20587074.361 9  20587075.229 9


  20838509.069 8 109507142.257 8  85330266.077 6  20838507.825 6  20838507.938 6


  23365069.339 6 122784307.797 6  95676110.189 4  23365070.164 4  23365068.539 4


  20789508.752 8 109249670.901 8  85129653.619 9  20789510.425 9  20789507.921 9
  20789508.995 8  81582589.605 8

  22527613.671 7 118383475.263 7  92246891.529 5  22527615.074 5  22527613.457 5
  22527618.487 8  88403295.860 8

 23  9 13 15 45  0.0000000  0 10G07G15G13G11G18G05G20G22G30G14
  22406581.035 7 117747437.660 7  91751275.611 7  22406580.482 7  22406580.535 7


  23732683.966 6 124716112.305 6  97181398.310 4  23732683.888 4  23732683.850 4


  20939577.564 8 110038278.232 8  85744121.914 6  20939576.527 6  20939577.144 6


  24876917.282 6 130729064.046 6 101866801.831 4  24876921.239 4  24876917.126 4
  24876923.986 7  97622360.092 7

  24650753.270 6 129540584.897 6 100940733.543 4  24650754.531 4  24650753.056 4
  24650758.721 7  96734884.905 7

  20584908.432 8 108174472.496 8  84291803.166 9  20584907.457 9  20584908.204 9


  20849420.225 8 109564480.087 8  85374944.872 6  20849419.461 6  20849419.099 6


  23346659.396 6 122687564.219 6  95600725.653 4  23346660.122 4  23346658.618 4


  20794974.065 8 109278392.091 8  85152033.753 9  20794975.577 9  20794973.234 9
  20794974.608 8  81604037.234 8

  22512272.841 7 118302857.696 7  92184072.691 5  22512274.004 5  22512272.640 5
  22512277.276 8  88343094.478 8

 23  9 13 15 45 30.0000000  0 10G07G15G13G11G18G05G20G22G30G14
  22420109.130 7 117818527.456 7  91806670.224 7  22420108.520 7  22420108.625 7


  23712799.867 6 124611620.599 6  97099976.257 4  23712799.576 4  23712799.729 4


  20928048.203 8 109977691.324 8  85696911.345 6  20928047.452 6  20928047.779 6


  24897008.578 6 130834641.106 6 101949069.509 3  24897012.221 3  24897008.413 3
  24897015.362 7  97701199.914 7

  24640901.294 6 129488811.741 6 100900390.889 4  24640903.210 4  24640901.089 4
  24640906.727 7  96696223.201 7

  20582856.700 8 108163689.477 8  84283400.811 9  20582856.128 9  20582856.468 9


  20860430.440 8 109622339.492 8  85420030.081 6  20860429.990 6  20860429.318 6


  23328288.841 6 122591026.847 6  95525501.795 4  23328289.594 4  23328288.068 4


  20800523.037 8 109307551.251 8  85174755.167 9  20800524.168 9  20800522.206 9
  20800523.320 8  81625811.920 8

  22496999.770 7 118222597.642 7  92121532.433 5  22497000.895 5  22496999.556 5
  22497004.109 8  88283160.067 8

 23  9 13 15 46  0.0000000  0 10G07G15G13G11G18G05G20G22G30G14
  22433681.432 7 117889852.636 7  91862248.253 7  22433681.322 7  22433680.914 7


  23692933.611 6 124507223.084 6  97018627.603 4  23692933.680 4  23692933.446 4


  20916575.112 8 109917400.014 8  85649931.117 6  20916574.140 6  20916574.688 6


  24917099.995 6 130940221.780 6 102031340.043 3  24917103.590 3  24917099.830 3
  24917106.522 7  97780042.448 7

  24631147.575 6 129437556.170 6 100860451.528 4  24631149.962 4  24631147.374 4
  24631152.869 7  96657947.990 7

  20580919.263 8 108153508.873 8  84275467.868 9  20580918.792 9  20580919.031 9


  20871539.435 8 109680716.454 8  85465518.596 6  20871538.793 6  20871538.313 6


  23309957.613 6 122494696.172 6  95450439.007 4  23309958.758 4  23309956.862 4


  20806154.498 8 109337144.826 8  85197815.083 9  20806155.602 9  20806153.671 9
  20806154.723 8  81647910.999 8

  22481794.944 7 118142695.469 7  92059271.043 5  22481795.860 5  22481794.730 5
  22481799.253 8  88223492.912 8

 23  9 13 15 46 30.0000000  0 10G07G15G13G11G18G05G20G22G30G14
  22447298.745 7 117961410.324 7  91918007.460 7  22447298.203 7  22447298.231 7


  23673085.723 6 124402920.096 6  96937352.605 4  23673085.763 4  23673085.545 4


  20905158.291 8 109857404.245 8  85603181.172 6  20905156.658 6  20905157.876 6


  24937191.646 6 131045801.881 6 102113610.090 4  24937195.722 4  24937191.490 4
  24937198.000 7  97858884.552 7

  24621492.599 6 129386818.635 6 100820915.821 4  24621494.604 4  24621492.416 4
  24621498.219 7  96620059.606 7

  20579096.521 8 108143930.611 8  84268004.288 9  20579095.319 9  20579096.293 9


  20882746.137 8 109739608.135 8  85511408.181 6  20882746.001 6  20882745.020 6


  23291665.494 6 122398573.537 6  95375538.333 4  23291666.842 4  23291664.779 4


  20811868.112 8 109367170.216 8  85221211.479 9  20811869.562 9  20811867.290 9
  20811868.362 8  81670332.550 8

  22466658.405 7 118063152.602 7  91997289.622 5  22466659.204 5  22466658.195 5
  22466662.823 8  88164094.066 8

 23  9 13 15 47  0.0000000  0 10G07G15G13G11G18G05G20G22G30G14
  22460960.295 7 118033202.027 7  91973949.016 7  22460959.685 7  22460959.777 7


  23653257.053 6 124298716.061 6  96856154.713 4  23653256.582 4  23653256.884 4


  20893798.523 8 109797708.128 8  85556664.723 6  20893796.809 6  20893798.108 6


  24957282.535 6 131151381.696 6 102195879.914 3  24957287.108 3  24957282.392 3
  24957289.240 7  97937726.439 7

  24611937.060 6 129336603.979 6 100781787.543 4  24611939.216 4  24611936.873 4
  24611942.858 7  96582561.691 7

  20577389.037 8 108134957.858 8  84261012.527 9  20577387.849 9  20577388.809 9


  20894051.143 8 109799016.214 8  85557700.154 6  20894051.089 6  20894050.030 6


  23273414.939 6 122302665.124 6  95300804.608 4  23273416.450 4  23273414.220 4


  20817664.269 8 109397629.279 8  85244945.803 9  20817665.998 9  20817663.447 9
  20817664.511 8  81693077.938 8

  22451591.420 7 117983974.911 7  91935592.759 5  22451592.274 5  22451591.215 5
  22451595.826 8  88104967.922 8

 23  9 13 15 47 30.0000000  0 10G07G15G13G11G18G05G20G22G30G14
  22474664.778 7 118105220.568 7  92030067.331 7  22474664.480 7  22474664.264 7


  23633445.503 6 124194607.538 6  96775031.246 4  23633445.589 4  23633445.343 4


  20882494.837 8 109738307.233 8  85510378.325 6  20882493.345 6  20882494.431 6


  24977371.677 6 131256953.322 6 102278143.365 3  24977376.623 3  24977371.499 3
  24977379.522 7  98016562.207 7

  24602480.265 6 129286908.935 6 100743064.158 4  24602482.491 4  24602480.078 4
  24602485.895 7  96545451.799 7

  20575795.908 8 108126586.243 8  84254489.184 9  20575795.301 9  20575795.680 9


  20905453.121 8 109858934.047 8  85604389.342 6  20905452.725 6  20905452.008 6


  23255203.892 6 122206968.760 6  95226236.111 4  23255205.829 4  23255203.150 4


  20823541.850 8 109428515.713 8  85269013.145 9  20823543.593 9  20823541.028 9
  20823542.089 8  81716142.472 8

  22436593.229 7 117905160.049 7  91874178.626 5  22436594.642 5  22436593.033 5
  22436597.824 8  88046112.731 8

 23  9 13 15 48  0.0000000  0 10G07G15G13G11G18G05G20G22G30G14
  22488413.233 7 118177468.591 7  92086364.455 7  22488412.889 7  22488412.715 7


  23613653.087 6 124090599.952 6  96693986.449 4  23613653.401 4  23613652.949 4


  20871248.515 8 109679206.734 8  85464326.003 6  20871247.261 6  20871248.113 6


  24997460.791 6 131362518.031 6 102360401.430 3  24997464.859 3  24997460.595 3
  24997467.598 7  98095392.802 7

  24593123.967 6 129237739.269 6 100704750.174 4  24593125.397 4  24593123.771 4
  24593128.981 7  96508734.245 7

  20574318.547 8 108118821.326 8  84248438.595 9  20574317.406 9  20574318.315 9


  20916952.762 8 109919364.270 8  85651477.795 6  20916952.284 6  20916951.649 6


  23237035.770 6 122111491.848 6  95151838.613 4  23237037.132 4  23237035.001 4


  20829501.130 8 109459832.379 8  85293415.728 9  20829502.939 9  20829500.308 9
  20829501.593 8  81739528.278 8

  22421665.808 7 117826714.953 7  91813052.627 5  22421666.998 5  22421665.616 5
  22421670.116 8  87987533.648 8

 23  9 13 15 48 30.0000000  0 10G07G15G13G11G18G05G20G22G30G14
  22502204.836 7 118249943.433 7  92142838.326 7  22502204.422 7  22502204.345 7


  23593880.219 6 123986693.082 6  96613020.120 4  23593880.579 4  23593880.059 4


  20860058.925 8 109620405.983 8  85418507.248 6  20860058.136 6  20860058.523 6


  25017547.045 6 131468071.172 6 102442650.464 4  25017550.622 4  25017546.853 4
  25017554.415 7  98174214.749 7

  24583866.739 6 129189094.887 6 100666845.496 4  24583869.146 4  24583866.570 4
  24583872.310 7  96472408.933 7

  20572956.080 8 108111661.834 8  84242859.771 9  20572954.604 9  20572955.848 9


  20928549.098 8 109980303.295 8  85698962.710 6  20928548.738 6  20928547.981 6


  23218908.674 6 122016235.855 6  95077613.254 4  23218910.133 4  23218907.879 4


  20835541.828 8 109491576.154 8  85318151.129 9  20835543.547 9  20835541.006 9
  20835542.257 8  81763233.036 8

  22406808.732 7 117748640.453 7  91752215.408 5  22406809.880 5  22406808.536 5
  22406812.908 8  87929231.319 8

 23  9 13 15 49  0.0000000  0 10G07G15G13G11G18G05G20G22G30G14
  22516039.736 7 118322647.066 7  92199490.471 7  22516039.658 7  22516039.236 7


  23574127.183 7 123882891.939 7  96532136.161 4  23574127.546 4  23574126.991 4


  20848927.621 8 109561909.364 8  85372925.480 6  20848926.675 6  20848927.215 6


  25037631.149 6 131573613.591 6 102524891.127 4  25037635.193 4  25037630.966 4
  25037638.438 7  98253028.708 7

  24574710.963 6 129140981.086 6 100629354.256 4  24574713.320 4  24574710.794 4
  24574716.610 7  96436479.838 7

  20571709.697 8 108105112.062 8  84237756.050 9  20571708.442 9  20571709.465 9


  20940242.572 8 110041753.177 8  85746845.697 6  20940242.041 6  20940241.455 6


  23200825.435 6 121921207.191 6  95003565.040 4  23200826.796 4  23200824.613 4


  20841664.325 8 109523749.430 8  85343221.204 9  20841666.086 9  20841663.498 9
  20841664.573 8  81787258.521 8

  22392023.189 7 117670942.913 7  91691671.917 5  22392024.364 5  22392023.002 5
  22392027.532 8  87871210.485 8

 23  9 13 15 49 30.0000000  0 10G07G15G13G11G18G05G20G22G30G14
  22529916.754 7 118395570.118 7  92256313.593 7  22529916.673 7  22529916.254 7


  23554393.498 7 123779190.738 7  96451330.089 5  23554394.045 5  23554393.293 5


  20837852.826 8 109503710.743 8  85327575.921 6  20837851.981 6  20837852.420 6


  25057711.700 6 131679135.431 6 102607115.778 3  25057715.011 3  25057711.535 3
  25057719.114 7  98331827.304 7

  24565654.823 6 129093392.494 6 100592272.292 4  24565657.341 4  24565654.680 4
  24565661.006 7  96400942.964 7

  20570577.947 8 108099165.053 8  84233122.014 9  20570576.628 9  20570577.715 9


  20952031.745 8 110103705.157 8  85795119.935 6  20952030.986 6  20952030.623 6


  23182784.616 6 121826401.254 6  94929690.373 4  23182785.627 4  23182783.807 4


  20847866.731 8 109556343.851 8  85368619.442 9  20847868.617 9  20847865.904 9
  20847867.080 8  81811598.497 8

  22377308.919 7 117593617.990 7  91631418.778 6  22377309.897 6  22377308.732 6
  22377313.051 8  87813467.905 8

 23  9 13 15 50  0.0000000  0 10G07G15G13G11G18G05G20G22G30G14
  22543836.272 7 118468718.612 7  92313312.383 7  22543836.490 7  22543835.767 7


  23534681.055 6 123675598.662 6  96370609.044 5  23534681.311 5  23534680.845 5


  20826836.175 8 109445818.499 8  85282465.095 6  20826835.369 6  20826835.769 6


  25077788.406 6 131784641.305 6 102689327.995 3  25077792.558 3  25077788.210 3
  25077796.232 7  98410613.945 7

  24556700.872 6 129046338.143 6 100555606.610 4  24556703.378 4  24556700.752 4
  24556706.350 7  96365805.023 7

  20569562.548 8 108093829.662 8  84228964.564 9  20569560.996 9  20569562.312 9


  20963917.455 8 110166164.976 8  85843789.889 7  20963917.011 7  20963916.333 7


  23164788.285 7 121731828.809 7  94855997.655 4  23164789.290 4  23164787.472 4


  20854150.392 8 109589365.509 8  85394350.592 9  20854152.192 9  20854149.570 9
  20854150.931 8  81836257.515 8

  22362667.365 7 117516675.750 7  91571463.834 6  22362668.433 6  22362667.173 6
  22362671.445 8  87756011.103 8

 23  9 13 15 50 30.0000000  0 10G07G15G13G11G18G05G20G22G30G14
  22557797.912 7 118542086.576 7  92370482.179 7  22557797.978 7  22557797.412 7


  23514988.224 6 123572112.021 6  96289970.148 4  23514988.694 4  23514988.032 4


  20815877.110 8 109388228.686 8  85237589.924 6  20815876.132 6  20815876.704 6


  25097861.317 6 131890123.306 6 102771521.588 3  25097865.539 3  25097861.125 3
  25097868.912 7  98489382.783 7

  24547847.800 6 128999814.551 6 100519354.489 4  24547849.685 4  24547847.666 4
  24547853.165 7  96331063.409 7

  20568662.762 8 108089101.270 8  84225280.096 9  20568661.867 9  20568662.526 9


  20975898.546 8 110229125.955 8  85892850.356 7  20975898.250 7  20975897.429 7


  23146835.336 7 121637487.614 7  94782485.126 4  23146836.615 4  23146834.518 4


  20860514.332 8 109622808.123 8  85420409.762 9  20860515.961 9  20860513.510 9
  20860514.812 8  81861230.878 8

  22348097.844 7 117440113.900 7  91511805.300 6  22348099.142 6  22348097.648 6
  22348102.189 8  87698838.354 8

 23  9 13 15 51  0.0000000  0 10G07G15G13G11G18G05G20G22G30G14
  22571801.268 7 118615674.945 7  92427823.732 7  22571801.429 7  22571800.754 7


  23495315.984 6 123468735.446 6  96209417.018 4  23495316.935 4  23495315.815 4


  20804976.383 8 109330945.190 8  85192953.443 6  20804975.412 6  20804975.977 6


  25117929.710 6 131995582.041 6 102853697.047 3  25117933.760 3  25117929.518 3
  25117937.242 7  98568134.233 7

  24539096.994 6 128953826.722 6 100483519.866 4  24539098.051 4  24539096.856 4
  24539102.166 7  96296721.895 7

  20567879.378 8 108084983.889 8  84222071.740 9  20567878.867 9  20567879.142 9


  20987975.351 8 110292589.832 8  85942302.701 7  20987974.655 7  20987974.229 7


  23128928.176 7 121543384.142 7  94709157.836 4  23128929.430 4  23128927.372 4


  20866958.791 8 109656673.628 8  85446798.454 9  20866960.239 9  20866957.969 9
  20866959.158 8  81886520.044 8

  22333602.206 7 117363938.419 7  91452447.842 6  22333603.312 6  22333602.014 6
  22333606.312 8  87641954.132 8

 23  9 13 15 51 30.0000000  0 10G07G15G13G11G18G05G20G22G30G14
  22585845.428 7 118689477.530 7  92485332.195 7  22585845.706 7  22585844.937 7


  23475664.255 6 123365465.527 6  96128947.012 5  23475665.781 5  23475664.068 5


  20794133.551 8 109273964.622 8  85148553.013 6  20794132.372 6  20794133.145 6


  25137991.431 6 132101009.718 6 102935848.314 3  25137996.095 3  25137991.262 3
  25137999.503 7  98646862.506 7

  24530446.508 6 128908371.194 6 100448100.023 4  24530448.068 4  24530446.361 4
  24530451.822 7  96262777.884 7

  20567211.389 8 108081473.643 8  84219336.486 9  20567210.662 9  20567211.157 9


  21000146.648 8 110356549.705 8  85992141.533 6  21000145.849 6  21000145.526 6


  23111065.432 7 121449516.207 7  94636014.083 4  23111066.823 4  23111064.650 4


  20873482.600 8 109690955.794 8  85473511.822 9  20873483.949 9  20873481.773 9
  20873482.892 8  81912120.352 8

  22319179.222 7 117288146.980 7  91393389.639 6  22319180.507 6  22319179.035 6
  22319183.462 8  87585356.692 8

 23  9 13 15 52  0.0000000  0 10G07G15G13G11G18G05G20G22G30G14
  22599931.032 7 118763496.287 7  92543009.110 7  22599931.095 7  22599930.536 7


  23456033.733 7 123262307.007 7  96048563.811 5  23456035.455 5  23456033.528 5


  20783348.847 8 109217290.916 8  85104391.694 6  20783347.498 6  20783348.441 6


  25158048.160 6 132206406.969 6 103017975.899 3  25158052.614 3  25158047.977 3
  25158056.189 7  98725568.046 7

  24521899.025 6 128863452.941 6 100413098.842 4  24521899.905 4  24521898.887 4
  24521904.272 7  96229235.097 7

  20566659.630 8 108078573.564 8  84217076.683 9  20566658.764 9  20566659.398 9


  21012412.494 8 110421007.372 8  86042368.249 6  21012411.648 6  21012411.377 6


  23093249.371 7 121355890.391 7  94563058.995 4  23093250.520 4  23093248.598 4


  20880086.101 8 109725656.641 8  85500551.435 9  20880087.474 9  20880085.270 9
  20880086.346 8  81938033.312 8

  22304830.803 7 117212745.631 7  91334635.396 6  22304831.440 6  22304830.620 6
  22304835.027 8  87529050.553 8

 23  9 13 15 52 30.0000000  0 10G07G15G13G11G18G05G20G22G30G14
  22614057.105 7 118837729.878 7  92600853.427 7  22614057.190 7  22614056.605 7


  23436424.755 7 123159262.357 7  95968269.327 5  23436426.407 5  23436424.532 5


  20772622.767 8 109160925.478 8  85060470.585 6  20772621.311 6  20772622.365 6


  25178098.452 6 132311771.488 6 103100077.983 3  25178103.298 3  25178098.216 3
  25178106.352 7  98804249.148 7

  24513453.706 6 128819073.887 6 100378517.796 4  24513455.220 4  24513453.572 4
  24513459.100 7  96196094.946 7

  20566223.982 8 108076285.073 8  84215293.438 9  20566223.451 9  20566223.750 9


  21024772.785 8 110485961.599 8  86092981.904 6  21024771.582 6  21024771.663 6


  23075479.612 7 121262509.901 7  94490295.073 4  23075480.964 4  23075478.825 4


  20886768.737 8 109760775.281 8  85527916.603 9  20886770.371 9  20886767.897 9
  20886769.192 8  81964258.258 8

  22290557.204 7 117137737.431 7  91276187.494 5  22290557.407 5  22290557.026 5
  22290561.410 8  87473037.996 8

 23  9 13 15 53  0.0000000  0 10G07G15G13G11G18G05G20G22G30G14
  22628223.783 7 118912176.440 7  92658863.699 7  22628223.839 7  22628223.278 7


  23416837.485 7 123056332.279 7  95888064.116 5  23416838.979 5  23416837.240 5


  20761955.420 8 109104868.836 8  85016790.093 6  20761953.899 6  20761955.018 6


  25198142.412 6 132417100.102 6 103182152.044 3  25198146.797 3  25198142.176 3
  25198150.165 7  98882903.428 7

  24505111.376 6 128775235.255 6 100344357.845 4  24505113.087 4  24505111.229 4
  24505117.036 7  96163358.337 7

  20565905.075 8 108074608.291 8  84213986.851 9  20565904.020 9  20565904.834 9


  21037227.212 8 110551410.228 8  86143980.806 6  21037225.910 6  21037226.090 6


  23057756.896 7 121169377.674 7  94417724.602 4  23057758.128 4  23057756.109 4


  20893530.817 8 109796310.076 8  85555606.043 9  20893532.344 9  20893529.977 9
  20893531.273 8  81990793.967 8

  22276358.870 7 117063124.742 7  91218047.796 5  22276359.343 5  22276358.696 5
  22276363.161 8  87417320.795 8

 23  9 13 15 53 30.0000000  0 10G07G15G13G11G18G05G20G22G30G14
  22642430.582 7 118986832.002 7  92717036.827 7  22642430.313 7  22642430.091 7


  23397272.393 6 122953515.865 6  95807947.487 4  23397273.286 4  23397272.152 4


  20751346.905 8 109049119.871 8  84973349.352 6  20751345.603 6  20751346.499 6


  25218178.239 6 132522387.507 6 103264193.962 3  25218182.749 3  25218178.034 3
  25218185.168 7  98961526.937 7

  24496871.600 6 128731936.040 6 100310618.250 4  24496873.191 4  24496871.453 4
  24496877.572 7  96131024.565 7

  20565701.940 8 108073541.424 8  84213155.519 9  20565700.619 9  20565701.695 9


  21049774.974 8 110617348.927 8  86195361.579 6  21049773.921 6  21049773.852 6


  23040081.057 7 121076493.674 7  94345347.563 4  23040082.929 4  23040080.284 4


  20900371.268 8 109832257.108 8  85583616.707 9  20900372.756 9  20900370.428 9
  20900371.738 8  82017637.517 8

  22262235.869 7 116988907.637 7  91160216.348 6  22262236.595 6  22262235.695 6
  22262240.144 8  87361899.003 8

 23  9 13 15 54  0.0000000  0 10G07G15G13G11G18G05G20G22G30G14
  22656676.629 7 119061698.009 7  92775373.934 7  22656676.812 7  22656676.133 7


  23377729.851 6 122850817.786 6  95727923.051 4  23377730.024 4  23377729.619 4


  20740797.346 8 108993682.070 8  84930151.076 6  20740796.255 6  20740796.935 6


  25238205.836 6 132627634.005 6 103346204.039 3  25238210.401 3  25238205.626 3
  25238213.216 7  99040119.871 7

  24488735.939 6 128689180.591 6 100277302.345 4  24488737.253 4  24488735.792 4
  24488741.373 7  96099096.831 7

  20565615.479 8 108073087.468 8  84212801.774 9  20565614.253 9  20565615.238 9


  21062416.375 8 110683778.877 8  86247125.146 6  21062415.038 6  21062415.253 6


  23022454.127 7 120983863.939 7  94273168.639 4  23022455.763 4  23022453.349 4


  20907290.643 8 109868617.992 8  85611949.850 9  20907292.059 9  20907289.803 9
  20907290.910 8  82044790.114 8

  22248189.166 7 116915091.644 7  91102697.451 6  22248190.115 6  22248188.992 6
  22248193.330 8  87306776.737 8

 23  9 13 15 54 30.0000000  0 10G07G15G13G11G18G05G20G22G30G14
  22670963.000 7 119136772.584 7  92833873.567 7  22670962.891 7  22670962.500 7


  23358210.103 6 122748239.078 6  95647991.635 5  23358209.472 5  23358209.902 5


  20730307.054 8 108938556.130 8  84887195.815 6  20730306.364 6  20730306.648 6


  25258224.716 6 132732836.569 6 103428179.874 3  25258229.877 3  25258224.493 3
  25258233.257 7  99118680.022 7

  24480703.368 6 128646970.317 6 100244411.302 4  24480705.305 4  24480703.181 4
  24480708.871 7  96067576.259 7

  20565646.144 8 108073247.109 8  84212926.159 9  20565644.611 9  20565645.890 9


  21075150.478 8 110750698.055 8  86299269.933 6  21075149.596 6  21075149.352 6


  23004876.213 7 120891491.356 7  94201190.097 4  23004877.617 4  23004875.435 4


  20914288.271 8 109905391.181 8  85640604.269 9  20914289.880 9  20914287.431 9
  20914288.609 8  82072250.597 8

  22234218.941 7 116841679.195 7  91045493.000 6  22234220.395 6  22234218.772 6
  22234223.291 8  87251955.810 8

 23  9 13 15 55  0.0000000  0 10G07G15G13G11G18G05G20G22G30G14
  22685288.645 7 119212052.563 7  92892533.253 7  22685288.123 7  22685288.145 7


  23338712.683 7 122645779.625 7  95568153.146 5  23338712.342 5  23338712.505 5


  20719876.197 8 108883741.613 8  84844483.219 6  20719875.700 6  20719875.800 6


  25278235.838 5 132837990.962 5 103510118.160 3  25278240.355 3  25278235.593 3
  25278243.465 7  99197204.166 7

  24472774.223 6 128605304.950 6 100211944.837 4  24472776.776 4  24472773.995 4
  24472780.079 7  96036462.560 7

  20565792.872 8 108074019.540 8  84213528.052 9  20565792.023 9  20565792.609 9


  21087977.114 7 110818102.861 7  86351793.122 6  21087976.716 6  21087975.988 6


  22987347.846 7 120799377.274 7  94129412.988 4  22987348.646 4  22987347.091 4


  20921364.033 8 109942573.792 8  85669577.721 9  20921365.490 9  20921363.193 9
  20921364.253 8  82100016.819 8

  22220326.005 7 116768671.397 7  90988603.859 6  22220327.471 6  22220325.831 6
  22220330.282 8  87197437.063 8

 23  9 13 15 55 30.0000000  0 10G07G15G13G11G18G05G20G22G30G14
  22699652.890 7 119287536.633 7  92951351.975 7  22699652.336 7  22699652.403 7


  23319238.001 7 122543441.472 7  95488409.188 5  23319238.488 5  23319237.823 5


  20709504.828 8 108829239.969 8  84802014.419 6  20709504.267 6  20709504.431 6


  25298236.395 5 132943094.861 5 103592017.053 3  25298241.194 3  25298236.150 3
  25298244.652 7  99275690.526 7

  24464949.816 6 128564186.195 6 100179904.294 4  24464952.553 4  24464949.566 4
  24464955.624 7  96005757.057 7

  20566056.693 8 108075404.725 8  84214607.408 9  20566056.238 9  20566056.430 9


  21100896.023 7 110885991.849 7  86404693.598 6  21100895.474 6  21100894.892 6


  22969868.739 7 120707524.721 7  94057839.661 4  22969869.435 4  22969867.988 4


  20928517.265 8 109980164.655 8  85698869.289 9  20928518.742 9  20928516.425 9
  20928517.663 8  82128087.905 8

  22206510.672 7 116696070.984 7  90932032.156 6  22206511.858 6  22206510.498 6
  22206514.851 8  87143222.533 8

 23  9 13 15 56  0.0000000  0  9G07G15G13G18G05G20G22G30G14
  22714054.904 7 119363221.577 7  93010327.225 7  22714054.794 7  22714054.413 7


  23299786.783 7 122441224.767 7  95408759.855 5  23299787.822 5  23299786.605 5


  20699192.916 8 108775050.074 8  84759788.539 6  20699191.890 6  20699192.514 6


  24457229.773 6 128523613.773 6 100148289.448 4  24457231.630 4  24457229.523 4
  24457234.878 7  95975459.509 7

  20566436.575 8 108077401.343 8  84216163.205 9  20566435.927 9  20566436.312 9


  21113906.309 7 110954361.459 7  86457968.591 6  21113905.676 6  21113905.178 6


  22952439.872 7 120615935.325 7  93986471.376 4  22952440.346 4  22952439.112 4


  20935747.525 8 110018160.792 8  85728476.656 9  20935749.136 9  20935746.689 9
  20935748.138 8  82156461.619 8

  22192772.953 7 116623878.958 7  90875778.680 6  22192774.084 6  22192772.775 6
  22192777.117 8  87089312.971 8

 23  9 13 15 56 30.0000000  0  9G07G15G13G18G05G20G22G30G14
  22728496.326 7 119439110.608 7  93069461.495 7  22728496.189 7  22728495.830 7


  23280359.223 7 122339135.065 7  95329209.493 5  23280360.936 5  23280359.040 5


  20688941.239 8 108721177.667 8  84717810.044 6  20688939.647 6  20688940.837 6


  24449613.577 6 128483593.642 6 100117104.952 4  24449615.892 4  24449613.336 4
  24449619.161 7  95945574.382 7

  20566933.795 8 108080014.408 8  84218199.353 9  20566932.627 9  20566933.527 9


  21127009.061 7 111023214.699 7  86511620.430 6  21127008.298 6  21127007.926 6


  22935062.593 7 120524616.422 7  93915313.857 4  22935062.899 4  22935061.833 4


  20943055.749 8 110056565.310 8  85758402.243 9  20943057.288 9  20943054.904 9
  20943056.300 8  82185140.304 8

  22179114.378 7 116552102.391 7  90819848.938 6  22179115.670 6  22179114.195 6
  22179118.332 8  87035713.651 8

 23  9 13 15 57  0.0000000  0  9G07G15G13G18G05G20G22G30G14
  22742975.612 7 119515198.263 7  93128750.540 7  22742975.259 7  22742975.134 7


  23260956.027 7 122237170.325 7  95249756.491 5  23260957.254 5  23260955.844 5


  20678749.607 8 108667619.712 8  84676076.572 6  20678747.374 6  20678749.210 6


  24442102.142 6 128444123.388 6 100086349.013 4  24442104.839 4  24442101.906 4
  24442108.041 7  95916099.951 7

  20567548.101 8 108083240.889 8  84220713.487 9  20567547.106 9  20567547.838 9


  21140201.962 8 111092545.488 8  86565644.381 6  21140201.524 6  21140200.831 6


  22917736.635 7 120433567.056 7  93844366.372 5  22917736.814 5  22917735.871 5


  20950440.638 8 110095373.025 8  85788642.008 9  20950442.174 9  20950439.793 9
  20950441.119 8  82214120.072 8

  22165534.561 7 116480740.010 7  90764241.941 6  22165535.792 6  22165534.378 6
  22165538.468 8  86982423.624 8

 23  9 13 15 57 30.0000000  0  9G07G15G13G18G05G20G22G30G14
  22757492.098 7 119591484.328 7  93188194.188 7  22757492.047 7  22757491.625 7


  23241577.049 7 122135333.310 7  95170403.022 5  23241578.323 5  23241576.871 5


  20668618.199 8 108614378.590 8  84634589.985 6  20668615.818 6  20668617.797 6


  24434696.452 6 128405205.488 6 100056023.463 4  24434698.660 4  24434696.211 4
  24434702.251 7  95887037.979 7

  20568278.722 8 108087082.319 8  84223706.802 9  20568278.415 9  20568278.459 9


  21153486.017 8 111162353.154 8  86620039.932 6  21153485.132 6  21153484.886 6


  22900462.315 7 120342791.240 7  93773632.050 5  22900462.793 5  22900461.542 5


  20957902.133 8 110134583.752 8  85819195.811 9  20957903.682 9  20957901.293 9
  20957902.659 8  82243400.795 8

  22152034.064 7 116409795.572 7  90708960.609 6  22152035.340 6  22152033.886 6
  22152038.087 8  86929445.688 8

 23  9 13 15 58  0.0000000  0  9G07G15G13G18G05G20G22G30G14
  22772046.464 7 119667967.482 7  93247791.407 7  22772046.468 7  22772045.986 7


  23222222.969 7 122033625.550 7  95091150.267 5  23222223.605 5  23222222.795 5


  20658547.172 8 108561455.145 8  84593350.943 6  20658545.346 6  20658546.766 6


  24427396.943 6 128366841.244 6 100026129.301 4  24427398.019 4  24427396.711 4
  24427401.759 7  95858389.409 7

  20569126.789 8 108091539.068 8  84227179.588 9  20569126.047 9  20569126.526 9


  21166860.545 8 111232635.841 8  86674805.626 6  21166859.489 6  21166859.419 6


  22883240.644 7 120252292.001 7  93703113.246 5  22883241.009 5  22883239.880 5


  20965440.238 8 110174196.148 8  85850062.603 9  20965441.564 9  20965439.398 9
  20965440.646 8  82272981.469 8

  22138613.669 7 116339271.662 7  90654006.964 6  22138614.691 6  22138613.491 6
  22138617.730 8  86876781.783 8

 23  9 13 15 58 30.0000000  0  9G07G15G13G18G05G20G22G30G14
  22786638.022 7 119744645.559 7  93307540.511 7  22786637.835 7  22786637.540 7


  23202894.012 6 121932048.665 6  95011999.508 5  23202893.796 5  23202893.869 5


  20648536.658 8 108508850.089 8  84552360.001 6  20648535.383 6  20648536.252 6


  24420201.146 6 128329031.653 6  99996667.328 4  24420203.389 4  24420200.918 4
  24420206.733 7  95830155.034 7

  20570092.031 8 108096611.120 8  84231131.828 9  20570091.178 9  20570091.759 9


  21180324.819 8 111303391.544 8  86729939.900 6  21180324.185 6  21180323.693 6


  22866072.225 7 120162072.011 7  93632812.048 5  22866072.738 5  22866071.452 5


  20973054.277 8 110214208.527 8  85881241.068 9  20973055.595 9  20973053.437 9
  20973054.725 8  82302860.829 8

  22125274.000 7 116269170.499 7  90599382.728 6  22125274.574 6  22125273.835 6
  22125277.950 8  86824433.563 8

 23  9 13 15 59  0.0000000  0  9G07G15G13G18G05G20G22G30G14
  22801265.684 7 119821513.767 7  93367437.773 7  22801265.386 7  22801265.219 7


  23183588.924 6 121830600.987 6  94932949.434 5  23183588.782 5  23183588.813 5


  20638586.404 8 108456561.342 8  84511615.532 6  20638585.271 6  20638585.998 6


  24413111.674 6 128291774.976 6  99967636.185 4  24413113.845 4  24413111.420 4
  24413117.031 8  95802333.532 8

  20571173.835 8 108102296.082 8  84235561.659 9  20571172.936 9  20571173.563 9


  21193878.378 8 111374614.900 8  86785438.578 6  21193877.458 6  21193877.256 6


  22848956.885 7 120072131.193 7  93562728.391 5  22848957.406 5  22848956.103 5


  20980743.741 8 110254616.384 8  85912727.699 9  20980745.043 9  20980742.905 9
  20980744.157 8  82333035.516 8

  22112014.366 7 116199491.535 7  90545087.472 6  22112015.173 6  22112014.206 6
  22112018.557 8  86772400.626 8

 23  9 13 15 59 30.0000000  0  9G07G15G13G18G05G20G22G30G14
  22815930.455 7 119898576.879 7  93427486.909 7  22815930.105 7  22815930.013 7


  23164309.993 7 121729289.736 7  94854005.664 5  23164309.551 5  23164309.904 5


  20628697.811 8 108404595.687 8  84471122.825 6  20628696.680 6  20628697.409 6


  24406128.188 6 128255078.352 6  99939041.455 4  24406131.065 4  24406127.934 4
  24406133.911 8  95774930.258 8

  20572373.537 8 108108599.091 8  84240473.085 9  20572372.248 9  20572373.256 9


  21207521.471 8 111446310.021 8  86841304.869 6  21207520.910 6  21207520.349 6


  22831896.306 7 119982478.155 7  93492868.973 5  22831896.757 5  22831895.519 5


  20988509.065 8 110295424.260 8  85944526.030 9  20988510.773 9  20988508.229 9
  20988509.712 8  82363508.916 8

  22098836.804 7 116130243.197 7  90491127.775 6  22098837.750 6  22098836.639 6
  22098841.046 8  86720689.253 8

                            4  1
RINEX FILE SPLICE; other post-header comments skipped       COMMENT
 23  9 13 16  0  0.0000000  0  9G07G15G13G18G05G20G22G30G14
  22830630.816 7 119975828.763 7  93487683.135 7  22830630.696 7  22830630.374 7


  23145056.227 7 121628112.137 7  94775166.026 5  23145056.359 5  23145056.147 5


  20618869.785 8 108352949.418 8  84430878.996 6  20618869.110 6  20618869.379 6


  24399251.200 6 128218938.415 6  99910880.509 4  24399253.517 4  24399250.955 4
  24399256.635 8  95747942.693 8

  20573689.488 8 108115515.986 8  84245862.865 9  20573688.727 9  20573689.207 9


  21221253.221 8 111518470.499 8  86897533.767 6  21221253.070 6  21221252.104 6


  22814890.395 7 119893111.477 7  93423232.682 5  22814890.650 5  22814889.591 5


  20996349.570 8 110336626.120 8  85976631.365 9  20996351.453 9  20996348.734 9
  20996350.158 8  82394276.525 8

  22085741.198 7 116061423.356 7  90437501.971 6  22085741.806 6  22085741.029 6
  22085744.973 8  86669297.866 8

 23  9 13 16  0 30.0000000  0  9G07G15G13G18G05G20G22G30G14
  22845367.733 7 120053269.879 7  93548026.813 7  22845367.276 7  22845367.295 7


  23125828.652 7 121527071.589 7  94696433.195 5  23125829.501 5  23125828.559 5


  20609103.330 8 108301625.553 8  84390886.391 7  20609102.788 7  20609102.928 7


  24392480.882 6 128183358.238 6  99883155.723 4  24392482.564 4  24392480.663 4
  24392485.937 8  95721373.109 8

  20575123.077 8 108123049.085 8  84251732.799 9  20575122.161 9  20575122.796 9


  21235073.407 8 111591095.821 8  86954124.890 6  21235073.054 6  21235072.285 6


  22797939.475 7 119804035.720 7  93353823.087 5  22797940.237 5  22797938.688 5


  21004265.258 8 110378222.436 8  86009044.067 9  21004267.095 9  21004264.418 9
  21004265.721 8  82425338.692 8

  22072727.392 7 115993036.362 7  90384213.446 6  22072728.193 6  22072727.227 6
  22072731.149 8  86618229.710 8

 23  9 13 16  1  0.0000000  0  9G07G15G13G18G05G20G22G30G14
  22860140.013 7 120130899.653 7  93608517.501 7  22860139.809 7  22860139.589 7


  23106627.585 7 121426170.673 7  94617809.165 5  23106628.469 5  23106627.465 5


  20599398.269 8 108250625.816 8  84351146.350 7  20599397.929 7  20599397.863 7


  24385817.295 6 128148340.028 6  99855868.853 4  24385818.626 4  24385817.094 4
  24385822.085 8  95695223.204 8

  20576673.830 8 108131199.347 8  84258083.641 9  20576672.753 9  20576673.549 9


  21248981.941 8 111664185.339 8  87011077.727 6  21248981.533 6  21248980.824 6


  22781045.135 7 119715254.716 7  93284643.169 5  22781045.654 5  22781044.348 5


  21012255.673 8 110420212.713 8  86041763.751 9  21012257.554 9  21012254.833 9
  21012256.227 8  82456695.055 8

  22059796.520 7 115925085.630 7  90331264.866 6  22059797.418 6  22059796.355 6
  22059800.514 8  86567487.325 8

 23  9 13 16  1 30.0000000  0  9G07G15G13G18G05G20G22G30G14
  22874947.420 7 120208714.052 7  93669152.058 7  22874947.295 7  22874946.996 7


  23087452.860 7 121325408.335 7  94539293.109 5  23087454.193 5  23087452.713 5


  20589754.918 8 108199948.503 8  84311657.543 6  20589753.991 6  20589754.512 6


  24379259.609 6 128113882.025 6  99829018.499 4  24379261.881 4  24379259.399 4
  24379264.681 7  95669491.606 7

  20578341.987 8 108139964.308 8  84264913.469 9  20578340.782 9  20578341.706 9


  21262977.776 8 111737734.230 8  87068388.513 6  21262977.765 6  21262976.663 6


  22764206.760 7 119626768.572 7  93215693.027 5  22764207.493 5  22764205.978 5


  21020320.218 8 110462592.755 8  86074787.146 9  21020321.998 9  21020319.382 9
  21020320.848 8  82488342.473 8

  22046948.758 7 115857570.852 7  90278655.997 6  22046949.703 6  22046948.598 6
  22046952.844 8  86517070.496 8

 23  9 13 16  2  0.0000000  0  9G07G15G13G18G05G20G22G30G14
  22889789.695 7 120286711.086 7  93729928.923 7  22889789.749 7  22889789.257 7


  23068305.405 7 121224786.207 7  94460886.311 5  23068306.666 5  23068305.258 5


  20580172.795 8 108149594.502 8  84272420.662 6  20580171.590 6  20580172.389 6


  24372809.169 6 128079985.469 6  99802605.623 4  24372811.519 4  24372808.928 4
  24372814.519 7  95644179.284 7

  20580126.810 8 108149343.977 8  84272222.289 9  20580125.997 9  20580126.524 9


  21277060.624 8 111811740.272 8  87126055.512 6  21277060.576 6  21277059.511 6


  22747425.235 7 119538580.197 7  93146974.905 5  22747425.673 5  22747424.471 5


  21028458.947 8 110505361.136 8  86108113.145 9  21028460.339 9  21028458.107 9
  21028459.324 8  82520279.878 8

  22034184.786 7 115790494.468 7  90226388.727 6  22034185.690 6  22034184.634 6
  22034188.626 8  86466981.043 8

 23  9 13 16  2 30.0000000  0  9G07G15G13G18G05G20G22G30G14
  22904666.843 7 120364890.268 7  93790847.723 7  22904666.832 7  22904666.387 7


  23049184.910 7 121124307.124 7  94382590.967 5  23049185.746 5  23049184.758 5


  20570652.555 8 108099565.596 8  84233437.102 6  20570651.248 6  20570652.144 6


  24366465.220 6 128046652.365 6  99776631.798 4  24366468.303 4  24366464.988 4
  24366471.541 8  95619287.722 8

  20582028.816 8 108159339.509 8  84280011.002 9  20582028.092 9  20582028.526 9


  21291230.233 7 111886202.313 7  87184077.846 6  21291229.861 6  21291229.125 6


  22730700.926 7 119450693.632 7  93078491.960 5  22730701.355 5  22730700.180 5


  21036671.203 8 110548517.295 8  86141741.303 9  21036672.611 9  21036670.363 9
  21036671.687 8  82552506.865 8

  22021504.457 7 115723859.782 7  90174465.639 6  22021505.620 6  22021504.314 6
  22021508.391 8  86417221.428 8

 23  9 13 16  3  0.0000000  0  9G07G15G13G18G05G20G22G30G14
  22919579.062 7 120443254.101 7  93851910.404 7  22919578.981 7  22919578.611 7


  23030092.739 7 121023976.166 7  94304411.047 5  23030093.444 5  23030092.587 5


  20561195.201 8 108049866.904 8  84194710.849 6  20561193.807 6  20561194.795 6


  24360230.845 6 128013887.694 6  99751100.923 4  24360233.384 4  24360230.600 4
  24360236.628 8  95594820.637 8

  20584049.100 8 108169954.451 8  84288282.378 9  20584048.246 9  20584048.810 9


  21305487.070 7 111961122.149 7  87242456.903 6  21305486.376 6  21305485.962 6


  22714035.413 7 119363115.324 7  93010249.204 5  22714035.010 5  22714034.671 5


  21044957.811 8 110592063.701 8  86175673.552 9  21044959.196 9  21044956.975 9
  21044958.350 8  82585025.264 8

  22008909.472 7 115657673.139 7  90122891.671 6  22008910.622 6  22008909.325 6
  22008913.380 8  86367796.386 8

 23  9 13 16  3 30.0000000  0  9G07G15G13G18G05G20G22G30G14
  22934524.573 7 120521794.075 7  93913110.333 7  22934524.650 7  22934524.126 7


  23011027.615 6 120923787.778 6  94226342.226 5  23011028.639 5  23011027.423 5


  20551799.386 8 108000492.182 8  84156237.039 7  20551798.174 7  20551798.980 7


  24354103.314 6 127981685.397 6  99726008.233 4  24354105.418 4  24354103.095 4
  24354108.767 8  95570773.487 8

  20586185.440 8 108181182.574 8  84297031.556 9  20586185.558 9  20586185.154 9


  21319829.124 7 112036490.859 7  87301185.726 6  21319828.610 6  21319828.011 6


  22697427.413 7 119275841.188 7  92942243.452 5  22697427.249 5  22697426.662 5


  21053317.153 8 110635991.801 8  86209903.222 9  21053318.437 9  21053316.317 9
  21053317.651 8  82617828.695 8

  21996399.216 7 115591929.747 7  90071663.093 6  21996399.847 6  21996399.064 6
  21996402.890 8  86318702.342 8

 23  9 13 16  4  0.0000000  0  9G07G15G13G18G05G20G22G30G14
  22949504.541 7 120600513.803 7  93974450.338 7  22949504.493 7  22949504.076 7


  22991991.163 7 120823748.780 7  94148389.808 5  22991991.917 5  22991990.980 5


  20542466.333 8 107951447.181 8  84118020.152 7  20542465.386 7  20542465.936 7


  24348083.894 6 127950051.699 6  99701358.629 4  24348085.742 4  24348083.680 4
  24348089.094 8  95547150.944 8

  20588439.713 8 108193028.165 8  84306261.875 9  20588439.615 9  20588439.432 9


  21334257.641 7 112112311.450 7  87360266.666 6  21334256.923 6  21334256.528 6


  22680878.888 7 119188879.024 7  92874480.804 5  22680878.793 5  22680878.137 5


  21061749.697 8 110680305.250 8  86244433.167 9  21061751.139 9  21061748.857 9
  21061750.217 8  82650919.884 8

  21983974.226 7 115526637.147 7  90020785.790 6  21983974.849 6  21983974.070 6
  21983978.212 8  86269944.943 8

 23  9 13 16  4 30.0000000  0  9G07G15G13G18G05G20G22G30G14
  22964517.096 7 120679404.990 7  94035923.942 7  22964516.985 7  22964516.627 7


  22972981.104 7 120723854.137 7  94070549.862 5  22972982.654 5  22972980.926 5


  20533195.269 8 107902726.436 8  84080055.945 7  20533194.711 7  20533194.872 7


  24342171.025 6 127918980.801 6  99677147.589 4  24342172.739 4  24342170.824 4
  24342176.336 8  95523948.710 8

  20590809.994 8 108205484.757 8  84315968.298 9  20590809.647 9  20590809.708 9


  21348770.021 7 112188574.718 7  87419692.553 6  21348769.381 6  21348768.908 6


  22664388.820 7 119102224.925 7  92806958.227 5  22664389.569 5  22664388.078 5


  21070254.195 8 110724995.826 8  86279256.974 9  21070255.657 9  21070253.355 9
  21070254.581 8  82684292.700 8

  21971634.285 7 115461791.012 7  89970256.386 6  21971635.059 6  21971634.129 6
  21971638.441 8  86221520.937 8

 23  9 13 16  5  0.0000000  0  9G07G15G13G18G05G20G22G30G14
  22979564.663 7 120758479.791 7  94097540.620 7  22979564.533 7  22979564.207 7


  22954002.304 7 120624119.087 7  93992834.281 5  22954003.296 5  22954002.135 5


  20523988.308 8 107854344.218 8  84042355.533 7  20523988.365 7  20523987.911 7


  24336368.239 6 127888487.163 6  99653386.374 4  24336369.771 4  24336368.029 4
  24336373.488 7  95501177.555 7

  20593299.410 8 108218565.614 8  84326161.163 9  20593299.098 9  20593299.129 9


  21363368.899 7 112265292.243 7  87479472.401 6  21363368.344 6  21363367.782 6


  22647961.396 7 119015895.471 7  92739688.609 5  22647961.527 5  22647960.650 5


  21078832.352 8 110770075.482 8  86314383.963 9  21078834.192 9  21078831.516 9
  21078832.972 8  82717956.060 8

  21959382.446 7 115397407.055 7  89920087.116 6  21959383.228 6  21959382.281 6
  21959386.392 8  86173442.057 8

 23  9 13 16  5 30.0000000  0  9G07G15G13G18G05G20G22G30G14
  22994643.958 7 120837723.047 7  94159288.560 7  22994644.056 7  22994643.511 7


  22935051.276 6 120524530.990 6  93915233.216 5  22935052.084 5  22935051.098 5


  20514843.299 8 107806287.531 8  84004908.771 7  20514843.205 7  20514842.897 7


  24330672.968 6 127858557.869 6  99630064.896 4  24330674.887 4  24330672.772 4
  24330677.944 7  95478827.831 7

  20595905.146 8 108232257.900 8  84336830.464 9  20595904.523 9  20595904.865 9


  21378051.322 7 112342447.967 7  87539593.704 6  21378050.533 6  21378050.205 6


  22631593.010 7 118929879.087 7  92672662.946 5  22631593.262 5  22631592.259 5


  21087481.996 8 110815528.929 8  86349802.218 9  21087483.709 9  21087481.160 9
  21087482.444 8  82751898.550 8

  21947216.516 7 115333473.776 7  89870269.023 6  21947217.230 6  21947216.342 6
  21947220.125 8  86125699.726 8

 23  9 13 16  6  0.0000000  0  9G07G15G13G18G05G20G22G30G14
  23009755.995 7 120917137.602 7  94221169.979 7  23009756.279 7  23009755.530 7


  22916129.822 7 120425096.977 7  93837752.211 5  22916130.351 5  22916129.639 5


  20505761.830 8 107758562.454 8  83967720.412 7  20505761.251 7  20505761.433 7


  24325086.378 6 127829198.926 6  99607187.828 4  24325087.701 4  24325086.213 4
  24325091.073 7  95456903.989 7

  20598627.407 8 108246565.140 8  84347978.950 9  20598626.423 9  20598627.126 9


  21392817.649 7 112420044.948 7  87600058.850 6  21392816.676 6  21392816.527 6


  22615285.456 7 118844184.005 7  92605887.631 5  22615285.600 5  22615284.692 5


  21096203.412 8 110861359.654 8  86385514.455 9  21096204.994 9  21096202.576 9
  21096203.742 8  82786122.775 8

  21935137.234 7 115269998.495 7  89820807.805 6  21935138.123 6  21935137.051 6
  21935141.014 8  86078299.398 8

 23  9 13 16  6 30.0000000  0  9G07G15G13G18G05G20G22G30G14
  23024900.352 7 120996721.672 7  94283183.487 7  23024900.591 7  23024899.883 7


  22897237.359 7 120325817.995 7  93760392.022 5  22897237.972 5  22897237.176 5


  20496743.021 8 107711169.312 8  83930790.705 6  20496742.478 6  20496742.610 6


  24319607.615 6 127800410.617 6  99584755.418 4  24319609.678 4  24319607.477 4
  24319612.902 7  95435406.265 7

  20601466.923 8 108261486.518 8  84359605.986 9  20601465.847 9  20601466.637 9


  21407667.081 8 112498080.087 8  87660865.416 6  21407666.761 6  21407665.955 6


  22599039.855 7 118758812.319 7  92539364.313 5  22599039.545 5  22599039.091 5


  21104996.098 8 110907565.638 8  86421519.100 9  21104997.750 9  21104995.262 9
  21104996.447 8  82820627.223 8

  21923145.917 7 115206982.957 7  89771704.829 6  21923146.625 6  21923145.725 6
  21923149.583 8  86031242.391 8

 23  9 13 16  7  0.0000000  0  9G07G15G13G18G05G20G22G30G14
  23040077.189 7 121076475.840 7  94345329.541 7  23040077.324 7  23040076.716 7


  22878374.919 7 120226697.926 7  93683155.657 5  22878375.170 5  22878374.723 5


  20487788.149 8 107664110.649 8  83894121.626 6  20487786.881 6  20487787.734 6


  24314238.937 6 127772195.711 6  99562769.806 4  24314240.539 4  24314238.817 4
  24314243.929 8  95414336.740 8

  20604423.890 8 108277025.035 8  84371713.904 9  20604422.778 9  20604423.609 9


  21422600.117 8 112576553.159 8  87722013.216 6  21422600.020 6  21422598.986 6


  22582856.355 7 118673768.756 7  92473096.668 5  22582856.004 5  22582855.555 5


  21113860.120 8 110954147.258 8  86457816.452 9  21113861.902 9  21113859.284 9
  21113860.657 8  82855412.182 8

  21911242.567 7 115144431.321 7  89722963.338 6  21911243.497 6  21911242.362 6
  21911246.552 8  85984531.808 8

 23  9 13 16  7 30.0000000  0  9G07G15G13G18G05G20G22G30G14
  23055286.022 7 121156398.378 7  94407606.786 7  23055286.185 7  23055285.549 7


  22859543.390 7 120127737.507 7  93606043.679 5  22859543.244 5  22859543.180 5


  20478897.109 8 107617387.570 8  83857714.042 6  20478894.897 6  20478896.685 6


  24308978.781 6 127744554.832 6  99541231.493 4  24308980.141 4  24308978.665 4
  24308984.022 8  95393695.843 8

  20607498.198 8 108293179.669 8  84384301.915 9  20607496.529 9  20607497.912 9


  21437616.215 8 112655461.846 8  87783500.460 6  21437615.636 6  21437615.084 6


  22566736.374 7 118589055.683 7  92407086.560 5  22566735.938 5  22566735.592 5


  21122795.340 8 111001102.703 8  86494405.091 9  21122797.205 9  21122794.504 9
  21122796.031 8  82890476.290 8

  21899428.174 7 115082345.553 7  89674584.857 6  21899429.014 6  21899427.978 6
  21899432.101 8  85938169.103 8

 23  9 13 16  8  0.0000000  0 10G07G15G13G08G18G05G20G22G30G14
  23070525.811 7 121236483.683 7  94470010.870 7  23070526.010 7  23070525.338 7


  22840742.010 7 120028934.793 7  93529054.609 5  22840742.062 5  22840741.787 5


  20470069.228 8 107570996.663 8  83821565.286 6  20470066.183 6  20470068.804 6


  25101094.333 5 131907156.191 5
  25101098.633 6  98502104.464 6

  24303827.877 6 127717484.809 6  99520137.977 4  24303828.999 4  24303827.779 4
  24303832.716 7  95373481.230 7

  20610688.737 8 108309946.122 8  84397366.667 9  20610687.188 9  20610688.451 9


  21452713.713 8 112734799.719 8  87845322.142 6  21452712.991 6  21452712.587 6


  22550678.442 7 118504672.031 7  92341333.141 5  22550678.597 5  22550677.642 5


  21131800.797 8 111048426.551 8  86531280.799 9  21131802.705 9  21131799.957 9
  21131801.436 8  82925815.503 8

  21887701.688 7 115020723.946 7  89626568.062 6  21887702.628 6  21887701.496 6
  21887705.751 8  85892153.007 8

 23  9 13 16  8 30.0000000  0 10G07G15G13G08G18G05G20G22G30G14
  23085797.577 7 121316737.718 7  94532546.430 7  23085798.024 7  23085797.095 7


  22821972.115 7 119930298.851 7  93452195.474 5  22821971.975 5  22821971.883 5


  20461305.939 8 107524946.165 8  83785681.781 6  20461303.237 6  20461305.519 6


  25096270.759 5 131881801.765 5 102765052.657 4  25096275.700 4  25096270.241 4
  25096273.836 6  98483171.039 6

  24298786.281 6 127690993.757 6  99499495.622 4  24298787.809 4  24298786.183 4
  24298791.368 7  95353698.959 7

  20613997.058 8 108327332.108 8  84410914.171 9  20613995.945 9  20613996.772 9


  21467893.635 8 112814571.833 8  87907482.184 6  21467893.436 6  21467892.509 6


  22534685.174 7 118420627.822 7  92275844.227 5  22534685.762 5  22534684.374 5


  21140877.571 8 111096124.481 8  86568448.000 9  21140879.371 9  21140876.735 9
  21140878.066 8  82961434.068 8

  21876065.521 7 114959576.003 7  89578920.349 6  21876066.093 6  21876065.325 6
  21876069.626 8  85846490.628 8

 23  9 13 16  9  0.0000000  0 10G07G15G13G08G18G05G20G22G30G14
  23101100.076 7 121397151.588 7  94595206.532 7  23101100.331 7  23101099.598 7


  22803232.998 7 119831823.924 7  93375461.806 5  22803233.060 5  22803232.779 5


  20452606.378 8 107479229.869 8  83750058.697 7  20452604.554 7  20452605.967 7


  25091542.654 5 131856962.717 5 102745697.648 3  25091548.820 3  25091540.741 3
  25091547.155 6  98464622.473 6

  24293854.313 6 127665075.038 6  99479299.222 4  24293855.991 4  24293854.211 4
  24293859.146 7  95334344.058 7

  20617421.916 8 108345328.630 8  84424937.424 9  20617420.492 9  20617421.626 9


  21483154.783 8 112894768.984 8  87969973.423 6  21483154.608 6  21483153.657 6


  22518755.703 7 118336918.441 7  92210616.220 5  22518756.148 5  22518754.916 5


  21150023.946 8 111144187.652 8  86605899.802 9  21150025.530 9  21150023.110 9
  21150024.174 8  82997325.378 8

  21864518.687 7 114898896.567 7  89531637.704 6  21864519.099 6  21864518.473 6
  21864522.712 8  85801178.100 8

 23  9 13 16  9 30.0000000  0 10G07G15G13G08G18G05G20G22G30G14
  23116433.462 7 121477727.855 7  94657993.179 7  23116433.528 7  23116433.002 7


  22784525.958 7 119733515.592 7  93298857.960 5  22784526.203 5  22784525.726 5


  20443971.190 8 107433852.431 8  83714699.659 7  20443970.405 7  20443970.784 7


  25086915.209 5 131832645.187 5 102726748.986 3  25086920.719 3  25086913.148 3
  25086919.402 6  98446463.368 6

  24289032.037 6 127639733.480 6  99459552.536 4  24289033.822 4  24289031.921 4
  24289036.648 7  95315420.160 7

  20620963.454 8 108363940.514 8  84439440.176 9  20620962.391 9  20620963.164 9


  21498497.106 8 112975392.820 8  88032797.145 6  21498496.820 6  21498495.980 6


  22502891.373 7 118253550.600 7  92145654.339 5  22502891.891 5  22502890.591 5


  21159239.894 8 111192618.581 8  86643638.169 9  21159241.488 9  21159239.058 9
  21159240.276 8  83033491.309 8

  21853062.238 7 114838691.881 7  89484724.996 6  21853062.950 6  21853062.019 6
  21853066.145 8  85756220.086 8

 23  9 13 16 10  0.0000000  0 10G07G15G13G08G18G05G20G22G30G14
  23131797.059 7 121558464.000 7  94720904.405 7  23131797.198 7  23131796.617 7


  22765850.024 7 119635373.934 7  93222383.986 5  22765850.361 5  22765849.783 5


  20435400.545 8 107388813.446 8  83679604.356 7  20435400.621 7  20435400.134 7


  25082388.762 4 131808848.461 4 102708206.154 3  25082392.414 3  25082386.893 3
  25082390.822 6  98428693.163 6

  24284319.620 6 127614968.560 6  99440255.183 4  24284320.755 4  24284319.536 4
  24284323.999 7  95296926.881 7

  20624621.772 8 108383165.522 8  84454420.684 9  20624621.107 9  20624621.486 9


  21513919.727 8 113056439.464 8  88095950.326 6  21513919.466 6  21513918.601 6


  22487092.094 7 118170525.640 7  92080959.630 5  22487092.486 5  22487091.321 5


  21168525.357 8 111241414.381 8  86681660.849 8  21168526.844 8  21168524.517 8
  21168525.840 8  83069929.709 8

  21841696.315 7 114778962.747 7  89438182.847 6  21841697.307 6  21841696.105 6
  21841700.121 8  85711617.202 8

 23  9 13 16 10 30.0000000  0 10G07G15G13G08G18G05G20G22G30G14
  23147190.567 7 121639357.938 7  94783938.589 7  23147190.831 7  23147190.143 7


  22747206.017 7 119537400.368 7  93146040.982 5  22747206.216 5  22747205.785 5


  20426894.518 8 107344113.278 8  83644773.067 7  20426894.693 7  20426894.107 7


  25077958.629 4 131785573.750 4 102690070.099 3  25077963.794 3  25077957.230 3
  25077961.801 6  98411312.767 6

  24279716.482 6 127590780.223 6  99421407.124 4  24279718.103 4  24279716.402 4
  24279721.115 7  95278864.167 7

  20628396.813 8 108403002.878 8  84469878.350 9  20628396.001 9  20628396.523 9


  21529422.154 8 113137906.114 8  88159430.782 6  21529422.054 6  21529421.041 6


  22471358.743 7 118087845.775 7  92016533.818 5  22471358.709 5  22471357.965 5


  21177879.693 8 111290572.792 8  86719966.081 8  21177881.455 8  21177878.857 8
  21177880.419 8  83106638.884 8

  21830420.917 7 114719710.664 7  89392012.421 6  21830422.126 6  21830420.716 6
  21830424.692 8  85667370.551 8

 23  9 13 16 11  0.0000000  0 10G07G15G13G08G18G05G20G22G30G14
  23162613.888 7 121720409.677 7  94847095.729 7  23162614.462 7  23162613.459 7


  22728595.167 7 119439598.465 7  93069831.742 5  22728594.818 5  22728594.944 5


  20418453.526 8 107299754.751 8  83610207.997 7  20418453.328 7  20418453.120 7


  25073631.531 5 131762824.591 5 102672343.549 4  25073634.829 4  25073630.449 4
  25073632.651 6  98394324.863 6

  24275223.726 6 127567171.278 6  99403010.557 4  24275225.415 4  24275223.650 4
  24275228.498 7  95261234.126 7

  20632288.705 8 108423454.654 8  84485814.785 9  20632287.983 9  20632288.410 9


  21545004.745 7 113219792.587 7  88223238.379 6  21545004.476 6  21545003.637 6


  22455691.770 7 118005516.026 7  91952380.833 5  22455691.954 5  22455691.001 5


  21187303.720 8 111340094.438 8  86758554.353 8  21187305.190 8  21187302.884 8
  21187304.028 8  83143619.306 8

  21819237.217 7 114660939.910 7  89346217.052 6  21819237.869 6  21819237.021 6
  21819240.796 8  85623483.341 8

 23  9 13 16 11 30.0000000  0 10G07G15G13G08G18G05G20G22G30G14
  23178066.691 7 121801615.990 7  94910373.317 7  23178067.478 7  23178066.258 7


  22710016.637 7 119341967.737 7  92993755.897 5  22710016.483 5  22710016.414 5


  20410077.161 8 107255736.708 8  83575908.234 7  20410076.501 7  20410076.746 7


  25069400.071 5 131740600.058 5 102655025.798 4  25069405.281 4  25069399.030 4
  25069403.447 6  98377728.708 6

  24270840.813 6 127544140.098 6  99385064.189 4  24270842.776 4  24270840.724 4
  24270845.889 7  95244035.533 7

  20636297.128 8 108444518.447 8  84502228.113 9  20636296.337 9  20636296.833 9


  21560666.363 8 113302094.215 8  88287369.469 6  21560666.039 6  21560665.250 6


  22440091.325 7 117923536.404 7  91888500.690 5  22440091.784 5  22440090.561 5


  21196795.683 8 111389975.526 8  86797422.708 8  21196797.241 8  21196794.852 8
  21196796.049 8  83180868.146 8

  21808145.027 7 114602650.370 7  89300796.654 6  21808145.399 6  21808144.817 6
  21808148.636 8  85579955.466 8

 23  9 13 16 12  0.0000000  0 10G07G15G13G08G18G05G20G22G30G14
  23193549.555 7 121882976.584 7  94973771.119 7  23193549.986 7  23193549.135 7


  22691471.354 7 119244511.020 7  92917815.647 5  22691471.345 5  22691471.131 5


  20401765.814 8 107212061.315 8  83541875.467 7  20401764.929 7  20401765.403 7


  25065271.041 5 131718902.850 5 102638118.963 4  25065276.121 4  25065269.950 4
  25065274.718 6  98361526.319 6

  24266568.584 6 127521688.465 6  99367569.416 4  24266570.345 4  24266568.486 4
  24266573.427 7  95227269.709 7

  20640421.598 8 108466194.046 8  84519118.175 9  20640420.957 9  20640421.303 9


  21576406.699 7 113384809.916 7  88351823.209 6  21576406.675 6  21576405.591 6


  22424558.526 7 117841910.755 7  91824896.372 5  22424558.891 5  22424557.753 5


  21206356.069 8 111440215.616 8  86836570.802 8  21206357.534 8  21206355.229 8
  21206356.431 8  83218385.072 8

  21797144.993 7 114544845.208 7  89255753.704 6  21797145.520 6  21797144.783 6
  21797148.909 8  85536789.313 8

 23  9 13 16 12 30.0000000  0 10G07G15G13G08G18G05G20G22G30G14
  23209060.673 7 121964487.587 7  95037286.127 7  23209061.004 7  23209060.262 7


  22672958.740 7 119147228.189 7  92842010.891 5  22672959.315 5  22672958.512 5


  20393519.427 8 107168726.837 8  83508108.351 7  20393518.289 7  20393519.016 7


  25061242.629 5 131697730.941 5 102621621.403 5  25061247.499 5  25061241.570 5
  25061245.654 6  98345716.185 6

  24262406.199 6 127499814.756 6  99350525.004 4  24262407.728 4  24262406.083 4
  24262411.048 7  95210935.455 7

  20644662.434 8 108488479.776 8  84536483.664 9  20644661.826 9  20644662.139 9


  21592224.889 7 113467935.147 7  88416596.058 6  21592225.151 6  21592223.785 6


  22409093.108 7 117760639.614 7  91761568.282 5  22409093.295 5  22409092.308 5


  21215984.035 8 111490810.911 8  86875995.681 8  21215985.360 8  21215983.195 8
  21215984.493 8  83256167.243 8

  21786236.983 7 114487524.319 7  89211088.115 6  21786237.848 6  21786236.769 6
  21786241.229 8  85493984.791 8

 23  9 13 16 13  0.0000000  0 10G07G15G13G08G18G05G20G22G30G14
  23224601.195 7 122046154.199 7  95100922.388 7  23224601.583 7  23224600.775 7


  22654481.114 7 119050127.119 7  92766347.760 5  22654481.218 5  22654480.882 5


  20385339.554 8 107125741.021 8  83474612.915 7  20385338.091 7  20385339.152 7


  25057315.425 5 131677093.187 5 102605540.119 4  25057320.445 4  25057314.366 4
  25057318.252 6  98330304.963 6

  24258355.216 6 127478526.132 6  99333936.495 4  24258356.510 4  24258355.082 4
  24258359.932 7  95195038.127 7

  20649020.405 8 108511380.689 8  84554328.515 9  20649019.644 9  20649020.110 9


  21608121.887 7 113551473.904 7  88481691.143 6  21608121.429 6  21608120.779 6


  22393696.939 7 117679732.399 7  91698523.761 5  22393696.878 5  22393696.130 5


  21225680.464 8 111541766.410 8  86915701.242 8  21225681.848 8  21225679.624 8
  21225681.085 8  83294218.399 8

  21775423.082 7 114430696.362 7  89166806.623 6  21775423.610 6  21775422.872 6
  21775427.045 8  85451548.373 8

 23  9 13 16 13 30.0000000  0 10G07G15G13G08G18G05G20G22G30G14
  23240169.770 7 122127967.215 7  95164672.729 7  23240170.069 7  23240169.341 7


  22636036.343 7 118953201.510 7  92690821.356 5  22636035.928 5  22636036.107 5


  20377224.485 8 107083096.412 8  83441383.351 7  20377222.841 7  20377224.092 7


  25053488.206 5 131656982.423 5 102589869.435 4  25053493.160 4  25053487.080 4
  25053491.338 6  98315287.268 6

  24254414.120 6 127457815.103 6  99317798.051 4  24254415.593 4  24254413.968 4
  24254418.750 7  95179572.123 7

  20653494.081 8 108534889.326 8  84572646.916 9  20653493.074 9  20653493.795 9


  21624095.595 7 113635415.881 7  88547100.441 6  21624094.498 6  21624094.482 6


  22378369.016 7 117599183.698 7  91635758.597 5  22378368.921 5  22378368.212 5


  21235443.561 8 111593072.651 8  86955680.107 8  21235445.190 8  21235442.721 8
  21235444.419 8  83332531.472 8

  21764701.823 7 114374355.431 7  89122904.630 6  21764702.074 6  21764701.618 6
  21764705.437 8  85409475.639 8

 23  9 13 16 14  0.0000000  0 10G07G15G13G08G18G05G20G22G30G14
  23255766.672 7 122209929.519 7  95228539.396 7  23255767.001 7  23255766.234 7


  22617626.453 7 118856457.349 7  92615436.340 5  22617626.495 5  22617626.217 5


  20369175.419 8 107040798.419 8  83408423.874 7  20369173.562 7  20369175.030 7


  25049762.471 5 131637404.647 5 102574614.081 4  25049767.440 4  25049761.264 4
  25049765.691 6  98300667.554 6

  24250583.708 6 127437686.672 6  99302113.570 4  24250585.819 4  24250583.565 4
  24250588.491 7  95164541.167 7

  20658083.708 8 108559008.596 8  84591441.132 9  20658083.053 9  20658083.418 9


  21640146.344 7 113719763.314 7  88612825.667 6  21640145.818 6  21640145.222 6


  22363110.118 7 117519000.307 7  91573278.100 5  22363110.693 5  22363109.309 5


  21245274.341 8 111644732.434 8  86995934.463 8  21245275.833 8  21245273.496 8
  21245274.977 8  83371108.558 8

  21754074.432 7 114318507.955 7  89079387.154 6  21754074.690 6  21754074.227 6
  21754077.956 8  85367771.398 8

 23  9 13 16 14 30.0000000  0 10G07G15G13G08G18G05G20G22G30G14
  23271392.459 7 122292039.705 7  95292521.299 7  23271392.073 7  23271392.044 7


  22599251.771 7 118759897.297 7  92540194.792 5  22599252.379 5  22599251.539 5


  20361192.694 8 106998848.656 8  83375735.749 7  20361191.101 7  20361192.305 7


  25046139.823 5 131618361.525 5 102559775.317 4  25046143.333 4  25046138.706 4
  25046141.763 7  98286447.066 7

  24246864.338 6 127418141.582 6  99286883.633 4  24246866.359 4  24246864.195 4
  24246869.137 7  95149945.828 7

  20662789.672 8 108583739.045 8  84610711.593 9  20662788.923 9  20662789.382 9


  21656274.008 7 113804514.011 7  88678865.120 6  21656273.406 6  21656272.886 6


  22347921.879 7 117439185.399 7  91511084.733 5  22347922.405 5  22347921.061 5


  21255172.051 8 111696744.448 8  87036463.284 8  21255173.613 8  21255171.206 8
  21255172.649 8  83409948.673 8

  21743541.163 7 114263156.223 7  89036255.974 6  21743541.988 6  21743540.958 6
  21743544.992 8  85326437.357 8

 23  9 13 16 15  0.0000000  0 10G07G15G13G08G18G05G20G22G30G14
  23287044.144 7 122374291.563 7  95356613.593 7  23287044.125 7  23287043.751 7


  22580911.176 7 118663517.303 7  92465093.545 5  22580911.996 5  22580910.944 5


  20353275.477 8 106957242.491 8  83343315.368 7  20353274.167 7  20353275.088 7


  25042616.938 5 131599848.396 5 102545349.540 5  25042620.140 5  25042616.075 5
  25042618.923 7  98272622.369 7

  24243254.923 6 127399175.292 6  99272104.707 4  24243256.931 4  24243254.767 4
  24243259.838 7  95135782.694 7

  20667610.937 8 108609074.612 8  84630453.575 9  20667609.440 9  20667610.651 9


  21672476.654 7 113889660.527 7  88745213.015 6  21672475.763 6  21672475.528 6


  22332803.552 7 117359736.319 7  91449176.428 5  22332803.838 5  22332802.739 5


  21265135.247 8 111749102.111 8  87077261.441 8  21265136.999 8  21265134.407 8
  21265136.004 8  83449046.896 8

  21733101.755 7 114208297.224 7  88993508.742 6  21733102.760 6  21733101.550 6
  21733105.697 8  85285471.264 8

 23  9 13 16 15 30.0000000  0 10G07G15G13G08G18G05G20G22G30G14
  23302724.412 7 122456691.218 7  95420821.052 7  23302724.349 7  23302724.037 7


  22562606.390 7 118567327.021 7  92390140.111 5  22562607.019 5  22562606.158 5


  20345425.232 8 106915988.627 8  83311169.503 7  20345423.837 7  20345424.839 7


  25039195.876 5 131581874.261 5 102531343.780 4  25039199.959 4  25039195.161 4
  25039198.604 7  98259200.209 7

  24239757.526 6 127380795.848 6  99257783.070 4  24239759.682 4  24239757.370 4
  24239762.729 7  95122057.801 7

  20672548.808 8 108635022.830 8  84650672.947 9  20672547.448 9  20672548.522 9


  21688755.964 7 113975207.912 7  88811873.268 6  21688755.081 6  21688754.838 6


  22317756.335 7 117280663.448 7  91387561.256 5  22317756.352 5  22317755.522 5


  21275165.607 8 111801811.418 8  87118333.606 8  21275167.160 8  21275164.767 8
  21275166.276 8  83488407.712 8

  21722758.062 7 114153940.520 7  88951152.906 6  21722758.893 6  21722757.857 6
  21722761.786 8  85244880.260 8

 23  9 13 16 16  0.0000000  0 10G07G15G13G08G18G05G20G22G30G14
  23318430.898 7 122539231.340 7  95485137.964 7  23318431.170 7  23318430.523 7


  22544337.671 7 118471322.281 7  92315331.272 5  22544338.043 5  22544337.421 5


  20337641.099 8 106875082.018 8  83279294.228 7  20337640.027 7  20337640.706 7


  25035876.060 5 131564434.895 5 102517754.688 4  25035881.449 4  25035875.229 4
  25035879.798 6  98246177.345 6

  24236370.806 6 127362997.904 6  99243914.557 4  24236372.569 4  24236370.628 4
  24236375.890 7  95108767.145 7

  20677601.857 8 108661577.033 8  84671364.510 9  20677600.962 9  20677601.571 9


  21705110.014 8 114061148.141 8  88878839.637 6  21705109.123 6  21705108.892 6


  22302780.351 7 117201963.685 7  91326236.816 5  22302779.973 5  22302779.538 5


  21285261.345 8 111854865.076 8  87159674.095 8  21285262.933 8  21285260.505 8
  21285262.066 8  83528025.672 8

  21712509.291 7 114100082.310 7  88909185.508 6  21712509.940 6  21712509.090 6
  21712512.815 8  85204661.509 8

 23  9 13 16 16 30.0000000  0 10G07G15G13G08G18G05G20G22G30G14
  23334165.262 7 122621912.878 7  95549565.075 7  23334164.997 7  23334164.878 7


  22526104.812 7 118375506.887 7  92240669.978 5  22526105.566 5  22526104.558 5


  20329923.489 8 106834525.535 8  83247691.782 7  20329922.752 7  20329923.083 7


  25032660.217 5 131547533.500 5 102504584.825 4  25032665.207 4  25032659.301 4
  25032663.637 7  98233556.261 7

  24233095.139 6 127345783.871 6  99230501.041 4  24233096.800 4  24233094.952 4
  24233100.270 7  95095912.536 7

  20682770.460 8 108688738.433 8  84692529.215 9  20682769.533 9  20682770.170 9


  21721538.486 7 114147480.719 7  88946111.737 6  21721537.624 6  21721537.373 6


  22287875.864 7 117123641.555 7  91265206.616 5  22287875.384 5  22287875.060 5


  21295422.953 8 111908263.513 8  87201283.240 8  21295424.235 8  21295422.122 8
  21295423.451 8  83567901.102 8

  21702355.971 7 114046726.663 7  88867609.713 6  21702356.611 6  21702355.770 6
  21702359.548 8  85164818.051 8

 23  9 13 16 17  0.0000000  0 10G07G15G13G08G18G05G20G22G30G14
  23349925.923 7 122704736.096 7  95614102.584 7  23349925.794 7  23349925.534 7


  22507908.357 7 118279884.759 7  92166159.265 5  22507909.007 5  22507908.121 5


  20322272.613 8 106794322.129 8  83216364.462 7  20322271.904 7  20322272.207 7


  25029546.821 5 131531172.480 5 102491836.034 4  25029551.625 4  25029545.909 4
  25029550.036 7  98221338.661 7

  24229931.169 6 127329155.974 6  99217544.253 4  24229932.247 4  24229930.968 4
  24229936.214 7  95083495.608 7

  20688054.873 8 108716508.334 8  84714168.080 9  20688054.385 9  20688054.592 9


  21738041.608 7 114234205.132 7  89013689.162 6  21738041.013 6  21738040.495 6


  22273044.461 7 117045701.385 7  91204474.063 5  22273044.031 5  22273043.666 5


  21305649.896 8 111962006.959 8  87243161.225 8  21305651.168 8  21305649.069 8
  21305650.445 8  83608034.163 8

  21692299.200 7 113993877.235 7  88826428.377 6  21692299.793 6  21692298.999 6
  21692302.675 8  85125352.611 8

 23  9 13 16 17 30.0000000  0 10G07G15G13G08G18G05G20G22G30G14
  23365712.557 7 122787695.789 7  95678746.438 7  23365712.650 7  23365712.168 7


  22489748.354 7 118184453.314 7  92091797.149 5  22489748.828 5  22489748.126 5


  20314688.942 8 106754468.831 8  83185309.950 7  20314687.745 7  20314688.540 7


  25026536.644 5 131515349.163 5 102479506.220 4  25026540.340 4  25026535.808 4
  25026539.143 7  98209522.599 7

  24226877.462 6 127313110.809 6  99205041.534 4  24226878.606 4  24226877.270 4
  24226882.927 7  95071513.842 7

  20693454.337 8 108744882.191 8  84736277.556 9  20693453.910 9  20693454.056 9


  21754617.963 7 114321315.192 7  89081567.077 6  21754618.026 6  21754616.850 6


  22258285.432 7 116968142.345 7  91144038.504 5  22258285.396 5  22258284.641 5


  21315941.639 8 112016090.098 8  87285303.903 8  21315942.912 8  21315940.817 8
  21315942.113 8  83648420.890 8

  21682338.201 7 113941532.216 7  88785640.085 6  21682338.864 6  21682337.987 6
  21682341.760 8  85086263.838 8

 23  9 13 16 18  0.0000000  0 10G07G15G13G08G18G05G20G22G30G14
  23381526.045 7 122870793.338 7  95743497.712 7  23381525.596 7  23381525.674 7


  22471625.910 7 118089217.355 7  92017587.355 5  22471625.707 5  22471625.669 5


  20307172.345 8 106714969.004 8  83154530.869 7  20307171.315 7  20307171.943 7


  25023628.257 5 131500067.804 5 102467598.709 5  25023632.297 5  25023627.417 5
  25023630.966 7  98198111.244 7

  24223935.973 6 127297651.344 6  99192995.212 4  24223936.557 4  24223935.804 4
  24223941.052 7  95059969.446 7

  20698969.095 8 108773862.149 8  84758859.327 9  20698968.353 9  20698968.809 9


  21771267.924 7 114408811.273 7  89149745.781 6  21771268.103 6  21771266.816 6


  22243599.857 7 116890969.375 7  91083903.779 5  22243599.953 5  22243599.070 5


  21326298.091 8 112070514.029 8  87327712.133 8  21326299.554 8  21326297.264 8
  21326298.638 8  83689062.100 8

  21672474.172 7 113889696.201 7  88745248.412 6  21672474.443 6  21672473.953 6
  21672477.663 8  85047555.164 8

 23  9 13 16 18 30.0000000  0 10G07G15G13G08G18G05G20G22G30G14
  23397363.892 7 122954024.326 7  95808352.959 7  23397364.082 7  23397363.530 7


  22453539.810 7 117994175.785 7  91943529.020 6  22453540.218 6  22453539.560 6


  20299722.526 8 106675820.632 8  83124025.651 7  20299721.685 7  20299722.120 7


  25020823.041 5 131485326.299 5 102456111.888 5  25020827.122 5  25020822.277 5
  25020825.930 7  98187103.034 7

  24221105.314 6 127282774.962 6  99181403.233 4  24221105.840 4  24221105.176 4
  24221110.146 7  95048860.478 7

  20704598.555 8 108803444.353 8  84781910.374 9  20704598.051 9  20704598.269 9


  21787990.348 7 114496687.672 7  89218220.846 6  21787989.970 6  21787989.235 6


  22228987.764 7 116814182.150 7  91024069.641 5  22228987.334 5  22228987.000 5


  21336718.742 8 112125274.205 8  87370382.373 8  21336720.260 8  21336717.906 8
  21336719.191 8  83729954.406 8

  21662706.569 7 113838368.100 7  88705252.519 6  21662706.961 6  21662706.350 6
  21662710.198 8  85009225.775 8

 23  9 13 16 19  0.0000000  0 11G07G15G13G08G18G05G20G22G30G24G14
  23413228.033 7 123037391.281 7  95873314.160 7  23413228.365 7  23413227.667 7


  22435492.031 7 117899333.877 7  91869626.281 6  22435492.939 6  22435491.781 6


  20292340.742 8 106637028.427 8  83093797.964 7  20292339.849 7  20292340.345 7


  25018121.214 6 131471129.126 6 102445049.216 5  25018125.367 5  25018120.530 5
  25018124.111 7  98176501.323 7

  24218386.091 6 127268485.826 6  99170268.858 4  24218386.762 4  24218385.989 4
  24218390.996 7  95038190.027 7

  20710342.878 8 108833632.209 8  84805433.355 9  20710342.656 9  20710342.597 9


  21804785.500 7 114584945.744 7  89286993.322 6  21804784.966 6  21804784.392 6


  22214450.131 7 116737787.183 7  90964541.150 5  22214449.628 5  22214449.358 5


  21347203.650 8 112180372.887 8  87413316.381 8  21347205.285 8  21347202.805 8
  21347204.182 8  83771099.499 8

  25574344.768 5 134394096.896 5 104722700.172 3  25574353.004 3  25574344.830 3
  25574352.728 7 100359257.289 7

  21653036.828 7 113787553.587 7  88665656.822 6  21653037.299 6  21653036.618 6
  21653040.555 8  84971279.909 8

 23  9 13 16 19 30.0000000  0 10G07G15G13G08G18G05G20G22G30G14
  23429117.457 7 123120890.396 7  95938378.338 7  23429117.784 7  23429117.060 7


  22417481.952 7 117804691.193 7  91795878.776 5  22417482.543 5  22417481.698 5


  20285026.461 8 106598590.927 8  83063846.668 7  20285025.155 7  20285026.064 7


  25015522.502 6 131457475.439 6 102434410.017 5  25015526.920 5  25015521.742 5
  25015525.789 7  98166305.438 7

  24215777.790 6 127254781.674 6  99159590.312 4  24215778.879 4  24215777.728 4
  24215783.156 7  95027956.434 7

  20716202.165 8 108864422.442 8  84829425.728 9  20716201.466 9  20716201.884 9


  21821652.119 7 114673580.388 7  89356059.221 6  21821651.924 6  21821651.006 6


  22199987.297 7 116661784.342 7  90905318.202 5  22199986.487 5  22199986.524 5


  21357752.203 8 112235806.077 8  87456511.053 8  21357753.844 8  21357751.363 8
  21357752.800 8  83812494.377 8

  21643464.709 7 113737252.113 7  88626460.901 6  21643464.869 6  21643464.499 6
  21643468.532 8  84933717.154 8

 23  9 13 16 20  0.0000000  0 10G07G15G13G08G18G05G20G22G30G14
  23445031.930 7 123204520.096 7  96003544.266 7  23445032.132 7  23445031.519 7


  22399510.510 7 117710249.344 7  91722287.773 6  22399510.754 6  22399510.256 6


  20277779.735 8 106560508.668 8  83034172.186 7  20277777.951 7  20277779.338 7


  25013027.880 6 131444365.382 6 102424194.433 5  25013032.321 5  25013026.995 5
  25013031.128 7  98156515.513 7

  24213281.481 6 127241662.586 6  99149367.646 4  24213283.019 4  24213281.446 4
  24213286.551 7  95018159.718 7

  20722175.577 8 108895813.729 8  84853886.450 9  20722175.174 9  20722175.296 9


  21838589.841 7 114762589.342 7  89425416.785 6  21838589.891 6  21838588.724 6


  22185599.520 7 116586176.079 7  90846402.727 5  22185599.050 5  22185598.742 5


  21368364.058 8 112291571.987 8  87499964.984 8  21368365.836 8  21368363.213 8
  21368364.800 8  83854137.720 8

  21633990.626 7 113687465.336 7  88587666.040 6  21633990.318 6  21633990.421 6
  21633994.341 8  84896538.745 8

 23  9 13 16 20 30.0000000  0 10G07G15G13G08G18G05G20G22G30G14
  23460971.211 7 123288281.534 7  96068812.852 7  23460971.492 7  23460970.787 7


  22381577.642 7 117616012.542 7  91648856.526 6  22381577.991 6  22381577.397 6


  20270601.112 8 106522785.014 8  83004777.135 7  20270599.097 7  20270600.715 7


  25010637.276 5 131431802.919 5 102414405.557 5  25010641.966 5  25010636.396 5
  25010640.454 7  98147134.511 7

  24210896.931 6 127229131.219 6  99139602.945 4  24210898.156 4  24210896.891 4
  24210901.898 7  95008801.879 7

  20728264.070 8 108927808.012 8  84878817.038 9  20728263.424 9  20728263.789 9


  21855599.017 7 114851972.492 7  89495065.934 6  21855598.775 6  21855597.891 6


  22171287.750 7 116510967.513 7  90787798.713 5  22171287.574 5  22171286.977 5


  21379039.527 8 112347671.492 8  87543678.863 8  21379041.306 8  21379038.687 8
  21379040.246 8  83896030.183 8

  21624615.401 7 113638197.516 7  88549275.567 6  21624614.704 6  21624615.191 6
  21624618.827 8  84859747.875 8

 23  9 13 16 21  0.0000000  0 10G07G15G13G08G18G05G20G22G30G14
  23476934.850 7 123372169.973 7  96134180.402 7  23476935.025 7  23476934.426 7


  22363683.821 7 117521979.346 7  91575583.942 6  22363684.534 6  22363683.580 6


  20263490.004 8 106485417.704 8  82975659.756 7  20263488.503 7  20263489.598 7


  25008351.692 5 131419785.361 5 102405041.284 5  25008354.794 5  25008350.932 5
  25008353.722 7  98138160.434 7

  24208623.498 6 127217184.573 6  99130293.893 4  24208624.551 4  24208623.440 4
  24208628.510 7  94999880.692 7

  20734466.211 8 108960400.852 8  84904214.041 9  20734465.691 9  20734465.934 9


  21872678.105 7 114941724.003 7  89565002.121 6  21872677.846 6  21872676.974 6


  22157051.925 7 116436157.590 7  90729505.332 5  22157051.887 5  22157051.156 5


  21389777.420 8 112404099.829 8  87587648.974 8  21389779.225 8  21389776.571 8
  21389778.209 8  83938168.203 8

  21615338.416 7 113589447.285 7  88511288.408 6  21615338.198 6  21615338.215 6
  21615341.783 8  84823343.518 8

 23  9 13 16 21 30.0000000  0 10G07G15G13G08G18G05G20G22G30G14
  23492922.641 7 123456185.103 7  96199646.668 7  23492922.616 7  23492922.226 7


  22345829.411 7 117428152.677 7  91502472.296 6  22345829.997 6  22345829.175 6


  20256447.682 8 106448408.711 8  82946821.582 7  20256445.703 7  20256447.267 7


  25006168.077 6 131408314.605 6 102396103.091 5  25006171.364 5  25006167.367 5
  25006170.765 7  98129594.680 7

  24206461.233 6 127205823.668 6  99121441.252 4  24206462.423 4  24206461.162 4
  24206466.251 7  94991396.917 7

  20740782.593 8 108993593.253 8  84930078.229 9  20740782.213 9  20740782.312 9


  21889827.106 7 115031842.203 7  89635224.033 6  21889826.996 6  21889825.980 6


  22142892.571 7 116361749.814 7  90671525.306 5  22142892.245 5  22142891.807 5


  21400577.725 8 112460856.326 8  87631874.794 8  21400579.713 8  21400576.867 8
  21400578.661 8  83980551.272 8

  21606160.538 7 113541217.292 7  88473706.622 6  21606160.921 6  21606160.346 6
  21606163.817 8  84787327.647 8

 23  9 13 16 22  0.0000000  0 10G07G15G13G08G18G05G20G22G30G14
  23508934.324 7 123540327.864 7  96265212.391 7  23508934.508 7  23508933.949 7


  22328014.605 7 117334536.529 7  91429524.682 6  22328015.363 6  22328014.382 6


  20249473.866 8 106411760.683 8  82918264.682 7  20249472.321 7  20249473.446 7


  25004089.411 6 131397393.950 6 102387593.563 5  25004093.163 5  25004088.674 5
  25004092.468 7  98121439.733 7

  24204410.962 6 127195050.989 6  99113046.964 4  24204412.327 4  24204410.851 4
  24204415.804 7  94983352.400 7

  20747213.156 8 109027385.848 8  84956410.102 8  20747212.374 8  20747212.879 8


  21907046.140 7 115122326.902 7  89705731.528 5  21907045.589 5  21907045.009 5


  22128810.716 7 116287749.200 7  90613862.540 5  22128810.062 5  22128809.943 5


  21411440.883 8 112517941.649 8  87676356.840 8  21411442.642 8  21411440.029 8
  21411441.568 8  84023179.902 8

  21597082.283 7 113493511.579 7  88436533.360 6  21597083.030 6  21597082.091 6
  21597085.652 8  84751703.275 8

 23  9 13 16 22 30.0000000  0 10G07G15G13G08G18G05G20G22G30G14
  23524969.624 7 123624594.785 7  96330874.862 7  23524970.028 7  23524969.244 7


  22310239.796 7 117241130.038 7  91356740.437 6  22310240.854 6  22310239.582 6


  20242568.243 8 106375472.293 8  82889988.020 7  20242567.421 7  20242567.832 7


  25002115.274 6 131387021.828 6 102379511.448 5  25002119.586 5  25002114.519 5
  25002118.538 7  98113694.389 7

  24202472.787 6 127184864.263 6  99105109.262 4  24202474.492 4  24202472.609 4
  24202477.304 7  94975745.417 7

  20753757.213 8 109061775.417 8  84983207.154 8  20753756.094 8  20753756.936 8


  21924333.279 7 115213173.313 7  89776520.886 5  21924332.813 5  21924332.153 5


  22114806.116 7 116214155.739 7  90556517.023 5  22114805.545 5  22114805.347 5


  21422365.713 8 112575351.888 8  87721092.070 8  21422367.251 8  21422364.855 8
  21422366.356 8  84066051.153 8

  21588104.041 7 113446329.518 7  88399768.139 6  21588104.884 6  21588103.845 6
  21588107.115 8  84716469.944 8

 23  9 13 16 23  0.0000000  0 10G07G15G13G08G18G05G20G22G30G14
  23541028.737 7 123708985.334 7  96396633.663 7  23541029.131 7  23541028.335 7


  22292505.907 7 117147936.709 7  91284122.295 6  22292506.987 6  22292505.711 6


  20235731.570 8 106339545.980 8  82861993.490 7  20235731.436 7  20235731.159 7


  25000246.013 6 131377199.990 6 102371858.115 5  25000250.424 5  25000245.204 5
  25000249.371 7  98106359.966 7

  24200645.862 6 127175264.862 6  99097629.214 4  24200647.243 4  24200645.652 4
  24200650.466 7  94968577.047 7

  20760415.254 8 109096762.399 8  85010469.717 8  20760414.368 8  20760414.973 8


  21941689.565 7 115304380.421 7  89847591.310 5  21941689.105 5  21941688.448 5


  22100879.926 7 116140972.944 7  90499491.512 5  22100879.355 5  22100879.153 5


  21433352.340 8 112633086.761 8  87766080.262 8  21433353.885 8  21433351.482 8
  21433352.996 8  84109164.836 8

  21579225.705 7 113399674.219 7  88363413.387 6  21579226.745 6  21579225.518 6
  21579228.900 8  84681629.979 8

 23  9 13 16 23 30.0000000  0 10G07G15G13G08G18G05G20G22G30G14
  23557111.037 7 123793497.674 7  96462487.365 7  23557111.432 7  23557110.604 7


  22274812.497 7 117054957.536 7  91211671.026 6  22274813.166 6  22274812.305 6


  20228963.985 8 106303981.314 8  82834280.770 7  20228963.535 7  20228963.579 7


  24998483.407 5 131367928.818 5 102364633.876 5  24998486.152 5  24998482.638 5
  24998485.145 7  98099436.733 7

  24198930.852 6 127166251.898 6  99090606.135 4  24198932.105 4  24198930.616 4
  24198935.121 7  94961846.610 7

  20767186.174 8 109132344.689 8  85038196.155 8  20767185.495 8  20767185.897 8


  21959113.658 7 115395944.439 7  89918939.835 5  21959113.610 5  21959112.536 5


  22087031.864 7 116068202.630 7  90442787.427 5  22087031.879 5  22087031.086 5


  21444400.336 8 112691143.713 8  87811319.419 8  21444401.820 8  21444399.482 8
  21444400.903 8  84152519.025 8

  21570447.964 7 113353546.405 7  88327469.656 6  21570448.541 6  21570447.781 6
  21570451.108 8  84647183.914 8

 23  9 13 16 24  0.0000000  0 10G07G15G13G08G18G05G20G22G30G14
  23573215.654 7 123878127.782 7  96528432.839 7  23573216.077 7  23573215.216 7


  22257159.324 7 116962191.375 7  91139385.735 6  22257159.920 6  22257159.137 6


  20222264.591 8 106268776.820 8  82806848.701 7  20222264.045 7  20222264.185 7


  24996823.250 5 131359206.578 5 102357837.370 5  24996826.239 5  24996822.647 5
  24996825.149 7  98092923.415 7

  24197326.871 6 127157822.914 6  99084038.097 4  24197327.845 4  24197326.612 4
  24197331.146 7  94955552.246 7

  20774069.984 8 109168519.168 8  85066384.046 8  20774068.993 8  20774069.703 8


  21976604.726 7 115487860.044 7  89990562.324 5  21976604.353 5  21976603.622 5


  22073262.776 7 115995844.801 7  90386404.765 5  22073262.767 5  22073261.998 5


  21455508.836 8 112749518.701 8  87856806.401 8  21455510.179 8  21455508.005 8
  21455509.314 8  84196110.712 8

  21561770.120 7 113307945.277 7  88291936.333 6  21561770.518 6  21561769.928 6
  21561773.431 8  84613131.155 8

 23  9 13 16 24 30.0000000  0 10G07G15G13G08G18G05G20G22G30G14
  23589343.745 7 123962881.184 7  96594474.385 7  23589344.135 7  23589343.294 7


  22239548.702 7 116869646.823 7  91067273.120 6  22239549.147 6  22239548.524 6


  20215635.416 8 106233940.157 8  82779703.251 7  20215634.352 7  20215635.014 7


  24995268.501 6 131351040.274 6 102351474.064 5  24995272.455 5  24995267.858 5
  24995271.256 7  98086825.268 7

  24195835.551 6 127149984.550 6  99077930.286 4  24195836.279 4  24195835.306 4
  24195839.421 7  94949698.940 7

  20781067.451 8 109205291.398 8  85095037.712 8  20781066.835 8  20781067.165 8


  21994163.169 7 115580131.846 7  90062462.383 5  21994162.855 5  21994162.056 5


  22059573.487 7 115923908.036 7  90330350.192 5  22059573.344 5  22059572.709 5


  21466678.579 8 112808216.747 8  87902545.114 8  21466680.108 8  21466677.748 8
  21466679.219 8  84239943.642 8

  21553194.350 7 113262879.115 7  88256819.870 6  21553194.507 6  21553194.158 6
  21553197.593 8  84579477.881 8

 23  9 13 16 25  0.0000000  0 10G07G15G13G08G18G05G20G22G30G14
  23605493.942 6 124047750.896 6  96660606.559 7  23605494.372 7  23605493.491 7


  22221979.673 7 116777320.337 7  90995330.436 6  22221980.021 6  22221979.490 6


  20209075.476 8 106199466.429 8  82752840.610 7  20209074.139 7  20209075.074 7


  24993818.815 6 131343425.172 6 102345540.242 5  24993823.555 5  24993818.024 5
  24993822.261 7  98081138.683 7

  24194455.793 6 127142731.205 6  99072278.342 4  24194455.992 4  24194455.570 4
  24194459.328 7  94944282.497 7

  20788177.558 8 109242654.672 8  85124151.935 8  20788177.075 8  20788177.277 8


  22011788.345 7 115672751.554 7  90134633.535 5  22011787.960 5  22011787.232 5


  22045963.927 7 115852389.254 7  90274621.314 5  22045963.282 5  22045963.149 5


  21477908.542 7 112867230.630 7  87948529.937 8  21477910.112 8  21477907.706 8
  21477909.205 8  84284012.422 8

  21544719.395 7 113218343.989 7  88222117.206 6  21544719.861 6  21544719.199 6
  21544722.892 8  84546221.167 8

 23  9 13 16 25 30.0000000  0 10G07G15G13G08G18G05G20G22G30G14
  23621665.972 6 124132736.423 6  96726828.983 7  23621666.631 7  23621665.534 7


  22204452.456 7 116685214.949 7  90923560.039 6  22204452.945 6  22204452.260 6


  20202584.711 8 106165357.562 8  82726262.282 7  20202583.511 7  20202584.309 7


  24992476.259 5 131336363.004 5 102340037.304 5  24992479.166 5  24992475.526 5
  24992478.190 7  98075865.048 7

  24193187.085 6 127136064.008 6  99067083.132 4  24193187.110 4  24193186.902 4
  24193190.818 7  94939303.749 7

  20795399.820 8 109280608.991 8  85153726.710 8  20795399.144 8  20795399.534 8


  22029479.293 7 115765717.551 7  90207074.507 5  22029479.777 5  22029478.176 5


  22032434.807 7 115781292.217 7  90219221.062 5  22032433.696 5  22032434.047 5


  21489198.493 8 112926560.015 8  87994760.606 8  21489200.156 8  21489197.662 8
  21489199.196 8  84328316.808 8

  21536346.415 7 113174342.644 7  88187830.468 6  21536346.873 6  21536346.223 6
  21536349.837 8  84513363.044 8

 23  9 13 16 26  0.0000000  0 10G07G15G13G08G18G05G20G22G30G14
  23637860.022 6 124217836.579 6  96793140.722 7  23637860.706 7  23637859.584 7


  22186967.912 7 116593332.197 7  90851963.127 6  22186968.339 6  22186967.707 6


  20196163.487 8 106131614.354 8  82699968.880 7  20196162.327 7  20196163.085 7


  24991237.082 6 131329854.690 6 102334965.923 5  24991240.305 5  24991236.425 5
  24991239.705 7  98071004.991 7

  24192029.832 6 127129982.776 6  99062344.523 4  24192028.926 4  24192029.685 4
  24192034.021 7  94934762.593 7

  20802734.711 8 109319153.718 8  85183761.539 8  20802733.887 8  20802734.425 8


  22047235.599 7 115859027.311 7  90279783.339 5  22047236.068 5  22047234.482 5


  22018986.043 7 115710619.173 7  90164151.196 5  22018985.057 5  22018985.292 5


  21500548.295 7 112986203.170 7  88041235.767 8  21500550.069 8  21500547.459 8
  21500548.963 8  84372855.496 8

  21528075.118 7 113130876.648 7  88153960.878 6  21528075.478 6  21528074.926 6
  21528078.381 8  84480904.701 8

 23  9 13 16 26 30.0000000  0 10G07G15G13G08G18G05G20G22G30G14
  23654076.219 6 124303051.828 6  96859542.148 7  23654076.711 7  23654075.781 7


  22169525.947 7 116501675.633 7  90780542.454 6  22169526.769 6  22169525.742 6


  20189812.440 8 106098239.108 8  82673962.205 7  20189811.237 7  20189812.038 7


  24990104.545 6 131323902.473 6 102330327.886 5  24990107.932 5  24990103.933 5
  24990106.933 7  98066560.192 7

  24190984.614 6 127124489.040 6  99058063.717 4  24190983.549 4  24190984.503 4
  24190988.704 7  94930660.127 7

  20810182.236 8 109358289.363 8  85214256.822 8  20810181.012 8  20810181.946 8


  22065057.029 7 115952679.677 7  90352759.139 5  22065057.212 5  22065055.907 5


  22005618.783 7 115640374.104 7  90109414.824 5  22005618.398 5  22005618.041 5


  21511957.695 7 113046160.151 7  88087955.468 8  21511959.603 8  21511956.855 8
  21511958.396 8  84417628.539 8

  21519905.988 7 113087949.213 7  88120510.950 6  21519906.600 6  21519905.801 6
  21519909.235 8  84448848.535 8

 23  9 13 16 27  0.0000000  0 10G07G15G13G08G18G05G20G22G30G14
  23670313.856 6 124388379.339 6  96926031.056 7  23670314.097 7  23670313.405 7


  22152127.154 7 116410245.400 7  90709298.154 6  22152128.045 6  22152126.940 6


  20183531.448 8 106065231.179 8  82648241.751 7  20183529.754 7  20183531.046 7


  24989076.950 6 131318505.315 6 102326122.385 5  24989081.195 5  24989076.342 5
  24989079.810 7  98062529.950 7

  24190050.300 6 127119580.943 6  99054239.238 4  24190049.879 4  24190050.216 4
  24190055.024 7  94926995.003 7

  20817741.072 8 109398012.308 8  85245209.747 8  20817739.975 8  20817740.782 8


  22082942.849 7 116046670.509 7  90425998.686 5  22082942.742 5  22082941.727 5


  21992333.481 7 115570558.123 7  90055012.811 5  21992333.182 5  21992332.744 5


  21523426.083 7 113106427.618 7  88134917.106 8  21523428.080 8  21523425.238 8
  21523426.987 8  84462633.433 8

  21511839.880 7 113045560.151 7  88087480.539 6  21511840.340 6  21511839.688 6
  21511842.783 8  84417194.393 8

 23  9 13 16 27 30.0000000  0 10G07G15G13G08G18G05G20G22G30G14
  23686571.619 6 124473817.751 6  96992606.368 7  23686572.664 7  23686571.119 7


  22134772.293 7 116319043.374 7  90638231.683 6  22134772.417 6  22134772.070 6


  20177320.098 8 106032591.231 8  82622808.030 7  20177318.264 7  20177319.696 7


  24988155.110 6 131313663.862 6 102322349.882 5  24988159.709 5  24988154.377 5
  24988158.481 7  98058914.656 7

  24189227.864 6 127115258.500 6  99050871.113 4  24189227.695 4  24189227.753 4
  24189232.469 7  94923767.211 7

  20825411.933 8 109438322.280 8  85276620.089 9  20825411.402 9  20825411.638 9


  22100892.716 7 116140997.426 7  90499500.111 5  22100892.719 5  22100891.594 5


  21979129.727 7 115501173.169 7  90000946.656 5  21979129.461 5  21979128.981 5


  21534953.450 7 113167004.166 7  88182119.583 8  21534955.429 8  21534952.610 8
  21534954.344 8  84507869.136 8

  21503876.273 7 113003711.211 7  88054871.003 6  21503876.719 6  21503876.090 6
  21503879.391 8  84385943.590 8

 23  9 13 16 28  0.0000000  0 10G07G15G13G08G18G05G20G22G30G14
  23702851.134 6 124559366.427 6  97059267.606 6  23702852.122 6  23702850.571 6


  22117460.814 7 116228072.363 7  90567345.215 6  22117461.513 6  22117460.600 6


  20171179.172 8 106000321.197 8  82597662.556 7  20171177.577 7  20171178.770 7


  24987339.999 5 131309379.311 5 102319011.346 5  24987344.204 5  24987339.360 5
  24987343.083 7  98055715.221 7

  24188516.606 6 127111522.247 6  99047959.763 4  24188517.090 4  24188516.468 4
  24188521.624 7  94920977.152 7

  20833194.113 8 109479218.228 8  85308487.038 9  20833193.760 9  20833193.823 9


  22118906.125 7 116235658.513 7  90573261.926 5  22118906.206 5  22118905.003 5


  21966008.697 7 115432222.284 7  89947218.729 5  21966008.352 5  21966007.937 5


  21546539.448 7 113227888.885 7  88229562.188 8  21546541.414 8  21546538.603 8
  21546540.414 8  84553334.959 8

  21496015.785 7 112962404.591 7  88022684.056 6  21496016.111 6  21496015.607 6
  21496019.264 8  84355097.772 8

 23  9 13 16 28 30.0000000  0 10G07G15G13G08G18G05G20G22G30G14
  23719151.326 6 124645024.097 6  97126013.771 6  23719152.295 6  23719150.754 6


  22100193.802 7 116137334.036 7  90496640.064 6  22100194.576 6  22100193.588 6


  20165108.944 8 105968421.748 8  82572805.847 7  20165107.860 7  20165108.547 7


  24986631.662 6 131305651.745 6 102316106.803 5  24986634.893 5  24986631.090 5
  24986633.678 7  98052931.727 7

  24187917.086 6 127108371.818 6  99045504.878 4  24187918.245 4  24187916.939 4
  24187921.827 7  94918624.566 7

  20841087.784 8 109520699.072 8  85340809.756 9  20841087.110 9  20841087.489 9


  22136982.396 7 116330650.702 7  90647281.753 5  22136982.436 5  22136981.279 5


  21952971.110 7 115363707.521 7  89893830.638 5  21952970.483 5  21952970.337 5


  21558183.700 7 113289080.017 7  88277243.562 8  21558185.714 8  21558182.860 8
  21558184.728 8  84599029.599 8

  21488258.803 7 112921641.601 7  87990920.717 6  21488258.977 6  21488258.625 6
  21488262.352 8  84324657.918 8

 23  9 13 16 29  0.0000000  0 10G07G15G13G08G18G05G20G22G30G14
  23735472.100 6 124730789.379 6  97192843.795 6  23735472.858 6  23735471.533 6


  22082971.530 7 116046830.304 7  90426117.721 6  22082972.113 6  22082971.325 6


  20159109.487 8 105936893.660 8  82548238.507 7  20159108.822 7  20159109.090 7


  24986027.874 6 131302482.459 6 102313637.284 5  24986031.783 5  24986027.222 5
  24986030.525 7  98050565.113 7

  24187428.569 7 127105807.044 7  99043506.358 4  24187430.328 4  24187428.391 4
  24187433.569 7  94916709.327 7

  20849092.416 8 109562763.605 8  85373587.291 9  20849092.008 9  20849092.121 9


  22155121.702 7 116425971.864 7  90721557.920 5  22155121.684 5  22155120.576 5


  21940016.419 7 115295631.374 7  89840784.325 5  21940016.055 5  21940015.655 5


  21569886.183 7 113350576.074 7  88325162.536 8  21569888.079 8  21569885.347 8
  21569887.111 8  84644951.953 8

  21480605.616 7 112881423.840 7  87959582.226 6  21480605.759 6  21480605.429 6
  21480609.040 8  84294625.208 8

 23  9 13 16 29 30.0000000  0 10G07G15G13G08G18G05G20G22G30G14
  23751813.614 6 124816659.814 6  97259755.756 6  23751813.454 6  23751813.109 6


  22065793.970 7 115956561.998 7  90355778.809 6  22065794.028 6  22065793.765 6


  20153180.629 8 105905736.411 8  82523960.133 7  20153179.869 7  20153180.227 7


  24985530.508 6 131299870.508 6 102311602.055 5  24985535.088 5  24985529.851 5
  24985533.466 7  98048614.694 7

  24187051.727 7 127103826.481 7  99041963.069 4  24187053.585 4  24187051.535 4
  24187056.280 7  94915230.368 7

  20857207.752 8 109605409.674 8  85406817.968 8  20857207.133 8  20857207.457 8


  22173322.528 7 116521617.502 7  90796086.907 5  22173322.588 5  22173321.393 5


  21927145.608 7 115227995.001 7  89788080.697 5  21927145.248 5  21927144.857 5


  21581645.805 7 113412374.306 7  88373316.973 8  21581647.811 8  21581644.965 8
  21581646.943 8  84691099.950 8

  21473056.361 7 112841751.611 7  87928668.827 6  21473056.560 6  21473056.160 6
  21473059.579 8  84264999.876 8

 23  9 13 16 30  0.0000000  0 10G07G15G13G08G18G05G20G22G30G14
  23768174.030 6 124902635.610 6  97326749.814 6  23768174.219 6  23768173.574 6


  22048662.156 7 115866532.066 7  90285625.650 6  22048662.203 6  22048661.951 6


  20147322.469 8 105874952.518 8  82499972.688 7  20147321.156 7  20147322.067 7


  24985140.380 6 131297817.827 6 102310002.626 5  24985144.592 5  24985139.710 5
  24985142.925 7  98047081.944 7

  24186786.612 6 127102431.301 6  99040875.925 4  24186787.998 4  24186786.416 4
  24186790.729 7  94914188.519 7

  20865433.564 8 109648637.326 8  85440501.834 8  20865432.631 8  20865433.265 8


  22191585.069 7 116617586.691 7  90870868.016 5  22191584.786 5  22191583.934 5


  21914358.848 7 115160801.967 7  89735722.526 6  21914358.766 6  21914358.102 6


  21593463.260 7 113474474.496 7  88421706.706 8  21593465.058 8  21593462.424 8
  21593464.237 8  84737473.436 8

  21465611.411 7 112802627.709 7  87898182.697 6  21465611.730 6  21465611.228 6
  21465614.494 8  84235784.002 8

 23  9 13 16 30 30.0000000  0 11G07G15G13G08G18G05G20G22G24G30G14
  23784554.225 6 124988716.246 6  97393825.565 6  23784554.896 6  23784553.810 6


  22031576.165 7 115776743.380 7  90215660.466 6  22031576.104 6  22031575.955 6


  20141535.871 8 105844543.561 8  82476277.400 7  20141534.115 7  20141535.469 7


  24984857.041 5 131296325.308 5 102308839.706 5  24984860.215 5  24984856.491 5
  24984858.812 7  98045967.463 7

  24186632.705 6 127101622.012 6  99040245.315 4  24186633.718 4  24186632.509 4
  24186636.801 7  94913584.209 7

  20873770.166 8 109692445.918 8  85474638.375 9  20873769.557 9  20873769.871 9


  22209908.569 7 116713877.853 7  90945900.026 5  22209908.133 5  22209907.443 5


  21901657.269 7 115094055.324 7  89683712.199 5  21901657.331 5  21901656.523 5


  25081055.634 6 131801846.058 6
  25081061.330 7  98423466.049 7

  21605338.047 7 113536875.847 7  88470331.107 8  21605339.828 8  21605337.211 8
  21605338.894 8  84784071.815 8

  21458270.895 7 112764054.394 7  87868125.603 6  21458271.491 6  21458270.712 6
  21458274.191 8  84206979.290 8

 23  9 13 16 31  0.0000000  0 11G07G15G13G08G18G05G20G22G24G30G14
  23800954.053 6 125074898.031 6  97460980.133 6  23800954.846 6  23800953.647 6


  22014535.186 7 115687195.364 7  90145882.823 6  22014536.053 6  22014534.976 6


  20135820.203 8 105814507.459 8  82452872.654 7  20135818.464 7  20135819.801 7


  24984678.193 6 131295391.336 6 102308112.011 5  24984682.476 5  24984677.608 5
  24984680.999 7  98045270.117 7

  24186589.823 6 127101395.797 6  99040069.043 4  24186590.771 4  24186589.649 4
  24186593.829 7  94913415.297 7

  20882216.673 8 109736832.072 8  85509224.964 8  20882216.235 8  20882216.378 8


  22228292.318 7 116810485.752 7  91021178.845 5  22228292.382 5  22228291.201 5


  21889040.969 7 115027754.892 7  89632049.554 6  21889040.721 6  21889040.232 6


  25059762.320 6 131689943.679 6 102615559.328 3  25059767.475 3  25059762.802 3
  25059766.714 7  98339902.740 7

  21617269.125 7 113599574.298 7  88519187.012 8  21617270.961 8  21617268.285 8
  21617270.031 8  84830892.053 8

  21451035.045 7 112726030.612 7  87838496.711 6  21451035.651 6  21451034.849 6
  21451038.456 8  84178584.954 8

 23  9 13 16 31 30.0000000  0 11G07G15G13G08G18G05G20G22G24G30G14
  23817372.719 6 125161180.333 6  97528213.027 6  23817373.964 6  23817372.322 6


  21997541.082 7 115597890.424 7  90076294.596 6  21997541.975 6  21997540.859 6


  20130175.814 8 105784846.029 8  82429759.860 7  20130174.613 7  20130175.412 7


  24984606.117 6 131295016.118 6 102307819.689 5  24984610.918 5  24984605.389 5
  24984609.675 7  98044989.978 7

  24186657.942 6 127101752.758 6  99040347.198 4  24186658.079 4  24186657.799 4
  24186661.888 7  94913681.855 7

  20890772.837 8 109781795.260 8  85544261.194 8  20890772.441 8  20890772.542 8


  22246736.717 7 116907408.081 7  91096702.673 5  22246736.726 5  22246735.613 5


  21876509.627 7 114961903.648 7  89580736.933 6  21876509.882 6  21876508.885 6


  25038481.770 6 131578118.114 6 102528422.612 3  25038487.985 3  25038482.454 3
  25038487.092 7  98256396.741 7

  21629256.530 7 113662568.781 7  88568273.600 8  21629258.276 8  21629255.694 8
  21629257.507 8  84877933.358 8

  21443904.821 7 112688558.176 7  87809297.444 6  21443905.069 6  21443904.625 6
  21443907.713 8  84150602.333 8

 23  9 13 16 32  0.0000000  0 11G07G15G13G08G18G05G20G22G24G30G14
  23833810.732 6 125247559.983 6  97595521.770 6  23833811.553 6  23833810.299 6


  21980593.137 7 115508828.694 7  90006895.881 6  21980594.008 6  21980592.905 6


  20124602.525 8 105755557.838 8  82406937.902 7  20124601.354 7  20124602.119 7


  24984642.567 5 131295198.918 5 102307962.166 5  24984645.788 5  24984641.950 5
  24984644.352 7  98045126.521 7

  24186836.120 6 127102690.663 6  99041078.055 4  24186836.099 4  24186835.982 4
  24186840.522 7  94914382.241 7

  20899437.921 8 109827330.593 8  85579743.247 8  20899437.857 8  20899437.626 8


  22265238.804 7 117004640.411 7  91172468.054 5  22265239.862 5  22265237.700 5


  21864064.401 7 114896501.513 7  89529774.271 5  21864064.383 5  21864063.655 5


  25017216.931 6 131466368.775 6 102441345.309 3  25017223.246 3  25017217.588 3
  25017222.067 7  98172947.651 7

  21641299.709 7 113725855.798 7  88617588.135 8  21641301.513 8  21641298.878 8
  21641300.647 8  84925193.120 8

  21436878.763 8 112651636.578 8  87780527.397 6  21436879.220 6  21436878.585 6
  21436881.688 8  84123031.046 8

 23  9 13 16 32 30.0000000  0 11G07G15G13G08G18G05G20G22G24G30G14
  23850267.539 6 125334044.532 6  97662912.253 6  23850269.131 6  23850267.052 6


  21963693.635 7 115420020.694 7  89937694.876 6  21963693.694 6  21963693.403 6


  20119101.792 8 105726652.686 8  82384414.414 7  20119100.597 7  20119101.390 7


  24984784.244 6 131295948.686 6 102308546.432 5  24984788.758 5  24984783.654 5
  24984786.752 7  98045686.492 7

  24187126.574 7 127104217.840 7  99042268.074 4  24187126.767 4  24187126.431 4
  24187131.254 7  94915522.667 7

  20908213.452 8 109873446.547 8  85615677.736 8  20908213.140 8  20908213.153 8


  22283801.928 7 117102188.628 7  91248479.581 5  22283802.604 5  22283800.815 5


  21851706.365 7 114831559.443 7  89479170.100 6  21851706.036 6  21851705.610 6


  24995968.384 6 131354705.679 6 102354335.192 3  24995974.462 3  24995969.001 3
  24995973.343 7  98089562.986 7

  21653399.900 7 113789442.557 7  88667136.233 8  21653401.816 8  21653399.073 8
  21653400.833 8  84972676.705 8

  21429959.443 7 112615275.978 7  87752194.493 6  21429959.844 6  21429959.260 6
  21429962.369 8  84095878.684 8

 23  9 13 16 33  0.0000000  0 11G07G15G13G08G18G05G20G22G24G30G14
  23866742.953 6 125420622.086 6  97730375.211 6  23866744.324 6  23866742.430 6


  21946840.522 7 115331457.827 7  89868684.868 6  21946840.044 6  21946840.294 6


  20113672.544 8 105698120.981 8  82362181.919 7  20113670.924 7  20113672.142 7


  24985033.011 6 131297255.329 6 102309564.655 5  24985037.217 5  24985032.430 5
  24985035.471 7  98046662.286 7

  24187526.863 7 127106323.353 7  99043908.748 4  24187527.551 4  24187526.711 4
  24187531.964 7  94917094.987 7

  20917097.397 8 109920132.030 8  85652056.017 8  20917096.857 8  20917097.102 8


  22302422.398 7 117200039.769 7  91324727.164 5  22302422.822 5  22302421.290 5


  21839434.181 7 114767069.467 7  89428918.211 6  21839433.675 6  21839433.417 6


  24974733.584 6 131243119.502 6 102267385.009 3  24974740.838 3  24974734.174 3
  24974738.970 7  98006235.760 7

  21665554.762 7 113853316.947 7  88716908.461 8  21665556.737 8  21665553.935 8
  21665555.725 8  85020375.083 8

  21423145.227 8 112579467.119 8  87724291.510 6  21423145.406 6  21423145.049 6
  21423148.141 8  84069138.335 8

 23  9 13 16 33 30.0000000  0 11G07G15G13G08G18G05G20G22G24G30G14
  23883236.999 6 125507299.196 6  97797915.743 6  23883238.559 6  23883236.449 6


  21930036.101 7 115243149.536 7  89799873.237 6  21930036.008 6  21930035.878 6


  20108315.649 8 105669970.731 8  82340246.669 7  20108314.099 7  20108315.247 7


  24985388.979 5 131299126.769 5 102311022.964 5  24985393.049 5  24985388.367 5
  24985391.575 7  98048059.809 7

  24188039.222 6 127109014.422 6  99046005.696 4  24188039.890 4  24188039.070 4
  24188044.091 7  94919104.548 7

  20926090.842 8 109967392.182 8  85688882.084 8  20926090.260 8  20926090.543 8


  22321101.613 7 117298198.761 7  91401214.624 5  22321101.468 5  22321100.500 5


  21827249.721 7 114703041.085 7  89379026.000 6  21827249.165 6  21827248.948 6


  24953516.843 6 131131619.234 6 102180501.741 3  24953523.668 3  24953517.352 3
  24953521.339 7  97922972.677 7

  21677765.616 7 113917484.982 7  88766909.498 8  21677767.618 8  21677764.780 8
  21677766.452 8  85068292.746 8

  21416437.443 7 112544218.925 7  87696825.409 6  21416437.658 6  21416437.256 6
  21416440.729 8  84042816.660 8

 23  9 13 16 34  0.0000000  0 11G07G15G13G08G18G05G20G22G24G30G14
  23899748.669 6 125594066.473 6  97865526.535 6  23899749.938 6  23899748.142 6


  21913279.251 7 115155089.843 7  89731255.329 6  21913279.402 6  21913279.019 6


  20103030.137 8 105642194.980 8  82318603.233 7  20103028.556 7  20103029.735 7


  24985850.442 5 131301555.092 5 102312915.231 5  24985855.256 5  24985849.857 5
  24985853.636 7  98049873.251 7

  24188661.301 6 127112282.415 6  99048552.197 4  24188662.292 4  24188661.118 4
  24188666.081 7  94921544.954 7

  20935191.547 8 110015218.010 8  85726148.939 8  20935191.089 8  20935191.248 8


  22339837.219 7 117396654.975 7  91477933.683 5  22339837.104 5  22339836.102 5


  21815152.223 7 114639468.292 7  89329488.796 6  21815151.364 6  21815151.454 6


  24932312.972 5 131020198.058 5 102093680.116 3  24932320.963 3  24932313.414 3
  24932318.747 7  97839768.616 7

  21690030.428 7 113981937.005 7  88817131.834 8  21690032.484 8  21690029.588 8
  21690031.198 8  85116422.481 8

  21409835.283 7 112509524.591 7  87669790.883 6  21409835.372 6  21409835.100 6
  21409838.567 8  84016908.574 8

 23  9 13 16 34 30.0000000  0 11G07G15G13G08G18G05G20G22G24G30G14
  23916278.058 6 125680928.619 6  97933211.250 6  23916279.365 6  23916277.540 6


  21896570.469 7 115067286.355 7  89662837.067 6  21896571.045 6  21896570.237 6


  20097817.326 8 105614800.335 8  82297256.763 7  20097815.113 7  20097816.929 7


  24986420.684 6 131304546.019 6 102315245.863 5  24986424.630 5  24986420.126 5
  24986422.779 7  98052106.807 7

  24189394.183 6 127116132.753 6  99051552.460 4  24189395.193 4  24189394.005 4
  24189398.624 7  94924420.227 7

  20944401.177 8 110063613.979 8  85763860.061 8  20944400.457 8  20944400.882 8


  22358630.334 7 117495411.013 7  91554886.377 5  22358629.722 5  22358629.212 5


  21803142.991 7 114576359.284 7  89280312.982 6  21803142.240 6  21803142.231 6


  24911127.632 5 130908863.149 5 102006925.716 3  24911134.146 3  24911128.016 3
  24911132.248 7  97756629.035 7

  21702349.927 7 114046677.327 7  88867578.813 8  21702352.008 8  21702349.087 8
  21702350.914 8  85164767.499 8

  21403340.055 7 112475391.246 7  87643193.500 6  21403340.356 6  21403339.872 6
  21403343.119 8  83991419.426 8

 23  9 13 16 35  0.0000000  0 11G07G15G13G08G18G05G20G22G24G30G14
  23932825.646 6 125767885.541 6  98000969.818 6  23932826.787 6  23932825.146 6


  21879911.391 7 114979741.965 7  89594620.684 6  21879911.533 6  21879911.168 6


  20092676.894 8 105587788.496 8  82276208.582 7  20092674.653 7  20092676.492 7


  24987095.598 6 131308101.657 6 102318016.547 5  24987100.935 5  24987094.888 5
  24987099.234 7  98054762.052 7

  24190237.721 6 127120565.935 6  99055006.903 4  24190238.464 4  24190237.520 4
  24190241.895 7  94927730.729 7

  20953718.975 8 110112578.969 8  85802014.576 8  20953718.348 8  20953718.676 8


  22377479.877 7 117594465.713 7  91632071.802 5  22377479.198 5  22377478.742 5


  21791222.543 7 114513716.961 7  89231500.827 6  21791222.067 6  21791221.783 6


  24889958.549 5 130797616.881 5 101920240.377 3  24889964.595 3  24889958.817 3
  24889962.815 7  97673555.612 7

  21714724.352 7 114111705.388 7  88918250.007 8  21714726.444 8  21714723.516 8
  21714725.341 8  85213327.386 8

  21396951.765 7 112441821.154 7  87617035.010 6  21396952.379 6  21396951.591 6
  21396954.999 8  83966350.877 8

 23  9 13 16 35 30.0000000  0 11G07G15G13G08G18G05G20G22G24G30G14
  23949389.712 6 125854930.922 6  98068797.309 6  23949391.022 6  23949389.216 6


  21863301.052 7 114892453.909 7  89526604.047 6  21863300.903 6  21863300.829 6


  20087608.866 8 105561155.427 8  82255455.548 7  20087606.708 7  20087608.460 7


  24987879.925 6 131312216.188 6 102321222.731 5  24987883.909 5  24987879.215 5
  24987882.135 7  98057834.659 7

  24191190.792 6 127125576.308 6  99058911.101 4  24191191.972 4  24191190.582 4
  24191195.259 7  94931472.249 7

  20963143.757 8 110162106.426 8  85840607.379 8  20963142.936 8  20963143.458 8


  22396384.571 7 117693811.284 7  91709483.861 5  22396384.506 5  22396383.431 5


  21779390.497 7 114451538.657 7  89183050.245 6  21779390.135 6  21779389.737 6


  24868804.268 5 130686455.393 5 101833621.143 3  24868811.548 3  24868804.424 3
  24868809.201 7  97590545.484 7

  21727152.499 7 114177014.568 7  88969140.253 8  21727154.444 8  21727151.677 8
  21727153.297 8  85262097.198 8

  21390670.146 7 112408810.505 7  87591312.449 6  21390670.426 6  21390669.959 6
  21390673.428 8  83941700.094 8

 23  9 13 16 36  0.0000000  0 11G07G15G13G08G18G05G20G22G24G30G14
  23965972.288 6 125942069.038 6  98136697.071 6  23965972.813 6  23965971.828 6


  21846740.767 7 114805429.553 7  89458792.889 6  21846740.071 6  21846740.544 6


  20082614.003 8 105534907.083 8  82235002.302 7  20082612.046 7  20082613.601 7


  24988770.523 5 131316896.008 5 102324869.412 5  24988774.597 5  24988769.839 5
  24988772.775 7  98061329.405 7

  24192254.944 6 127131168.810 6  99063268.900 4  24192255.957 4  24192254.708 4
  24192259.344 7  94935648.485 7

  20972676.370 8 110212201.079 8  85879642.151 8  20972675.992 8  20972676.071 8


  22415345.335 7 117793450.297 7  91787124.574 5  22415345.249 5  22415344.209 5


  21767648.004 7 114389831.891 7  89134967.092 6  21767647.654 6  21767647.249 6


  24847669.513 5 130575385.484 5 101747073.241 3  24847675.410 3  24847669.521 3
  24847673.320 7  97507603.764 7

  21739634.614 7 114242608.759 7  89020252.586 8  21739636.611 8  21739633.783 8
  21739635.487 8  85311079.846 8

  21384496.171 7 112376365.946 7  87566030.994 6  21384496.357 6  21384495.984 6
  21384499.403 8  83917472.038 8

 23  9 13 16 36 30.0000000  0 11G07G15G13G08G18G05G20G22G24G30G14
  23982570.275 6 126029292.331 6  98204663.206 6  23982570.851 6  23982569.846 6


  21830229.905 7 114718664.452 7  89391183.744 6  21830228.880 6  21830229.695 6


  20077691.414 8 105509038.269 8  82214844.789 7  20077689.421 7  20077691.012 7


  24989767.036 6 131322135.045 6 102328951.839 5  24989771.379 5  24989766.397 5
  24989769.606 7  98065241.744 7

  24193428.780 6 127137336.592 6  99068074.971 4  24193429.225 4  24193428.530 4
  24193432.997 7  94940254.327 7

  20982315.570 8 110262854.681 8  85919112.472 8  20982315.040 8  20982315.271 8


  22434360.359 7 117893373.848 7  91864987.012 5  22434360.016 5  22434359.233 5


  21755994.570 7 114328592.580 7  89087248.190 6  21755994.022 6  21755993.819 6


  24826550.019 5 130464402.164 5 101660592.804 3  24826554.955 3  24826549.867 3
  24826554.151 7  97424726.710 7

  21752169.692 7 114308480.024 7  89071580.825 8  21752171.583 8  21752168.861 8
  21752170.379 8  85360269.401 8

  21378428.807 7 112344482.442 7  87541186.732 6  21378429.206 6  21378428.620 6
  21378432.069 8  83893662.956 8

 23  9 13 16 37  0.0000000  0 11G07G15G13G08G18G05G20G22G24G30G14
  23999184.590 6 126116606.261 6  98272699.975 6  23999186.036 6  23999184.201 6


  21813770.030 7 114632166.851 7  89323783.047 6  21813769.455 6  21813769.816 6


  20072842.160 8 105483555.850 8  82194988.359 7  20072840.305 7  20072841.758 7


  24990871.803 6 131327940.035 6 102333475.297 5  24990876.176 5  24990871.061 5
  24990874.046 7  98069576.723 7

  24194712.529 6 127144085.660 6  99073334.005 4  24194712.953 4  24194712.261 4
  24194717.585 7  94945294.243 7

  20992062.105 8 110314072.593 8  85959022.515 8  20992061.271 8  20992061.806 8


  22453429.777 7 117993585.983 7  91943074.318 5  22453429.321 5  22453428.646 5


  21744431.619 7 114267829.126 7  89039900.085 6  21744430.893 6  21744430.877 6


  24805448.638 5 130353513.307 5 101574185.970 3  24805453.279 3  24805448.343 3
  24805452.764 7  97341920.214 7

  21764758.107 7 114374633.680 7  89123129.103 8  21764760.406 8  21764757.280 8
  21764759.050 8  85409669.828 8

  21372469.821 7 112313167.745 7  87516785.694 6  21372469.823 6  21372469.634 6
  21372473.089 8  83870278.634 8

 23  9 13 16 37 30.0000000  0 11G07G15G13G08G18G05G20G22G24G30G14
  24015817.138 6 126204005.698 6  98340803.365 6  24015817.712 6  24015816.790 6


  21797360.487 7 114545934.497 7  89256589.037 6  21797360.245 6  21797360.264 6


  20068066.102 8 105458456.880 8  82175430.719 7  20068064.369 7  20068065.705 7


  24992084.112 5 131334306.520 5 102338436.277 5  24992087.816 5  24992083.500 5
  24992085.531 7  98074331.014 7

  24196106.931 6 127151410.910 6  99079042.027 4  24196107.255 4  24196106.681 4
  24196111.517 7  94950764.411 7

  21001914.721 8 110365849.247 8  85999367.940 8  21001914.234 8  21001914.426 8


  22472553.115 7 118094079.333 7  92021380.761 5  22472552.709 5  22472551.971 5


  21732958.707 7 114207539.220 7  88992920.983 6  21732957.852 6  21732957.961 6


  24784364.848 5 130242715.813 5 101487850.371 3  24784369.341 3  24784364.464 3
  24784368.285 7  97259181.909 7

  21777399.231 7 114441063.543 7  89174892.610 8  21777401.676 8  21777398.404 8
  21777400.330 8  85459276.517 8

  21366618.537 7 112282418.487 7  87492825.265 6  21366618.151 6  21366618.359 6
  21366621.707 8  83847316.548 8

 23  9 13 16 38  0.0000000  0 11G07G15G13G08G18G05G20G22G24G30G14
  24032464.659 6 126291489.959 6  98408972.854 6  24032465.476 6  24032464.387 6


  21781001.806 7 114459970.607 7  89189604.214 6  21781001.447 6  21781001.583 6


  20063363.053 8 105433743.406 8  82156173.473 7  20063361.657 7  20063362.656 7


  24993401.181 6 131341235.598 6 102343835.617 5  24993405.957 5  24993400.569 5
  24993403.861 7  98079505.389 7

  24197610.806 6 127159312.740 6  99085199.302 4  24197611.414 4  24197610.578 4
  24197615.438 7  94956665.125 7

  21011873.655 8 110418183.308 8  86040147.699 8  21011873.483 8  21011873.360 8


  22491729.805 7 118194852.485 7  92099905.218 5  22491729.877 5  22491728.674 5


  21721576.595 7 114147725.994 7  88946313.323 5  21721575.550 5  21721575.840 5


  24763297.476 5 130132011.992 5 101401587.736 3  24763302.194 3  24763297.065 3
  24763302.140 7  97176513.608 7

  21790092.928 7 114507769.183 7  89226871.008 8  21790095.371 8  21790092.101 8
  21790093.988 8  85509089.145 8

  21360874.812 7 112252236.907 7  87469307.187 6  21360874.983 6  21360874.625 6
  21360878.298 8  83824778.395 8

 23  9 13 16 38 30.0000000  0 11G07G15G13G08G18G05G20G22G24G30G14
  24049129.133 6 126379060.385 6  98477209.472 6  24049129.706 6  24049128.932 6


  21764695.534 7 114374279.699 7  89122832.106 6  21764694.964 6  21764695.306 6


  20058734.110 8 105409417.314 8  82137218.082 7  20058732.780 7  20058733.713 7


  24994827.813 6 131348730.032 6 102349675.509 5  24994831.855 5  24994827.170 5
  24994829.922 7  98085101.958 7

  24199224.545 6 127167792.942 6  99091807.266 4  24199225.961 4  24199224.331 4
  24199229.070 7  94962997.754 7

  21021938.780 8 110471075.830 8  86081362.630 8  21021938.289 8  21021938.481 8


  22510959.207 7 118295905.288 7  92178647.585 5  22510959.954 5  22510958.085 5


  21710286.307 7 114088393.925 7  88900080.585 5  21710284.652 5  21710285.543 5


  24742249.037 5 130021405.717 5 101315401.115 3  24742253.986 3  24742248.617 3
  24742254.465 7  97093918.136 7

  21802839.308 7 114574751.545 7  89279065.033 8  21802841.751 8  21802838.486 8
  21802840.283 8  85559108.418 8

  21355240.270 7 112222626.608 7  87446234.266 6  21355240.677 6  21355240.078 6
  21355243.573 8  83802666.855 8

 23  9 13 16 39  0.0000000  0 11G07G15G13G08G18G05G20G22G24G30G14
  24065807.906 6 126466711.885 6  98545509.261 6  24065809.313 6  24065807.714 6


  21748440.497 7 114288859.408 7  89056270.866 6  21748440.150 6  21748440.278 6


  20054178.313 8 105385476.745 8  82118563.100 7  20054177.067 7  20054177.916 7


  24996360.439 5 131356785.844 5 102355952.834 5  24996364.704 5  24996359.751 5
  24996362.765 7  98091117.764 7

  24200947.246 6 127176846.610 6  99098862.080 4  24200948.984 4  24200947.032 4
  24200951.959 7  94969758.605 7

  21032108.963 8 110524521.099 8  86123008.272 8  21032108.539 8  21032108.673 8


  22530240.855 7 118397230.390 7  92257602.136 5  22530241.155 5  22530239.747 5


  21699086.568 7 114029540.217 7  88854220.594 5  21699084.943 5  21699085.799 5


  24721219.300 5 129910893.943 5 101229288.156 3  24721223.998 3  24721218.885 3
  24721224.723 7  97011393.226 7

  21815637.194 7 114642004.843 7  89331470.176 8  21815639.571 8  21815636.376 8
  21815638.250 8  85609330.008 8

  21349713.807 7 112193584.346 7  87423603.955 6  21349714.162 6  21349713.615 6
  21349717.099 8  83780979.479 8

 23  9 13 16 39 30.0000000  0 11G07G15G13G08G18G05G20G22G24G30G14
  24082503.158 6 126554443.377 6  98613871.390 6  24082504.139 6  24082502.953 6


  21732237.163 7 114203711.527 7  88989921.898 6  21732237.213 6  21732236.940 6


  20049695.955 8 105361921.564 8  82100208.419 7  20049694.598 7  20049695.558 7


  24998001.548 5 131365402.827 5 102362667.440 5  24998004.196 5  24998001.012 5
  24998002.522 7  98097552.616 7

  24202779.128 6 127186473.117 6  99106363.269 4  24202780.890 4  24202778.909 4
  24202783.697 7  94976947.251 7

  21042384.232 8 110578517.303 8  86165083.211 8  21042383.506 8  21042383.942 8


  22549573.598 7 118498825.521 7  92336767.115 5  22549573.543 5  22549572.512 5


  21687978.715 7 113971168.030 7  88808735.810 6  21687977.146 6  21687977.946 6


  24700207.284 6 129800478.141 6 101143249.967 3  24700212.243 3  24700206.891 3
  24700213.408 7  96928939.990 7

  21828486.721 7 114709527.622 7  89384085.303 8  21828488.654 8  21828485.903 8
  21828487.399 8  85659752.828 8

  21344295.256 7 112165111.427 7  87401417.287 6  21344295.821 6  21344295.069 6
  21344298.904 8  83759717.251 8

 23  9 13 16 40  0.0000000  0 11G07G15G13G08G18G05G20G22G24G30G14
  24099213.873 6 126642260.143 6  98682299.958 6  24099215.165 6  24099213.610 6


  21716087.552 7 114118844.764 7  88923791.980 6  21716087.363 6  21716087.329 6


  20045288.118 8 105338758.568 8  82082159.334 7  20045286.532 7  20045287.716 7


  24999748.200 6 131374587.369 6 102369824.272 5  24999751.825 5  24999747.530 5
  24999750.128 7  98104411.239 7

  24204720.833 6 127196678.060 6  99114315.177 4  24204721.953 4  24204720.632 4
  24204725.502 7  94984567.827 7

  21052765.272 8 110633069.618 8  86207591.491 8  21052764.306 8  21052764.982 8


  22568958.965 7 118600694.112 7  92416145.179 5  22568959.140 5  22568957.870 5


  21676963.751 7 113913285.534 7  88763632.608 6  21676962.977 6  21676962.973 6


  24679215.500 6 129690165.886 6 101057292.486 3  24679220.547 3  24679215.170 3
  24679220.709 7  96846564.055 7

  21841387.813 7 114777324.628 7  89436914.112 8  21841389.986 8  21841386.995 8
  21841388.727 8  85710380.430 8

  21338986.800 7 112137215.075 7  87379679.894 6  21338987.288 6  21338986.604 6
  21338990.334 8  83738885.589 8

 23  9 13 16 40 30.0000000  0 12G07G15G13G08G18G05G20G22G24G23G30G14
  24115939.575 6 126730151.868 6  98750786.954 6  24115940.507 6  24115939.249 6


  21699990.182 7 114034251.847 7  88857875.446 6  21699989.673 6  21699989.946 6


  20040953.844 8 105315981.737 8  82064411.154 7  20040952.308 7  20040953.438 7


  25001602.807 5 131384329.874 5 102377415.862 5  25001605.744 5  25001602.159 5
  25001604.099 7  98111686.541 7

  24206770.795 6 127207451.437 6  99122710.034 4  24206771.858 4  24206770.563 4
  24206775.559 7  94992612.905 7

  21063249.825 8 110688166.575 8  86250524.157 8  21063249.472 8  21063249.535 8


  22588393.692 7 118702824.274 7  92495727.044 5  22588394.522 5  22588392.597 5


  21666040.802 8 113855885.030 8  88718904.983 6  21666040.242 6  21666040.020 6


  24658241.286 6 129579949.333 6 100971409.555 3  24658245.417 3  24658241.041 3
  24658248.002 7  96764259.600 7

  25262359.193 5 132754593.929 5 103445149.020 3  25262361.851 3  25262358.876 3
  25262365.341 7  99134947.771 7

  21854339.301 7 114845385.233 7  89489948.318 8  21854341.417 8  21854338.479 8
  21854340.285 8  85761204.874 8

  21333786.595 7 112109887.202 7  87358385.462 6  21333786.842 6  21333786.403 6
  21333789.995 8  83718478.429 8

 23  9 13 16 41  0.0000000  0 12G07G15G13G08G18G05G20G22G24G23G30G14
  24132679.731 6 126818124.105 6  98819336.679 6  24132681.158 6  24132679.302 6


  21683946.436 7 113949941.171 7  88792178.839 6  21683945.802 6  21683946.195 6


  20036693.905 8 105293595.759 8  82046967.534 7  20036692.834 7  20036693.494 7


  25003564.025 6 131394637.859 6 102385448.074 5  25003567.309 5  25003563.395 5
  25003565.681 7  98119384.072 7

  24208929.840 6 127218799.008 6  99131552.288 4  24208931.252 4  24208929.599 4
  24208934.920 7  95001086.738 7

  21073839.157 8 110743813.876 8  86293885.664 8  21073838.708 8  21073838.862 8


  22607879.254 7 118805219.993 7  92575515.839 5  22607879.868 5  22607878.146 5


  21655211.371 7 113798975.293 7  88674559.769 6  21655210.617 6  21655210.593 6


  24637288.206 6 129469836.349 6 100885607.312 3  24637291.775 3  24637288.010 3
  24637293.817 7  96682032.490 7

  25241952.477 5 132647353.913 5 103361585.408 3  25241954.207 3  25241952.397 3
  25241958.239 7  99054866.015 7

  21867342.141 7 114913714.458 7  89543191.843 8  21867343.946 8  21867341.314 8
  21867342.976 8  85812229.911 8

  21328695.923 7 112083135.362 7  87337539.894 6  21328695.970 6  21328695.740 6
  21328699.176 8  83698501.433 8

 23  9 13 16 41 30.0000000  0 12G07G15G13G08G18G05G20G22G24G23G30G14
  24149434.776 6 126906172.724 6  98887945.918 6  24149436.356 6  24149434.267 6


  21667956.107 7 113865912.050 7  88726701.625 6  21667955.344 6  21667955.862 6


  20032508.310 8 105271599.776 8  82029827.810 7  20032507.420 7  20032507.904 7


  25005631.680 6 131405507.717 6 102393918.106 5  25005635.599 5  25005631.046 5
  25005633.959 7  98127501.192 7

  24211198.243 6 127230717.200 6  99140839.183 4  24211199.548 4  24211198.007 4
  24211203.003 7  95009986.704 7

  21084532.242 8 110800006.726 8  86337672.280 8  21084531.623 8  21084531.952 8


  22627413.977 7 118907875.481 7  92655507.055 5  22627414.612 5  22627412.864 5


  21644474.954 8 113742555.079 8  88630596.010 6  21644474.096 6  21644474.176 6


  24616352.875 6 129359825.474 6 100799884.647 3  24616357.523 3  24616352.741 3
  24616359.262 7  96599881.607 7

  25221575.418 5 132540273.590 5 103278146.270 3  25221577.645 3  25221575.146 3
  25221581.548 7  98974903.503 7

  21880395.289 7 114982307.990 7  89596641.319 8  21880397.006 8  21880394.462 8
  21880396.000 8  85863452.319 8

  21323714.440 7 112056957.770 7  87317141.790 6  21323714.590 6  21323714.248 6
  21323717.607 8  83678953.250 8

 23  9 13 16 42  0.0000000  0 12G07G15G13G08G18G05G20G22G24G23G30G14
  24166203.909 6 126994295.943 6  98956613.295 6  24166205.676 6  24166203.292 6


  21652019.709 7 113782166.075 7  88661445.058 6  21652019.477 6  21652019.455 6


  20028396.823 8 105249993.996 8  82012992.138 7  20028396.029 7  20028396.417 7


  25007807.512 6 131416939.032 6 102402825.654 5  25007810.784 5  25007806.793 5
  25007809.236 7  98136037.590 7

  24213574.255 6 127243204.660 6  99150569.681 4  24213575.643 4  24213574.041 4
  24213579.470 7  95019311.755 7

  21095328.864 8 110856742.849 8  86381882.223 8  21095328.567 8  21095328.569 8


  22646997.626 7 119010787.978 7  92735698.544 5  22646998.398 5  22646996.518 5


  21633831.941 8 113686626.115 8  88587015.044 6  21633830.840 6  21633831.159 6


  24595438.247 6 129249917.441 6 100714242.124 4  24595442.920 4  24595438.145 4
  24595444.602 7  96517807.530 7

  25201229.493 5 132433354.951 5 103194833.090 3  25201231.514 3  25201229.221 3
  25201235.669 7  98895061.681 7

  21893497.960 7 115051163.780 7  89650295.150 8  21893499.992 8  21893497.133 8
  21893498.834 8  85914870.572 8

  21318842.358 7 112031354.847 7  87297191.480 6  21318842.731 6  21318842.166 6
  21318845.508 8  83659834.212 8

 23  9 13 16 42 30.0000000  0 12G07G15G13G08G18G05G20G22G24G23G30G14
  24182988.126 7 127082494.934 7  99025339.710 6  24182989.511 6  24182987.402 6


  21636138.202 7 113698706.878 7  88596411.952 6  21636137.635 6  21636137.957 6


  20024359.707 8 105228779.646 8  81996461.481 7  20024358.889 7  20024359.301 7


  25010089.776 5 131428933.584 5 102412172.075 5  25010093.228 5  25010089.155 5
  25010091.649 7  98144994.602 7

  24216058.926 6 127256262.292 6  99160744.476 4  24216060.678 4  24216058.716 4
  24216064.325 7  95029062.607 7

  21106228.759 8 110914022.231 8  86426515.480 8  21106228.630 8  21106228.464 8


  22666629.925 7 119113956.165 7  92816089.261 5  22666630.638 5  22666628.817 5


  21623283.111 8 113631191.997 8  88543819.669 6  21623282.167 6  21623282.329 6


  24574544.005 6 129140115.374 6 100628682.185 4  24574548.743 4  24574543.929 4
  24574549.632 7  96435812.589 7

  25180915.049 5 132326602.488 5 103111649.312 3  25180917.297 3  25180914.795 3
  25180921.468 7  98815343.912 7

  21906650.512 7 115120282.067 7  89704153.520 8  21906652.711 8  21906649.676 8
  21906651.640 8  85966484.835 8

  21314080.131 7 112006329.294 7  87277691.067 6  21314080.255 6  21314079.944 6
  21314083.361 8  83641146.322 8

 23  9 13 16 43  0.0000000  0 12G07G15G13G08G18G05G20G22G24G23G30G14
  24199785.857 6 127170768.394 6  99094124.146 6  24199787.561 6  24199785.048 6


  21620311.468 7 113615536.496 7  88531603.889 6  21620310.522 6  21620311.223 6


  20020397.948 8 105207959.754 8  81980238.188 7  20020396.900 7  20020397.542 7


  25012478.823 6 131441491.504 6 102421957.476 5  25012482.966 5  25012478.072 5
  25012481.516 7  98154372.259 7

  24218651.737 6 127269889.193 6  99171362.853 4  24218653.896 4  24218651.514 4
  24218657.361 7  95039238.546 7

  21117231.713 8 110971842.849 8  86471570.482 8  21117231.362 8  21117231.418 8


  22686310.255 7 119217377.541 7  92896677.267 5  22686311.154 5  22686309.155 5


  21612829.051 8 113576254.650 8  88501011.388 6  21612828.410 6  21612828.273 6


  24553669.370 6 129030420.624 6 100543205.881 3  24553673.558 3  24553669.317 3
  24553675.113 7  96353897.814 7

  25160632.393 5 132220019.059 5 103028597.376 3  25160634.918 3  25160632.165 3
  25160639.182 7  98735752.464 7

  21919852.974 7 115189661.381 7  89758215.294 8  21919855.070 8  21919852.138 8
  21919854.103 8  86018294.040 8

  21309427.762 7 111981882.073 7  87258641.308 6  21309427.987 6  21309427.575 6
  21309431.110 8  83622890.310 8

 23  9 13 16 43 30.0000000  0 12G07G15G13G08G18G05G20G22G24G23G30G14
  24216597.417 6 127259112.412 6  99162963.573 6  24216599.064 6  24216596.563 6


  21604539.165 7 113532653.655 7  88467019.895 6  21604538.742 6  21604538.937 6


  20016510.464 8 105187531.433 8  81964320.020 7  20016509.557 7  20016510.062 7


  25014976.264 6 131454608.937 6 102432178.867 5  25014979.053 5  25014975.495 5
  25014977.443 7  98164167.760 7

  24221352.637 6 127284081.388 6  99182421.735 4  24221354.851 4  24221352.423 4
  24221357.895 7  95049836.634 7

  21128336.624 8 111030199.778 8  86517043.385 8  21128336.849 8  21128336.329 8


  22706037.830 7 119321045.723 7  92977457.603 5  22706038.256 5  22706036.722 5


  21602469.152 8 113521812.936 8  88458589.309 6  21602468.826 6  21602468.374 6


  24532815.595 6 128920831.393 6 100457811.782 3  24532818.448 3  24532815.555 3
  24532820.824 7  96272061.830 7

  25140382.655 5 132113604.049 5 102945676.606 3  25140384.732 3  25140382.427 3
  25140389.123 7  98656286.764 7

  21933104.367 7 115259297.149 7  89812476.900 8  21933106.399 8  21933103.531 8
  21933105.332 8  86070294.732 8

  21304885.332 7 111958010.980 7  87240040.475 6  21304885.745 6  21304885.145 6
  21304888.630 8  83605064.516 8

 23  9 13 16 44  0.0000000  0 12G07G15G13G08G18G05G20G22G24G23G30G14
  24233423.047 6 127347531.142 6  99231861.222 6  24233424.633 6  24233422.171 6


  21588823.256 7 113450066.514 7  88402666.321 6  21588823.169 6  21588823.033 6


  20012698.448 8 105167499.176 8  81948710.470 7  20012697.572 7  20012698.051 7


  25017579.833 5 131468291.833 5 102442840.899 5  25017582.873 5  25017579.123 5
  25017581.270 7  98174385.571 7

  24224161.822 6 127298843.721 6  99193924.860 4  24224163.855 4  24224161.608 4
  24224166.997 7  95060860.463 7

  21139544.714 8 111089098.236 8  86562938.261 8  21139544.886 8  21139544.419 8


  22725812.683 7 119424964.415 7  93058433.135 5  22725813.114 5  22725811.566 5


  21592204.986 8 113467874.318 8  88416559.252 6  21592204.611 6  21592204.199 6


  24511982.866 6 128811354.716 6 100372505.393 3  24511985.466 3  24511982.844 3
  24511987.764 7  96190309.897 7

  25120166.057 5 132007365.981 5 102862893.758 3  25120168.131 3  25120165.847 3
  25120172.519 7  98576953.208 7

  21946405.224 7 115329193.570 7  89866941.612 8  21946407.348 8  21946404.397 8
  21946406.290 8  86122490.080 8

  21300454.141 7 111934722.623 7  87221893.721 6  21300454.116 6  21300453.954 6
  21300456.917 8  83587673.880 8

 23  9 13 16 44 30.0000000  0 12G07G15G13G08G18G05G20G22G24G23G30G14
  24250261.289 6 127436016.400 6  99300810.707 6  24250262.954 6  24250260.404 6


  21573162.665 7 113367769.649 7  88338538.935 6  21573162.568 6  21573162.442 6


  20008961.181 8 105147859.333 8  81933406.697 7  20008960.096 7  20008960.779 7


  25020289.178 6 131482532.717 6 102453937.703 5  25020292.936 5  25020288.494 5
  25020291.075 7  98185020.005 7

  24227078.295 6 127314167.769 6  99205865.692 4  24227079.573 4  24227078.085 4
  24227083.026 7  95072303.752 7

  21150853.699 8 111148527.967 8  86609247.117 8  21150853.738 8  21150853.404 8


  22745633.392 7 119529123.408 7  93139595.909 5  22745634.099 5  22745632.266 5


  21582035.322 7 113414433.227 7  88374916.879 6  21582034.879 6  21582034.531 6


  24491170.702 6 128701984.489 6 100287281.951 3  24491173.516 3  24491170.676 3
  24491175.322 7  96108637.461 7

  25099983.230 5 131901300.146 5 102780245.096 2  25099984.492 2  25099983.016 2
  25099988.775 7  98497748.277 7

  21959754.045 7 115399341.755 7  89921602.504 8  21959756.177 8  21959753.223 8
  21959755.141 8  86174873.429 8

  21296131.747 7 111912010.429 7  87204195.926 6  21296131.855 6  21296131.564 6
  21296134.999 8  83570713.496 8

 23  9 13 16 45  0.0000000  0 12G07G15G13G08G18G05G20G22G24G23G30G14
  24267113.059 6 127524571.933 6  99369814.939 6  24267114.609 6  24267112.170 6


  21557558.495 7 113285769.925 7  88274643.084 6  21557558.435 6  21557558.267 6


  20005299.487 8 105128616.513 8  81918412.294 7  20005298.276 7  20005299.094 7


  25023106.654 5 131497336.615 5 102465473.229 5  25023110.109 5  25023105.930 5
  25023108.163 7  98196074.883 7

  24230102.475 6 127330057.619 6  99218247.393 4  24230103.007 4  24230102.288 4
  24230106.749 7  95084169.538 7

  21162264.609 8 111208492.116 8  86655972.396 8  21162264.383 8  21162264.314 8


  22765500.734 7 119633524.751 7  93220947.513 5  22765501.304 5  22765499.617 5


  21571961.984 8 113361496.419 8  88333667.453 6  21571961.032 6  21571961.189 6


  24470379.629 6 128592727.024 6 100202146.345 3  24470383.304 3  24470379.585 3
  24470383.898 7  96027049.230 7

  25079833.637 5 131795414.266 5 102697736.679 3  25079835.680 3  25079833.392 3
  25079839.007 7  98418677.695 7

  21973151.435 7 115469745.254 7  89976462.340 8  21973153.591 8  21973150.613 8
  21973152.504 8  86227447.433 8

  21291920.668 7 111889880.278 7  87186951.678 6  21291920.474 6  21291920.476 6
  21291923.842 8  83554187.757 8

 23  9 13 16 45 30.0000000  0 12G07G15G13G08G18G05G20G22G24G23G30G14
  24283977.871 6 127613195.622 6  99438872.290 6  24283979.277 6  24283976.959 6


  21542011.082 7 113204067.900 7  88210979.211 6  21542011.441 6  21542010.846 6


  20001712.651 8 105109767.985 8  81903725.131 7  20001711.454 7  20001712.258 7


  25026030.559 6 131512701.380 6 102477445.788 5  25026033.889 5  25026029.862 5
  25026032.272 7  98207548.593 7

  24233233.260 7 127346510.651 7  99231067.933 4  24233233.568 4  24233233.077 4
  24233237.653 7  95096455.879 7

  21173776.459 8 111268987.694 8  86703111.769 8  21173776.135 8  21173776.169 8


  22785413.236 7 119738164.414 7  93302484.824 5  22785413.676 5  22785412.110 5


  21561984.243 8 113309064.217 8  88292811.226 6  21561983.540 6  21561983.448 6


  24449610.082 6 128483582.091 6 100117098.445 4  24449613.827 4  24449609.980 4
  24449613.565 7  95945544.993 7

  25059718.508 5 131689709.292 5 102615369.194 3  25059720.037 3  25059718.258 3
  25059724.123 7  98339742.202 7

  21986596.758 7 115540400.857 7  90031518.622 8  21986598.932 8  21986595.940 8
  21986597.896 8  86280209.703 8

  21287820.005 7 111868331.350 7  87170160.326 6  21287820.010 6  21287819.809 6
  21287823.047 8  83538096.049 8

 23  9 13 16 46  0.0000000  0 12G07G15G13G08G18G05G20G22G24G23G30G14
  24300855.722 6 127701888.383 6  99507983.461 6  24300857.042 6  24300854.815 6


  21526521.455 7 113122668.493 7  88147551.141 6  21526521.347 6  21526521.210 6


  19998202.116 8 105091319.947 8  81889350.041 7  19998200.899 7  19998201.723 7


  25029060.709 6 131528629.351 6 102489857.236 5  25029064.832 5  25029059.972 5
  25029063.202 7  98219442.920 7

  24236471.696 6 127363528.604 6  99244328.662 4  24236472.427 4  24236471.513 4
  24236476.304 7  95109164.082 7

  21185389.691 8 111330014.683 8  86750665.240 8  21185389.070 8  21185389.401 8


  22805370.346 7 119843041.981 7  93384207.513 5  22805371.091 5  22805369.215 5


  21552103.547 8 113257141.212 8  88252351.785 6  21552103.144 6  21552102.756 6


  24428862.644 6 128374553.702 6 100032141.352 4  24428866.761 4  24428862.519 4
  24428866.442 7  95864127.800 7

  25039639.249 5 131584190.789 5 102533147.025 3  25039640.489 3  25039639.048 3
  25039644.436 7  98260945.961 7

  22000090.148 7 115611309.944 7  90086772.427 8  22000092.387 8  22000089.321 8
  22000091.525 8  86333161.254 8

  21283830.666 7 111847367.212 7  87153824.650 6  21283830.997 6  21283830.465 6
  21283833.544 8  83522441.035 8

 23  9 13 16 46 30.0000000  0 12G07G15G13G08G18G05G20G22G24G23G30G14
  24317745.436 6 127790645.299 6  99577144.636 6  24317747.061 6  24317744.560 6


  21511088.611 8 113041568.547 8  88084356.406 6  21511088.295 6  21511088.366 6


  19994766.789 8 105073266.960 8  81875282.787 7  19994765.379 7  19994766.392 7


  25032198.639 6 131545115.521 6 102502703.637 5  25032202.137 5  25032197.888 5
  25032200.204 7  98231754.040 7

  24239816.322 7 127381105.629 7  99258025.023 4  24239817.850 4  24239816.144 4
  24239821.259 7  95122289.770 7

  21197102.892 8 111391567.256 8  86798628.256 8  21197102.381 8  21197102.602 8


  22825371.908 7 119948149.999 7  93466109.791 4  22825372.123 4  22825370.768 4


  21542319.299 8 113205724.247 8  88212286.659 6  21542318.804 6  21542318.504 6


  24408135.479 6 128265638.443 6  99947272.440 4  24408141.787 4  24408135.310 4
  24408140.305 7  95782795.083 7

  25019594.920 6 131478856.721 6 102451068.595 3  25019596.188 3  25019594.719 3
  25019600.300 7  98182287.448 7

  22013630.824 7 115682466.208 7  90142218.842 8  22013633.001 8  22013629.988 8
  22013632.093 8  86386297.389 8

  21279951.766 7 111826983.818 7  87137941.503 6  21279952.183 6  21279951.570 6
  21279954.726 8  83507219.694 8

 23  9 13 16 47  0.0000000  0 12G07G15G13G08G18G05G20G22G24G23G30G14
  24334647.857 6 127879468.043 6  99646357.098 6  24334649.460 6  24334646.986 6


  21495713.817 7 112960773.420 7  88021399.189 6  21495713.493 6  21495713.576 6


  19991407.259 8 105055612.720 8  81861526.238 7  19991405.750 7  19991406.862 7


  25035442.590 6 131562163.118 6 102515987.499 5  25035446.267 5  25035441.964 5
  25035444.325 7  98244484.427 7

  24243268.013 7 127399243.792 7  99272158.638 4  24243269.482 4  24243267.812 4
  24243272.383 7  95135834.515 7

  21208916.027 8 111453646.732 8  86847001.846 8  21208915.796 8  21208915.732 8


  22845417.503 7 120053489.200 7  93548192.220 4  22845417.212 4  22845416.363 4


  21532632.164 8 113154818.309 8  88172619.737 6  21532631.569 6  21532631.369 6


  24387432.470 6 128156840.679 6  99862495.081 4  24387438.570 4  24387432.296 4
  24387436.885 7  95701550.154 7

  24999586.466 6 131373713.042 6 102369138.474 3  24999588.039 3  24999586.238 3
  24999591.933 7  98103771.102 7

  22027218.899 7 115753871.352 7  90197859.186 8  22027221.112 8  22027218.068 8
  22027220.003 8  86439619.378 8

  21276184.216 7 111807185.074 7  87122513.927 6  21276184.501 6  21276184.029 6
  21276187.253 8  83492434.938 8

 23  9 13 16 47 30.0000000  0 12G07G15G13G08G18G05G20G22G24G23G30G14
  24351562.158 6 127968351.876 6  99715617.160 6  24351563.589 6  24351561.309 6


  21480396.766 7 112880281.612 7  87958678.325 6  21480396.514 6  21480396.530 6


  19988123.526 8 105038355.900 8  81848079.369 7  19988121.888 7  19988123.129 7


  25038791.647 6 131579767.894 6 102529705.549 5  25038796.214 5  25038790.905 5
  25038794.252 7  98257630.891 7

  24246825.075 6 127417938.332 6  99286725.818 4  24246826.451 4  24246824.865 4
  24246829.904 7  95149794.733 7

  21220828.964 8 111516247.658 8  86895781.764 8  21220828.379 8  21220828.669 8


  22865505.534 7 120159052.979 7  93630449.639 4  22865505.896 4  22865504.399 4


  21523041.635 7 113104421.575 7  88133349.597 6  21523041.138 6  21523040.835 6


  24366751.362 6 128048158.123 6  99777807.507 4  24366756.848 4  24366751.255 4
  24366755.267 7  95620391.234 7

  24979613.938 6 131268758.638 6 102287355.848 3  24979615.582 3  24979613.670 3
  24979619.697 7  98025396.116 7

  22040853.176 7 115825520.188 7  90253689.420 8  22040855.480 8  22040852.345 8
  22040854.320 8  86493123.352 8

  21272527.311 7 111787968.001 7  87107539.602 6  21272527.567 6  21272527.128 6
  21272530.428 8  83478084.549 8

 23  9 13 16 48  0.0000000  0 12G07G15G13G08G18G05G20G22G24G23G30G14
  24368488.727 6 128057301.157 6  99784928.220 6  24368490.222 6  24368487.882 6


  21465138.706 7 112800100.661 7  87896199.695 6  21465138.835 6  21465138.470 6


  19984916.042 8 105021500.855 8  81834945.575 7  19984914.565 7  19984915.640 7


  25042249.574 6 131597935.003 6 102543861.780 5  25042252.967 5  25042248.899 5
  25042251.380 7  98271197.286 7

  24250489.454 6 127437193.377 6  99301729.738 4  24250490.197 4  24250489.249 4
  24250493.699 7  95164173.498 7

  21232841.053 8 111579372.828 8  86944970.181 8  21232840.795 8  21232840.758 8


  22885636.822 7 120264843.843 7  93712883.992 4  22885637.437 4  22885635.691 4


  21513549.521 8 113054540.439 8  88094481.222 6  21513549.155 6  21513548.726 6


  24346092.567 6 127939597.244 6  99693214.729 3  24346098.116 3  24346092.429 3
  24346097.358 7  95539323.209 7

  24959679.998 6 131164001.582 6 102205727.014 3  24959680.967 3  24959679.672 3
  24959685.212 7  97947168.460 7

  22054534.534 7 115897416.507 7  90309712.501 8  22054536.799 8  22054533.698 8
  22054535.702 8  86546812.128 8

  21268981.991 7 111769338.539 7  87093023.156 6  21268982.492 6  21268981.808 6
  21268985.385 8  83464172.957 8

 23  9 13 16 48 30.0000000  0 12G07G15G13G08G18G05G20G22G24G23G30G14
  24385426.844 6 128146310.737 6  99854286.265 6  24385428.346 6  24385426.035 6


  21449939.665 7 112720228.377 7  87833961.578 6  21449939.341 6  21449939.433 6


  19981784.376 8 105005044.331 8  81822122.317 7  19981783.250 7  19981783.974 7


  25045813.226 6 131616659.921 6 102558452.672 5  25045816.222 5  25045812.618 5
  25045814.514 7  98285180.218 7

  24254259.311 6 127457003.632 6  99317166.295 4  24254259.911 4  24254259.133 4
  24254263.494 7  95178966.877 7

  21244952.130 8 111643016.533 8  86994562.650 8  21244951.790 8  21244951.835 8


  22905810.067 7 120370854.922 7  93795489.942 4  22905810.908 4  22905808.954 4


  21504155.286 8 113005172.861 8  88056013.023 6  21504155.014 6  21504154.486 6


  24325456.525 6 127831155.252 6  99608714.599 3  24325462.184 3  24325456.329 3
  24325461.353 7  95458343.959 7

  24939782.021 6 131059440.564 6 102124250.949 3  24939783.375 3  24939781.726 3
  24939787.613 7  97869087.254 7

  22068261.890 7 115969554.691 7  90365924.044 8  22068264.148 8  22068261.059 8
  22068263.131 8  86600681.519 8

  21265547.828 7 111751293.227 7  87078961.888 6  21265548.820 6  21265547.641 6
  21265551.519 8  83450697.579 8

 23  9 13 16 49  0.0000000  0 12G07G15G13G08G18G05G20G22G24G23G30G14
  24402376.198 6 128235381.128 6  99923691.691 6  24402378.023 6  24402375.434 6


  21434799.476 8 112640668.073 8  87771966.563 6  21434799.340 6  21434799.248 6


  19978729.420 8 104988989.771 8  81809612.273 7  19978728.135 7  19978729.018 7


  25049481.478 6 131635943.735 6 102573479.077 5  25049486.026 5  25049480.768 5
  25049484.225 7  98299580.550 7

  24258134.660 6 127477369.703 6  99333035.960 4  24258135.606 4  24258134.500 4
  24258139.230 7  95194175.293 7

  21257161.801 8 111707178.326 8  87044558.829 8  21257161.205 8  21257161.511 8


  22926025.343 7 120477085.121 7  93878266.644 4  22926025.915 4  22926024.261 4


  21494859.320 8 112956322.451 8  88017947.817 6  21494858.837 6  21494858.516 6


  24304843.211 6 127722835.241 6  99524309.480 4  24304849.469 4  24304843.024 4
  24304848.096 7  95377455.759 7

  24919923.188 6 130955079.936 6 102042931.031 3  24919924.476 3  24919922.938 3
  24919928.635 7  97791155.663 7

  22082035.726 7 116041934.965 7  90422324.230 8  22082037.531 8  22082034.895 8
  22082036.629 8  86654731.690 8

  21262225.821 7 111733834.466 7  87065357.675 6  21262226.590 6  21262225.634 6
  21262229.212 8  83437660.209 8

 23  9 13 16 49 30.0000000  0 12G07G15G13G08G18G05G20G22G24G23G30G14
  24419337.150 6 128324510.123 6  99993142.782 6  24419338.762 6  24419336.426 6


  21419719.344 8 112561420.698 8  87710215.386 6  21419718.765 6  21419719.108 6


  19975750.484 8 104973335.840 8  81797414.406 7  19975748.990 7  19975750.082 7


  25053259.079 5 131655784.738 5 102588939.613 5  25053261.273 5  25053258.436 5
  25053259.780 7  98314396.887 7

  24262115.746 6 127498288.947 6  99349336.660 4  24262117.021 4  24262115.599 4
  24262120.264 7  95209796.814 7

  21269469.267 8 111771855.081 8  87094956.279 8  21269468.537 8  21269468.977 8


  22946281.249 7 120583530.476 7  93961210.992 4  22946281.965 4  22946280.163 4


  21485661.826 7 112907989.103 7  87980285.512 6  21485661.077 6  21485661.031 6


  24284254.185 6 127614637.006 6  99439999.265 4  24284259.811 4  24284253.971 4
  24284259.244 7  95296658.504 7

  24900101.940 6 130850920.951 6 101961768.233 3  24900103.707 3  24900101.730 3
  24900107.804 7  97713374.657 7

  22095854.548 7 116114554.442 7  90478910.809 8  22095856.456 8  22095853.712 8
  22095855.618 8  86708960.493 8

  21259015.140 7 111716961.399 7  87052209.844 6  21259015.244 6  21259014.953 6
  21259018.293 8  83425060.209 8

 23  9 13 16 50  0.0000000  0 12G07G15G13G08G18G05G20G22G24G23G30G14
  24436308.941 6 128413699.779 6 100062641.144 6  24436310.929 6  24436308.226 6


  21404699.467 8 112482491.132 8  87648711.848 6  21404698.740 6  21404699.226 6


  19972848.555 8 104958086.289 8  81785531.638 7  19972846.865 7  19972848.153 7


  25057139.156 6 131676185.286 6 102604836.184 5  25057143.337 5  25057138.481 5
  25057141.851 7  98329631.116 7

  24266201.633 6 127519763.070 6  99366069.726 4  24266203.559 4  24266201.486 4
  24266206.703 7  95225832.676 7

  21281875.052 8 111837047.254 8  87145755.347 8  21281873.842 8  21281874.757 8


  22966578.341 7 120690191.028 7  94044323.032 4  22966578.590 4  22966577.282 4


  21476563.356 8 112860177.345 8  87943029.647 6  21476562.578 6  21476562.565 6


  24263688.947 6 127506564.792 6  99355787.242 4  24263694.076 4  24263688.751 4
  24263693.255 7  95215955.326 7

  24880320.446 6 130746969.397 6 101880767.075 3  24880322.629 3  24880320.250 3
  24880326.319 7  97635748.592 7

  22109719.476 7 116187414.605 7  90535684.934 8  22109721.255 8  22109718.649 8
  22109720.609 8  86763369.021 8

  21255916.500 7 111700677.584 7  87039521.166 6  21255916.251 6  21255916.317 6
  21255919.514 8  83412900.230 8

 23  9 13 16 50 30.0000000  0 12G07G15G13G08G18G05G20G22G24G23G30G14
  24453292.061 6 128502945.290 6 100132183.022 6  24453293.897 6  24453291.346 6


  21389740.117 8 112403877.945 8  87587454.843 6  21389739.377 6  21389739.872 6


  19970023.160 8 104943238.280 8  81773961.759 7  19970021.442 7  19970022.758 7


  25061127.468 6 131697141.418 6 102621165.653 5  25061131.161 5  25061126.766 5
  25061129.662 7  98345280.205 7

  24270392.713 6 127541787.305 6  99383231.455 4  24270394.671 4  24270392.553 4
  24270397.568 7  95242279.324 7

  21294377.699 8 111902749.223 8  87196951.666 8  21294376.016 8  21294377.404 8


  22986914.758 7 120797060.540 7  94127597.874 4  22986915.506 4  22986913.708 4


  21467564.166 8 112812885.561 8  87906178.950 6  21467563.350 6  21467563.393 6


  24243146.880 6 127398616.363 6  99271671.699 4  24243152.114 4  24243146.702 4
  24243151.356 7  95135344.605 7

  24860578.370 6 130643224.516 6 101799926.959 3  24860581.032 3  24860578.192 3
  24860584.053 7  97558276.833 7

  22123629.284 7 116260510.405 7  90592642.673 8  22123630.981 8  22123628.457 8
  22123630.284 8  86817953.518 8

  21252929.220 7 111684980.030 7  87027289.316 6  21252929.403 6  21252929.028 6
  21252932.312 8  83401178.041 8

 23  9 13 16 51  0.0000000  0 12G07G15G13G08G18G05G20G22G24G23G30G14
  24470285.494 6 128592246.060 6 100201767.960 6  24470287.188 6  24470284.779 6


  21374841.100 7 112325583.449 7  87526446.167 6  21374840.255 6  21374840.864 6


  19967274.155 8 104928792.374 8  81762705.210 7  19967272.718 7  19967273.749 7


  25065222.562 5 131718653.125 5 102637928.024 5  25065224.731 5  25065221.968 5
  25065223.214 7  98361344.120 7

  24274688.241 6 127564360.562 6  99400821.007 4  24274689.925 4  24274688.081 4
  24274692.983 7  95259135.953 7

  21306976.929 8 111968959.310 8  87248543.921 8  21306975.987 8  21306976.634 8


  23007290.571 7 120904136.504 7  94211033.597 4  23007291.743 4  23007289.534 4


  21458663.647 8 112766115.266 8  87869734.610 6  21458663.506 6  21458662.860 6


  24222629.205 6 127290793.240 6  99187653.792 3  24222633.330 3  24222629.036 3
  24222632.775 7  95054827.474 7

  24840876.588 6 130539689.197 6 101719250.147 3  24840878.618 3  24840876.428 3
  24840881.826 7  97480961.560 7

  22137583.701 7 116333840.621 7  90649783.075 8  22137585.327 8  22137582.883 8
  22137584.590 8  86872713.063 8

  21250053.692 7 111669869.503 7  87015514.892 6  21250053.955 6  21250053.500 6
  21250056.833 8  83389894.219 8

 23  9 13 16 51 30.0000000  0 12G07G15G13G08G18G05G20G22G24G23G30G14
  24487289.923 6 128681604.356 6 100271397.718 6  24487291.613 6  24487289.217 6


  21360003.819 7 112247613.041 7  87465690.026 6  21360003.251 6  21360003.587 6


  19964602.584 8 104914753.129 8  81751765.542 7  19964601.287 7  19964602.182 7


  25069420.243 6 131740722.793 6 102655125.165 5  25069424.587 5  25069419.573 5
  25069423.014 7  98377824.724 7

  24279088.831 6 127587484.983 6  99418840.030 4  24279090.239 4  24279088.684 4
  24279093.429 7  95276404.177 7

  21319673.289 8 112035678.996 8  87300533.256 8  21319673.028 8  21319672.994 8


  23027706.095 7 121011419.513 7  94294630.655 4  23027706.847 4  23027705.071 4


  21449864.043 8 112719871.354 8  87833700.430 6  21449863.575 6  21449863.252 6


  24202135.467 6 127183100.059 6  99103737.146 4  24202139.284 4  24202135.307 4
  24202139.548 7  94974407.383 7

  24821215.744 6 130436369.619 6 101638741.433 3  24821217.436 3  24821215.615 3
  24821220.658 7  97403807.366 7

  22151582.860 7 116407407.161 7  90707107.626 8  22151584.730 8  22151582.024 8
  22151583.901 8  86927649.083 8

  21247290.702 7 111655349.928 7  87004200.952 6  21247290.752 6  21247290.510 6
  21247293.857 8  83379051.691 8

 23  9 13 16 52  0.0000000  0 12G07G15G13G08G18G05G20G22G24G23G30G14
  24504303.359 6 128771011.717 6 100341065.712 6  24504305.361 6  24504302.640 6


  21345227.359 7 112169961.480 7  87405182.349 6  21345226.901 6  21345227.140 6


  19962007.120 8 104901113.806 8  81741137.499 7  19962005.519 7  19962006.723 7


  25073726.218 5 131763342.420 5 102672750.892 5  25073728.828 5  25073725.619 5
  25073727.158 7  98394716.065 7

  24283592.582 6 127611151.840 6  99437281.724 4  24283594.034 4  24283592.422 4
  24283597.028 7  95294077.464 7

  21332464.995 7 112102899.456 7  87352912.810 8  21332464.589 8  21332464.691 8


  23048158.992 7 121118899.532 7  94378381.237 4  23048159.485 4  23048157.973 4


  21441163.322 8 112674148.217 8  87798072.047 6  21441162.847 6  21441162.522 6


  24181665.731 6 127075530.752 6  99019917.024 4  24181669.526 4  24181665.553 4
  24181670.054 7  94894079.764 7

  24801594.643 6 130333261.063 6 101558397.128 3  24801595.940 3  24801594.545 3
  24801599.842 7  97326810.775 7

  22165625.512 7 116481201.184 7  90764609.434 8  22165627.439 8  22165624.667 8
  22165626.567 8  86982754.971 8

  21244639.119 7 111641414.394 7  86993342.103 6  21244638.906 6  21244638.927 6
  21244641.991 8  83368645.287 8

 23  9 13 16 52 30.0000000  0 12G07G15G13G08G18G05G20G22G24G23G30G14
  24521328.340 6 128860479.563 6 100410780.837 6  24521330.576 6  24521327.598 6


  21330513.846 8 112092643.148 8  87344934.323 6  21330513.596 6  21330513.627 6


  19959490.231 8 104887887.534 8  81730831.319 7  19959488.389 7  19959489.829 7


  25078137.204 5 131786524.197 5 102690814.675 5  25078140.518 5  25078136.650 5
  25078138.564 7  98412027.210 7

  24288201.274 6 127635372.194 6  99456154.722 4  24288203.419 4  24288201.109 4
  24288206.282 7  95312164.083 7

  21345353.617 8 112170630.445 8  87405690.175 8  21345353.524 8  21345353.309 8


  23068650.652 6 121226586.064 6  94462292.735 4  23068651.868 4  23068649.620 4


  21432564.030 8 112628959.398 8  87762860.015 6  21432563.781 6  21432563.230 6


  24161221.558 6 126968098.948 6  98936204.025 4  24161225.415 4  24161221.415 4
  24161226.362 8  94813854.850 8

  24782016.849 6 130230378.691 6 101478229.051 3  24782017.913 3  24782016.747 3
  24782021.933 7  97249983.056 7

  22179713.514 7 116555233.574 7  90822296.983 8  22179715.389 8  22179712.678 8
  22179714.488 8  87038038.867 8

  21242100.810 7 111628075.741 7  86982948.355 6  21242100.849 6  21242100.618 6
  21242103.601 8  83358684.621 8

 23  9 13 16 53  0.0000000  0 12G07G15G13G08G18G05G20G22G24G23G30G14
  24538362.685 6 128949994.506 6 100480532.655 6  24538364.882 6  24538361.921 6


  21315861.998 8 112015647.372 8  87284937.642 6  21315861.885 6  21315861.784 6


  19957049.583 8 104875061.970 8  81720837.381 7  19957047.762 7  19957049.181 7


  25082652.512 5 131810254.861 5 102709306.139 5  25082656.354 5  25082651.904 5
  25082654.138 7  98429748.203 7

  24292913.411 6 127660131.875 6  99475447.966 4  24292914.968 4  24292913.242 4
  24292918.105 7  95330653.438 7

  21358336.733 8 112238856.706 8  87458853.463 8  21358336.915 8  21358336.425 8


  23089179.073 6 121334463.308 6  94546352.835 4  23089180.468 4  23089178.018 4


  21424064.284 8 112584293.800 8  87728055.685 6  21424063.911 6  21424063.480 6


  24140801.928 6 126860793.224 6  98852589.281 4  24140805.563 4  24140801.803 4
  24140806.388 7  94733724.062 7

  24762480.390 6 130127712.565 6 101398229.494 3  24762481.630 3  24762480.265 3
  24762485.320 7  97173316.843 7

  22193843.979 7 116629490.166 7  90880159.231 8  22193845.887 8  22193843.139 8
  22193845.074 8  87093490.177 8

  21239673.823 7 111615321.678 7  86973010.129 6  21239673.797 6  21239673.636 6
  21239676.587 8  83349160.489 8

 23  9 13 16 53 30.0000000  0 12G07G15G13G08G18G05G20G22G24G23G30G14
  24555406.597 6 129039561.700 6 100550325.200 6  24555408.992 6  24555405.802 6


  21301273.136 8 111938982.721 8  87225198.986 6  21301273.248 6  21301272.917 6


  19954686.514 8 104862644.311 8  81711161.291 7  19954684.820 7  19954686.112 7


  25087274.267 6 131834539.556 6 102728229.341 5  25087277.568 5  25087273.717 5
  25087275.345 7  98447882.958 7

  24297728.438 6 127685436.028 6  99495165.478 4  24297730.242 4  24297728.278 4
  24297733.638 7  95349549.386 7

  21371415.016 8 112307582.881 8  87512406.303 8  21371414.681 8  21371414.708 8


  23109744.738 6 121442535.368 6  94630564.726 4  23109746.041 4  23109743.683 4


  21415665.892 8 112540159.532 8  87693665.378 6  21415664.997 6  21415665.088 6


  24120407.887 6 126753621.316 6  98769078.815 4  24120412.010 4  24120407.758 4
  24120412.756 8  94653693.217 8

  24742986.060 6 130025271.870 6 101318405.594 4  24742988.150 4  24742985.917 4
  24742991.507 7  97096818.918 7

  22208018.083 7 116703975.931 7  90938200.058 8  22208020.039 8  22208017.238 8
  22208019.305 8  87149112.630 8

  21237359.205 7 111603159.119 7  86963532.818 6  21237359.467 6  21237359.018 6
  21237362.202 8  83340078.064 8

 23  9 13 16 54  0.0000000  0 12G07G15G13G08G18G05G20G22G24G23G30G14
  24572460.720 6 129129180.886 6 100620158.241 6  24572463.028 6  24572459.840 6


  21286747.775 8 111862651.603 8  87165720.218 6  21286747.641 6  21286747.547 6


  19952401.365 8 104850635.837 8  81701804.039 7  19952399.587 7  19952400.963 7


  25091999.983 5 131859379.165 5 102747584.981 5  25092004.187 5  25091999.416 5
  25092002.016 7  98466432.124 7

  24302647.561 6 127711283.835 6  99515306.602 4  24302648.751 4  24302647.409 4
  24302652.016 7  95368851.293 7

  21384587.879 8 112376807.450 8  87566347.497 8  21384587.910 8  21384587.571 8


  23130346.795 6 121550800.049 6  94714926.731 4  23130347.994 4  23130345.749 4


  21407369.108 8 112496558.553 8  87659690.619 6  21407367.616 6  21407368.308 6


  24100039.548 6 126646585.112 6  98685674.060 4  24100042.935 4  24100039.405 4
  24100043.322 7  94573763.696 7

  24723535.530 6 129923060.057 6 101238760.066 4  24723537.920 4  24723535.405 4
  24723541.220 7  97020491.925 7

  22222235.825 7 116778690.065 7  90996418.832 8  22222237.731 8  22222234.989 8
  22222236.973 8  87204905.616 8

  21235157.227 7 111591589.043 7  86954517.182 6  21235157.673 6  21235157.035 6
  21235160.396 8  83331438.092 8

 23  9 13 16 54 30.0000000  0 12G07G15G13G08G18G05G20G22G24G23G30G14
  24589523.789 6 129218847.036 6 100690027.887 5  24589525.893 5  24589522.833 5


  21272285.523 8 111786651.929 8  87106499.716 6  21272285.493 6  21272285.295 6


  19950193.568 8 104839032.977 8  81692762.853 7  19950191.485 7  19950193.171 7


  25096831.832 6 131884768.292 6 102767368.743 5  25096835.287 5  25096831.211 5
  25096833.667 7  98485391.556 7

  24307668.371 6 127737669.630 6  99535866.943 4  24307669.116 4  24307668.211 4
  24307672.671 7  95388554.956 7

  21397854.642 8 112446524.342 8  87620672.313 8  21397854.849 8  21397854.334 8


  23150984.626 7 121659250.104 7  94799433.183 4  23150985.445 4  23150983.589 4


  21399172.974 8 112453488.106 8  87626129.265 6  21399171.402 6  21399172.170 6


  24079696.594 6 126539681.665 6  98602372.775 4  24079700.436 4  24079696.460 4
  24079700.539 7  94493933.296 7

  24704129.058 6 129821075.634 6 101159291.734 4  24704130.359 4  24704128.938 4
  24704134.134 7  96944334.794 7

  22236495.915 7 116853626.898 7  91054811.136 8  22236497.792 8  22236495.093 8
  22236497.080 8  87260864.899 8

  21233067.735 8 111580607.612 8  86945960.238 6  21233067.434 6  21233067.543 6
  21233070.760 8  83323237.688 8

 23  9 13 16 55  0.0000000  0 12G07G15G13G08G18G05G20G22G24G23G30G14
  24606596.870 6 129308564.256 6 100759937.324 5  24606598.427 5  24606595.802 5


  21257888.080 8 111710990.944 8  87047543.122 6  21257887.438 6  21257887.852 6


  19948063.734 8 104827841.744 8  81684042.414 7  19948062.112 7  19948063.337 7


  25101769.683 6 131910711.858 6 102787584.562 5  25101771.935 5  25101769.156 5
  25101770.514 7  98504765.065 7

  24312792.200 6 127764597.244 6  99556849.476 4  24312793.031 4  24312792.026 4
  24312796.857 7  95408663.204 7

  21411215.612 8 112516736.112 8  87675382.755 8  21411215.186 8  21411215.304 8


  23171657.553 7 121767888.132 7  94884086.105 4  23171658.495 4  23171656.516 4


  21391079.259 8 112410955.048 8  87592986.652 6  21391077.888 6  21391078.450 6


  24059379.487 6 126432917.511 6  98519180.035 4  24059384.204 4  24059379.353 4
  24059383.745 7  94414206.927 7

  24684766.365 6 129719326.677 6 101080006.879 4  24684768.124 4  24684766.258 4
  24684771.528 7  96868353.480 7

  22250798.767 7 116928790.175 7  91113379.887 8  22250800.894 8  22250797.940 8
  22250800.201 8  87316993.284 8

  21231091.183 7 111570220.411 7  86937866.328 6  21231090.592 6  21231090.996 6
  21231094.111 8  83315481.026 8

 23  9 13 16 55 30.0000000  0 12G07G15G13G08G18G05G20G22G24G23G30G14
  24623677.708 6 129398325.183 6 100829880.825 5  24623679.199 5  24623676.613 5


  21243553.828 8 111635664.658 8  86988847.331 6  21243552.769 6  21243553.605 6


  19946011.520 8 104817056.216 8  81675638.108 7  19946010.055 7  19946011.123 7


  25106809.050 5 131937202.326 5 102808226.509 5  25106813.052 5  25106808.407 5
  25106811.247 7  98524546.933 7

  24318017.864 6 127792058.586 6  99578247.902 4  24318019.215 4  24318017.677 4
  24318022.530 7  95429170.018 7

  21424669.140 8 112587434.246 8  87730472.179 8  21424669.054 8  21424668.836 8


  23192365.025 7 121876704.828 7  94968878.260 4  23192365.890 4  23192363.970 4


  21383086.532 8 112368953.648 8  87560258.319 6  21383085.618 6  21383085.723 6


  24039088.681 6 126326287.373 6  98436091.698 4  24039092.314 4  24039088.588 4
  24039092.801 7  94334580.638 7

  24665447.772 6 129617809.349 6 101000902.513 4  24665449.735 4  24665447.679 4
  24665453.534 7  96792545.139 7

  22265143.649 7 117004171.927 7  91172118.879 8  22265145.588 8  22265142.827 8
  22265144.921 8  87373284.814 8

  21229226.232 7 111560421.189 7  86930230.583 6  21229226.070 6  21229226.045 6
  21229229.408 8  83308163.440 8

 23  9 13 16 56  0.0000000  0 12G07G15G13G08G18G05G20G22G24G23G30G14
  24640767.627 5 129488132.158 5 100899860.208 5  24640768.808 5  24640766.590 5


  21229284.213 8 111560678.405 8  86930416.514 6  21229283.736 6  21229283.985 6


  19944037.052 8 104806680.560 8  81667553.180 7  19944035.661 7  19944036.655 7


  25111955.915 5 131964242.741 5 102829296.999 5  25111958.496 5  25111955.258 5
  25111957.002 7  98544739.510 7

  24323345.490 6 127820055.923 6  99600063.970 4  24323347.100 4  24323345.307 4
  24323350.569 7  95450077.099 7

  21438215.444 8 112658620.494 8  87785941.940 8  21438215.686 8  21438215.140 8


  23213106.557 7 121985701.161 7  95053810.377 4  23213107.644 4  23213105.484 4


  21375196.266 8 112327489.464 8  87527948.591 6  21375195.345 6  21375195.462 6


  24018823.510 6 126219796.270 6  98353111.693 4  24018827.691 4  24018823.452 4
  24018828.045 7  94255058.171 7

  24646175.068 6 129516530.156 6 100921983.733 4  24646177.014 4  24646174.957 4
  24646181.069 7  96716914.629 7

  22279530.431 7 117079774.453 7  91231029.899 8  22279532.312 8  22279529.609 8
  22279531.671 8  87429741.198 8

  21227474.213 7 111551214.015 7  86923056.171 6  21227474.183 6  21227474.030 6
  21227477.431 8  83301287.969 8

 23  9 13 16 56 30.0000000  0 12G07G15G13G08G18G05G20G22G24G23G30G14
  24657866.844 5 129577984.509 5 100969874.940 5  24657867.282 5  24657865.959 5


  21215079.774 8 111486033.759 8  86872251.884 7  21215079.082 7  21215079.542 7


  19942140.721 8 104796715.375 8  81659788.100 7  19942139.214 7  19942140.324 7


  25117205.436 6 131991832.048 6 102850795.202 5  25117208.385 5  25117204.842 5
  25117206.915 7  98565341.954 7

  24328774.782 6 127848587.500 6  99622296.333 4  24328777.249 4  24328774.590 4
  24328780.142 7  95471383.125 7

  21451854.208 8 112730292.038 8  87841789.871 8  21451853.867 8  21451853.904 8


  23233881.339 7 122094874.274 7  95138880.234 4  23233882.888 4  23233880.262 4


  21367408.152 8 112286563.633 8  87496058.366 6  21367407.198 6  21367407.343 6


  23998585.756 6 126113445.169 6  98270240.799 4  23998590.638 4  23998585.725 4
  23998590.143 7  94175640.269 7

  24626948.424 6 129415491.627 6 100843252.461 4  24626949.124 4  24626948.313 4
  24626954.113 7  96641463.861 7

  22293958.771 7 117155596.071 7  91290111.636 8  22293960.668 8  22293957.958 8
  22293960.056 8  87486361.193 8

  21225835.020 7 111542598.957 7  86916343.154 6  21225834.889 6  21225834.837 6
  21225838.076 8  83294854.654 8

 23  9 13 16 57  0.0000000  0 12G07G15G13G08G18G05G20G22G24G23G30G14
  24674974.893 5 129667883.730 5 101039926.190 5  24674974.655 5  24674974.200 5


  21200941.055 8 111411735.807 8  86814357.413 6  21200940.910 6  21200940.819 6


  19940323.258 8 104787164.262 8  81652345.672 7  19940321.921 7  19940322.865 7


  25122559.331 5 132019972.217 5 102872722.644 5  25122563.612 5  25122558.643 5
  25122561.723 7  98586355.768 7

  24334306.439 6 127877654.476 6  99644945.906 4  24334308.404 4  24334306.229 4
  24334311.250 7  95493088.959 7

  21465585.583 8 112802450.370 8  87898017.112 8  21465585.234 8  21465585.279 8


  23254690.058 6 122204223.832 6  95224087.595 4  23254691.393 4  23254688.999 4


  21359723.176 8 112246179.885 8  87464590.545 6  21359722.102 6  21359722.372 6


  23978375.536 6 126007238.172 6  98187482.183 4  23978379.396 4  23978375.519 4
  23978379.481 7  94096329.955 7

  24607767.968 6 129314699.284 6 100764713.017 4  24607769.156 4  24607767.843 4
  24607773.935 7  96566196.918 7

  22308429.143 7 117231638.089 7  91349365.119 7  22308430.954 7  22308428.343 7
  22308430.414 8  87543145.772 8

  21224308.918 7 111534578.918 7  86910093.781 6  21224308.743 6  21224308.731 6
  21224311.938 8  83288865.670 8

 23  9 13 16 57 30.0000000  0 12G07G15G13G08G18G05G20G22G24G23G30G14
  24692089.740 5 129757824.479 5 101110009.790 5  24692090.063 5  24692089.280 5


  21186868.322 8 111337781.841 8  86756730.976 6  21186867.741 6  21186868.081 6


  19938583.586 8 104778022.642 8  81645222.330 7  19938582.733 7  19938583.193 7


  25128018.677 5 132048657.851 5 102895075.147 5  25128022.341 5  25128018.056 5
  25128020.199 7  98607776.937 7

  24339938.390 6 127907250.512 6  99668007.736 4  24339939.644 4  24339938.167 4
  24339943.152 7  95515189.860 7

  21479407.909 8 112875086.942 8  87954617.001 8  21479407.934 8  21479407.605 8


  23275531.058 6 122313742.542 6  95309426.756 4  23275531.999 4  23275530.008 4


  21352141.147 8 112206334.959 8  87433542.577 6  21352140.022 6  21352140.343 6


  23958192.857 6 125901171.713 6  98104833.090 4  23958195.583 4  23958192.835 4
  23958195.567 7  94017124.565 7

  24588634.386 6 129214151.089 6 100686363.839 4  24588636.212 4  24588634.252 4
  24588640.024 7  96491112.315 7

  22322940.264 7 117307894.248 7  91408785.460 7  22322942.018 7  22322939.464 7
  22322941.520 8  87600090.256 8

  21222894.963 7 111527149.314 7  86904304.484 6  21222894.982 6  21222894.771 6
  21222898.054 8  83283317.601 8

 23  9 13 16 58  0.0000000  0 12G07G15G13G08G18G05G20G22G24G23G30G14
  24709212.539 5 129847806.990 5 101180125.959 5  24709213.293 5  24709212.276 5


  21172861.669 8 111264175.337 8  86699375.280 6  21172860.485 6  21172861.428 6


  19936922.516 8 104769292.501 8  81638419.623 7  19936921.474 7  19936922.119 7


  25133580.845 6 132077889.486 6 102917853.098 5  25133584.921 5  25133580.219 5
  25133582.825 7  98629605.819 7

  24345670.485 6 127937375.424 6  99691481.689 4  24345672.852 4  24345670.262 4
  24345675.692 7  95537685.712 7

  21493320.842 8 112948201.365 8  88011589.243 8  21493321.087 8  21493320.538 8


  23296403.376 6 122423428.776 6  95394896.455 4  23296404.790 4  23296402.321 4


  21344661.983 8 112167031.570 8  87402916.589 6  21344661.520 6  21344661.170 6


  23938035.759 6 125795248.421 6  98022295.545 4  23938038.556 4  23938035.697 4
  23938038.953 7  93938026.101 7

  24569548.328 6 129113851.284 6 100608208.225 4  24569550.056 4  24569548.185 4
  24569553.356 7  96416213.209 7

  22337492.203 7 117384364.509 7  91468372.640 7  22337493.779 7  22337491.403 7
  22337493.357 8  87657194.628 8

  21221593.917 7 111520311.833 7  86898976.582 6  21221593.791 6  21221593.721 6
  21221596.913 8  83278211.698 8

 23  9 13 16 58 30.0000000  0 12G07G15G13G08G18G05G20G22G24G23G30G14
  24726343.306 5 129937831.530 5 101250274.865 5  24726344.580 5  24726343.123 5


  21158921.503 8 111190919.454 8  86642292.785 6  21158919.905 6  21158921.258 6


  19935339.826 8 104760975.967 8  81631939.205 7  19935338.628 7  19935339.429 7


  25139247.987 5 132107667.225 5 102941056.553 5  25139251.568 5  25139247.402 5
  25139248.977 6  98651842.462 6

  24351504.417 6 127968028.778 6  99715367.416 4  24351506.599 4  24351504.203 4
  24351509.131 7  95560576.186 7

  21507325.116 8 113021793.425 8  88068933.670 8  21507325.290 8  21507324.812 8


  23317307.911 6 122533281.195 6  95480495.643 4  23317309.203 4  23317306.843 4


  21337286.225 8 112128271.859 8  87372714.242 6  21337286.061 6  21337285.407 6


  23917907.284 6 125689470.797 6  97939871.504 4  23917909.239 4  23917907.173 4
  23917909.928 7  93859036.422 7

  24550509.555 6 129013803.864 6 100530249.293 4  24550511.751 4  24550509.399 4
  24550514.961 7  96341502.570 7

  22352084.497 7 117461048.706 7  91528126.520 7  22352086.295 7  22352083.697 7
  22352085.925 8  87714458.749 8

  21220405.749 7 111514067.807 7  86894111.110 6  21220405.557 6  21220405.558 6
  21220408.666 8  83273548.959 8

 23  9 13 16 59  0.0000000  0 12G07G15G13G08G18G05G20G22G24G23G30G14
  24743481.163 5 130027896.194 5 101320455.036 4  24743483.480 4  24743480.949 4


  21145048.128 8 111118015.284 8  86585484.356 6  21145046.978 6  21145047.892 6


  19933835.796 8 104753072.776 8  81625780.871 7  19933834.508 7  19933835.399 7


  25145016.964 6 132137989.261 6 102964684.159 5  25145021.404 5  25145016.414 5
  25145019.287 7  98674485.594 7

  24357437.262 6 127999208.111 6  99739662.985 4  24357439.979 4  24357437.057 4
  24357442.582 7  95583859.431 7

  21521419.316 8 113095859.043 8  88126647.107 8  21521419.505 8  21521419.017 8


  23338243.159 6 122643295.919 6  95566221.295 4  23338244.468 4  23338242.082 4


  21330014.035 8 112090056.344 8  87342935.945 6  21330013.679 6  21330013.231 6


  23897806.461 6 125583839.273 6  97857561.309 4  23897808.248 4  23897806.287 4
  23897808.240 7  93780155.830 7

  24531519.522 6 128914010.685 6 100452488.453 4  24531521.339 4  24531519.348 4
  24531524.757 7  96266981.785 7

  22366717.143 7 117537944.547 7  91588045.323 7  22366719.115 7  22366716.334 7
  22366718.748 8  87771880.926 8

  21219330.053 7 111508416.577 7  86889707.559 6  21219330.305 6  21219329.866 6
  21219333.205 8  83269328.891 8

 23  9 13 16 59 30.0000000  0 12G07G15G13G08G18G05G20G22G24G23G30G14
  24760627.432 5 130117998.551 5 101390664.583 4  24760629.376 4  24760627.146 4


  21131241.974 8 111045463.219 8  86528950.302 6  21131240.970 6  21131241.733 6


  19932410.299 8 104745581.690 8  81619943.658 7  19932409.075 7  19932409.906 7


  25150890.903 6 132168853.323 6 102988734.127 5  25150894.384 5  25150890.358 5
  25150892.524 7  98697533.474 7

  24363469.740 6 128030909.956 6  99764365.709 4  24363472.582 4  24363469.517 4
  24363475.199 7  95607532.857 7

  21535602.840 8 113170394.350 8  88184726.534 8  21535602.921 8  21535602.541 8


  23359207.948 6 122753468.430 6  95652069.890 4  23359209.640 4  23359206.866 4


  21322845.186 8 112052384.515 8  87313581.306 6  21322844.504 6  21322844.382 6


  23877732.451 6 125478353.238 6  97775364.500 4  23877734.853 4  23877732.259 4
  23877735.504 7  93701383.891 7

  24512577.700 6 128814472.762 6 100374926.528 4  24512579.781 4  24512577.540 4
  24512583.232 7  96192651.623 7

  22381389.778 7 117615048.767 7  91648126.497 7  22381391.761 7  22381388.969 7
  22381391.253 8  87829458.707 8

  21218367.231 7 111503356.441 7  86885764.597 6  21218367.537 6  21218367.044 6
  21218370.222 8  83265550.220 8

                            4  1
RINEX FILE SPLICE; other post-header comments skipped       COMMENT
 23  9 13 17  0  0.0000000  0 12G07G15G13G08G18G05G20G22G24G23G30G14
  24777780.063 5 130208142.455 5 101460906.491 4  24777783.261 4  24777779.692 4


  21117503.885 8 110973270.257 8  86472696.070 6  21117503.395 6  21117503.644 6


  19931064.257 8 104738508.434 8  81614432.031 7  19931063.201 7  19931063.864 7


  25156868.294 6 132200263.384 6 103013209.531 5  25156871.717 5  25156867.847 5
  25156869.735 7  98720989.087 7

  24369602.906 6 128063137.586 6  99789478.112 4  24369604.942 4  24369602.661 4
  24369607.667 7  95631598.921 7

  21549876.570 8 113245402.550 8  88243174.453 8  21549876.149 8  21549876.271 8


  23380203.906 6 122863801.147 6  95738043.329 4  23380205.519 4  23380202.838 4


  21315781.257 8 112015262.798 8  87284655.324 6  21315780.146 6  21315780.462 6


  23857687.303 6 125373018.931 6  97693285.920 4  23857689.578 4  23857687.098 4
  23857690.690 7  93622725.285 7

  24493686.628 6 128715197.770 6 100297569.460 4  24493688.384 4  24493686.476 4
  24493691.602 7  96118517.778 7

  22396102.627 7 117692364.900 7  91708372.790 7  22396104.776 7  22396101.814 7
  22396104.085 8  87887194.735 8

  21217517.797 7 111498892.452 7  86882286.170 6  21217517.914 6  21217517.605 6
  21217520.745 8  83262216.736 8

 23  9 13 17  0 30.0000000  0 12G07G15G13G08G18G05G20G22G24G23G30G14
  24794942.049 5 130298324.246 5 101531177.939 4  24794944.254 4  24794941.607 4


  21103834.353 8 110901435.991 8  86416721.349 7  21103833.996 7  21103834.108 7


  19929797.307 8 104731850.148 8  81609243.752 7  19929796.387 7  19929796.914 7


  25162947.634 6 132232215.207 6 103038107.079 5  25162951.755 5  25162947.067 5
  25162949.849 7  98744849.224 7

  24375834.812 6 128095886.446 6  99814996.671 4  24375836.438 4  24375834.549 4
  24375839.163 7  95656054.203 7

  21564239.119 8 113320877.529 8  88301986.089 8  21564238.587 8  21564238.820 8


  23401228.920 6 122974288.307 6  95824137.123 4  23401229.982 4  23401227.847 4


  21308821.340 8 111978689.249 8  87256156.484 6  21308820.453 6  21308820.545 6


  23837670.941 6 125267834.748 6  97611324.308 4  23837674.033 4  23837670.740 4
  23837675.005 7  93544178.758 7

  24474844.551 6 128616185.651 6 100220417.204 4  24474847.013 4  24474844.395 4
  24474850.239 7  96044580.196 7

  22410854.868 7 117769888.713 7  91768780.916 7  22410857.183 7  22410854.059 7
  22410856.354 8  87945085.853 8

  21216781.303 7 111495021.836 7  86879270.107 6  21216781.388 6  21216781.116 6
  21216784.103 8  83259326.341 8

 23  9 13 17  1  0.0000000  0 12G07G15G13G08G18G05G20G22G24G23G30G14
  24812109.783 6 130388538.262 6 101601474.481 5  24812111.434 5  24812109.260 5


  21090232.556 8 110829957.262 8  86361023.665 7  21090232.233 7  21090232.306 7


  19928608.238 8 104725602.756 8  81604375.651 7  19928607.637 7  19928607.845 7


  25169130.539 6 132264703.359 6 103063422.551 5  25169133.884 5  25169130.034 5
  25169132.048 7  98769109.905 7

  24382165.054 6 128129150.106 6  99840916.385 4  24382166.277 4  24382164.777 4
  24382169.025 7  95680893.914 7

  21578688.894 8 113396812.388 8  88361156.072 8  21578688.193 8  21578688.590 8


  23422281.524 6 123084922.208 6  95910345.259 4  23422283.160 4  23422280.442 4


  21301965.138 8 111942660.077 8  87228081.831 6  21301964.487 6  21301964.347 6


  23817682.700 6 125162797.106 6  97529476.901 4  23817686.264 4  23817682.553 4
  23817686.802 7  93465741.686 7

  24456052.863 6 128517434.386 6 100143468.211 4  24456055.013 4  24456052.685 4
  24456058.343 7  95970837.440 7

  22425645.813 7 117847613.925 7  91829345.980 8  22425647.884 8  22425645.013 8
  22425646.971 8  88003127.361 8

  21216156.682 7 111491739.820 7  86876712.699 6  21216157.027 6  21216156.499 6
  21216159.587 8  83256875.492 8

 23  9 13 17  1 30.0000000  0 12G07G15G13G08G18G05G20G22G24G23G30G14
  24829284.121 5 130478790.904 5 101671801.131 5  24829285.905 5  24829283.518 5


  21076699.767 8 110758843.012 8  86305609.991 7  21076699.732 7  21076699.517 7


  19927499.509 8 104719774.468 8  81599834.125 7  19927498.464 7  19927499.120 7


  25175415.842 6 132297733.951 6 103089160.680 5  25175419.210 5  25175415.328 5
  25175417.624 7  98793775.609 7

  24388593.599 6 128162933.949 6  99867241.451 4  24388595.835 4  24388593.336 4
  24388598.449 7  95706122.066 7

  21593227.331 8 113473212.077 8  88420688.272 8  21593226.016 8  21593227.032 8


  23443363.610 6 123195707.426 6  95996671.325 4  23443364.869 4  23443362.528 4


  21295214.457 8 111907183.782 8  87200437.991 6  21295213.582 6  21295213.675 6


  23797724.438 6 125057914.656 6  97447750.401 4  23797727.800 4  23797724.354 4
  23797727.898 7  93387420.484 7

  24437312.629 6 128418954.160 6 100066730.429 4  24437314.723 4  24437312.424 4
  24437318.131 7  95897297.087 7

  22440475.498 7 117925546.482 7  91890072.610 8  22440478.044 8  22440474.676 8
  22440477.086 8  88061323.712 8

  21215645.635 7 111489053.814 7  86874619.709 6  21215645.943 6  21215645.457 6
  21215648.503 8  83254869.714 8

 23  9 13 17  2  0.0000000  0 12G07G15G13G08G18G05G20G22G24G23G30G14
  24846465.167 5 130569076.572 5 101742153.526 5  24846466.806 5  24846464.488 5


  21063236.237 8 110688091.134 8  86250478.681 7  21063235.822 7  21063235.987 7


  19926469.131 8 104714361.163 8  81595615.961 7  19926468.441 7  19926468.742 7


  25181803.509 5 132331301.925 5 103115317.547 5  25181806.954 5  25181802.933 5
  25181805.462 7  98818842.589 7

  24395120.581 6 128197231.939 6  99893967.140 4  24395122.584 4  24395120.327 4
  24395125.416 7  95731734.172 7

  21607852.725 8 113550069.702 8  88480577.298 8  21607851.744 8  21607852.421 8


  23464472.994 6 123306637.016 6  96083109.865 4  23464474.289 4  23464471.899 4


  21288568.035 8 111872257.136 8  87173222.447 6  21288567.381 6  21288567.253 6


  23777794.092 6 124953184.278 6  97366142.422 4  23777799.000 4  23777794.048 4
  23777798.463 7  93309212.844 7

  24418623.800 6 128320743.389 6  99990202.602 4  24418625.692 4  24418623.577 4
  24418629.199 7  95823957.915 7

  22455343.914 7 118003680.679 7  91950956.356 8  22455346.566 8  22455343.096 8
  22455345.595 8  88119670.631 8

  21215247.108 7 111486959.460 7  86872987.750 6  21215247.404 6  21215246.925 6
  21215250.074 8  83253305.751 8

 23  9 13 17  2 30.0000000  0 12G07G15G13G08G18G05G20G22G24G23G30G14
  24863652.723 6 130659397.864 6 101812533.684 5  24863654.510 5  24863652.066 5


  21049842.494 8 110617707.390 8  86195634.220 7  21049841.528 7  21049842.240 7


  19925518.985 8 104709367.294 8  81591724.636 7  19925518.021 7  19925518.596 7


  25188293.510 6 132365409.554 6 103141894.947 5  25188297.358 5  25188292.880 5
  25188295.970 7  98844312.630 7

  24401745.457 6 128232045.655 6  99921094.705 5  24401747.803 5  24401745.216 5
  24401749.970 7  95757731.392 7

  21622565.905 8 113627387.262 8  88540824.717 8  21622564.963 8  21622565.606 8


  23485610.129 6 123417711.350 6  96169661.184 4  23485611.130 4  23485609.034 4


  21282027.046 8 111837884.462 8  87146438.573 6  21282026.299 6  21282026.273 6


  23757895.270 6 124848610.562 6  97284656.503 4  23757899.165 4  23757895.235 4
  23757898.632 7  93231122.194 7

  24399987.307 6 128222808.193 6  99913889.522 4  24399989.556 4  24399987.093 4
  24399992.843 7  95750824.557 7

  22470251.209 7 118082018.402 7  92011998.695 8  22470253.698 8  22470250.378 8
  22470252.698 8  88178169.532 8

  21214961.615 7 111485460.034 7  86871819.375 6  21214962.030 6  21214961.423 6
  21214964.757 8  83252186.057 8

 23  9 13 17  3  0.0000000  0 12G07G15G13G08G18G05G20G22G24G23G30G14
  24880846.018 6 130749749.894 6 101882937.779 5  24880848.014 5  24880845.384 5


  21036518.610 8 110547689.169 8  86141074.580 7  21036517.049 7  21036518.360 7


  19924647.709 8 104704789.428 8  81588157.466 7  19924646.719 7  19924647.320 7


  25194886.835 6 132400051.265 6 103168888.511 5  25194889.533 5  25194886.160 5
  25194887.814 7  98870181.454 7

  24408467.230 6 128267369.030 6  99948619.394 4  24408468.953 4  24408466.989 4
  24408471.664 7  95784109.221 7

  21637364.804 8 113705157.244 8  88601424.676 8  21637364.593 8  21637364.505 8


  23506773.261 6 123528923.416 6  96256319.832 4  23506774.072 4  23506772.175 4


  21275590.832 8 111804062.694 8  87120083.969 6  21275589.743 6  21275590.054 6


  23738025.253 6 124744190.462 6  97203290.274 4  23738028.038 4  23738025.204 4
  23738027.674 7  93153146.247 7

  24381403.421 6 128125147.093 6  99837790.009 4  24381405.530 4  24381403.220 4
  24381408.620 7  95677895.879 7

  22485196.255 7 118160554.003 7  92073195.229 7  22485198.423 7  22485195.424 7
  22485197.579 8  88236816.199 8

  21214788.531 7 111484551.288 7  86871111.267 6  21214788.810 6  21214788.344 6
  21214791.838 8  83251507.454 8

 23  9 13 17  3 30.0000000  0 12G07G15G13G08G18G05G20G22G24G23G30G14
  24898045.226 5 130840136.248 5 101953368.645 5  24898047.993 5  24898044.681 5


  21023265.231 8 110478042.617 8  86086804.556 7  21023264.021 7  21023264.981 7


  19923856.365 8 104700631.100 8  81584917.209 7  19923855.427 7  19923855.976 7


  25201581.325 5 132435230.186 5 103196300.680 5  25201584.067 5  25201580.726 5
  25201581.855 6  98896451.489 6

  24415286.390 6 128303204.454 6  99976543.088 4  24415288.057 4  24415286.145 4
  24415290.745 7  95810869.412 7

  21652250.606 8 113783381.481 8  88662378.594 8  21652250.820 8  21652250.302 8


  23527963.013 6 123640274.838 6  96343087.074 4  23527963.996 4  23527961.931 4


  21269260.526 8 111770797.094 8  87094162.747 6  21269259.033 6  21269259.748 6


  23718185.039 6 124639929.483 6  97122048.031 4  23718188.037 4  23718184.977 4
  23718187.330 7  93075289.113 7

  24362872.566 6 128027767.131 6  99761909.579 4  24362875.028 4  24362872.365 4
  24362877.884 7  95605177.141 7

  22500179.244 7 118239290.293 7  92134548.142 8  22500181.393 8  22500178.413 8
  22500180.664 8  88295612.733 8

  21214729.095 7 111484237.360 7  86870866.652 6  21214728.707 6  21214728.908 6
  21214732.019 8  83251273.028 8

 23  9 13 17  4  0.0000000  0 12G07G15G13G08G18G05G20G22G24G23G30G14
  24915251.543 5 130930553.639 5 102023823.672 5  24915253.888 5  24915251.159 5


  21010083.015 8 110408768.859 8  86032825.022 7  21010082.092 7  21010082.765 7


  19923144.880 8 104696891.315 8  81582003.092 7  19923143.747 7  19923144.491 7


  25208375.427 6 132470943.357 6 103224129.162 5  25208379.918 5  25208374.672 5
  25208377.937 7  98923120.448 7

  24422202.176 6 128339548.189 6 100004862.866 4  24422203.143 4  24422201.931 4
  24422207.143 7  95838009.183 7

  21667222.018 7 113862055.625 7  88723683.086 8  21667222.239 8  21667221.714 8


  23549177.485 6 123751760.857 6  96429959.193 4  23549179.488 4  23549176.390 4


  21263036.002 8 111738086.723 8  87068674.177 6  21263034.581 6  21263035.224 6


  23698375.004 6 124535826.934 6  97040929.239 4  23698377.741 4  23698374.888 4
  23698377.548 7  92997550.308 7

  24344395.389 6 127930669.183 6  99686248.909 4  24344397.599 4  24344395.175 4
  24344400.580 7  95532669.001 7

  22515199.878 7 118318224.014 7  92196054.896 8  22515202.086 8  22515199.042 8
  22515201.361 8  88354556.694 8

  21214782.165 7 111484516.266 7  86871083.985 6  21214781.686 6  21214781.982 6
  21214785.077 8  83251481.304 8

 23  9 13 17  4 30.0000000  0 12G07G15G13G08G18G05G20G22G24G23G30G14
  24932462.992 5 131020999.560 5 102094300.958 5  24932465.176 5  24932462.711 5


  20996971.362 8 110339867.217 8  85979135.458 7  20996971.213 7  20996971.121 7


  19922512.629 8 104693568.950 8  81579414.240 7  19922511.255 7  19922512.240 7


  25215274.451 6 132507188.095 6 103252371.864 5  25215277.212 5  25215273.754 5
  25215275.226 7  98950186.375 7

  24429213.940 6 128376396.590 6 100033575.836 3  24429213.762 3  24429213.712 3
  24429219.770 7  95865525.826 7

  21682277.998 7 113941175.334 7  88785334.784 8  21682277.573 8  21682277.694 8


  23570417.420 6 123863376.624 6  96516932.409 4  23570418.945 4  23570416.303 4


  21256916.811 8 111705930.843 8  87043617.670 6  21256916.009 6  21256916.033 6


  23678594.800 6 124431882.267 6  96959933.473 4  23678597.861 4  23678594.671 4
  23678597.518 7  92919929.382 7

  24325971.661 6 127833854.227 6  99610808.762 4  24325973.995 4  24325971.438 4
  24325977.176 7  95460372.206 7

  22530257.338 7 118397351.962 7  92257712.995 7  22530259.696 7  22530256.502 7
  22530258.975 8  88413645.698 8

  21214947.434 7 111485386.086 7  86871761.773 6  21214947.336 6  21214947.251 6
  21214950.621 8  83252130.854 8

 23  9 13 17  5  0.0000000  0 11G07G15G13G18G05G20G22G24G23G30G14
  24949681.087 6 131111474.412 6 102164800.787 5  24949681.999 5  24949680.792 5


  20983931.001 8 110271341.069 8  85925738.484 7  20983931.110 7  20983930.773 7


  19921960.237 8 104690665.903 8  81577152.128 7  19921958.675 7  19921959.848 7


  24436322.272 6 128413748.910 6 100062681.456 3  24436321.132 3  24436322.080 3
  24436328.029 8  95893418.763 8

  21697418.676 8 114020740.296 8  88847333.429 8  21697418.274 8  21697418.372 8


  23591682.025 6 123975120.623 6  96604005.542 4  23591683.182 4  23591680.908 4


  21250903.910 8 111674331.614 8  87018994.922 6  21250903.239 6  21250903.137 6


  23658844.925 6 124328097.894 6  96879062.628 4  23658848.741 4  23658844.796 4
  23658847.901 7  92842428.167 7

  24307603.064 6 127737326.212 6  99535592.195 4  24307605.217 4  24307602.823 4
  24307608.330 7  95388289.693 7

  22545352.036 7 118476673.876 7  92319522.241 7  22545354.018 7  22545351.200 7
  22545353.494 8  88472879.547 8

  21215225.810 7 111486847.837 7  86872900.806 6  21215225.644 6  21215225.623 6
  21215228.728 8  83253222.425 8

 23  9 13 17  5 30.0000000  0 11G07G15G13G18G05G20G22G24G23G30G14
  24966903.951 6 131201976.146 6 102235321.556 5  24966903.857 5  24966903.558 5


  20970962.603 8 110203191.421 8  85872634.892 7  20970962.776 7  20970962.371 7


  19921487.636 8 104688182.269 8  81575216.831 7  19921486.196 7  19921487.247 7


  24443525.936 6 128451602.211 6 100092177.485 4  24443526.402 4  24443525.735 4
  24443531.032 8  95921685.804 8

  21712643.175 8 114100746.001 8  88909675.503 8  21712643.083 8  21712642.876 8


  23612969.777 6 124086989.419 6  96691175.917 4  23612970.923 4  23612968.673 4


  21244996.530 8 111643288.940 8  86994805.851 6  21244996.289 6  21244995.752 6


  23639125.914 6 124224474.028 6  96798316.844 4  23639129.262 4  23639125.780 4
  23639129.177 8  92765046.810 8

  24289289.206 6 127641086.937 6  99460600.636 4  24289291.709 4  24289288.934 4
  24289294.550 7  95316422.780 7

  22560482.980 7 118556187.418 7  92381480.802 7  22560484.848 7  22560482.144 7
  22560484.496 8  88532256.487 8

  21215616.453 7 111488900.364 7  86874500.187 6  21215616.389 6  21215616.266 6
  21215619.290 8  83254755.165 8

 23  9 13 17  6  0.0000000  0 11G07G15G13G18G05G20G22G24G23G30G14
  24984131.643 6 131292510.441 6 102305867.696 5  24984132.058 5  24984131.102 5


  20958067.541 8 110135427.016 8  85819831.485 7  20958067.173 7  20958067.309 7


  19921095.855 8 104686124.118 8  81573613.078 7  19921094.428 7  19921095.466 7


  24450824.644 6 128489961.331 6 100122067.705 4  24450826.450 4  24450824.448 4
  24450830.476 8  95950330.582 8

  21727952.719 8 114181196.908 8  88972364.490 8  21727952.319 8  21727952.420 8


  23634282.326 6 124198986.702 6  96778446.407 4  23634283.488 4  23634281.231 4


  21239196.833 8 111612810.413 8  86971056.376 6  21239196.377 6  21239196.055 6


  23619438.746 6 124121018.664 6  96717702.363 4  23619442.443 4  23619438.621 4
  23619441.842 7  92687791.272 7

  24271032.091 6 127545145.922 6  99385841.484 4  24271034.542 4  24271031.796 4
  24271037.664 7  95244778.604 7

  22575651.508 7 118635897.948 7  92443592.859 7  22575653.407 7  22575650.677 7
  22575652.984 8  88591780.529 8

  21216120.712 7 111491550.239 7  86876565.036 6  21216120.832 6  21216120.525 6
  21216123.492 8  83256733.978 8

 23  9 13 17  6 30.0000000  0 11G07G15G13G18G05G20G22G24G23G30G14
  25001363.868 6 131383067.125 6 102376431.278 5  25001364.726 5  25001363.238 5


  20945244.127 8 110068040.455 8  85767322.498 7  20945243.321 7  20945243.891 7


  19920783.483 8 104684482.652 8  81572334.014 7  19920781.772 7  19920783.094 7


  24458218.438 6 128528814.651 6 100152343.008 4  24458221.028 4  24458218.237 4
  24458224.189 8  95979344.410 8

  21743344.349 8 114262081.083 8  89035391.085 8  21743344.226 8  21743344.041 8


  23655616.962 6 124311099.951 6  96865807.272 4  23655618.026 4  23655615.862 4


  21233502.325 8 111582887.114 8  86947739.538 6  21233502.143 6  21233501.538 6


  23599782.090 6 124017723.352 6  96637212.600 4  23599785.571 4  23599781.988 4
  23599785.405 8  92610655.255 8

  24252831.055 6 127449496.245 6  99311309.341 4  24252833.073 4  24252830.769 4
  24252836.078 7  95173351.996 7

  22590855.114 7 118715794.408 7  92505849.796 7  22590857.416 7  22590854.283 7
  22590856.803 8  88651443.410 8

  21216736.688 7 111494787.544 7  86879087.615 6  21216736.801 6  21216736.505 6
  21216739.640 8  83259151.451 8

 23  9 13 17  7  0.0000000  0 11G07G15G13G18G05G20G22G24G23G30G14
  25018601.004 6 131473653.792 6 102447018.241 5  25018602.891 5  25018600.378 5


  20932494.939 8 110001041.630 8  85715115.635 7  20932493.211 7  20932494.703 7


  19920552.385 8 104683267.459 8  81571387.113 7  19920550.657 7  19920552.001 7


  24465707.578 6 128568168.601 6 100183008.394 4  24465709.961 4  24465707.391 4
  24465713.214 8  96008732.078 8

  21758819.622 7 114343404.110 7  89098759.635 8  21758819.668 8  21758819.318 8


  23676974.189 6 124423334.768 6  96953262.851 4  23676975.567 4  23676973.089 4


  21227915.840 8 111553528.557 8  86924862.758 6  21227915.246 6  21227915.071 6


  23580157.805 6 123914597.717 6  96556855.040 4  23580160.278 4  23580157.712 4
  23580160.926 8  92533645.945 8

  24234686.710 6 127354149.168 6  99237012.984 4  24234688.676 4  24234686.465 4
  24234691.810 7  95102151.337 7

  22606095.751 7 118795883.803 7  92568257.068 7  22606098.116 7  22606094.906 7
  22606097.363 8  88711250.368 8

  21217466.109 7 111498620.456 7  86882074.298 6  21217466.054 6  21217465.922 6
  21217469.128 8  83262013.692 8

 23  9 13 17  7 30.0000000  0 11G07G15G13G18G05G20G22G24G23G30G14
  25035842.007 6 131564259.703 6 102517620.190 5  25035844.631 5  25035841.471 5


  20919817.574 8 109934423.052 8  85663205.071 7  20919816.134 7  20919817.351 7


  19920400.217 8 104682468.055 8  81570764.202 7  19920399.004 7  19920399.828 7


  24473289.145 6 128608011.299 6 100214054.608 4  24473290.705 4  24473288.962 4
  24473294.591 7  96038484.717 7

  21774375.948 8 114425153.357 8  89162460.310 8  21774376.009 8  21774375.644 8


  23698352.251 6 124535678.861 6  97040803.595 4  23698353.984 4  23698351.138 4


  21222434.676 8 111524725.580 8  86902418.897 6  21222433.748 6  21222433.903 6


  23560564.699 6 123811633.141 6  96476622.972 4  23560566.473 4  23560564.628 4
  23560567.303 7  92456756.908 7

  24216599.090 6 127259097.543 6  99162946.863 4  24216600.428 4  24216598.858 4
  24216603.989 7  95031171.311 7

  22621370.859 7 118876154.872 7  92630805.906 7  22621373.321 7  22621370.010 7
  22621372.443 8  88771192.997 8

  21218306.853 7 111503038.844 7  86885517.199 6  21218306.895 6  21218306.661 6
  21218309.791 8  83265313.143 8

 23  9 13 17  8  0.0000000  0 11G07G15G13G18G05G20G22G24G23G30G14
  25053088.432 6 131654893.498 6 102588243.849 5  25053091.705 5  25053088.021 5


  20907214.976 8 109868196.501 8  85611599.991 7  20907214.420 7  20907214.753 7


  19920329.181 8 104682095.144 8  81570473.626 7  19920328.143 7  19920328.788 7


  24480965.016 6 128648350.414 6 100245487.637 4  24480966.843 4  24480964.833 4
  24480970.197 7  96068608.037 7

  21790014.830 8 114507336.133 8  89226498.797 8  21790015.077 8  21790014.526 8


  23719753.282 6 124648138.981 6  97128434.742 3  23719753.863 3  23719752.138 3


  21217061.407 8 111496488.606 8  86880416.082 6  21217060.273 6  21217060.634 6


  23541003.622 6 123708840.450 6  96396524.842 4  23541006.176 4  23541003.546 4
  23541006.595 7  92379996.217 7

  24198570.337 6 127164353.780 6  99089120.604 4  24198570.505 4  24198570.105 4
  24198575.033 7  94960421.168 7

  22636682.427 7 118956615.934 7  92693502.787 7  22636684.713 7  22636681.582 7
  22636683.728 8  88831277.506 8

  21219260.779 7 111508052.083 7  86889423.621 6  21219261.076 6  21219260.587 6
  21219263.809 8  83269056.804 8

 23  9 13 17  8 30.0000000  0 11G07G15G13G18G05G20G22G24G23G30G14
  25070340.298 6 131745548.786 6 102658884.280 5  25070342.860 5  25070339.963 5


  20894686.325 8 109802358.083 8  85560297.360 7  20894686.465 7  20894686.097 7


  19920338.616 8 104682144.154 8  81570511.811 7  19920337.212 7  19920338.227 7


  24488734.572 6 128689178.275 6 100277301.534 4  24488736.658 4  24488734.385 4
  24488738.311 7  96099096.341 7

  21805734.741 7 114589944.661 7  89290869.033 8  21805735.470 8  21805734.437 8


  23741174.229 6 124760706.628 6  97216149.657 3  23741175.251 3  23741173.071 3


  21211794.942 8 111468813.134 8  86858850.804 6  21211793.794 6  21211794.173 6


  23521475.109 6 123606215.281 6  96316557.256 4  23521477.681 4  23521475.033 4
  23521477.601 7  92303360.618 7

  24180598.688 6 127069915.113 6  99015532.101 4  24180599.567 4  24180598.447 4
  24180603.884 7  94889898.888 7

  22652028.297 7 119037260.037 7  92756342.300 7  22652030.894 7  22652027.457 7
  22652029.878 8  88891498.695 8

  21220327.057 7 111513654.212 7  86893788.910 6  21220327.185 6  21220326.865 6
  21220329.857 8  83273240.211 8

 23  9 13 17  9  0.0000000  0 11G07G15G13G18G05G20G22G24G23G30G14
  25087596.183 6 131836226.797 6 102729542.401 6  25087598.423 6  25087595.862 6


  20882232.583 8 109736911.988 8  85509300.433 7  20882232.803 7  20882232.360 7


  19920428.344 8 104682616.012 8  81570879.484 7  19920427.246 7  19920427.951 7


  24496597.055 6 128730494.782 6 100309496.192 4  24496599.707 4  24496596.886 4
  24496601.231 7  96129949.504 7

  21821535.648 8 114672978.094 8  89355570.368 8  21821535.790 8  21821535.349 8


  23762615.674 6 124873380.869 6  97303947.667 3  23762616.145 3  23762614.525 3


  21206635.771 8 111441701.541 8  86837724.909 6  21206634.444 6  21206634.993 6


  23501978.768 6 123503760.770 6  96236722.633 4  23501981.379 4  23501978.675 4
  23501981.251 7  92226852.464 7

  24162686.544 6 126975786.212 6  98942184.998 4  24162688.149 4  24162686.308 4
  24162691.571 7  94819607.950 7

  22667409.414 7 119118087.674 7  92819324.830 7  22667411.930 7  22667408.574 7
  22667410.848 8  88951856.949 8

  21221505.257 7 111519846.849 7  86898614.342 6  21221505.319 6  21221505.065 6
  21221508.303 8  83277864.583 8

 23  9 13 17  9 30.0000000  0 11G07G15G13G18G05G20G22G24G23G30G14
  25104855.638 6 131926924.970 6 102800216.242 6  25104857.686 6  25104855.312 6


  20869853.180 8 109671858.362 8  85458609.322 7  20869853.346 7  20869852.952 7


  19920598.414 8 104683510.353 8  81571576.366 7  19920597.829 7  19920598.021 7


  24504551.565 6 128772296.030 6 100342068.574 4  24504554.208 4  24504551.405 4
  24504556.748 7  96161164.656 7

  21837416.388 7 114756432.101 7  89420599.435 8  21837416.080 8  21837416.084 8


  23784076.743 6 124986157.222 6  97391825.239 4  23784077.286 4  23784075.581 4


  21201583.735 8 111415152.877 8  86817037.658 6  21201582.464 6  21201582.957 6


  23482514.239 6 123401476.351 6  96157020.563 4  23482517.745 4  23482514.146 4
  23482517.083 7  92150471.322 7

  24144833.617 6 126881968.029 6  98869080.010 4  24144835.619 4  24144833.389 4
  24144838.427 7  94749549.000 7

  22682824.611 7 119199095.747 7  92882447.960 7  22682827.363 7  22682823.766 7
  22682826.162 8  89012349.936 8

  21222795.710 7 111526627.859 7  86903898.250 6  21222795.184 6  21222795.518 6
  21222798.646 8  83282928.330 8

 23  9 13 17 10  0.0000000  0 11G07G15G13G18G05G20G22G24G23G30G14
  25122119.849 6 132017646.563 6 102870908.321 6  25122121.503 6  25122119.465 6


  20857549.755 8 109607203.550 8  85408228.968 7  20857549.322 7  20857549.527 7


  19920849.997 8 104684832.440 8  81572606.560 7  19920849.364 7  19920849.604 7


  24512598.766 6 128814584.342 6 100375020.490 4  24512600.548 4  24512598.606 4
  24512604.399 7  96192743.563 7

  21853377.527 8 114840308.407 8  89485957.553 8  21853377.561 8  21853377.219 8


  23805556.924 6 125099037.456 6  97479783.743 3  23805557.656 3  23805555.766 3


  21196639.652 8 111389172.306 8  86796793.083 6  21196638.918 6  21196638.874 6


  23463083.227 6 123299367.645 6  96077455.412 4  23463087.135 4  23463083.129 4
  23463086.130 7  92074221.394 7

  24127040.762 6 126788467.762 6  98796222.733 4  24127043.204 4  24127040.517 4
  24127045.852 7  94679727.454 7

  22698274.731 7 119280287.287 7  92945714.044 7  22698277.721 7  22698273.868 7
  22698276.426 8  89072979.929 8

  21224198.795 8 111534001.267 8  86909643.768 6  21224198.217 6  21224198.599 6
  21224201.698 8  83288434.447 8

 23  9 13 17 10 30.0000000  0 11G07G15G13G18G05G20G22G24G23G30G14
  25139387.632 6 132108385.522 6 102941613.946 6  25139388.852 6  25139387.181 6


  20845321.564 8 109542944.216 8  85358156.774 7  20845320.569 7  20845321.336 7


  19921181.980 8 104686576.548 8  81573965.602 7  19921180.936 7  19921181.587 7


  24520737.216 6 128857352.340 6 100408346.163 4  24520738.114 4  24520737.060 4
  24520742.439 7  96224680.664 7

  21869417.736 7 114924599.740 7  89551639.068 8  21869417.900 8  21869417.432 8


  23827055.402 6 125212013.503 6  97567816.914 3  23827056.914 3  23827054.244 3


  21191803.025 8 111363755.091 8  86776987.483 6  21191802.462 6  21191802.247 6


  23443685.292 6 123197430.487 6  95998023.930 5  23443689.231 5  23443685.185 5
  23443687.889 7  91998099.571 7

  24109308.828 6 126695282.862 6  98723611.194 4  24109310.349 4  24109308.578 4
  24109312.945 7  94610141.398 7

  22713759.068 7 119361655.643 7  93009117.914 7  22713761.697 7  22713758.197 7
  22713760.465 8  89133741.965 8

  21225713.478 8 111541961.319 8  86915846.409 6  21225713.229 6  21225713.282 6
  21225716.392 8  83294378.649 8

 23  9 13 17 11  0.0000000  0 11G07G15G13G18G05G20G22G24G23G30G14
  25156658.597 6 132199145.145 6 103012335.675 6  25156659.956 6  25156658.061 6


  20833169.819 8 109479086.214 8  85308397.303 7  20833168.837 7  20833169.591 7


  19921595.176 8 104688747.472 8  81575657.230 7  19921594.024 7  19921594.783 7


  24528967.471 6 128900601.919 6 100442047.098 4  24528968.951 4  24528967.324 4
  24528971.844 7  96256977.410 7

  21885536.933 7 115009306.185 7  89617644.058 8  21885536.534 8  21885536.625 8


  23848572.459 6 125325086.786 6  97655925.867 3  23848573.932 3  23848571.315 3


  21187074.449 8 111338905.993 8  86757624.569 6  21187073.588 6  21187073.680 6


  23424320.853 6 123095670.246 6  95918730.302 5  23424324.612 5  23424320.728 5
  23424323.697 8  91922109.855 8

  24091637.583 6 126602420.136 6  98651250.700 4  24091639.224 4  24091637.320 4
  24091641.877 7  94540795.935 7

  22729276.785 7 119443203.486 7  93072661.647 7  22729279.674 7  22729275.914 7
  22729278.564 8  89194638.034 8

  21227340.525 7 111550511.652 7  86922509.011 6  21227340.668 6  21227340.324 6
  21227343.373 8  83300763.636 8

 23  9 13 17 11 30.0000000  0 11G07G15G13G18G05G20G22G24G23G30G14
  25173931.865 6 132289921.015 6 103083070.078 6  25173934.159 6  25173931.302 6


  20821094.155 8 109415628.106 8  85258949.435 7  20821093.360 7  20821093.927 7


  19922088.704 8 104691341.728 8  81577678.726 7  19922087.668 7  19922088.311 7


  24537288.258 6 128944327.364 6 100476118.836 4  24537291.287 4  24537288.124 4
  24537292.380 7  96289629.500 7

  21901733.837 7 115094422.154 7  89683968.146 8  21901733.695 8  21901733.529 8


  23870107.301 6 125438250.573 6  97744105.296 3  23870109.126 3  23870106.152 3


  21182453.323 8 111314622.413 8  86738702.314 6  21182452.197 6  21182452.550 6


  23404990.082 6 122994084.476 6  95839572.624 5  23404993.387 5  23404989.930 5
  23404992.509 8  91846250.444 8

  24074027.123 6 126509878.814 6  98579140.657 4  24074028.703 4  24074026.851 4
  24074031.805 7  94471690.483 7

  22744828.129 7 119524925.931 7  93136341.432 7  22744830.834 7  22744827.262 7
  22744829.861 8  89255664.492 8

  21229079.372 7 111559648.238 7  86929628.431 6  21229079.500 6  21229079.167 6
  21229081.991 8  83307586.412 8

 23  9 13 17 12  0.0000000  0 11G07G15G13G18G05G20G22G24G23G30G14
  25191208.933 6 132380715.086 6 103153818.666 6  25191211.691 6  25191208.406 6


  20809095.483 8 109352574.405 8  85209816.689 7  20809095.105 7  20809095.251 7


  19922663.714 8 104694362.852 8  81580032.839 7  19922662.554 7  19922663.325 7


  24545699.470 6 128988529.080 6 100510561.707 4  24545702.717 4  24545699.341 4
  24545704.390 7  96322637.237 7

  21918008.705 8 115179947.840 8  89750611.492 8  21918008.548 8  21918008.397 8


  23891658.751 6 125551504.697 6  97832355.167 3  23891660.229 3  23891657.629 3


  21177940.277 8 111290907.106 8  86720222.877 6  21177939.263 6  21177939.499 6


  23385693.133 6 122892676.983 6  95760553.859 5  23385695.934 5  23385692.959 5
  23385695.084 8  91770524.146 8

  24056479.273 6 126417664.186 6  98507285.170 4  24056480.482 4  24056478.996 4
  24056484.074 8  94402829.000 8

  22760413.058 7 119606824.191 7  93200158.221 7  22760415.529 7  22760412.200 7
  22760414.571 8  89316822.228 8

  21230929.753 7 111569373.158 7  86937206.291 6  21230930.079 6  21230929.548 6
  21230932.702 8  83314848.527 8

 23  9 13 17 12 30.0000000  0 11G07G15G13G18G05G20G22G24G23G30G14
  25208489.745 6 132471526.703 6 103224580.925 6  25208492.602 6  25208489.316 6


  20797173.942 8 109289927.255 8  85161000.737 7  20797173.689 7  20797173.714 7


  19923320.012 8 104697811.534 8  81582720.117 7  19923318.898 7  19923319.623 7


  24554201.228 6 129033204.908 6 100545374.041 4  24554203.161 4  24554201.126 4
  24554206.451 7  96355999.021 7

  21934361.514 7 115265880.776 7  89817572.192 8  21934360.475 8  21934361.201 8


  23913227.260 6 125664846.615 6  97920673.417 4  23913229.341 4  23913226.147 4


  21173535.715 8 111267760.968 8  86702186.948 6  21173534.736 6  21173534.942 6


  23366429.619 6 122791449.006 6  95681674.979 5  23366432.641 5  23366429.454 5
  23366432.027 8  91694931.903 8

  24038993.642 6 126325779.073 6  98435686.461 4  24038995.591 4  24038993.352 4
  24038998.765 8  94334213.585 8

  22776030.858 7 119688896.961 7  93264110.995 7  22776033.513 7  22776029.995 7
  22776032.589 8  89378110.297 8

  21232892.115 7 111579685.970 7  86945242.247 6  21232892.277 6  21232891.914 6
  21232895.214 8  83322549.652 8

 23  9 13 17 13  0.0000000  0 11G07G15G13G18G05G20G22G24G23G30G14
  25225774.269 6 132562354.486 6 103295355.780 6  25225776.571 6  25225773.867 6


  20785330.199 8 109227688.392 8  85112502.938 7  20785330.060 7  20785329.967 7


  19924057.509 8 104701687.097 8  81585740.026 7  19924056.182 7  19924057.120 7


  24562792.393 6 129078352.630 6 100580554.049 4  24562793.914 4  24562792.309 4
  24562797.789 7  96389713.199 7

  21950790.813 8 115352217.720 8  89884847.695 8  21950790.361 8  21950790.505 8


  23934811.430 6 125778273.470 6  98009057.860 3  23934813.724 3  23934810.326 3


  21169239.559 8 111245184.428 8  86684594.866 6  21169238.230 6  21169238.786 6


  23347200.722 6 122690401.694 6  95602936.879 5  23347204.022 5  23347200.557 5
  23347203.586 8  91619474.572 8

  24021572.004 6 126234226.177 6  98364346.594 4  24021573.642 4  24021571.714 4
  24021576.860 8  94265846.230 8

  22791681.539 7 119771142.900 7  93328198.698 7  22791684.485 7  22791680.681 7
  22791683.461 8  89439527.668 8

  21234966.430 7 111590586.138 7  86953735.880 6  21234966.314 6  21234966.225 6
  21234969.564 8  83330689.381 8

 23  9 13 17 13 30.0000000  0 10G15G13G18G05G20G22G24G23G30G14
  20773564.625 8 109165859.092 8  85064324.285 7  20773564.639 7  20773564.389 7


  19924876.255 8 104705989.441 8  81589092.495 7  19924874.629 7  19924875.866 7


  24571473.154 6 129123968.798 6 100616099.073 4  24571474.321 4  24571473.056 4
  24571477.770 7  96423777.201 7

  21967296.549 7 115438955.509 7  89952435.539 8  21967296.388 8  21967296.236 8


  23956411.031 6 125891781.266 6  98097505.359 4  23956413.878 4  23956409.905 4


  21165051.576 8 111223176.859 8  86667446.138 6  21165050.052 6  21165050.803 6


  23328006.117 6 122589535.005 6  95524339.529 5  23328009.708 5  23328005.948 5
  23328009.087 8  91544152.119 8

  24004213.362 6 126143007.009 6  98293266.768 4  24004215.001 4  24004213.076 4
  24004218.448 8  94197728.096 8

  22807364.923 7 119853559.377 7  93392419.294 7  22807367.865 7  22807364.069 7
  22807366.789 8  89501072.400 8

  21237152.315 7 111602071.847 7  86962685.783 6  21237152.194 6  21237152.114 6
  21237155.215 8  83339266.367 8

 23  9 13 17 14  0.0000000  0 10G15G13G18G05G20G22G24G23G30G14
  20761876.818 8 109104438.774 8  85016464.318 7  20761876.728 7  20761876.590 7


  19925775.879 8 104710717.475 8  81592776.676 7  19925774.655 7  19925775.490 7


  24580241.434 6 129170049.351 6 100652005.969 4  24580243.702 4  24580241.296 4
  24580246.565 7  96458187.975 7

  21983877.936 8 115526090.070 8  90020332.564 8  21983877.537 8  21983877.632 8


  23978025.872 6 126005365.453 6  98186012.383 4  23978028.366 4  23978024.719 4


  21160971.723 8 111201737.070 8  86650739.831 6  21160970.430 6  21160970.950 6


  23308846.271 7 122488848.369 7  95445882.461 5  23308849.079 5  23308846.111 5
  23308849.323 8  91468964.113 8

  23986918.662 6 126052122.537 6  98222447.757 4  23986920.353 4  23986918.376 4
  23986923.370 7  94129859.888 7

  22823080.084 7 119936143.310 7  93456770.368 7  22823083.097 7  22823079.235 7
  22823082.076 8  89562742.169 8

  21239448.716 7 111614140.713 7  86972090.087 6  21239449.104 6  21239448.511 6
  21239451.795 8  83348278.825 8

 23  9 13 17 14 30.0000000  0 10G15G13G18G05G20G22G24G23G30G14
  20750267.795 8 109043432.160 8  84968926.711 7  20750267.488 7  20750267.563 7


  19926757.125 8 104715873.510 8  81596794.369 7  19926756.505 7  19926756.736 7


  24589099.624 6 129216594.664 6 100688275.027 4  24589101.285 4  24589099.481 4
  24589103.733 7  96492945.798 7

  22000534.273 7 115613619.752 7  90088537.473 8  22000534.174 8  22000533.969 8


  23999654.706 6 126119025.687 6  98274578.660 4  23999657.562 4  23999653.557 4


  21157000.631 8 111180868.136 8  86634478.343 6  21156999.745 6  21156999.862 6


  23289721.110 7 122388345.526 7  95367568.626 5  23289723.846 5  23289720.967 5
  23289724.223 8  91393913.382 8

  23969688.679 6 125961578.097 6  98151893.722 4  23969690.066 4  23969688.389 4
  23969693.312 7  94062245.634 7

  22838827.884 7 120018895.983 7  93521252.931 7  22838830.479 7  22838827.053 7
  22838829.323 8  89624537.942 8

  21241856.729 7 111626794.756 7  86981950.378 6  21241857.109 6  21241856.524 6
  21241859.746 8  83357728.272 8

 23  9 13 17 15  0.0000000  0 10G15G13G18G05G20G22G24G23G30G14
  20738737.555 8 108982842.384 8  84921713.910 7  20738737.225 7  20738737.323 7


  19927819.951 8 104721458.728 8  81601146.489 7  19927818.772 7  19927819.562 7


  24598044.685 6 129263603.480 6 100724905.256 4  24598046.243 4  24598044.529 4
  24598049.465 7  96528049.740 7

  22017265.532 7 115701543.301 7  90157049.293 8  22017265.516 8  22017265.233 8


  24021298.378 6 126232760.506 6  98363203.064 4  24021300.118 4  24021297.225 4


  21153138.193 8 111160571.303 8  86618662.643 6  21153137.446 6  21153137.420 6


  23270631.300 7 122288028.731 7  95289399.766 5  23270634.091 5  23270631.157 5
  23270634.065 8  91319001.552 8

  23952524.309 6 125871377.491 6  98081607.588 4  23952525.332 4  23952524.019 4
  23952528.616 7  93994888.107 7

  22854607.042 7 120101817.085 7  93585866.733 7  22854609.904 7  22854606.211 7
  22854608.641 8  89686459.500 8

  21244376.266 7 111640034.383 7  86992266.969 6  21244376.215 6  21244376.061 6
  21244379.255 8  83367615.002 8

 23  9 13 17 15 30.0000000  0 10G15G13G18G05G20G22G24G23G30G14
  20727286.893 8 108922669.721 8  84874826.120 7  20727285.843 7  20727286.665 7


  19928964.323 8 104727472.430 8  81605832.484 7  19928961.552 7  19928963.943 7


  24607077.469 6 129311071.946 6 100761893.654 4  24607079.356 4  24607077.313 4
  24607082.695 7  96563496.935 7

  22034071.023 7 115789857.018 7  90225865.138 8  22034070.876 8  22034070.724 8


  24042954.159 6 126346565.600 6  98451882.224 3  24042956.963 3  24042953.010 3


  21149384.610 8 111140845.868 8  86603292.192 6  21149383.402 6  21149383.841 6


  23251576.820 7 122187897.562 7  95211375.554 5  23251579.780 5  23251576.677 5
  23251580.184 8  91244228.360 8

  23935425.094 6 125781521.907 6  98011590.314 4  23935426.838 4  23935424.813 4
  23935429.571 7  93927788.242 7

  22870418.053 7 120184903.702 7  93650609.503 7  22870420.741 7  22870417.231 7
  22870419.567 8  89748504.663 8

  21247006.765 7 111653857.412 7  87003038.160 6  21247006.380 6  21247006.560 6
  21247009.654 8  83377937.400 8

 23  9 13 17 16  0.0000000  0 10G15G13G18G05G20G22G24G23G30G14
  20715916.352 8 108862914.790 8  84828263.839 7  20715914.616 7  20715916.120 7


  19930189.917 8 104733912.957 8  81610851.068 6  19930186.607 6  19930189.533 6


  24616197.520 6 129358996.159 6 100799237.170 4  24616199.497 4  24616197.360 4
  24616202.570 7  96599284.462 7

  22050950.192 7 115878556.563 7  90294981.630 8  22050949.866 8  22050949.888 8


  24064623.602 6 126460436.622 6  98540612.757 3  24064625.842 3  24064622.471 3


  21145739.510 8 111121690.747 8  86588366.142 6  21145738.516 6  21145738.737 6


  23232557.761 7 122087951.734 7  95133495.748 5  23232560.800 5  23232557.632 5
  23232561.179 8  91169593.558 8

  23918392.104 6 125692012.506 6  97941842.814 4  23918393.962 4  23918391.818 4
  23918396.198 7  93860946.879 7

  22886259.774 7 120268153.014 7  93715479.058 7  22886262.499 7  22886258.965 7
  22886261.415 8  89810671.304 8

  21249747.597 7 111668261.645 7  87014262.232 6  21249747.437 6  21249747.396 6
  21249750.730 8  83388693.797 8

 23  9 13 17 16 30.0000000  0 10G15G13G18G05G20G22G24G23G30G14
  20704625.915 8 108803583.264 8  84782031.487 7  20704624.615 7  20704625.683 7


  19931497.729 8 104740785.631 8  81616206.400 6  19931494.976 6  19931497.345 6


  24625404.168 6 129407377.997 6 100836937.259 4  24625405.886 4  24625404.021 4
  24625409.493 7  96635413.725 7

  22067902.751 7 115967643.179 7  90364399.728 8  22067902.825 8  22067902.443 8


  24086305.640 6 126574375.086 6  98629395.844 3  24086307.488 3  24086304.482 3


  21142203.592 8 111103110.107 8  86573887.740 6  21142202.997 6  21142202.819 6


  23213575.211 7 121988196.534 7  95055764.490 5  23213578.183 5  23213575.077 5
  23213578.167 8  91095101.121 8

  23901426.032 6 125602856.187 6  97872370.425 4  23901427.458 4  23901425.760 4
  23901430.260 7  93794369.183 7

  22902133.188 7 120351567.858 7  93780477.595 7  22902135.769 7  22902132.370 7
  22902134.815 8  89872961.563 8

  21252599.950 7 111683250.496 7  87025941.854 6  21252599.949 6  21252599.745 6
  21252603.024 8  83399886.770 8

 23  9 13 17 17  0.0000000  0 10G15G13G18G05G20G22G24G23G30G14
  20693415.486 8 108744672.170 8  84736126.753 7  20693414.999 7  20693415.250 7


  19932886.741 8 104748085.232 8  81621894.408 6  19932884.324 6  19932886.357 6


  24634695.886 6 129456209.938 6 100874988.088 4  24634697.743 4  24634695.743 4
  24634701.882 7  96671879.105 7

  22084927.594 7 116057108.991 7  90434113.302 8  22084927.704 8  22084927.286 8


  24107998.519 6 126688372.989 6  98718225.239 3  24108000.266 3  24107997.312 3


  21138776.275 8 111085099.365 8  86559853.416 6  21138775.111 6  21138775.506 6


  23194627.864 6 121888628.017 6  94978178.693 5  23194630.564 5  23194627.726 5
  23194630.759 8  91020748.085 8

  23884526.916 6 125514050.449 6  97803171.230 4  23884528.124 4  23884526.653 4
  23884531.297 7  93728053.309 7

  22918036.455 7 120435141.758 7  93845600.076 7  22918039.376 7  22918035.628 7
  22918038.509 8  89935370.606 8

  21255562.417 7 111698818.111 7  87038072.455 6  21255562.532 6  21255562.216 6
  21255565.484 8  83411511.935 8

 23  9 13 17 17 30.0000000  0 10G15G13G18G05G20G22G24G23G30G14
  20682286.468 8 108686188.845 8  84690555.354 7  20682286.746 7  20682286.232 7


  19934357.946 8 104755816.549 8  81627918.818 6  19934355.202 6  19934357.566 6


  24644075.104 6 129505494.729 6 100913391.790 4  24644076.366 4  24644074.944 4
  24644079.879 7  96708682.640 7

  22102024.791 7 116146956.387 7  90504124.214 8  22102025.110 8  22102024.470 8


  24129703.130 6 126802433.066 6  98807103.087 3  24129705.188 3  24129701.905 3


  21135458.400 8 111067664.077 8  86546267.496 6  21135456.859 6  21135457.631 6


  23175717.771 6 121789252.419 6  94900743.236 5  23175720.625 5  23175717.628 5
  23175720.126 8  90946539.114 8

  23867696.049 6 125425603.158 6  97734251.329 4  23867697.199 4  23867695.781 4
  23867700.150 7  93662005.074 7

  22933971.189 7 120518878.535 7  93910849.473 7  22933974.020 7  22933970.367 7
  22933973.139 8  89997901.270 8

  21258636.017 7 111714968.883 7  87050657.472 6  21258636.004 6  21258635.812 6
  21258638.917 8  83423572.575 8

 23  9 13 17 18  0.0000000  0 10G15G13G18G05G20G22G24G23G30G14
  20671238.395 8 108628131.147 8  84645315.609 7  20671238.850 7  20671238.159 7


  19935910.782 8 104763976.871 8  81634277.520 6  19935907.617 6  19935910.398 6


  24653539.389 6 129555226.307 6 100952143.647 4  24653541.243 4  24653539.255 4
  24653543.549 7  96745819.824 7

  22119193.668 7 116237179.000 7  90574427.502 8  22119194.024 8  22119193.342 8


  24151418.951 6 126916548.177 6  98896023.795 3  24151421.187 3  24151417.758 3


  21132249.594 8 111050800.954 8  86533127.423 6  21132248.320 6  21132248.825 6


  23156843.849 6 121690067.245 6  94823456.161 5  23156846.157 5  23156843.680 5
  23156845.324 8  90872472.340 8

  23850932.884 6 125337513.391 6  97665610.033 4  23850934.308 4  23850932.634 4
  23850937.278 7  93596223.840 7

  22949935.790 7 120602773.148 7  93976221.855 7  22949938.706 7  22949934.981 7
  22949937.829 8  90060549.792 8

  21261819.452 7 111731698.369 7  87063693.431 6  21261819.382 6  21261819.242 6
  21261822.384 8  83436065.367 8

