     3.03           OBSERVATION DATA    M: Mixed            RINEX VERSION / TYPE
RTKCONV demo5 b34f.1                    20230902 150346 UTC PGM / RUN BY / DATE 
format: u-blox UBX                                          COMMENT             
log: C:\Users\oo\Desktop\log_gnss_02062023-02-41-59.ubx     COMMENT             
                                                            MARKER NAME         
                                                            MARKER NUMBER       
                                                            MARKER TYPE         
                                                            OBSERVER / AGENCY   
                                                            REC # / TYPE / VERS 
                                                            ANT # / TYPE        
  4200208.1118   162632.9172  4781278.8615                  APPROX POSITION XYZ 
        0.0000        0.0000        0.0000                  ANTENNA: DELTA H/E/N
G    4 C1C L1C D1C S1C                                      SYS / # / OBS TYPES 
  2023    09    02    10    24   30.0020000     GPS         TIME OF FIRST OBS   
  2023    09    02    12    10   47.0020000     GPS         TIME OF LAST OBS    
G L1C                                                       SYS / PHASE SHIFT   
  0                                                         GLONASS SLOT / FRQ #
 C1C    0.000 C1P    0.000 C2C    0.000 C2P    0.000        GLONASS COD/PHS/BIS 
                                                            END OF HEADER       
> 2023 09 02 10 24 30.0020000  0 10                     
G03  20641354.484   108471060.5711       -327.728          39.000  
G04  22476127.753   118112833.7701       2800.009          28.000  
G09  24564046.027   129084938.4051       3623.206          34.000  
G17  21976195.907   115485674.8911        106.748          35.000  
G19  22470693.860   118084308.5621       1804.209          34.000  
G02  23022494.071   120984024.3521      -2672.024          35.000  
G21  23754060.840   124828368.4621      -2875.836          33.000  
G01  21472264.785   112837513.0921      -2424.048          37.000  
G28  24349326.646   127956565.7481        264.734          33.000  
G31  24294071.474   127666210.7981       1878.912          34.000  
> 2023 09 02 10 24 31.0020000  0 10                     
G03  20641417.095   108471389.105        -329.126          42.000  
G04  22475590.007   118110034.118        2798.224          30.000  
G09  24563356.464   129081315.142        3622.711          37.000  
G17  21976175.455   115485568.803         105.624          37.000  
G19  22470353.511   118082505.511        1803.053          36.000  
G02  23023002.814   120986697.672       -2673.243          37.000  
G21  23754607.905   124831244.331       -2875.842          36.000  
G01  21472726.273   112839937.959       -2425.140          40.000  
G28  24349276.529   127956301.912         263.367          35.000  
G31  24293714.233   127664333.006        1877.295          35.000  
> 2023 09 02 10 24 32.0020000  0 10                     
G03  20641479.741   108471718.517        -330.145          42.000  
G04  22475058.194   118107235.254        2798.344          31.000  
G09  24562666.866   129077692.461        3622.180          37.000  
G17  21976155.422   115485463.768         104.532          38.000  
G19  22470007.124   118080703.465        1801.942          37.000  
G02  23023511.383   120989371.758       -2674.862          37.000  
G21  23755155.527   124834120.915       -2876.878          36.000  
G01  21473187.936   112842363.699       -2426.160          40.000  
G28  24349226.761   127956039.133         262.604          35.000  
G31  24293356.888   127662456.074        1876.385          35.000  
> 2023 09 02 10 24 33.0020000  0 10                     
G03  20641542.597   108472048.517        -330.234          42.000  
G04  22474527.743   118104436.930        2797.717          31.000  
G09  24561977.513   129074070.037        3621.991          37.000  
G17  21976135.738   115485359.481         103.602          37.000  
G19  22469667.264   118078902.171        1801.258          37.000  
G02  23024020.162   120992046.249       -2674.856          37.000  
G21  23755702.906   124836997.825       -2877.567          36.000  
G01  21473649.739   112844790.005       -2426.868          40.000  
G28  24349176.854   127955777.124         261.731          36.000  
G31  24292999.821   127660579.793        1875.580          35.000  
> 2023 09 02 10 24 34.0020000  0 10                     
G03  20641605.523   108472379.712        -331.664          41.000  
G04  22473996.977   118101639.815        2797.136          32.000  
G09  24561288.334   129070448.482        3621.130          37.000  
G17  21976116.194   115485256.553         102.081          37.000  
G19  22469322.971   118077102.269        1798.963          37.000  
G02  23024529.359   120994721.811       -2676.003          36.000  
G21  23756250.424   124839875.610       -2878.326          37.000  
G01  21474111.611   112847217.424       -2428.125          40.000  
G28  24349127.190   127955516.489         259.869          35.000  
G31  24292642.581   127658704.678        1875.049          35.000  
> 2023 09 02 10 24 35.0020000  0 10                     
G03  20641669.181   108472711.419        -332.585          43.000  
G04  22473465.408   118098843.075        2796.275          35.000  
G09  24560599.120   129066827.051        3620.459          39.000  
G17  21976096.615   115485154.260         101.632          39.000  
G19  22468981.959   118075302.944        1798.586          38.000  
G02  23025038.452   120997397.704       -2676.751          39.000  
G21  23756798.256   124842753.691       -2879.052          37.000  
G01  21474573.588   112849645.323       -2428.632          41.000  
G28  24349077.492   127955256.496         258.856          36.000  
G31  24292285.479   127656830.141        1873.749          36.000  
> 2023 09 02 10 42 21.0020000  0 11                     
G03  20765924.608   109125672.7653       -826.095          47.000  
G04  21959826.067   115399662.0413       2315.354          44.000  
G09  23850946.892   125337559.6333       3421.651          43.000  
G17  22030955.946   115773447.9043       -580.048          44.000  
G19  22181860.857                        1080.553          42.000  
G02  23608375.359                       -3004.776          39.000  
G21  24369693.738   128063635.1893      -3095.965          31.000  
G01  22019505.497   115713292.3343      -2875.130          45.000  
G28  24373171.252   128081893.1423       -438.092          36.000  
G31  23975647.265                        1292.752          31.000  
G06  24248944.548   127429065.5863       3091.911          33.000  
> 2023 09 02 10 42 22.0020000  0 11                     
G03  20766082.567   109126497.9142       -824.703          46.000  
G04  21959384.472   115397346.3972       2315.903          44.000  
G09  23850297.604   125334137.1192       3423.145          42.000  
G17  22031065.150   115774028.5242       -580.955          44.000  
G19  22181655.817   116565387.9283       1080.991          44.000  
G02  23608948.738   124065862.0303      -3005.540          42.000  
G21  24370283.241                       -3094.572          32.000  
G01  22020054.865                       -2873.688          45.000  
G28  24373259.027   128082340.2173       -437.537          37.000  
G31  23975404.742   125991601.8523       1292.768          34.000  
G06  24248352.008   127425972.6482       3093.764          34.000  
> 2023 09 02 10 42 23.0020000  0 11                     
G03  20766238.258   109127318.0193       -826.812          46.000  
G04  21958945.005   115395034.7143       2314.050          44.000  
G09  23849646.467   125330715.2832       3421.673          42.000  
G17  22031176.343   115774612.1373       -582.368          44.000  
G19  22181449.765   116564305.1763       1079.054          44.000  
G02  23609523.374   124068868.7252      -3007.387          42.000  
G21  24370874.036   128069807.2703      -3096.643          31.000  
G01  22020597.567   115719021.0253      -2875.194          45.000  
G28  24373340.868   128082779.4672       -439.893          38.000  
G31  23975160.404   125990310.6362       1290.439          35.000  
G06  24247763.727   127422880.3802       3092.033          34.000  
> 2023 09 02 10 42 24.0020000  0 11                     
G03  20766396.043   109128146.7882       -831.281          46.000  
G04  21958501.700   115392722.7662       2309.454          44.000  
G09  23848993.968   125327295.9682       3416.806          42.000  
G17  22031285.267   115775196.6772       -586.984          44.000  
G19  22181245.947   116563228.3752       1074.203          44.000  
G02  23610096.928   124071877.9642      -3011.785          42.000  
G21  24371458.758   128072906.0422      -3100.702          30.000  
G01  22021147.598   115721898.4722      -2879.984          45.000  
G28  24373428.294   128083221.5902       -444.543          37.000  
G31  23974911.040   125989022.2292       1285.804          35.000  
G06  24247178.656   127419790.4262       3087.523          34.000  
> 2023 09 02 10 42 25.0020000  0 11                     
G03  20766554.910   109128980.0722       -834.716          46.000  
G04  21958065.165   115390415.3782       2306.019          44.000  
G09  23848345.204   125323880.9162       3413.728          42.000  
G17  22031397.751   115775785.9222       -590.667          44.000  
G19  22181042.128   116562156.3672       1070.187          44.000  
G02  23610669.609   124074891.5582      -3014.861          42.000  
G21  24372049.273   128076009.0952      -3105.066          30.000  
G01  22021695.954   115724780.3412      -2883.132          45.000  
G28  24373512.369   128083668.4672       -448.236          37.000  
G31  23974666.423   125987738.4992       1282.401          34.000  
G06  24246593.725   127416704.6512       3084.305          35.000  
> 2023 09 02 10 42 26.0020000  0 11                     
G03  20766715.801                        -836.572          47.000  
G04  21957627.758   115388111.7213       2305.065          45.000  
G09  23847695.323   125320484.3463       3413.404          42.000  
G17  22031510.026   115776366.0313       -591.488          44.000  
G19  22180839.252   116561096.7953       1069.370          45.000  
G02  23611244.070   124077924.1923      -3015.982          42.000  
G21  24372643.453   128079105.0283      -3104.572          33.000  
G01  22022247.834   115727693.3833      -2884.144          46.000  
G28  24373596.968   128084115.7733       -448.975          38.000  
G31  23974421.108   125986433.0873       1281.423          36.000  
G06  24246004.919   127413615.7493       3083.774          35.000  
> 2023 09 02 10 42 27.0020000  0 11                     
G03  20766875.052   109130664.0153       -836.796          45.000  
G04  21957188.501   115385808.5992       2303.690          44.000  
G09  23847046.699   125317073.1102       3411.737          42.000  
G17  22031623.836   115776959.8402       -593.186          43.000  
G19  22180637.248   116560029.4732       1067.795          44.000  
G02  23611817.554   124080941.6532      -3016.812          41.000  
G21  24373230.408   128082211.6332      -3105.579          33.000  
G01  22022794.864   115730579.3282      -2885.051          45.000  
G28  24373683.486   128084567.2502       -450.775          36.000  
G31  23974176.979   125985153.8472       1280.087          35.000  
G06  24245418.836   127410533.4642       3083.145          35.000  
> 2023 09 02 10 42 28.0020000  0 11                     
G03  20767034.721   109131500.2312       -836.401          46.000  
G04  21956749.524   115383504.2652       2304.082          45.000  
G09  23846397.236   125313660.3072       3413.027          42.000  
G17  22031735.762   115777552.6012       -592.772          43.000  
G19  22180432.592   116558961.1792       1068.208          43.000  
G02  23612391.527   124083957.6522      -3015.714          41.000  
G21  24373822.355   128085316.8702      -3106.097          32.000  
G01  22023343.254   115733463.9982      -2884.857          45.000  
G28  24373765.188   128085017.7012       -450.800          36.000  
G31  23973936.306   125983873.5162       1280.732          35.000  
G06  24244833.347   127407449.6582       3083.562          35.000  
> 2023 09 02 10 42 29.0020000  0 11                     
G03  20767192.192   109132337.1562       -831.852          46.000  
G04  21956311.942   115381197.1783       2308.954          45.000  
G09  23845748.612   125310254.0413       3417.426          43.000  
G17  22031849.432   115778149.2113       -588.207          43.000  
G19  22180231.147   116557900.8453       1072.303          44.000  
G02  23612966.232   124086974.2983      -3011.355          40.000  
G21  24374410.846   128088393.4003      -3100.775          31.000  
G01  22023895.937                       -2878.274          46.000  
G28  24373854.672   128085470.0633       -446.429          38.000  
G31  23973695.004   125982616.9723       1284.694          36.000  
G06  24244246.426   127404374.1973       3088.284          37.000  
> 2023 09 02 10 42 30.0020000  0 11                     
G03  20767352.245   109133170.7182       -835.685          46.000  
G04  21955871.115   115378890.2702       2305.313          44.000  
G09  23845098.870   125306838.2072       3413.973          43.000  
G17  22031958.531   115778739.6702       -592.100          43.000  
G19  22180025.967   116556830.4012       1068.542          43.000  
G02  23613540.798   124089987.3772      -3014.831          40.000  
G21  24375001.187   128091495.3822      -3102.911          31.000  
G01  22024443.316   115739235.7213      -2883.722          45.000  
G28  24373938.573   128085918.2552       -450.384          37.000  
G31  23973447.979   125981334.2802       1281.331          35.000  
G06  24243660.832   127401287.0162       3085.871          36.000  
> 2023 09 02 10 42 31.0020000  0 11                     
G03  20767511.740   109134006.7712       -835.648          46.000  
G04  21955434.894   115376585.9302       2304.775          45.000  
G09  23844447.314   125303424.6372       3414.152          43.000  
G17  22032074.575   115779332.8672       -593.141          43.000  
G19  22179823.859   116555762.7442       1067.859          43.000  
G02  23614114.561   124093002.8032      -3014.953          41.000  
G21  24375585.734   128094599.6872      -3105.225          29.000  
G01  22024990.624   115742120.0672      -2884.080          44.000  
G28  24374026.801   128086369.1722       -450.574          38.000  
G31  23973206.573   125980054.2332       1280.787          35.000  
G06  24243071.363   127398202.0552       3085.078          36.000  
> 2023 09 02 10 42 32.0020000  0 11                     
G03  20767670.049   109134846.2222       -841.089          46.000  
G04  21954998.499   115374285.0102       2299.392          44.000  
G09  23843800.435   125300014.2642       3409.009          43.000  
G17  22032189.677   115779929.5942       -598.090          43.000  
G19  22179620.948   116554698.7202       1062.594          43.000  
G02  23614689.476   124096021.5192      -3020.157          41.000  
G21  24376181.240   128097706.9742      -3109.320          30.000  
G01  22025538.247   115745007.7492      -2888.851          45.000  
G28  24374112.412   128086823.7082       -455.701          37.000  
G31  23972964.783   125978777.6802       1275.446          34.000  
G06  24242486.502   127395120.1022       3080.782          36.000  
> 2023 09 02 10 42 33.0020000  0 11                     
G03  20767829.683   109135681.4972       -833.773          46.000  
G04  21954556.415   115371979.9622       2306.552          44.000  
G09  23843151.112   125296599.4712       3416.302          43.000  
G17  22032301.323   115780522.3532       -591.389          43.000  
G19  22179417.618   116553630.8012       1069.132          43.000  
G02  23615261.564   124099035.8282      -3012.756          41.000  
G21  24376773.326   128100809.8662      -3100.922          31.000  
G01  22026088.383   115747891.2202      -2881.998          45.000  
G28  24374199.070   128087274.2802       -449.054          37.000  
G31  23972718.490   125977497.1912       1281.740          35.000  
G06  24241901.989   127392033.6372       3088.754          36.000  
> 2023 09 02 10 42 34.0020000  0 11                     
G03  20767987.747   109136515.3972       -833.361          46.000  
G04  21954117.507   115369673.5962       2306.616          44.000  
G09  23842499.346   125293183.1152       3416.681          43.000  
G17  22032414.191   115781113.9392       -591.018          43.000  
G19  22179213.136   116552561.7662       1069.351          43.000  
G02  23615835.641   124102048.6312      -3012.438          41.000  
G21  24377366.250   128103911.2122      -3100.769          31.000  
G01  22026637.646   115750773.2552      -2881.686          45.000  
G28  24374283.110   128087723.7272       -449.664          38.000  
G31  23972475.339   125976215.3982       1282.280          35.000  
G06  24241314.685   127388945.5532       3088.596          36.000  
> 2023 09 02 10 42 35.0020000  0 11                     
G03  20768146.370   109137348.5142       -832.267          46.000  
G04  21953678.006   115367366.4542       2307.964          44.000  
G09  23841849.884   125289765.7152       3418.857          43.000  
G17  22032526.780   115781704.9202       -589.674          43.000  
G19  22179009.317   116551492.2002       1070.464          43.000  
G02  23616406.194   124105060.4542      -3010.567          42.000  
G21  24377953.694   128107011.3842      -3099.261          29.000  
G01  22027185.792   115753654.4442      -2880.055          46.000  
G28  24374371.059   128088172.5272       -447.467          38.000  
G31  23972230.896   125974932.9662       1283.914          35.000  
G06  24240726.194   127385856.2712       3090.295          36.000  
> 2023 09 02 10 42 36.0020000  0 11                     
G03  20768304.643   109138180.4432       -831.530          46.000  
G04  21953239.796   115365058.1782       2308.823          44.000  
G09  23841199.550   125286346.9542       3419.333          43.000  
G17  22032640.311   115782294.8912       -589.294          43.000  
G19  22178806.197   116550421.7252       1071.093          43.000  
G02  23616982.400   124108070.9712      -3009.893          42.000  
G21  24378543.930   128110110.1852      -3098.096          30.000  
G01  22027733.066   115756534.3962      -2879.476          46.000  
G28  24374456.635   128088620.4382       -447.638          38.000  
G31  23971983.347   125973649.5402       1283.640          34.000  
G06  24240136.655   127382765.5032       3091.531          36.000  
> 2023 09 02 10 42 37.0020000  0 11                     
G03  20768462.952   109139012.2652       -831.962          46.000  
G04  21952800.539   115362749.863        2308.088          44.000  
G09  23840549.180   125282927.3451       3419.268          43.000  
G17  22032752.446   115782884.4821       -590.393          43.000  
G19  22178602.588   116549350.8891       1070.270          43.000  
G02  23617552.987   124111081.234       -3010.339          42.000  
G21  24379133.538   128113208.609       -3098.505          31.000  
G01  22028281.142   115759414.185       -2879.972          46.000  
G28  24374541.897   128089067.9051       -448.383          38.000  
G31  23971737.369   125972366.097        1283.824          34.000  
G06  24239548.025   127379673.7931       3091.023          36.000  
> 2023 09 02 10 42 38.0020000  0 11                     
G03  20768621.155   109139844.0252       -831.656          47.000  
G04  21952361.283   115360441.525        2308.298          45.000  
G09  23839898.391   125279507.995        3419.526          44.000  
G17  22032863.709   115783474.664        -590.027          44.000  
G19  22178398.909   116548280.774        1070.100          44.000  
G02  23618128.460   124114091.249       -3009.795          43.000  
G21  24379724.158   128116306.690       -3097.583          33.000  
G01  22028829.219   115762293.864       -2879.554          46.000  
G28  24374627.368   128089516.024        -447.748          39.000  
G31  23971494.462   125971082.787        1283.559          34.000  
G06  24238959.813   127376582.180        3092.212          36.000  
> 2023 09 02 10 42 39.0020000  0 11                     
G03  20768779.429   109140675.7432       -831.936          47.000  
G04  21951921.851   115358133.177        2308.182          45.000  
G09  23839247.882   125276088.383        3419.324          44.000  
G17  22032973.750   115784065.029        -590.776          44.000  
G19  22178195.544   116547210.875        1069.634          43.000  
G02  23618702.084   124117101.083       -3010.207          43.000  
G21  24380317.814   128119404.489       -3097.882          33.000  
G01  22029376.981   115765173.462       -2879.812          46.000  
G28  24374711.862   128089964.338        -448.682          39.000  
G31  23971252.532   125969799.576        1282.852          34.000  
G06  24238371.671   127373490.209        3092.079          37.000  
> 2023 09 02 10 42 40.0020000  0 11                     
G03  20768937.423   109141507.4372       -831.814          47.000  
G04  21951482.559   115355824.860        2308.086          45.000  
G09  23838597.059   125272668.504        3419.883          44.000  
G17  22033087.421   115784655.526        -590.605          44.000  
G19  22177991.760   116546141.218        1069.227          43.000  
G02  23619273.090   124120110.712       -3009.715          43.000  
G21  24380905.852   128122502.010       -3097.540          34.000  
G01  22029924.604   115768052.969       -2879.906          46.000  
G28  24374798.241   128090412.838        -448.657          39.000  
G31  23971007.287   125968516.469        1283.125          33.000  
G06  24237783.668   127370397.881        3092.263          37.000  
> 2023 09 02 10 42 41.0020000  0 11                     
G03  20769095.382   109142339.0122       -830.843          47.000  
G04  21951044.105   115353516.473        2308.926          45.000  
G09  23837946.236   125269248.305        3420.811          44.000  
G17  22033200.149   115785246.123        -590.217          43.000  
G19  22177788.291   116545071.677        1069.935          43.000  
G02  23619846.818   124123120.070       -3008.715          42.000  
G21  24381498.845   128125599.137       -3096.521          34.000  
G01  22030472.401   115770932.300       -2878.669          46.000  
G28  24374883.363   128090861.424        -448.401          39.000  
G31  23970764.520   125967233.401        1284.094          34.000  
G06  24237195.316   127367305.121        3093.344          37.000  
> 2023 09 02 10 42 42.0020000  0 11                     
G03  20769253.586   109143170.3982       -831.452          47.000  
G04  21950604.744   115351207.937        2308.268          45.000  
G09  23837295.517   125265827.694        3420.698          44.000  
G17  22033312.354   115785836.703        -590.790          43.000  
G19  22177584.821   116544002.236        1069.175          43.000  
G02  23620420.163   124126129.069       -3008.776          43.000  
G21  24382089.779   128128695.819       -3096.735          35.000  
G01  22031020.128   115773811.403       -2879.258          46.000  
G28  24374968.694   128091310.033        -448.999          39.000  
G31  23970522.276   125965950.325        1282.564          34.000  
G06  24236606.930   127364211.801        3093.989          37.000  
> 2023 09 02 10 42 43.0020000  0 11                     
G03  20769411.755   109144001.9852       -831.872          47.000  
G04  21950165.696   115348899.644        2308.064          45.000  
G09  23836644.694   125262407.074        3420.502          44.000  
G17  22033425.292   115786427.675        -591.154          43.000  
G19  22177381.491   116542933.217        1068.796          43.000  
G02  23620992.809   124129138.131       -3009.175          43.000  
G21  24382679.666   128131792.420       -3096.851          35.000  
G01  22031567.786   115776690.639       -2879.316          46.000  
G28  24375053.747   128091759.039        -449.286          40.000  
G31  23970277.728   125964667.546        1282.231          34.000  
G06  24236018.648   127361118.389        3093.301          38.000  
> 2023 09 02 10 42 44.0020000  0 11                     
G03  20769569.784   109144833.4822       -832.099          47.000  
G04  21949726.404   115346591.322        2307.511          45.000  
G09  23835993.696   125258986.148        3420.478          44.000  
G17  22033537.497   115787018.769        -591.768          43.000  
G19  22177178.126   116541864.422        1068.080          43.000  
G02  23621565.246   124132146.949       -3009.396          43.000  
G21  24383268.681   128134888.672       -3096.210          35.000  
G01  22032115.548   115779569.748       -2879.523          46.000  
G28  24375139.358   128092208.196        -449.774          40.000  
G31  23970033.565   125963384.837        1282.197          35.000  
G06  24235430.227   127358024.548        3093.620          38.000  
> 2023 09 02 10 42 45.0020000  0 11                     
G03  20769728.092   109145665.1622       -831.626          47.000  
G04  21949287.078   115344283.198        2308.467          45.000  
G09  23835342.907   125255565.187        3421.408          44.000  
G17  22033650.190   115787610.200        -591.183          43.000  
G19  22176974.622   116540796.038        1068.630          43.000  
G02  23622138.032   124135155.766       -3008.508          42.000  
G21  24383857.661   128137984.862       -3095.978          35.000  
G01  22032663.101   115782448.966       -2878.868          46.000  
G28  24375225.073   128092657.730        -449.152          40.000  
G31  23969789.646   125962102.450        1282.399          35.000  
G06  24234841.596   127354930.547        3094.453          38.000  
> 2023 09 02 10 42 46.0020000  0 11                     
G03  20769886.610   109146497.0692       -832.301          47.000  
G04  21948847.786   115341975.373        2307.550          45.000  
G09  23834692.189   125252144.247        3420.846          44.000  
G17  22033762.744   115788202.082        -592.224          43.000  
G19  22176771.536   116539728.162        1067.628          43.000  
G02  23622710.434   124138164.676       -3009.089          42.000  
G21  24384446.815   128141081.006       -3096.167          35.000  
G01  22033211.038   115785328.386       -2879.629          46.000  
G28  24375310.649   128093107.730        -450.476          40.000  
G31  23969545.587   125960820.458        1281.708          35.000  
G06  24234252.791   127351836.466        3093.925          38.000  
> 2023 09 02 10 42 47.0020000  0 11                     
G03  20770044.604   109147328.9082       -831.788          47.000  
G04  21948408.285   115339667.525        2307.910          45.000  
G09  23834041.156   125248723.033        3421.492          44.000  
G17  22033875.263   115788794.092        -591.853          43.000  
G19  22176568.241   116538660.494        1067.574          43.000  
G02  23623282.696   124141173.374       -3008.521          42.000  
G21  24385035.934   128144176.883       -3096.362          35.000  
G01  22033759.010   115788207.687       -2879.254          46.000  
G28  24375396.434   128093557.872        -450.079          40.000  
G31  23969302.191   125959538.549        1282.022          35.000  
G06  24233664.195   127348741.967        3094.701          38.000  
> 2023 09 02 10 42 48.0020000  0 11                     
G03  20770203.262   109148160.7532       -831.998          47.000  
G04  21947968.923   115337359.728        2307.562          45.000  
G09  23833390.228   125245301.617        3421.167          44.000  
G17  22033987.782   115789386.297        -592.391          43.000  
G19  22176364.807   116537593.077        1067.195          43.000  
G02  23623854.575   124144181.930       -3008.740          42.000  
G21  24385625.333   128147272.420       -3095.514          35.000  
G01  22034307.086   115791086.937       -2879.508          46.000  
G28  24375482.045   128094008.232        -450.610          40.000  
G31  23969058.447   125958256.797        1281.840          35.000  
G06  24233075.180   127345647.171        3094.750          38.000  
> 2023 09 02 10 42 49.0020000  0 11                     
G03  20770361.710   109148992.855        -832.220          47.000  
G04  21947529.771   115335052.245        2306.996          45.000  
G09  23832739.091   125241880.225        3421.183          44.000  
G17  22034100.301   115789978.946        -593.114          43.000  
G19  22176161.477   116536526.201        1066.407          43.000  
G02  23624426.732   124147190.553       -3008.899          42.000  
G21  24386214.627   128150368.030       -3096.649          35.000  
G01  22034855.267   115793966.390       -2879.790          46.000  
G28  24375568.179   128094459.059        -451.288          40.000  
G31  23968814.946   125956975.454        1280.645          35.000  
G06  24232486.271   127342552.280        3094.953          38.000  
> 2023 09 02 10 42 50.0020000  0 11                     
G03  20770520.088   109149825.073        -832.246          46.000  
G04  21947090.549   115332744.897        2307.313          45.000  
G09  23832087.709   125238458.746        3421.520          44.000  
G17  22034213.169   115790571.891        -593.076          43.000  
G19  22175958.461   116535459.682        1066.333          43.000  
G02  23624999.135   124150199.147       -3008.493          42.000  
G21  24386803.676   128153463.402       -3094.983          35.000  
G01  22035403.309   115796845.878       -2879.368          46.000  
G28  24375654.104   128094910.218        -451.282          40.000  
G31  23968571.306   125955694.349        1281.039          35.000  
G06  24231897.326   127339457.181        3095.017          38.000  
> 2023 09 02 10 42 51.0020000  0 11                     
G03  20770678.431   109150657.367        -832.567          46.000  
G04  21946651.467   115330437.679        2306.974          45.000  
G09  23831436.606   125235037.104        3421.839          44.000  
G17  22034325.863   115791165.100        -593.479          43.000  
G19  22175755.620   116534393.515        1065.927          43.000  
G02  23625571.537   124153207.649       -3008.635          42.000  
G21  24387392.691   128156558.625       -3094.995          35.000  
G01  22035951.630   115799725.400       -2879.523          46.000  
G28  24375740.378   128095361.645        -451.526          41.000  
G31  23968327.771   125954413.476        1280.652          35.000  
G06  24231308.416   127336361.817        3095.093          38.000  
> 2023 09 02 10 42 52.0020000  0 11                     
G03  20770837.054   109151489.865        -832.581          47.000  
G04  21946212.733   115328130.719        2306.914          45.000  
G09  23830785.783   125231615.501        3421.699          44.000  
G17  22034438.486   115791758.723        -593.633          43.000  
G19  22175552.499   116533327.833        1065.380          42.000  
G02  23626143.799   124156216.208       -3008.379          42.000  
G21  24387981.461   128159653.818       -3094.873          35.000  
G01  22036499.357   115802605.099       -2879.656          46.000  
G28  24375826.477   128095813.532        -451.886          41.000  
G31  23968084.096   125953133.006        1280.220          35.000  
G06  24230719.296   127333266.350        3095.517          38.000  
> 2023 09 02 10 42 53.0020000  0 11                     
G03  20770995.572   109152322.482        -833.030          47.000  
G04  21945773.790   115325823.923        2306.323          45.000  
G09  23830134.471   125228193.759        3421.522          44.000  
G17  22034551.250   115792352.651        -594.595          43.000  
G19  22175349.867   116532262.508        1064.761          43.000  
G02  23626716.306   124159224.728       -3008.896          42.000  
G21  24388570.511   128162748.873       -3095.636          34.000  
G01  22037047.503   115805484.838       -2880.010          46.000  
G28  24375912.507   128096265.727        -452.606          41.000  
G31  23967840.875   125951852.772        1280.008          36.000  
G06  24230130.491   127330170.646        3095.463          38.000  
> 2023 09 02 10 42 54.0020000  0 11                     
G03  20771154.020   109153155.440        -833.041          47.000  
G04  21945335.197   115323517.515        2306.436          45.000  
G09  23829483.264   125224772.175        3421.697          44.000  
G17  22034664.292   115792947.117        -594.500          43.000  
G19  22175147.061   116531197.803        1064.646          43.000  
G02  23627289.196   124162233.418       -3008.507          42.000  
G21  24389159.107   128165843.971       -3095.056          34.000  
G01  22037595.335   115808364.876       -2879.937          46.000  
G28  24375998.711   128096718.494        -452.875          41.000  
G31  23967597.829   125950573.054        1279.197          35.000  
G06  24229541.372   127327074.967        3095.823          38.000  
> 2023 09 02 10 42 55.0020000  0 11                     
G03  20771312.712   109153988.631        -833.477          47.000  
G04  21944896.428   115321211.382        2305.930          45.000  
G09  23828832.196   125221350.601        3421.430          44.000  
G17  22034777.439   115793542.006        -595.267          43.000  
G19  22174944.499   116530133.580        1063.926          43.000  
G02  23627861.913   124165242.203       -3008.981          42.000  
G21  24389747.842   128168939.064       -3095.300          35.000  
G01  22038143.726   115811245.110       -2880.364          46.000  
G28  24376085.055   128097171.699        -453.754          41.000  
G31  23967354.607   125949293.712        1278.736          35.000  
G06  24228952.078   127323979.208        3095.640          38.000  
> 2023 09 02 10 42 56.0020000  0 11                     
G03  20771471.090   109154821.941        -833.170          47.000  
G04  21944457.730   115318905.423        2306.030          45.000  
G09  23828180.710   125217928.926        3421.813          44.000  
G17  22034890.936   115794137.193        -595.214          43.000  
G19  22174741.832   116529069.762        1063.792          43.000  
G02  23628434.489   124168250.930       -3008.522          42.000  
G21  24390336.613   128172034.012       -3094.513          35.000  
G01  22038691.942   115814125.404       -2880.294          46.000  
G28  24376171.363   128097625.233        -453.577          41.000  
G31  23967111.316   125948014.581        1279.368          35.000  
G06  24228362.784   127320883.242        3095.957          38.000  
> 2023 09 02 10 42 57.0020000  0 11                     
G03  20771629.678   109155655.548        -833.857          46.000  
G04  21944019.311   115316599.805        2305.341          45.000  
G09  23827529.468   125214507.345        3421.384          44.000  
G17  22035004.327   115794732.903        -596.233          43.000  
G19  22174539.514   116528006.498        1062.834          44.000  
G02  23629006.926   124171259.809       -3009.180          42.000  
G21  24390925.488   128175128.991       -3095.319          34.000  
G01  22039240.053   115817005.935       -2880.829          46.000  
G28  24376257.847   128098079.281        -454.346          41.000  
G31  23966868.060   125946735.946        1278.479          35.000  
G06  24227773.804   127317787.206        3095.804          38.000  
> 2023 09 02 10 42 58.0020000  0 11                     
G03  20771788.440   109156489.410        -834.321          45.000  
G04  21943580.647   115314294.482        2305.011          44.000  
G09  23826878.295   125211085.790        3421.210          43.000  
G17  22035118.172   115795329.026        -596.729          43.000  
G19  22174337.440   116526943.755        1062.104          43.000  
G02  23629579.433   124174268.785       -3009.543          42.000  
G21  24391514.398   128178223.966       -3095.135          34.000  
G01  22039788.514   115819886.660       -2881.288          46.000  
G28  24376344.539   128098533.800        -455.121          41.000  
G31  23966625.118   125945457.745        1277.635          34.000  
G06  24227184.755   127314691.125        3095.817          38.000  
> 2023 09 02 10 42 59.0020000  0 11                     
G03  20771946.957   109157323.640        -834.114          46.000  
G04  21943142.158   115311989.586        2305.032          44.000  
G09  23826227.228   125207664.418        3421.406          43.000  
G17  22035231.843   115795925.732        -596.970          44.000  
G19  22174135.332   116525881.650        1061.812          43.000  
G02  23630151.870   124177277.990       -3009.424          41.000  
G21  24392103.098   128181319.067       -3095.398          34.000  
G01  22040336.869   115822767.708       -2881.116          46.000  
G28  24376431.058   128098988.904        -455.408          40.000  
G31  23966382.177   125944180.043        1276.832          34.000  
G06  24226595.845   127311595.098        3095.866          38.000  
> 2023 09 02 10 43 00.0020000  0 11                     
G03  20772106.069   109158158.263        -834.714          46.000  
G04  21942703.529   115309685.123        2304.137          45.000  
G09  23825576.160   125204243.191        3421.057          43.000  
G17  22035345.619   115796522.983        -597.703          43.000  
G19  22173933.398   116524820.183        1061.063          42.000  
G02  23630724.725   124180287.383       -3009.555          42.000  
G21  24392692.008   128184414.264       -3095.270          34.000  
G01  22040885.434   115825649.083       -2881.601          46.000  
G28  24376517.680   128099444.611        -456.122          40.000  
G31  23966139.130   125942902.856        1277.036          34.000  
G06  24226006.446   127308499.101        3096.059          38.000  
> 2023 09 02 10 43 01.0020000  0 11                     
G03  20772264.691   109158993.006        -834.814          46.000  
G04  21942265.075   115307380.832        2304.158          45.000  
G09  23824925.162   125200821.890        3421.416          43.000  
G17  22035459.394   115797120.571        -597.809          43.000  
G19  22173731.290   116523759.103        1060.897          42.000  
G02  23631297.581   124183296.763       -3009.331          41.000  
G21  24393280.604   128187509.348       -3095.001          34.000  
G01  22041433.685   115828530.539       -2881.580          46.000  
G28  24376604.827   128099900.657        -456.219          41.000  
G31  23965895.979   125941625.939        1277.060          34.000  
G06  24225417.397   127305402.939        3095.740          38.000  
> 2023 09 02 10 43 02.0020000  0 11                     
G03  20772423.418   109159828.018        -835.267          46.000  
G04  21941826.412   115305076.850        2303.612          45.000  
G09  23824274.409   125197400.628        3421.115          43.000  
G17  22035573.100   115797718.613        -598.593          43.000  
G19  22173529.321   116522698.556        1060.287          42.000  
G02  23631870.507   124186306.246       -3009.786          42.000  
G21  24393869.270   128190604.436       -3095.782          34.000  
G01  22041981.901   115831412.190       -2881.749          46.000  
G28  24376691.799   128100357.189        -457.080          41.000  
G31  23965652.932   125940349.439        1275.840          33.000  
G06  24224828.242   127302306.670        3096.000          38.000  
> 2023 09 02 10 43 03.0020000  0 11                     
G03  20772582.215   109160663.346        -835.527          46.000  
G04  21941388.202   115302773.247        2303.090          45.000  
G09  23823623.271   125193979.511        3420.881          43.000  
G17  22035687.329   115798317.172        -599.084          43.000  
G19  22173327.806   116521638.633        1059.354          42.000  
G02  23632443.223   124189315.927       -3009.988          42.000  
G21  24394458.179   128193699.565       -3095.294          34.000  
G01  22042530.083   115834294.140       -2882.322          46.000  
G28  24376778.980   128100814.249        -457.538          41.000  
G31  23965409.990   125939073.439        1275.580          33.000  
G06  24224239.263   127299210.419        3096.128          38.000  
> 2023 09 02 10 43 04.0020000  0 11                     
G03  20772740.907   109161498.890        -835.613          46.000  
G04  21940949.608   115300469.895        2303.174          45.000  
G09  23822972.204   125190558.365        3421.114          43.000  
G17  22035801.453   115798916.137        -599.337          43.000  
G19  22173125.977   116520579.153        1059.280          41.000  
G02  23633015.939   124192325.639       -3009.844          42.000  
G21  24395047.055   128196794.664       -3094.891          35.000  
G01  22043078.752   115837176.242       -2882.433          46.000  
G28  24376865.952   128101271.749        -457.733          40.000  
G31  23965166.699   125937797.802        1275.264          33.000  
G06  24223650.108   127296114.041        3096.341          39.000  
> 2023 09 02 10 43 05.0020000  0 11                     
G03  20772900.019   109162334.821        -836.110          45.000  
G04  21940511.328   115298166.965        2302.728          45.000  
G09  23822320.648   125187137.384        3421.003          43.000  
G17  22035915.752   115799515.651        -599.963          43.000  
G19  22172924.496   116519520.329        1058.555          41.000  
G02  23633588.830   124195335.574       -3010.106          41.000  
G21  24395636.593   128199889.853       -3095.068          35.000  
G01  22043627.003   115840058.660       -2882.660          45.000  
G28  24376953.028   128101729.828        -458.331          41.000  
G31  23964923.408   125936522.679        1275.259          32.000  
G06  24223061.094   127293017.731        3096.004          39.000  
> 2023 09 02 10 43 06.0020000  0 11                     
G03  20773058.885   109163171.126        -836.440          45.000  
G04  21940073.258   115295864.463        2302.421          45.000  
G09  23821669.929   125183716.587        3420.577          43.000  
G17  22036030.400   115800115.734        -599.968          43.000  
G19  22172722.911   116518462.138        1058.062          41.000  
G02  23634161.720   124198345.716       -3010.093          42.000  
G21  24396225.642   128202985.184       -3094.940          36.000  
G01  22044175.498   115842941.406       -2882.834          45.000  
G28  24377040.210   128102188.492        -458.862          41.000  
G31  23964680.327   125935248.110        1274.542          32.000  
G06  24222471.800   127289921.433        3096.609          39.000  
> 2023 09 02 10 43 07.0020000  0 11                     
G03  20773217.787   109164007.582        -836.831          45.000  
G04  21939634.943   115293562.162        2302.085          45.000  
G09  23821018.792   125180295.720        3420.728          43.000  
G17  22036145.118   115800716.190        -600.898          44.000  
G19  22172521.571   116517404.388        1056.990          41.000  
G02  23634734.506   124201355.867       -3010.672          42.000  
G21  24396814.866   128206080.398       -3095.282          36.000  
G01  22044724.203   115845824.269       -2883.390          45.000  
G28  24377127.705   128102647.538        -459.375          41.000  
G31  23964437.489   125933973.839        1274.089          32.000  
G06  24221882.401   127286825.003        3096.276          39.000  
> 2023 09 02 10 43 08.0020000  0 11                     
G03  20773377.177   109164844.432        -836.891          45.000  
G04  21939197.013   115291260.318        2301.693          45.000  
G09  23820368.003   125176875.054        3420.530          43.000  
G17  22036259.870   115801317.232        -601.241          44.000  
G19  22172320.230   116516347.284        1056.847          41.000  
G02  23635307.537   124204366.241       -3010.451          42.000  
G21  24397404.230   128209175.772       -3095.404          36.000  
G01  22045272.873   115848707.452       -2883.325          45.000  
G28  24377215.410   128103107.204        -459.784          41.000  
G31  23964194.827   125932700.137        1273.686          32.000  
G06  24221292.968   127283728.634        3096.219          39.000  
> 2023 09 02 10 43 09.0020000  0 11                     
G03  20773536.428   109165681.751        -837.332          45.000  
G04  21938759.396   115288958.980        2301.215          45.000  
G09  23819716.901   125173454.629        3420.303          43.000  
G17  22036374.518   115801918.923        -601.919          44.000  
G19  22172119.308   116515290.905        1056.208          41.000  
G02  23635880.776   124207376.913       -3010.493          42.000  
G21  24397993.698   128212271.328       -3095.648          36.000  
G01  22045821.647   115851591.051       -2883.566          45.000  
G28  24377302.870   128103567.542        -460.516          41.000  
G31  23963952.269   125931427.023        1272.991          32.000  
G06  24220703.500   127280632.385        3096.399          39.000  
> 2023 09 02 10 43 10.0020000  0 11                     
G03  20773696.028   109166519.375        -837.850          45.000  
G04  21938321.221   115286657.989        2300.731          45.000  
G09  23819065.763   125170034.285        3420.027          43.000  
G17  22036489.515   115802521.117        -602.562          44.000  
G19  22171918.352   116514235.090        1055.648          41.000  
G02  23636454.295   124210387.748       -3010.836          43.000  
G21  24398582.643   128215366.936       -3095.758          36.000  
G01  22046370.282   115854474.894       -2884.124          45.000  
G28  24377390.610   128104028.393        -461.255          41.000  
G31  23963709.606   125930154.371        1272.283          32.000  
G06  24220114.345   127277536.129        3096.358          39.000  
> 2023 09 02 10 43 11.0020000  0 11                     
G03  20773855.558   109167357.480        -838.566          46.000  
G04  21937883.500   115284357.537        2299.994          45.000  
G09  23818414.870   125166614.201        3419.929          42.000  
G17  22036604.477   115803123.977        -603.334          44.000  
G19  22171717.465   116513180.024        1054.952          42.000  
G02  23637027.744   124213398.888       -3011.113          43.000  
G21  24399171.483   128218462.738       -3095.758          36.000  
G01  22046919.266   115857359.166       -2884.446          45.000  
G28  24377478.559   128104489.954        -462.158          41.000  
G31  23963466.838   125928882.341        1271.259          32.000  
G06  24219525.400   127274440.036        3095.644          39.000  
> 2023 09 02 10 43 12.0020000  0 11                     
G03  20774015.297   109168195.873        -838.473          46.000  
G04  21937445.674   115282057.409        2300.060          45.000  
G09  23817763.942   125163194.216        3419.968          42.000  
G17  22036719.509   115803727.330        -603.514          44.000  
G19  22171516.648   116512125.536        1054.353          42.000  
G02  23637600.705   124216410.192       -3011.295          43.000  
G21  24399760.707   128221558.589       -3095.728          36.000  
G01  22047468.075   115860243.692       -2884.668          45.000  
G28  24377566.334   128104952.001        -462.073          41.000  
G31  23963224.525   125927610.796        1270.744          32.000  
G06  24218936.456   127271343.879        3096.320          39.000  
> 2023 09 02 10 43 13.0020000  0 11                     
G03  20774175.036   109169034.355        -838.879          46.000  
G04  21937008.092   115279757.453        2299.473          45.000  
G09  23817113.223   125159774.113        3419.898          43.000  
G17  22036834.366   115804330.965        -604.115          44.000  
G19  22171316.145   116511071.381        1053.582          42.000  
G02  23638173.735   124219421.438       -3011.617          43.000  
G21  24400349.896   128224654.279       -3096.118          37.000  
G01  22048016.571   115863128.255       -2884.805          45.000  
G28  24377654.388   128105414.366        -462.939          41.000  
G31  23962982.246   125926339.440        1271.105          32.000  
G06  24218346.987   127268247.506        3096.204          39.000  
> 2023 09 02 10 43 14.0020000  0 11                     
G03  20774334.671   109169873.388        -839.322          46.000  
G04  21936570.371   115277458.071        2298.942          44.000  
G09  23816462.156   125156354.358        3419.756          43.000  
G17  22036949.608   115804935.330        -604.714          45.000  
G19  22171115.956   116510018.057        1052.997          42.000  
G02  23638746.730   124222433.056       -3011.854          43.000  
G21  24400938.981   128227750.257       -3096.405          36.000  
G01  22048565.485   115866013.330       -2885.448          44.000  
G28  24377742.546   128105877.502        -463.501          41.000  
G31  23962739.827   125925068.822        1270.082          31.000  
G06  24217757.624   127265151.350        3095.920          40.000  
> 2023 09 02 10 43 15.0020000  0 11                     
G03  20774494.375   109170712.732        -839.359          46.000  
G04  21936132.720   115275159.045        2298.929          45.000  
G09  23815811.507   125152934.706        3419.741          43.000  
G17  22037064.709   115805540.211        -604.995          45.000  
G19  22170916.221   116508965.313        1052.649          43.000  
G02  23639319.970   124225444.838       -3011.918          43.000  
G21  24401528.379   128230846.282       -3095.978          36.000  
G01  22049114.538   115868898.619       -2885.238          44.000  
G28  24377830.670   128106341.169        -463.861          41.000  
G31  23962498.002   125923798.613        1269.896          32.000  
G06  24217168.469   127262055.173        3096.070          40.000  
> 2023 09 02 10 43 16.0020000  0 11                     
G03  20774654.394   109171552.579        -840.048          46.000  
G04  21935695.417   115272860.590        2298.243          44.000  
G09  23815160.823   125149515.336        3419.285          43.000  
G17  22037180.020   115806145.793        -606.090          45.000  
G19  22170716.241   116507913.329        1051.532          43.000  
G02  23639893.140   124228456.962       -3012.268          43.000  
G21  24402117.743   128233942.551       -3096.747          37.000  
G01  22049663.592   115871784.406       -2886.129          44.000  
G28  24377919.212   128106805.548        -464.862          42.000  
G31  23962256.038   125922529.111        1269.214          32.000  
G06  24216579.350   127258959.176        3095.929          40.000  
> 2023 09 02 10 43 17.0020000  0 11                     
G03  20774814.238   109172392.809        -840.193          45.000  
G04  21935258.324   115270562.553        2297.891          44.000  
G09  23814510.384   125146096.136        3419.190          43.000  
G17  22037295.122   115806751.925        -606.261          45.000  
G19  22170515.982   116506861.997        1051.060          42.000  
G02  23640466.589   124231469.325       -3012.570          43.000  
G21  24402707.072   128237038.937       -3096.368          36.000  
G01  22050212.715   115874670.501       -2886.089          44.000  
G28  24378007.789   128107270.531        -465.381          41.000  
G31  23962013.794   125921260.128        1269.247          30.000  
G06  24215990.335   127255863.250        3095.942          39.000  
> 2023 09 02 10 43 18.0020000  0 11                     
G03  20774974.012   109173233.206        -840.314          45.000  
G04  21934821.371   115268264.727        2297.786          45.000  
G09  23813860.119   125142676.876        3419.292          43.000  
G17  22037410.573   115807358.412        -606.412          45.000  
G19  22170315.759   116505811.092        1050.674          42.000  
G02  23641039.724   124234481.663       -3012.191          43.000  
G21  24403296.436   128240135.206       -3095.965          37.000  
G01  22050762.083   115877556.707       -2886.335          44.000  
G28  24378096.088   128107735.862        -465.332          42.000  
G31  23961768.793   125919991.546        1268.048          30.000  
G06  24215401.007   127252767.129        3096.357          39.000  
> 2023 09 02 10 43 19.0020000  0 11                     
G03  20775133.891   109174073.985        -840.831          45.000  
G04  21934384.487   115265967.338        2297.137          45.000  
G09  23813209.540   125139257.788        3419.035          43.000  
G17  22037525.988   115807965.478        -607.141          45.000  
G19  22170115.849   116504760.826        1050.070          42.000  
G02  23641613.243   124237494.261       -3012.645          43.000  
G21  24403885.974   128243231.624       -3096.594          37.000  
G01  22051311.591   115880443.210       -2886.444          44.000  
G28  24378184.909   128108201.821        -466.266          42.000  
G31  23961526.758   125918723.379        1268.339          31.000  
G06  24214811.573   127249671.074        3095.878          39.000  
> 2023 09 02 10 43 20.0020000  0 11                     
G03  20775293.909   109174915.333        -841.331          45.000  
G04  21933947.499   115263670.573        2296.708          45.000  
G09  23812559.100   125135839.083        3418.933          43.000  
G17  22037641.404   115808573.339        -608.110          45.000  
G19  22169916.253   116503711.420        1049.099          42.000  
G02  23642186.377   124240507.249       -3013.021          43.000  
G21  24404475.896   128246328.363       -3097.101          37.000  
G01  22051860.888   115883330.280       -2886.993          44.000  
G28  24378273.661   128108668.558        -466.724          42.000  
G31  23961283.746   125917455.980        1268.449          31.000  
G06  24214222.384   127246575.259        3095.790          39.000  
> 2023 09 02 10 43 21.0020000  0 11                     
G03  20775453.683   109175756.991        -842.106          45.000  
G04  21933510.336   115261374.154        2295.671          45.000  
G09  23811908.696   125132420.455        3418.344          43.000  
G17  22037756.890   115809181.650        -608.699          45.000  
G19  22169717.007   116502662.554        1048.345          43.000  
G02  23642760.141   124243520.382       -3013.309          43.000  
G21  24405065.050   128249425.089       -3096.881          37.000  
G01  22052410.186   115886217.577       -2887.625          44.000  
G28  24378362.552   128109135.797        -467.596          42.000  
G31  23961042.724   125916189.086        1265.962          29.000  
G06  24213633.369   127243479.435        3095.707          39.000  
> 2023 09 02 10 43 22.0020000  0 11                     
G03  20775613.841   109176598.981        -841.969          45.000  
G04  21933073.382   115259078.106        2295.988          45.000  
G09  23811258.257   125129001.965        3418.609          43.000  
G17  22037872.759   115809790.502        -608.687          45.000  
G19  22169517.586   116501614.279        1048.384          42.000  
G02  23643333.660   124246533.701       -3013.329          44.000  
G21  24405654.309   128252521.902       -3096.545          36.000  
G01  22052960.008   115889105.162       -2887.306          44.000  
G28  24378451.688   128109603.630        -467.987          42.000  
G31  23960798.630   125914922.591        1266.435          29.000  
G06  24213043.761   127240383.626        3096.101          39.000  
> 2023 09 02 10 43 23.0020000  0 11                     
G03  20775774.104   109177441.319        -842.506          45.000  
G04  21932636.534   115256782.462        2295.378          45.000  
G09  23810607.957   125125583.613        3418.210          43.000  
G17  22037988.663   115810399.907        -609.779          44.000  
G19  22169318.164   116500566.644        1047.197          41.000  
G02  23643907.597   124249547.209       -3013.725          44.000  
G21  24406243.568   128255618.821       -3096.704          35.000  
G01  22053509.725   115891993.055       -2888.168          44.000  
G28  24378541.033   128110071.993        -468.738          42.000  
G31  23960547.103   125913656.667        1265.592          29.000  
G06  24212454.782   127237287.854        3095.646          39.000  
> 2023 09 02 10 43 24.0020000  0 11                     
G03  20775934.646   109178284.043        -843.192          45.000  
G04  21932199.720   115254487.259        2294.771          45.000  
G09  23809957.378   125122165.419        3418.012          43.000  
G17  22038104.603   115811009.884        -610.629          44.000  
G19  22169118.743   116499519.640        1046.443          41.000  
G02  23644481.325   124252560.924       -3014.062          44.000  
G21  24406832.652   128258715.860       -3097.204          35.000  
G01  22054059.092   115894881.248       -2888.464          44.000  
G28  24378630.657   128110540.951        -469.415          42.000  
G31  23960305.173   125912391.246        1264.678          29.000  
G06  24211865.523   127234192.103        3095.772          38.000  
> 2023 09 02 10 43 25.0020000  0 11                     
G03  20776094.769   109179127.353        -843.256          46.000  
G04  21931763.185   115252192.715        2294.474          45.000  
G09  23809306.834   125118747.648        3417.698          43.000  
G17  22038220.542   115811620.662        -610.927          44.000  
G19  22168919.497   116498473.523        1045.774          41.000  
G02  23645055.019   124255575.098       -3014.071          44.000  
G21  24407421.562   128261813.269       -3097.418          34.000  
G01  22054608.635   115897770.007       -2888.615          44.000  
G28  24378720.107   128111010.747        -469.824          42.000  
G31  23960072.527   125911126.576        1264.761          30.000  
G06  24211276.334   127231096.663        3095.617          38.000  
> 2023 09 02 10 43 26.0020000  0 11                     
G03  20776255.277   109179970.895        -843.726          46.000  
G04  21931326.650   115249898.444        2293.970          45.000  
G09  23808656.464   125115329.850        3417.625          43.000  
G17  22038336.830   115812231.850        -611.655          44.000  
G19  22168720.809   116497427.888        1045.321          42.000  
G02  23645628.607   124258589.329       -3014.287          44.000  
G21  24408010.786   128264910.610       -3097.522          35.000  
G01  22055158.177   115900658.952       -2889.250          44.000  
G28  24378809.383   128111480.978        -470.673          42.000  
G31  23959831.400   125909862.301        1264.552          29.000  
G06  24210687.389   127228001.095        3095.471          38.000  
> 2023 09 02 10 43 27.0020000  0 11                     
G03  20776415.993   109180814.934        -844.096          46.000  
G04  21930890.221   115247604.715        2293.622          45.000  
G09  23808006.025   125111912.365        3417.456          43.000  
G17  22038453.258   115812843.727        -612.123          44.000  
G19  22168522.051   116496383.024        1044.508          42.000  
G02  23646202.126   124261603.912       -3014.529          44.000  
G21  24408600.045   128268008.204       -3097.510          35.000  
G01  22055708.208   115903548.318       -2889.425          44.000  
G28  24378899.147   128111951.917        -471.283          42.000  
G31  23959595.368   125908598.726        1263.381          30.000  
G06  24210098.339   127224905.695        3095.534          38.000  
> 2023 09 02 10 43 28.0020000  0 11                     
G03  20776576.989   109181659.420        -844.539          46.000  
G04  21930453.721   115245311.480        2293.082          45.000  
G09  23807355.655   125108495.110        3417.173          43.000  
G17  22038570.140   115813456.250        -612.791          44.000  
G19  22168323.258   116495338.872        1043.856          42.000  
G02  23646775.471   124264618.775       -3014.980          43.000  
G21  24409189.130   128271105.947       -3097.217          34.000  
G01  22056258.134   115906438.089       -2889.958          44.000  
G28  24378989.190   128112423.521        -472.046          42.000  
G31  23959356.754   125907335.634        1262.561          30.000  
G06  24209509.325   127221810.420        3094.854          38.000  
> 2023 09 02 10 43 29.0020000  0 11                     
G03  20776737.775   109182504.221        -844.977          46.000  
G04  21930017.151   115243018.635        2292.347          45.000  
G09  23806705.739   125105077.966        3417.010          43.000  
G17  22038686.916   115814069.291        -613.582          44.000  
G19  22168124.709   116494295.307        1043.097          42.000  
G02  23647348.606   124267633.800       -3015.144          43.000  
G21  24409778.459   128274203.837       -3098.230          34.000  
G01  22056808.235   115909328.125       -2890.225          44.000  
G28  24379078.779   128112895.652        -472.223          42.000  
G31  23959119.291   125906073.103        1261.806          30.000  
G06  24208920.449   127218715.130        3095.455          38.000  
> 2023 09 02 10 43 30.0020000  0 11                     
G03  20776898.736   109183349.397        -845.424          46.000  
G04  21929580.966   115240726.171        2292.356          45.000  
G09  23806055.509   125101660.976        3416.907          43.000  
G17  22038804.007   115814682.870        -614.027          45.000  
G19  22167926.300   116493252.381        1042.457          42.000  
G02  23647922.229   124270649.039       -3015.432          43.000  
G21  24410367.822   128277301.749       -3097.913          34.000  
G01  22057358.161   115912218.480       -2890.934          44.000  
G28  24379168.787   128113368.371        -473.260          42.000  
G31  23958882.003   125904811.011        1262.199          31.000  
G06  24208331.365   127215619.898        3094.838          38.000  
> 2023 09 02 10 43 31.0020000  0 11                     
G03  20777059.418   109184195.113        -846.147          45.000  
G04  21929144.989   115238434.343        2291.533          45.000  
G09  23805405.733   125098244.350        3416.229          44.000  
G17  22038921.203   115815297.213        -614.720          45.000  
G19  22167728.136   116492210.282        1041.648          42.000  
G02  23648495.957   124273664.680       -3015.905          43.000  
G21  24410957.360   128280399.979       -3098.523          35.000  
G01  22057908.471   115915109.325       -2891.089          44.000  
G28  24379258.586   128113841.850        -473.541          41.000  
G31  23958639.026   125903549.741        1260.550          31.000  
G06  24207742.176   127212524.919        3094.699          38.000  
> 2023 09 02 10 43 32.0020000  0 11                     
G03  20777220.099   109185041.213        -846.360          45.000  
G04  21928708.734   115236142.913        2291.221          45.000  
G09  23804755.817   125094827.856        3416.298          44.000  
G17  22039038.294   115815912.101        -615.172          45.000  
G19  22167530.006   116491168.816        1041.254          43.000  
G02  23649069.755   124276680.520       -3016.069          43.000  
G21  24411546.933   128283498.322       -3098.499          35.000  
G01  22058458.851   115918000.490       -2891.364          44.000  
G28  24379348.559   128114315.932        -474.390          41.000  
G31  23958401.529   125902288.888        1260.522          31.000  
G06  24207152.917   127209429.929        3095.056          38.000  
> 2023 09 02 10 43 33.0020000  0 11                     
G03  20777381.234   109185887.795        -846.791          45.000  
G04  21928272.653   115233852.036        2290.651          45.000  
G09  23804105.971   125091411.658        3416.355          44.000  
G17  22039155.839   115816527.686        -615.737          45.000  
G19  22167332.051   116490128.124        1040.421          43.000  
G02  23649644.007   124279696.695       -3016.021          44.000  
G21  24412136.681   128286596.888       -3098.767          35.000  
G01  22059009.056   115920892.096       -2891.517          44.000  
G28  24379438.986   128114790.717        -475.031          42.000  
G31  23958162.984   125901028.754        1260.286          31.000  
G06  24206563.972   127206335.141        3094.633          38.000  
> 2023 09 02 10 43 34.0020000  0 11                     
G03  20777542.300   109186734.683        -847.013          45.000  
G04  21927837.026   115231561.503        2290.198          45.000  
G09  23803456.334   125087995.555        3415.928          44.000  
G17  22039273.348   115817143.754        -616.368          45.000  
G19  22167134.305   116489087.971        1039.839          42.000  
G02  23650217.945   124282713.021       -3016.583          44.000  
G21  24412726.533   128289695.457       -3098.291          35.000  
G01  22059559.331   115923783.956       -2892.319          44.000  
G28  24379529.483   128115266.025        -475.580          42.000  
G31  23957924.789   125899769.061        1259.263          32.000  
G06  24205974.992   127203240.326        3094.571          38.000  
> 2023 09 02 10 43 35.0020000  0 11                     
G03  20777703.749   109187582.068        -848.090          45.000  
G04  21927401.433   115229271.526        2289.237          45.000  
G09  23802806.558   125084579.737        3415.326          44.000  
G17  22039390.719   115817760.517        -617.423          45.000  
G19  22166936.070   116488048.597        1038.633          42.000  
G02  23650792.232   124285729.691       -3017.165          43.000  
G21  24413316.595   128292794.311       -3099.280          35.000  
G01  22060109.502   115926676.230       -2892.833          43.000  
G28  24379620.050   128115742.023        -476.782          42.000  
G31  23957684.430   125898510.001        1257.814          32.000  
G06  24205386.047   127200145.666        3093.958          38.000  
> 2023 09 02 10 43 36.0020000  0 11                     
G03  20777864.954   109188430.041        -848.028          45.000  
G04  21926966.085   115226982.178        2289.390          45.000  
G09  23802156.432   125081164.295        3415.429          44.000  
G17  22039508.298   115818378.057        -617.645          45.000  
G19  22166738.394   116487010.075        1038.384          42.000  
G02  23651366.309   124288746.782       -3017.077          44.000  
G21  24413906.308   128295893.491       -3099.273          35.000  
G01  22060659.882   115929569.046       -2892.715          43.000  
G28  24379710.931   128116218.842        -476.849          41.000  
G31  23957445.222   125897251.685        1257.772          32.000  
G06  24204796.893   127197051.273        3094.580          38.000  
> 2023 09 02 10 43 37.0020000  0 11                     
G03  20778026.404   109189278.190        -848.460          45.000  
G04  21926530.284   115224693.040        2289.032          45.000  
G09  23801506.202   125077748.805        3415.472          44.000  
G17  22039626.157   115818995.958        -618.060          45.000  
G19  22166540.858   116485971.984        1037.656          42.000  
G02  23651940.561   124291763.874       -3016.979          44.000  
G21  24414495.985   128298992.573       -3099.139          35.000  
G01  22061210.541   115932461.994       -2893.235          44.000  
G28  24379801.637   128116696.042        -477.393          41.000  
G31  23957206.608   125895993.701        1257.614          33.000  
G06  24204207.844   127193956.729        3094.609          37.000  
> 2023 09 02 10 43 38.0020000  0 11                     
G03  20778187.818   109190126.829        -849.118          45.000  
G04  21926094.901   115222404.475        2288.176          45.000  
G09  23800856.321   125074333.622        3414.908          44.000  
G17  22039744.051   115819614.562        -619.106          45.000  
G19  22166343.356   116484934.670        1036.678          42.000  
G02  23652514.847   124294781.327       -3017.687          44.000  
G21  24415086.117   128302091.870       -3099.591          35.000  
G01  22061761.130   115935355.377       -2893.729          44.000  
G28  24379892.413   128117173.966        -478.467          42.000  
G31  23956967.924   125894736.360        1257.026          35.000  
G06  24203618.934   127190862.357        3094.378          37.000  
> 2023 09 02 10 43 39.0020000  0 11                     
G03  20778349.687   109190976.177        -849.712          46.000  
G04  21925659.413   115220116.661        2287.472          45.000  
G09  23800206.475   125070918.921        3414.469          43.000  
G17  22039862.014   115820234.058        -619.783          45.000  
G19  22166146.273   116483898.342        1035.897          42.000  
G02  23653089.239   124297799.307       -3018.119          44.000  
G21  24415675.864   128305191.631       -3099.548          35.000  
G01  22062311.649   115938249.404       -2894.209          44.000  
G28  24379983.608   128117652.791        -479.071          42.000  
G31  23956729.449   125893479.912        1255.754          35.000  
G06  24203029.849   127187768.368        3094.285          37.000  
> 2023 09 02 10 43 40.0020000  0 11                     
G03  20778511.415   109191825.932        -849.841          46.000  
G04  21925224.344   115217829.315        2287.106          45.000  
G09  23799556.908   125067504.430        3414.295          44.000  
G17  22039979.943   115820854.161        -620.421          45.000  
G19  22165949.225   116482862.695        1035.206          42.000  
G02  23653664.014   124300817.561       -3018.262          44.000  
G21  24416265.891   128308291.525       -3099.731          35.000  
G01  22062862.657   115941143.822       -2894.614          44.000  
G28  24380074.698   128118132.277        -479.858          42.000  
G31  23956490.905   125892223.975        1255.958          35.000  
G06  24202440.800   127184674.492        3093.617          37.000  
> 2023 09 02 10 43 41.0020000  0 11                     
G03  20778673.493   109192676.086        -850.404          46.000  
G04  21924789.241   115215542.411        2286.537          45.000  
G09  23798907.376   125064090.130        3414.084          44.000  
G17  22040098.255   115821474.851        -621.089          45.000  
G19  22165752.422   116481827.711        1034.431          42.000  
G02  23654238.231   124303836.054       -3018.724          44.000  
G21  24416855.813   128311391.602       -3100.439          35.000  
G01  22063413.666   115944038.545       -2894.927          44.000  
G28  24380166.137   128118612.351        -480.359          42.000  
G31  23956252.290   125890968.628        1254.723          35.000  
G06  24201851.820   127181580.649        3093.502          36.000  
> 2023 09 02 10 43 42.0020000  0 11                     
G03  20778835.675   109193526.811        -851.219          46.000  
G04  21924354.276   115213256.136        2285.610          45.000  
G09  23798257.844   125060676.187        3413.633          44.000  
G17  22040216.812   115822096.316        -622.301          45.000  
G19  22165555.479   116480793.570        1033.304          42.000  
G02  23654812.552   124306854.957       -3019.426          44.000  
G21  24417445.665   128314491.965       -3100.750          35.000  
G01  22063964.569   115946933.819       -2895.988          44.000  
G28  24380257.681   128119093.230        -481.628          42.000  
G31  23956014.130   125889713.970        1253.999          35.000  
G06  24201263.015   127178487.056        3093.191          36.000  
> 2023 09 02 10 43 43.0020000  0 11                     
G03  20778998.032   109194377.986        -851.489          46.000  
G04  21923919.173   115210970.356        2285.173          45.000  
G09  23797608.208   125057262.503        3413.322          44.000  
G17  22040335.229   115822718.393        -622.526          45.000  
G19  22165359.059   116479760.120        1032.845          42.000  
G02  23655386.804   124309874.148       -3019.712          44.000  
G21  24418035.622   128317592.510       -3101.117          34.000  
G01  22064515.507   115949829.482       -2896.217          44.000  
G28  24380349.399   128119574.759        -482.068          42.000  
G31  23955775.864   125888459.948        1253.243          35.000  
G06  24200673.860   127175393.637        3092.804          36.000  
> 2023 09 02 10 43 44.0020000  0 11                     
G03  20779160.179   109195229.655        -851.980          46.000  
G04  21923484.383   115208685.107        2285.043          46.000  
G09  23796958.885   125053849.084        3413.288          44.000  
G17  22040453.576   115823341.174        -623.085          45.000  
G19  22165162.744   116478727.442        1032.427          42.000  
G02  23655960.916   124312893.658       -3019.426          43.000  
G21  24418625.335   128320693.266       -3100.421          34.000  
G01  22065066.550   115952725.550       -2895.990          45.000  
G28  24380441.048   128120056.983        -482.379          42.000  
G31  23955537.669   125887206.538        1253.135          35.000  
G06  24200085.090   127172300.353        3092.886          36.000  
> 2023 09 02 10 43 45.0020000  0 11                     
G03  20779322.466   109196081.602        -851.968          46.000  
G04  21923049.873   115206400.195        2284.882          45.000  
G09  23796309.248   125050435.751        3413.499          44.000  
G17  22040572.029   115823964.431        -623.390          45.000  
G19  22164966.499   116477695.324        1032.028          43.000  
G02  23656534.854   124315913.305       -3019.518          43.000  
G21  24419215.152   128323794.074       -3100.208          34.000  
G01  22065617.698   115955621.893       -2896.526          45.000  
G28  24380532.941   128120539.732        -482.928          41.000  
G31  23955299.543   125885953.607        1253.170          35.000  
G06  24199496.041   127169207.025        3092.927          36.000  
> 2023 09 02 10 43 46.0020000  0 11                     
G03  20779484.509   109196933.998        -852.764          46.000  
G04  21922615.223   115204115.794        2284.154          46.000  
G09  23795659.786   125047022.661        3412.885          44.000  
G17  22040690.795   115824588.313        -624.160          45.000  
G19  22164770.603   116476663.918        1030.792          43.000  
G02  23657109.036   124318933.253       -3020.138          43.000  
G21  24419805.074   128326895.116       -3101.941          33.000  
G01  22066168.985   115958518.606       -2896.876          45.000  
G28  24380624.903   128121023.137        -483.698          41.000  
G31  23955061.592   125884701.287        1251.986          35.000  
G06  24198907.305   127166113.759        3093.500          36.000  
> 2023 09 02 10 43 47.0020000  0 11                     
G03  20779646.866   109197786.844        -853.167          46.000  
G04  21922180.468   115201831.876        2283.752          46.000  
G09  23795010.533   125043609.793        3412.779          44.000  
G17  22040809.456   115825212.835        -624.792          45.000  
G19  22164574.811   116475633.218        1030.354          43.000  
G02  23657683.323   124321953.476       -3020.463          43.000  
G21  24420395.136   128329996.304       -3101.562          33.000  
G01  22066720.517   115961415.719       -2897.441          45.000  
G28  24380717.110   128121507.205        -484.259          42.000  
G31  23954823.990   125883449.579        1251.406          35.000  
G06  24198319.128   127163020.707        3093.190          36.000  
> 2023 09 02 10 43 48.0020000  0 11                     
G03  20779809.258   109198640.080        -853.328          46.000  
G04  21921745.643   115199548.427        2283.402          45.000  
G09  23794361.246   125040197.140        3412.581          44.000  
G17  22040928.571   115825837.981        -625.236          45.000  
G19  22164379.334   116474603.204        1029.692          44.000  
G02  23658257.958   124324973.967       -3020.465          43.000  
G21  24420985.093   128333097.599       -3101.007          34.000  
G01  22067271.978   115964313.177       -2897.502          45.000  
G28  24380809.387   128121991.901        -484.888          41.000  
G31  23954586.109   125882198.418        1250.618          36.000  
G06  24197730.567   127159927.702        3092.872          36.000  
> 2023 09 02 10 43 49.0020000  0 11                     
G03  20779971.998   109199493.838        -854.144          46.000  
G04  21921311.028   115197265.541        2282.587          45.000  
G09  23793711.818   125036784.775        3412.181          44.000  
G17  22041047.547   115826463.803        -626.221          45.000  
G19  22164183.438   116473573.948        1028.601          43.000  
G02  23658832.350   124327994.786       -3021.139          43.000  
G21  24421575.643   128336199.178       -3101.599          35.000  
G01  22067823.475   115967211.073       -2898.087          45.000  
G28  24380901.664   128122477.302        -485.785          42.000  
G31  23954348.088   125880947.879        1250.162          36.000  
G06  24197142.251   127156834.887        3092.646          36.000  
> 2023 09 02 10 43 50.0020000  0 11                     
G03  20780134.460   109200348.298        -854.636          46.000  
G04  21920876.867   115194983.421        2281.964          45.000  
G09  23793062.775   125033372.912        3411.732          44.000  
G17  22041166.732   115827090.532        -627.074          45.000  
G19  22163988.275   116472545.685        1027.830          44.000  
G02  23659407.264   124331016.159       -3021.493          43.000  
G21  24422166.228   128339301.179       -3101.831          35.000  
G01  22068375.111   115970109.658       -2898.849          45.000  
G28  24380994.045   128122963.630        -486.554          42.000  
G31  23954110.834   125879698.255        1249.382          36.000  
G06  24196554.039   127153742.448        3092.444          36.000  
> 2023 09 02 10 43 51.0020000  0 11                     
G03  20780297.166   109201203.071        -855.319          46.000  
G04  21920442.217   115192701.657        2281.198          45.000  
G09  23792413.871   125029961.140        3411.401          44.000  
G17  22041286.091   115827717.761        -627.787          45.000  
G19  22163792.518   116471517.994        1027.018          44.000  
G02  23659982.424   124334037.677       -3021.948          43.000  
G21  24422756.883   128342403.247       -3102.454          34.000  
G01  22068926.748   115973008.474       -2899.419          45.000  
G28  24381086.741   128123450.495        -487.457          42.000  
G31  23953873.407   125878449.045        1248.859          36.000  
G06  24195965.129   127150650.005        3092.153          35.000  
> 2023 09 02 10 43 52.0020000  0 11                     
G03  20780460.046   109202058.554        -855.832          46.000  
G04  21920008.090   115190420.649        2280.643          45.000  
G09  23791764.758   125026549.892        3411.063          43.000  
G17  22041405.835   115828345.893        -628.573          45.000  
G19  22163597.250   116470491.272        1026.500          44.000  
G02  23660557.967   124337059.748       -3022.268          44.000  
G21  24423347.434   128345505.716       -3102.374          35.000  
G01  22069478.454   115975907.954       -2899.761          45.000  
G28  24381179.611   128123938.286        -488.171          42.000  
G31  23953635.979   125877200.745        1248.188          37.000  
G06  24195376.428   127147557.955        3091.652          35.000  
> 2023 09 02 10 43 53.0020000  0 11                     
G03  20780622.892   109202914.517        -855.913          46.000  
G04  21919574.068   115188140.191        2280.276          45.000  
G09  23791115.296   125023138.911        3411.008          43.000  
G17  22041525.334   115828974.720        -629.137          45.000  
G19  22163402.192   116469465.334        1025.736          44.000  
G02  23661133.126   124340082.160       -3022.451          44.000  
G21  24423938.228   128348608.475       -3102.679          35.000  
G01  22070030.230   115978807.871       -2900.046          45.000  
G28  24381272.725   128124426.776        -488.727          42.000  
G31  23953398.656   125875953.129        1247.249          37.000  
G06  24194787.518   127144466.062        3091.921          34.000  
> 2023 09 02 10 43 54.0020000  0 11                     
G03  20780785.946   109203770.940        -856.611          46.000  
G04  21919139.977   115185860.215        2279.850          45.000  
G09  23790466.182   125019728.174        3410.694          43.000  
G17  22041644.519   115829604.167        -629.727          45.000  
G19  22163207.098   116468440.096        1024.836          44.000  
G02  23661708.250   124343104.845       -3022.810          44.000  
G21  24424529.093   128351711.340       -3102.460          36.000  
G01  22070582.180   115981708.175       -2900.348          45.000  
G28  24381366.154   128124915.936        -489.575          42.000  
G31  23953161.508   125874706.044        1246.883          37.000  
G06  24194198.818   127141374.245        3092.167          34.000  
> 2023 09 02 10 43 55.0020000  0 11                     
G03  20780949.280   109204627.781        -857.023          46.000  
G04  21918706.199   115183580.729        2279.205          45.000  
G09  23789817.348   125016317.653        3410.408          43.000  
G17  22041764.227   115830234.229        -630.295          45.000  
G19  22163012.284   116467415.551        1024.169          44.000  
G02  23662283.549   124346127.801       -3023.253          44.000  
G21  24425119.922   128354814.421       -3103.247          36.000  
G01  22071134.410   115984608.851       -2900.928          45.000  
G28  24381459.024   128125405.714        -490.161          42.000  
G31  23952924.359   125873459.562        1245.956          37.000  
G06  24193610.292   127138282.590        3091.663          34.000  
> 2023 09 02 10 43 56.0020000  0 11                     
G03  20781112.440   109205484.887        -857.039          46.000  
G04  21918272.492   115181301.554        2278.906          45.000  
G09  23789168.759   125012907.194        3410.432          43.000  
G17  22041883.796   115830864.774        -630.747          45.000  
G19  22162817.644   116466391.541        1023.862          44.000  
G02  23662859.232   124349150.861       -3023.024          44.000  
G21  24425710.507   128357917.485       -3103.162          36.000  
G01  22071686.325   115987509.741       -2900.986          45.000  
G28  24381552.068   128125895.992        -490.381          41.000  
G31  23952687.420   125872213.495        1245.521          36.000  
G06  24193021.696   127135190.875        3091.625          34.000  
> 2023 09 02 10 43 57.0020000  0 11                     
G03  20781275.914   109206342.576        -858.222          46.000  
G04  21917838.854   115179023.009        2278.073          45.000  
G09  23788520.064   125009497.109        3409.774          43.000  
G17  22042003.470   115831496.075        -631.873          44.000  
G19  22162623.388   116465368.387        1022.474          44.000  
G02  23663435.263   124352174.349       -3023.815          44.000  
G21  24426300.988   128361020.863       -3103.290          36.000  
G01  22072238.450   115990411.151       -2901.748          45.000  
G28  24381645.462   128126387.072        -491.846          42.000  
G31  23952450.795   125870968.187        1244.504          36.000  
G06  24192432.925   127132099.399        3091.239          34.000  
> 2023 09 02 10 43 58.0020000  0 11                     
G03  20781439.038   109207200.834        -858.683          46.000  
G04  21917405.076   115176745.091        2277.616          45.000  
G09  23787871.091   125006087.370        3409.581          44.000  
G17  22042123.492   115832128.143        -632.500          44.000  
G19  22162428.679   116464346.056        1021.932          44.000  
G02  23664010.841   124355198.235       -3024.032          44.000  
G21  24426891.713   128364124.584       -3103.809          35.000  
G01  22072790.575   115993313.085       -2902.244          45.000  
G28  24381738.890   128126878.919        -492.297          42.000  
G31  23952214.100   125869723.560        1244.224          36.000  
G06  24191844.295   127129008.162        3091.235          34.000  
> 2023 09 02 10 43 59.0020000  0 11                     
G03  20781602.372   109208059.521        -858.693          46.000  
G04  21916971.299   115174467.647        2277.511          45.000  
G09  23787222.641   125002677.881        3409.631          44.000  
G17  22042243.724   115832760.832        -632.755          44.000  
G19  22162234.353   116463324.438        1021.470          44.000  
G02  23664586.559   124358222.400       -3024.030          44.000  
G21  24427482.193   128367228.468       -3103.625          35.000  
G01  22073343.049   115996215.393       -2902.488          46.000  
G28  24381832.807   128127371.439        -492.743          42.000  
G31  23951977.406   125868479.538        1244.441          36.000  
G06  24191255.769   127125917.044        3091.098          34.000  
> 2023 09 02 10 44 00.0020000  0 11                     
G03  20781765.846   109208918.717        -860.071          46.000  
G04  21916538.149   115172190.799        2275.953          45.000  
G09  23786574.121   124999268.694        3408.624          44.000  
G17  22042364.026   115833394.210        -634.127          44.000  
G19  22162040.167   116462303.606        1020.117          44.000  
G02  23665161.823   124361246.933       -3025.200          44.000  
G21  24428072.813   128370332.596       -3104.779          35.000  
G01  22073895.662   115999118.141       -2903.423          46.000  
G28  24381926.759   128127864.670        -494.061          42.000  
G31  23951740.641   125867236.208        1242.605          37.000  
G06  24190667.382   127122826.099        3091.280          34.000  
> 2023 09 02 10 44 01.0020000  0 11                     
G03  20781929.424   109209778.767        -860.322          46.000  
G04  21916105.314   115169914.822        2275.699          45.000  
G09  23785925.357   124995860.149        3408.350          44.000  
G17  22042484.921   115834028.638        -634.646          44.000  
G19  22161846.435   116461283.886        1019.474          44.000  
G02  23665737.645   124364272.144       -3025.515          44.000  
G21  24428663.433   128373437.328       -3104.822          34.000  
G01  22074447.962   116002021.703       -2903.682          45.000  
G28  24382020.886   128128358.966        -494.739          42.000  
G31  23951504.609   125865993.900        1241.966          37.000  
G06  24190079.170   127119735.714        3090.306          34.000  
> 2023 09 02 10 44 02.0020000  0 11                     
G03  20782093.142   109210639.114        -860.824          46.000  
G04  21915672.619   115167639.219        2275.114          45.000  
G09  23785276.523   124992451.687        3408.292          44.000  
G17  22042605.712   115834663.562        -635.541          44.000  
G19  22161652.668   116460264.759        1018.539          44.000  
G02  23666313.153   124367297.491       -3025.514          44.000  
G21  24429253.914   128376542.083       -3105.121          35.000  
G01  22075000.715   116004925.526       -2904.295          45.000  
G28  24382115.222   128128853.782        -495.148          42.000  
G31  23951268.019   125864752.016        1241.935          37.000  
G06  24189490.539   127116645.301        3089.615          33.000  
> 2023 09 02 10 44 03.0020000  0 11                     
G03  20782257.070   109211500.079        -861.074          46.000  
G04  21915239.574   115165364.259        2274.919          45.000  
G09  23784628.003   124989043.653        3407.907          44.000  
G17  22042726.642   115835299.286        -635.647          44.000  
G19  22161459.075   116459246.500        1018.071          44.000  
G02  23666888.941   124370323.298       -3025.811          44.000  
G21  24429845.022   128379647.181       -3104.907          35.000  
G01  22075553.642   116007829.882       -2904.357          45.000  
G28  24382209.697   128129349.428        -495.764          42.000  
G31  23951032.127   125863510.929        1240.889          37.000  
G06  24188902.467   127113555.107        3090.422          33.000  
> 2023 09 02 10 44 04.0020000  0 11                     
G03  20782420.648   109212361.455        -861.581          46.000  
G04  21914806.913   115163089.787        2274.292          45.000  
G09  23783979.762   124985635.810        3407.686          44.000  
G17  22042847.746   115835935.620        -636.597          44.000  
G19  22161265.552   116458228.926        1017.264          45.000  
G02  23667464.519   124373349.386       -3026.331          43.000  
G21  24430435.991   128382752.453       -3105.090          35.000  
G01  22076106.710   116010734.607       -2904.797          45.000  
G28  24382304.347   128129845.710        -496.625          42.000  
G31  23950796.340   125862270.378        1240.541          38.000  
G06  24188314.499   127110465.132        3089.694          33.000  
> 2023 09 02 10 44 05.0020000  0 11                     
G03  20782584.540   109213223.335        -862.157          46.000  
G04  21914374.218   115160815.879        2273.582          45.000  
G09  23783330.998   124982228.269        3407.477          43.000  
G17  22042969.060   115836572.664        -637.195          44.000  
G19  22161072.518   116457212.135        1016.375          45.000  
G02  23668040.062   124376375.786       -3026.555          43.000  
G21  24431026.751   128385857.968       -3105.286          35.000  
G01  22076659.672   116013639.808       -2905.483          45.000  
G28  24382398.613   128130342.712        -497.308          42.000  
G31  23950560.623   125861030.541        1239.491          37.000  
G06  24187726.392   127107375.262        3089.049          33.000  
> 2023 09 02 10 44 06.0020000  0 11                     
G03  20782748.712   109214085.797        -862.923          46.000  
G04  21913941.731   115158542.603        2272.622          45.000  
G09  23782682.652   124978821.125        3406.474          43.000  
G17  22043090.549   115837210.483        -638.524          44.000  
G19  22160879.623   116456196.192        1015.233          45.000  
G02  23668616.024   124379402.633       -3027.473          43.000  
G21  24431617.720   128388963.804       -3106.085          36.000  
G01  22077212.879   116016545.507       -2906.181          45.000  
G28  24382493.193   128130840.510        -498.248          43.000  
G31  23950324.870   125859791.414        1238.651          37.000  
G06  24187138.285   127104285.639        3088.900          33.000  
> 2023 09 02 10 44 07.0020000  0 11                     
G03  20782912.674   109214948.736        -863.173          46.000  
G04  21913509.245   115156269.855        2272.241          45.000  
G09  23782034.447   124975414.223        3406.855          43.000  
G17  22043211.897   115837848.935        -638.801          44.000  
G19  22160686.414   116455180.991        1014.742          45.000  
G02  23669191.846   124382429.779       -3027.365          43.000  
G21  24432208.654   128392069.849       -3106.195          35.000  
G01  22077766.016   116019451.646       -2906.458          45.000  
G28  24382588.088   128131339.016        -498.816          43.000  
G31  23950089.048   125858552.926        1238.058          37.000  
G06  24186550.213   127101196.218        3088.575          34.000  
> 2023 09 02 10 44 08.0020000  0 11                     
G03  20783076.916   109215812.339        -864.094          46.000  
G04  21913076.934   115153997.821        2271.565          45.000  
G09  23781386.101   124972007.791        3406.229          43.000  
G17  22043333.351   115838488.257        -639.788          44.000  
G19  22160493.624   116454166.718        1013.636          45.000  
G02  23669767.703   124385457.427       -3027.871          43.000  
G21  24432799.937   128395176.283       -3106.696          35.000  
G01  22078319.432   116022358.381       -2907.126          45.000  
G28  24382683.122   128131838.392        -499.951          43.000  
G31  23949853.051   125857315.245        1237.546          37.000  
G06  24185962.350   127098107.066        3089.124          34.000  
> 2023 09 02 10 44 09.0020000  0 11                     
G03  20783241.192   109216676.486        -864.287          45.000  
G04  21912644.447   115151726.393        2271.240          45.000  
G09  23780737.756   124968601.712        3406.000          43.000  
G17  22043454.909   115839128.347        -640.444          44.000  
G19  22160300.625   116453153.277        1013.047          45.000  
G02  23670343.630   124388485.478       -3028.214          43.000  
G21  24433391.325   128398283.020       -3107.000          36.000  
G01  22078872.883   116025265.618       -2907.504          45.000  
G28  24382778.295   128132338.526        -500.555          42.000  
G31  23949617.613   125856078.297        1236.653          36.000  
G06  24185374.661   127095018.199        3089.079          34.000  
> 2023 09 02 10 44 10.0020000  0 11                     
G03  20783405.783   109217541.130        -864.958          45.000  
G04  21912212.275   115149455.498        2270.521          45.000  
G09  23780089.829   124965195.905        3405.567          43.000  
G17  22043576.712   115839769.109        -641.469          44.000  
G19  22160107.974   116452140.579        1012.186          46.000  
G02  23670919.697   124391513.858       -3028.637          43.000  
G21  24433982.609   128401389.958       -3107.532          36.000  
G01  22079425.950   116028173.277       -2907.919          45.000  
G28  24382873.748   128132839.374        -501.373          43.000  
G31  23949382.384   125854841.998        1236.045          35.000  
G06  24184787.287   127091929.514        3088.078          34.000  
> 2023 09 02 10 44 11.0020000  0 11                     
G03  20783570.303   109218406.330        -865.655          45.000  
G04  21911780.173   115147185.231        2269.644          45.000  
G09  23779441.519   124961790.455        3405.341          43.000  
G17  22043698.689   115840410.616        -642.202          44.000  
G19  22159915.743   116451128.725        1011.204          45.000  
G02  23671496.112   124394542.635       -3029.056          43.000  
G21  24434573.578   128404497.193       -3107.245          36.000  
G01  22079979.541   116031081.463       -2908.781          45.000  
G28  24382969.375   128133341.001        -502.319          43.000  
G31  23949146.945   125853606.406        1235.221          35.000  
G06  24184199.599   127088841.025        3088.778          34.000  
> 2023 09 02 10 44 12.0020000  0 11                     
G03  20783734.998   109219271.969        -865.902          45.000  
G04  21911348.106   115144915.446        2269.504          45.000  
G09  23778793.453   124958385.268        3405.045          43.000  
G17  22043820.561   115841052.746        -642.599          43.000  
G19  22159723.197   116450117.582        1010.707          45.000  
G02  23672072.807   124397571.697       -3029.199          43.000  
G21  24435164.965   128407604.636       -3107.428          36.000  
G01  22080533.097   116033990.025       -2909.078          45.000  
G28  24383065.142   128133843.288        -502.734          43.000  
G31  23948911.682   125852371.422        1234.527          35.000  
G06  24183611.561   127085752.684        3088.158          34.000  
> 2023 09 02 10 44 13.0020000  0 11                     
G03  20783899.589   109220138.087        -866.521          45.000  
G04  21910916.632   115142646.198        2268.802          45.000  
G09  23778145.212   124954980.325        3404.697          43.000  
G17  22043942.887   115841695.555        -643.416          43.000  
G19  22159531.140   116449107.173        1009.936          45.000  
G02  23672649.432   124400601.069       -3029.698          43.000  
G21  24435755.935   128410712.270       -3108.289          36.000  
G01  22081086.339   116036899.008       -2909.364          45.000  
G28  24383161.048   128134346.252        -503.412          43.000  
G31  23948676.592   125851137.069        1233.446          34.000  
G06  24183024.082   127082664.468        3088.359          34.000  
> 2023 09 02 10 44 14.0020000  0 11                     
G03  20784064.738   109221004.924        -867.148          46.000  
G04  21910485.227   115140377.733        2268.314          45.000  
G09  23777497.076   124951575.899        3404.439          43.000  
G17  22044065.108   115842339.284        -644.010          43.000  
G19  22159338.594   116448097.768        1009.032          45.000  
G02  23673225.882   124403631.018       -3030.109          43.000  
G21  24436347.392   128413820.370       -3108.044          36.000  
G01  22081639.860   116039808.658       -2909.879          45.000  
G28  24383257.094   128134850.161        -504.224          43.000  
G31  23948441.712   125849903.571        1232.947          34.000  
G06  24182436.533   127079576.651        3088.208          34.000  
> 2023 09 02 10 44 15.0020000  0 11                     
G03  20784229.677   109221872.188        -867.397          45.000  
G04  21910053.823   115138109.757        2267.772          45.000  
G09  23776849.080   124948171.716        3404.205          43.000  
G17  22044187.365   115842983.664        -644.742          43.000  
G19  22159146.607   116447089.082        1008.368          45.000  
G02  23673802.333   124406661.235       -3030.298          44.000  
G21  24436938.850   128416928.667       -3108.582          36.000  
G01  22082193.834   116042718.689       -2910.132          46.000  
G28  24383353.280   128135354.728        -504.779          43.000  
G31  23948206.379   125848670.721        1232.664          33.000  
G06  24181848.880   127076488.983        3087.622          34.000  
> 2023 09 02 10 44 16.0020000  0 11                     
G03  20784394.721   109222739.989        -867.952          45.000  
G04  21909622.454   115135842.349        2267.288          45.000  
G09  23776200.909   124944767.851        3403.806          43.000  
G17  22044309.935   115843628.732        -645.424          43.000  
G19  22158954.550   116446081.174        1007.645          45.000  
G02  23674379.412   124409691.828       -3030.552          44.000  
G21  24437530.482   128420037.173       -3108.331          36.000  
G01  22082747.390   116045629.198       -2910.635          46.000  
G28  24383449.779   128135860.043        -505.585          43.000  
G31  23947971.045   125847438.526        1231.741          32.000  
G06  24181261.366   127073401.471        3087.644          34.000  
> 2023 09 02 10 44 17.0020000  0 11                     
G03  20784559.975   109223608.389        -868.662          45.000  
G04  21909191.468   115133575.632        2266.119          45.000  
G09  23775553.052   124941364.378        3403.182          43.000  
G17  22044432.366   115844274.610        -646.191          43.000  
G19  22158762.807   116445074.154        1006.573          45.000  
G02  23674956.316   124412722.879       -3031.374          44.000  
G21  24438122.638   128423146.065       -3108.905          37.000  
G01  22083301.225   116048540.263       -2911.410          45.000  
G28  24383546.314   128136366.189        -506.604          43.000  
G31  23947736.130   125846207.068        1231.393          33.000  
G06  24180673.957   127070314.351        3086.672          34.000  
> 2023 09 02 10 44 18.0020000  0 11                     
G03  20784725.193   109224477.256        -869.090          45.000  
G04  21908760.308   115131309.401        2265.953          45.000  
G09  23774905.335   124937961.176        3403.023          43.000  
G17  22044555.355   115844921.149        -646.913          42.000  
G19  22158571.238   116444067.869        1006.060          45.000  
G02  23675532.941   124415754.211       -3031.599          43.000  
G21  24438714.584   128426255.150       -3109.198          37.000  
G01  22083855.095   116051451.723       -2911.442          46.000  
G28  24383642.779   128136872.997        -507.117          43.000  
G31  23947501.320   125844976.310        1230.310          32.000  
G06  24180086.931   127067227.247        3087.208          34.000  
> 2023 09 02 10 44 19.0020000  0 11                     
G03  20784890.971   109225346.473        -869.252          45.000  
G04  21908329.288   115129043.593        2265.662          45.000  
G09  23774257.862   124934558.116        3403.073          43.000  
G17  22044678.379   115845568.228        -647.131          42.000  
G19  22158379.810   116443062.225        1005.377          45.000  
G02  23676109.705   124418785.750       -3031.488          43.000  
G21  24439306.495   128429364.339       -3109.247          38.000  
G01  22084408.860   116054363.484       -2911.738          45.000  
G28  24383739.244   128137380.374        -507.782          42.000  
G31  23947266.824   125843745.983        1229.746          33.000  
G06  24179499.522   127064140.198        3088.354          34.000  
> 2023 09 02 10 44 20.0020000  0 11                     
G03  20785056.957   109226216.374        -870.051          45.000  
G04  21907898.512   115126778.506        2264.943          45.000  
G09  23773610.598   124931155.530        3402.517          43.000  
G17  22044801.438   115846216.168        -648.438          42.000  
G19  22158188.800   116442057.501        1004.401          45.000  
G02  23676686.645   124421817.802       -3032.120          43.000  
G21  24439898.407   128432473.925       -3109.546          38.000  
G01  22084962.521   116057275.885       -2912.551          45.000  
G28  24383836.057   128137888.655        -508.417          42.000  
G31  23947032.607   125842516.553        1229.027          33.000  
G06  24178912.532   127061053.567        3086.417          34.000  
> 2023 09 02 10 44 21.0020000  0 11                     
G03  20785222.560   109227086.678        -870.466          46.000  
G04  21907467.945   115124513.888        2264.596          46.000  
G09  23772963.091   124927753.149        3402.243          43.000  
G17  22044924.497   115846864.701        -648.461          42.000  
G19  22157997.789   116441053.459        1003.845          45.000  
G02  23677263.793   124424850.118       -3032.413          43.000  
G21  24440490.353   128435583.680       -3109.924          38.000  
G01  22085516.809   116060188.630       -2912.729          45.000  
G28  24383932.662   128138397.564        -509.332          42.000  
G31  23946798.635   125841287.693        1228.135          33.000  
G06  24178325.227   127057966.953        3086.946          34.000  
> 2023 09 02 10 44 22.0020000  0 11                     
G03  20785388.441   109227957.475        -870.931          45.000  
G04  21907037.239   115122249.827        2263.787          46.000  
G09  23772315.757   124924351.067        3402.001          43.000  
G17  22045048.009   115847513.938        -649.130          42.000  
G19  22157806.954   116440050.206        1002.882          45.000  
G02  23677840.907   124427882.759       -3032.736          43.000  
G21  24441082.683   128438693.651       -3109.821          38.000  
G01  22086070.958   116063101.818       -2913.325          44.000  
G28  24384029.371   128138907.161        -509.796          42.000  
G31  23946564.418   125840059.449        1227.983          33.000  
G06  24177738.097   127054880.556        3086.968          34.000  
> 2023 09 02 10 44 23.0020000  0 11                     
G03  20785554.218   109228828.808        -871.855          45.000  
G04  21906606.847   115119986.340        2263.256          45.000  
G09  23771668.215   124920949.285        3401.494          43.000  
G17  22045171.836   115848163.929        -650.430          42.000  
G19  22157615.909   116439047.743        1001.984          45.000  
G02  23678417.881   124430915.760       -3033.077          43.000  
G21  24441674.839   128441803.881       -3110.406          38.000  
G01  22086625.526   116066015.472       -2913.943          44.000  
G28  24384126.708   128139417.530        -510.889          42.000  
G31  23946330.690   125838831.953        1227.193          33.000  
G06  24177150.932   127051794.348        3086.399          34.000  
> 2023 09 02 10 44 24.0020000  0 11                     
G03  20785720.414   109229700.687        -872.275          45.000  
G04  21906176.594   115117723.483        2262.356          45.000  
G09  23771021.056   124917547.877        3401.170          43.000  
G17  22045295.802   115848814.652        -651.433          42.000  
G19  22157425.143   116438046.113        1000.852          45.000  
G02  23678994.959   124433949.176       -3033.745          43.000  
G21  24442267.169   128444914.434       -3110.803          38.000  
G01  22087179.745   116068929.642       -2914.742          44.000  
G28  24384224.011   128139928.666        -511.761          42.000  
G31  23946097.241   125837605.102        1226.445          33.000  
G06  24176563.628   127048708.448        3085.249          33.000  
> 2023 09 02 10 44 25.0020000  0 11                     
G03  20785886.540   109230572.959        -872.235          45.000  
G04  21905746.376   115115461.057        2262.332          46.000  
G09  23770373.723   124914146.642        3401.440          43.000  
G17  22045419.559   115849465.914        -651.514          42.000  
G19  22157234.761   116437045.104        1000.703          45.000  
G02  23679572.596   124436982.795       -3033.403          43.000  
G21  24442859.430   128448025.053       -3110.388          39.000  
G01  22087734.174   116071844.119       -2914.531          45.000  
G28  24384321.208   128140440.384        -511.719          42.000  
G31  23945863.547   125836378.765        1227.203          32.000  
G06  24175976.079   127045622.529        3086.939          32.000  
> 2023 09 02 10 44 26.0020000  0 11                     
G03  20786052.597   109231445.714        -873.308          46.000  
G04  21905316.194   115113199.174        2261.086          46.000  
G09  23769726.634   124910745.715        3400.403          43.000  
G17  22045543.247   115850117.863        -652.699          42.000  
G19  22157044.763   116436044.874         999.523          45.000  
G02  23680150.268   124440016.760       -3034.506          44.000  
G21  24443451.725   128451135.947       -3111.102          39.000  
G01  22088288.602   116074759.029       -2915.245          45.000  
G28  24384418.720   128140952.834        -513.104          42.000  
G31  23945629.540   125835153.195        1224.914          32.000  
G06  24175388.600   127042536.808        3085.470          32.000  
> 2023 09 02 10 44 27.0020000  0 11                     
G03  20786218.758   109232318.870        -873.462          45.000  
G04  21904886.081   115110937.739        2261.156          46.000  
G09  23769079.265   124907344.965        3400.662          43.000  
G17  22045667.632   115850770.416        -652.892          42.000  
G19  22156854.556   116435045.309         999.307          45.000  
G02  23680727.836   124443050.964       -3034.368          44.000  
G21  24444044.160   128454246.994       -3111.298          39.000  
G01  22088843.240   116077674.317       -2915.541          45.000  
G28  24384516.232   128141465.893        -513.397          42.000  
G31  23945395.951   125833928.168        1224.480          32.000  
G06  24174801.225   127039451.115        3086.776          32.000  
> 2023 09 02 10 44 28.0020000  0 11                     
G03  20786384.639   109233192.632        -874.267          45.000  
G04  21904455.863   115108676.973        2260.220          46.000  
G09  23768432.316   124903944.623        3400.020          42.000  
G17  22045791.842   115851423.764        -653.829          42.000  
G19  22156664.418   116434046.631         997.955          45.000  
G02  23681305.578   124446085.618       -3035.159          44.000  
G21  24444636.455   128457358.334       -3111.456          39.000  
G01  22089397.912   116080590.127       -2916.335          45.000  
G28  24384614.093   128141979.781        -514.569          42.000  
G31  23945162.502   125832703.840        1223.862          32.000  
G06  24174213.677   127036365.814        3084.979          31.000  
> 2023 09 02 10 44 29.0020000  0 11                     
G03  20786551.010   109234066.873        -874.224          45.000  
G04  21904025.541   115106416.736        2260.325          46.000  
G09  23767784.913   124900544.577        3399.943          42.000  
G17  22045916.123   115852077.792        -654.144          42.000  
G19  22156474.595   116433048.700         997.904          45.000  
G02  23681883.215   124449120.575       -3034.899          44.000  
G21  24445228.715   128460469.914       -3111.358          39.000  
G01  22089952.864   116083506.384       -2916.196          45.000  
G28  24384711.814   128142494.356        -514.679          42.000  
G31  23944929.437   125831480.162        1224.018          32.000  
G06  24173625.814   127033280.555        3086.333          31.000  
> 2023 09 02 10 44 30.0020000  0 11                     
G03  20786717.450   109234941.594        -875.044          45.000  
G04  21903595.183   115104157.035        2259.271          46.000  
G09  23767137.650   124897144.763        3399.636          42.000  
G17  22046040.648   115852732.475        -655.127          42.000  
G19  22156285.051   116432051.522         996.572          45.000  
G02  23682461.096   124452155.855       -3035.585          44.000  
G21  24445821.011   128463581.715       -3112.238          39.000  
G01  22090507.956   116086423.041       -2916.996          44.000  
G28  24384809.849   128143009.622        -515.839          42.000  
G31  23944696.512   125830257.114        1222.534          33.000  
G06  24173038.160   127030195.488        3085.700          31.000  
> 2023 09 02 10 44 31.0020000  0 11                     
G03  20786884.065   109235816.963        -875.451          45.000  
G04  21903165.070   115101898.046        2258.745          46.000  
G09  23766490.875   124893745.416        3399.287          42.000  
G17  22046165.312   115853388.010        -655.773          42.000  
G19  22156095.227   116431055.260         995.946          45.000  
G02  23683038.978   124455191.649       -3035.913          44.000  
G21  24446413.585   128466693.900       -3112.201          38.000  
G01  22091062.803   116089340.304       -2917.316          44.000  
G28  24384908.199   128143525.765        -516.431          42.000  
G31  23944463.970   125829034.901        1222.365          33.000  
G06  24172451.135   127027110.842        3084.633          32.000  
> 2023 09 02 10 44 32.0020000  0 11                     
G03  20787050.575   109236692.815        -875.988          45.000  
G04  21902734.818   115099639.581        2258.190          46.000  
G09  23765843.855   124890346.348        3398.888          42.000  
G17  22046290.046   115854044.218        -656.450          42.000  
G19  22155905.578   116430059.765         995.056          45.000  
G02  23683617.068   124458227.743       -3036.086          44.000  
G21  24447005.985   128469806.296       -3112.537          38.000  
G01  22091617.615   116092257.982       -2917.863          44.000  
G28  24385006.583   128144042.587        -516.907          42.000  
G31  23944229.020   125827813.311        1221.553          32.000  
G06  24171864.109   127024026.247        3084.799          32.000  
> 2023 09 02 10 44 33.0020000  0 11                     
G03  20787217.364   109237569.029        -876.143          45.000  
G04  21902304.809   115097381.548        2257.847          46.000  
G09  23765196.766   124886947.432        3398.976          42.000  
G17  22046415.129   115854700.980        -656.884          42.000  
G19  22155716.243   116429064.912         994.412          45.000  
G02  23684195.299   124461264.077       -3036.563          44.000  
G21  24447598.315   128472918.825       -3112.537          38.000  
G01  22092173.020   116095175.988       -2918.080          44.000  
G28  24385104.653   128144560.021        -517.676          41.000  
G31  23943997.002   125826592.286        1220.436          32.000  
G06  24171276.944   127020941.807        3083.803          32.000  
> 2023 09 02 10 44 34.0020000  0 11                     
G03  20787384.293   109238445.947        -877.287          45.000  
G04  21901874.731   115095124.257        2256.931          46.000  
G09  23764549.678   124883549.020        3398.017          42.000  
G17  22046540.387   115855358.633        -658.186          42.000  
G19  22155526.804   116428071.014         993.368          45.000  
G02  23684773.390   124464300.912       -3036.964          44.000  
G21  24448190.576   128476031.772       -3113.324          38.000  
G01  22092728.356   116098094.624       -2918.857          44.000  
G28  24385203.282   128145078.350        -518.884          41.000  
G31  23943764.182   125825372.053        1220.100          32.000  
G06  24170690.268   127017857.580        3085.018          32.000  
> 2023 09 02 10 44 35.0020000  0 11                     
G03  20787551.186   109239323.393        -877.723          45.000  
G04  21901445.421   115092867.564        2256.234          46.000  
G09  23763902.833   124880150.929        3397.881          42.000  
G17  22046665.470   115856017.020        -658.765          41.000  
G19  22155337.992   116427077.932         992.533          45.000  
G02  23685351.480   124467338.148       -3037.589          44.000  
G21  24448782.871   128479145.011       -3113.715          38.000  
G01  22093283.692   116101013.751       -2919.696          44.000  
G28  24385302.015   128145597.436        -519.794          41.000  
G31  23943532.792   125824152.545        1219.316          32.000  
G06  24170103.417   127014773.678        3083.280          32.000  
> 2023 09 02 10 44 36.0020000  0 11                     
G03  20787718.394   109240201.560        -878.523          45.000  
G04  21901015.971   115090611.632        2255.815          46.000  
G09  23763256.198   124876753.367        3397.512          42.000  
G17  22046790.937   115856676.323        -659.753          41.000  
G19  22155149.216   116426085.849         991.740          44.000  
G02  23685929.711   124470375.938       -3038.058          44.000  
G21  24449375.376   128482258.677       -3113.916          38.000  
G01  22093838.748   116103933.531       -2920.049          44.000  
G28  24385400.714   128146117.454        -520.630          41.000  
G31  23943302.519   125822933.954        1218.037          33.000  
G06  24169520.161   127011690.208        3082.365          32.000  
> 2023 09 02 10 44 37.0020000  0 11                     
G03  20787885.428   109241080.229        -878.658          45.000  
G04  21900586.626   115088356.281        2255.514          46.000  
G09  23762609.493   124873356.106        3397.492          42.000  
G17  22046916.753   115857336.302        -659.723          42.000  
G19  22154960.300   116425094.533         991.091          44.000  
G02  23686507.662   124473414.065       -3037.791          44.000  
G21  24449967.846   128485372.580       -3113.440          38.000  
G01  22094394.608   116106853.759       -2920.125          44.000  
G28  24385499.691   128146638.176        -520.410          41.000  
G31  23943070.361   125821716.008        1217.863          33.000  
G06  24168929.053   127008606.822        3083.685          32.000  
> 2023 09 02 10 44 38.0020000  0 11                     
G03  20788052.880   109241959.253        -879.346          45.000  
G04  21900157.560   115086101.367        2254.458          45.000  
G09  23761963.136   124869959.033        3396.675          42.000  
G17  22047042.744   115857996.894        -661.227          42.000  
G19  22154771.419   116424103.867         989.934          44.000  
G02  23687085.788   124476452.442       -3038.804          44.000  
G21  24450560.350   128488486.652       -3114.636          38.000  
G01  22094950.188   116109774.321       -2920.994          44.000  
G28  24385599.088   128147159.535        -521.918          41.000  
G31  23942838.796   125820498.576        1216.984          33.000  
G06  24168346.844   127005523.543        3083.363          33.000  
> 2023 09 02 10 44 39.0020000  0 11                     
G03  20788220.193   109242839.069        -879.843          45.000  
G04  21899728.913   115083847.261        2253.892          45.000  
G09  23761316.536   124866562.515        3396.571          42.000  
G17  22047168.665   115858658.414        -661.820          42.000  
G19  22154583.026   116423114.248         989.298          44.000  
G02  23687664.053   124479491.397       -3038.953          44.000  
G21  24451152.855   128491601.194       -3114.825          38.000  
G01  22095505.872   116112695.590       -2921.495          44.000  
G28  24385698.205   128147681.868        -522.845          41.000  
G31  23942608.000   125819282.129        1215.935          33.000  
G06  24167757.375   127002440.711        3082.760          33.000  
> 2023 09 02 10 44 40.0020000  0 11                     
G03  20788387.680   109243719.378        -880.454          45.000  
G04  21899300.231   115081593.706        2253.308          46.000  
G09  23760670.704   124863166.283        3396.426          42.000  
G17  22047295.214   115859320.613        -662.305          42.000  
G19  22154394.599   116422125.378         988.500          44.000  
G02  23688242.528   124482530.692       -3039.309          44.000  
G21  24451745.569   128494715.970       -3114.825          38.000  
G01  22096061.836   116115617.294       -2921.913          44.000  
G28  24385797.567   128148204.902        -523.444          41.000  
G31  23942377.378   125818066.268        1216.022          33.000  
G06  24167171.990   126999358.060        3082.718          34.000  
> 2023 09 02 10 44 41.0020000  0 11                     
G03  20788555.132   109244600.042        -881.003          45.000  
G04  21898871.689   115079340.580        2252.668          46.000  
G09  23760024.592   124859770.237        3395.632          42.000  
G17  22047421.902   115859983.395        -663.453          42.000  
G19  22154206.450   116421137.163         987.579          44.000  
G02  23688820.758   124485570.194       -3039.805          44.000  
G21  24452338.527   128497830.848       -3115.277          38.000  
G01  22096617.905   116118539.317       -2922.585          44.000  
G28  24385897.207   128148728.522        -524.237          41.000  
G31  23942146.162   125816850.997        1214.614          33.000  
G06  24166584.686   126996275.458        3082.697          34.000  
> 2023 09 02 10 44 42.0020000  0 11                     
G03  20788722.724   109245481.406        -881.674          45.000  
G04  21898443.181   115077088.205        2251.837          46.000  
G09  23759378.480   124856374.665        3395.047          42.000  
G17  22047548.067   115860647.055        -664.005          42.000  
G19  22154018.546   116420149.911         986.676          44.000  
G02  23689398.779   124488610.234       -3040.263          44.000  
G21  24452931.276   128500946.160       -3115.906          38.000  
G01  22097174.008   116121461.956       -2922.936          44.000  
G28  24385996.708   128149253.048        -525.250          41.000  
G31  23941915.540   125815636.529        1214.370          34.000  
G06  24165997.765   126993193.199        3081.981          34.000  
> 2023 09 02 10 44 43.0020000  0 11                     
G03  20788890.142   109246363.142        -881.761          45.000  
G04  21898014.464   115074836.252        2251.958          46.000  
G09  23758732.264   124852979.239        3395.640          42.000  
G17  22047674.756   115861311.277        -664.398          43.000  
G19  22153830.747   116419163.300         986.313          44.000  
G02  23689977.184   124491650.491       -3040.290          44.000  
G21  24453524.095   128504061.567       -3115.533          38.000  
G01  22097730.252   116124384.925       -2922.793          44.000  
G28  24386096.733   128149778.161        -525.336          40.000  
G31  23941684.465   125814422.636        1213.595          34.000  
G06  24165411.961   126990111.044        3081.967          34.000  
> 2023 09 02 10 44 44.0020000  0 11                     
G03  20789058.083   109247245.412        -882.656          45.000  
G04  21897586.201   115072584.901        2250.911          46.000  
G09  23758086.256   124849584.172        3394.798          42.000  
G17  22047801.863   115861976.234        -665.251          43.000  
G19  22153643.297   116418177.519         985.165          44.000  
G02  23690555.764   124494691.117       -3040.906          44.000  
G21  24454117.054   128507177.263       -3115.997          38.000  
G01  22098286.146   116127308.388       -2923.965          44.000  
G28  24386196.862   128150304.040        -526.471          41.000  
G31  23941453.842   125813209.379        1213.342          34.000  
G06  24164825.494   126987029.072        3081.948          34.000  
> 2023 09 02 10 44 45.0020000  0 11                     
G03  20789225.884   109248128.350        -883.113          45.000  
G04  21897158.112   115070334.275        2250.226          46.000  
G09  23757440.110   124846189.578        3394.244          42.000  
G17  22047929.354   115862642.056        -666.426          43.000  
G19  22153455.742   116417192.671         984.413          44.000  
G02  23691134.517   124497732.257       -3041.365          44.000  
G21  24454710.012   128510293.350       -3116.046          38.000  
G01  22098842.773   116130232.466       -2924.327          44.000  
G28  24386296.887   128150830.783        -527.087          40.000  
G31  23941223.325   125811997.039        1211.766          34.000  
G06  24164239.167   126983947.471        3081.005          34.000  
> 2023 09 02 10 44 46.0020000  0 11                     
G03  20789393.895   109249011.682        -883.605          45.000  
G04  21896729.674   115068084.113        2249.833          46.000  
G09  23756794.522   124842795.169        3394.124          42.000  
G17  22048056.601   115863308.476        -666.808          44.000  
G19  22153268.466   116416208.495         983.881          44.000  
G02  23691713.306   124500773.641       -3041.686          44.000  
G21  24455303.075   128513409.630       -3116.461          38.000  
G01  22099399.539   116133156.870       -2924.781          44.000  
G28  24386397.261   128151358.165        -527.936          40.000  
G31  23940993.192   125810785.201        1211.204          34.000  
G06  24163652.840   126980865.927        3080.809          34.000  
> 2023 09 02 10 44 47.0020000  0 11                     
G03  20789561.626   109249895.574        -884.413          44.000  
G04  21896301.481   115065834.555        2248.816          45.000  
G09  23756148.898   124839401.116        3393.610          42.000  
G17  22048183.953   115863975.627        -667.717          44.000  
G19  22153081.295   116415225.146         982.676          44.000  
G02  23692292.235   124503815.411       -3042.161          44.000  
G21  24455896.138   128516526.169       -3116.852          38.000  
G01  22099956.132   116136081.787       -2925.436          44.000  
G28  24386497.565   128151886.322        -528.931          40.000  
G31  23940762.709   125809574.113        1210.226          34.000  
G06  24163066.303   126977784.580        3081.138          34.000  
> 2023 09 02 10 44 48.0020000  0 11                     
G03  20789730.056   109250779.924        -884.078          45.000  
G04  21895873.287   115063585.498        2249.275          45.000  
G09  23755503.066   124836007.318        3394.050          42.000  
G17  22048311.689   115864643.447        -667.733          44.000  
G19  22152894.054   116414242.541         982.653          44.000  
G02  23692871.128   124506857.487       -3041.932          44.000  
G21  24456489.027   128519642.932       -3116.608          37.000  
G01  22100512.863   116139007.110       -2925.177          44.000  
G28  24386598.113   128152415.127        -528.656          40.000  
G31  23940532.715   125808363.609        1210.751          34.000  
G06  24162479.627   126974703.444        3081.377          34.000  
> 2023 09 02 10 44 49.0020000  0 11                     
G03  20789898.276   109251664.630        -885.206          45.000  
G04  21895445.059   115061336.878        2248.030          45.000  
G09  23754857.512   124832613.680        3393.174          42.000  
G17  22048439.180   115865311.795        -668.888          44.000  
G19  22152707.512   116413260.556         981.267          44.000  
G02  23693450.301   124509899.768       -3042.788          44.000  
G21  24457081.741   128522759.759       -3116.675          37.000  
G01  22101069.595   116141932.723       -2926.093          44.000  
G28  24386698.766   128152944.525        -529.913          39.000  
G31  23940302.756   125807153.675        1209.223          34.000  
G06  24161893.578   126971622.284        3081.089          34.000  
> 2023 09 02 10 44 50.0020000  0 11                     
G03  20790066.496   109252550.032        -885.384          45.000  
G04  21895017.145   115059089.002        2247.828          45.000  
G09  23754211.854   124829220.543        3393.406          42.000  
G17  22048566.950   115865981.041        -669.124          44.000  
G19  22152520.690   116412279.536         980.725          44.000  
G02  23694029.718   124512942.581       -3042.750          44.000  
G21  24457674.455   128525877.067       -3117.218          37.000  
G01  22101626.606   116144858.981       -2926.038          44.000  
G28  24386799.558   128153474.846        -530.444          39.000  
G31  23940072.937   125805944.543        1209.031          35.000  
G06  24161307.286   126968541.573        3080.703          35.000  
> 2023 09 02 10 44 51.0020000  0 11                     
G03  20790235.030   109253435.897        -885.864          45.000  
G04  21894589.545   115056841.653        2247.289          45.000  
G09  23753565.847   124825827.676        3392.633          42.000  
G17  22048695.105   115866650.957        -670.111          44.000  
G19  22152334.042   116411299.261         979.945          43.000  
G02  23694608.995   124515985.714       -3043.278          44.000  
G21  24458267.483   128528994.543       -3117.310          37.000  
G01  22102183.652   116147785.667       -2926.843          44.000  
G28  24386900.351   128154005.853        -531.372          39.000  
G31  23939843.222   125804736.064        1208.248          35.000  
G06  24160721.203   126965460.998        3080.044          35.000  
> 2023 09 02 10 44 52.0020000  0 11                     
G03  20790403.459   109254322.198        -886.743          45.000  
G04  21894162.014   115054594.799        2246.385          45.000  
G09  23752920.050   124822435.022        3392.523          42.000  
G17  22048822.945   115867321.495        -671.012          45.000  
G19  22152147.185   116410319.690         979.065          43.000  
G02  23695188.517   124519029.115       -3043.792          44.000  
G21  24458860.232   128532112.194       -3118.036          37.000  
G01  22102740.907   116150712.720       -2927.604          44.000  
G28  24387001.283   128154537.500        -532.208          39.000  
G31  23939613.577   125803528.180        1207.609          35.000  
G06  24160135.015   126962380.474        3080.375          35.000  
> 2023 09 02 10 44 53.0020000  0 11                     
G03  20790572.378   109255209.312        -887.335          45.000  
G04  21893734.624   115052348.817        2245.565          45.000  
G09  23752274.427   124819043.014        3391.634          42.000  
G17  22048951.030   115867993.042        -671.940          45.000  
G19  22151960.956   116409341.227         977.816          43.000  
G02  23695767.795   124522073.165       -3044.194          44.000  
G21  24459453.400   128535230.380       -3118.042          37.000  
G01  22103298.267   116153640.522       -2928.163          44.000  
G28  24387102.564   128155070.183        -533.191          38.000  
G31  23939384.247   125802321.293        1206.212          35.000  
G06  24159549.491   126959300.499        3080.156          35.000  
> 2023 09 02 10 44 54.0020000  0 11                     
G03  20790740.877   109256096.900        -888.069          44.000  
G04  21893307.303   115050103.361        2245.048          45.000  
G09  23751628.908   124815651.256        3391.449          42.000  
G17  22049078.975   115868665.256        -672.683          45.000  
G19  22151774.797   116408363.470         977.393          43.000  
G02  23696346.897   124525117.546       -3044.709          44.000  
G21  24460046.812   128538348.790       -3118.506          37.000  
G01  22103855.836   116156568.741       -2928.390          44.000  
G28  24387203.984   128155603.549        -533.783          38.000  
G31  23939154.741   125801114.999        1206.166          35.000  
G06  24158963.582   126956220.687        3079.638          35.000  
> 2023 09 02 10 44 55.0020000  0 11                     
G03  20790909.620   109256985.054        -888.291          44.000  
G04  21892880.191   115047858.536        2244.609          45.000  
G09  23750983.529   124812259.880        3391.118          42.000  
G17  22049207.234   115869338.231        -673.121          45.000  
G19  22151588.534   116407386.592         976.583          43.000  
G02  23696926.210   124528162.324       -3044.815          44.000  
G21  24460639.945   128541467.532       -3118.665          37.000  
G01  22104413.022   116159497.510       -2929.142          44.000  
G28  24387305.475   128156137.724        -534.644          38.000  
G31  23938925.515   125799909.492        1204.879          35.000  
G06  24158377.604   126953141.078        3079.794          35.000  
> 2023 09 02 10 44 56.0020000  0 11                     
G03  20791078.748   109257873.739        -888.930          44.000  
G04  21892453.324   115045614.296        2243.877          45.000  
G09  23750338.464   124808868.822        3390.871          42.000  
G17  22049335.388   115870011.923        -673.990          45.000  
G19  22151402.689   116406410.500         975.922          43.000  
G02  23697505.662   124531207.478       -3045.490          44.000  
G21  24461233.113   128544586.495       -3119.012          37.000  
G01  22104970.417   116162426.697       -2929.489          44.000  
G28  24387406.965   128156672.622        -535.529          38.000  
G31  23938696.708   125798704.601        1204.948          35.000  
G06  24157791.521   126950061.722        3078.875          34.000  
> 2023 09 02 10 44 57.0020000  0 11                     
G03  20791247.945   109258762.812        -889.283          44.000  
G04  21892026.457   115043370.522        2243.495          46.000  
G09  23749693.225   124805477.974        3390.702          42.000  
G17  22049463.787   115870686.224        -674.772          45.000  
G19  22151217.054   116405435.088         975.103          43.000  
G02  23698085.288   124534252.866       -3045.474          44.000  
G21  24461826.839   128547705.638       -3119.287          37.000  
G01  22105527.881   116165356.267       -2929.755          44.000  
G28  24387508.909   128157208.146        -535.669          38.000  
G31  23938467.831   125797500.318        1204.213          35.000  
G06  24157205.577   126946982.443        3079.010          34.000  
> 2023 09 02 10 44 58.0020000  0 11                     
G03  20791417.317   109259652.570        -890.548          44.000  
G04  21891599.589   115041127.463        2242.299          46.000  
G09  23749047.777   124802087.581        3389.607          42.000  
G17  22049592.186   115871361.357        -675.684          45.000  
G19  22151031.872   116404460.603         973.762          43.000  
G02  23698664.775   124537298.760       -3046.516          44.000  
G21  24462420.077   128550825.143       -3120.050          37.000  
G01  22106085.451   116168286.431       -2930.808          44.000  
G28  24387610.993   128157744.562        -537.524          38.000  
G31  23938238.849   125796296.850        1202.913          35.000  
G06  24156619.878   126943903.481        3078.532          34.000  
> 2023 09 02 10 44 59.0020000  0 11                     
G03  20791586.794   109260542.783        -890.419          44.000  
G04  21891172.792   115038884.940        2242.474          46.000  
G09  23748402.398   124798697.446        3390.406          42.000  
G17  22049720.829   115872037.176        -675.875          45.000  
G19  22150846.655   116403486.879         973.397          43.000  
G02  23699244.401   124540344.975       -3046.158          44.000  
G21  24463013.908   128553944.880       -3119.781          37.000  
G01  22106643.090   116171217.022       -2930.605          44.000  
G28  24387713.147   128158281.650        -537.244          38.000  
G31  23938010.042   125795094.019        1202.538          35.000  
G06  24156034.075   126940824.691        3078.922          35.000  
> 2023 09 02 10 45 00.0020000  0 11                     
G03  20791756.305   109261433.347        -891.003          45.000  
G04  21890745.995   115036642.825        2241.667          45.000  
G09  23747757.124   124795307.491        3389.467          42.000  
G17  22049849.332   115872713.532        -676.929          45.000  
G19  22150661.683   116402513.763         972.487          43.000  
G02  23699823.679   124543391.385       -3046.950          44.000  
G21  24463607.634   128557064.706       -3120.422          37.000  
G01  22107200.904   116174147.913       -2931.337          45.000  
G28  24387815.300   128158819.310        -538.165          38.000  
G31  23937781.339   125793891.719        1201.549          35.000  
G06  24155448.026   126937745.966        3077.918          35.000  
> 2023 09 02 10 45 01.0020000  0 11                     
G03  20791926.096   109262324.539        -891.203          44.000  
G04  21890319.372   115034401.400        2241.199          45.000  
G09  23747112.129   124791917.957        3389.266          42.000  
G17  22049978.184   115873390.718        -677.413          45.000  
G19  22150476.606   116401541.565         971.993          43.000  
G02  23700403.445   124546438.251       -3046.848          44.000  
G21  24464201.569   128560184.904       -3120.844          37.000  
G01  22107758.647   116177079.374       -2931.698          45.000  
G28  24387918.012   128159357.827        -538.947          38.000  
G31  23937552.986   125792690.216        1201.196          35.000  
G06  24154862.327   126934667.524        3078.190          35.000  
> 2023 09 02 10 45 02.0020000  0 11                     
G03  20792095.816   109263216.284        -892.104          44.000  
G04  21889892.853   115032160.590        2240.282          45.000  
G09  23746466.924   124788528.765        3388.783          42.000  
G17  22050106.618   115874068.639        -678.496          45.000  
G19  22150291.773   116400570.182         970.839          43.000  
G02  23700983.106   124549485.501       -3047.591          44.000  
G21  24464795.470   128563305.364       -3121.179          37.000  
G01  22108316.671   116180011.319       -2932.428          45.000  
G28  24388020.620   128159897.101        -539.734          38.000  
G31  23937324.283   125791489.370        1200.281          35.000  
G06  24154276.628   126931589.298        3077.930          35.000  
> 2023 09 02 10 45 03.0020000  0 11                     
G03  20792265.816   109264108.280        -892.741          44.000  
G04  21889466.719   115029920.063        2239.874          45.000  
G09  23745822.034   124785139.643        3388.287          42.000  
G17  22050236.099   115874746.990        -679.060          45.000  
G19  22150107.080   116399599.322         970.100          43.000  
G02  23701563.466   124552532.854       -3047.952          44.000  
G21  24465389.545   128566425.803       -3121.210          38.000  
G01  22108874.659   116182943.478       -2932.828          45.000  
G28  24388123.367   128160436.820        -540.472          37.000  
G31  23937095.860   125790289.005        1199.441          35.000  
G06  24153691.104   126928510.998        3077.939          35.000  
> 2023 09 02 10 45 04.0020000  0 11                     
G03  20792435.607   109265001.095        -893.008          45.000  
G04  21889040.515   115027680.441        2239.304          45.000  
G09  23745177.388   124781751.116        3388.257          42.000  
G17  22050365.230   115875426.382        -679.883          45.000  
G19  22149922.178   116398629.577         969.109          43.000  
G02  23702143.650   124555580.869       -3048.179          44.000  
G21  24465983.725   128569546.832       -3121.185          38.000  
G01  22109432.821   116185876.390       -2933.197          45.000  
G28  24388226.393   128160977.632        -541.443          37.000  
G31  23936867.262   125789089.604        1198.958          34.000  
G06  24153105.439   126925433.239        3077.689          35.000  
> 2023 09 02 10 45 05.0020000  0 11                     
G03  20792605.817   109265894.435        -893.047          45.000  
G04  21888614.555   115025441.394        2239.108          45.000  
G09  23744532.637   124778362.920        3388.587          42.000  
G17  22050494.536   115876106.473        -680.148          45.000  
G19  22149737.589   116397660.631         968.787          43.000  
G02  23702723.905   124558629.254       -3048.183          44.000  
G21  24466577.661   128572668.105       -3121.082          38.000  
G01  22109991.403   116188809.766       -2933.380          45.000  
G28  24388329.593   128161519.142        -541.388          37.000  
G31  23936638.978   125787890.856        1199.282          34.000  
G06  24152519.705   126922355.654        3078.075          35.000  
> 2023 09 02 10 45 06.0020000  0 11                     
G03  20792775.817   109266788.281        -893.958          45.000  
G04  21888188.630   115023202.897        2238.429          45.000  
G09  23743888.166   124774975.027        3387.908          43.000  
G17  22050624.087   115876787.255        -681.075          45.000  
G19  22149553.001   116396692.451         967.773          43.000  
G02  23703304.230   124561677.974       -3048.823          44.000  
G21  24467171.876   128575789.623       -3121.777          38.000  
G01  22110549.949   116191743.587       -2934.087          46.000  
G28  24388432.794   128162061.399        -542.456          38.000  
G31  23936410.520   125786692.854        1197.465          34.000  
G06  24151934.076   126919278.272        3077.348          35.000  
> 2023 09 02 10 45 07.0020000  0 11                     
G03  20792945.956   109267682.625        -894.435          45.000  
G04  21887762.601   115020964.965        2237.662          45.000  
G09  23743243.764   124771587.433        3387.692          42.000  
G17  22050753.847   115877468.737        -681.821          45.000  
G19  22149368.657   116395725.022         967.124          43.000  
G02  23703884.379   124564727.040       -3049.292          44.000  
G21  24467766.195   128578911.368       -3121.832          38.000  
G01  22111108.182   116194677.847       -2934.435          45.000  
G28  24388536.204   128162604.381        -543.591          38.000  
G31  23936182.760   125785495.464        1197.035          35.000  
G06  24151348.691   126916201.081        3077.068          35.000  
> 2023 09 02 10 45 08.0020000  0 11                     
G03  20793116.270   109268577.414        -895.194          45.000  
G04  21887336.746   115018727.549        2236.908          45.000  
G09  23742599.223   124768200.106        3386.978          42.000  
G17  22050883.572   115878150.851        -682.578          45.000  
G19  22149184.697   116394758.359         965.862          43.000  
G02  23704464.494   124567776.386       -3049.579          44.000  
G21  24468360.305   128582033.327       -3122.546          38.000  
G01  22111666.728   116197612.510       -2935.150          45.000  
G28  24388639.614   128163148.002        -544.299          39.000  
G31  23935954.651   125784298.693        1196.424          35.000  
G06  24150763.306   126913123.999        3077.053          36.000  
> 2023 09 02 10 45 09.0020000  0 11                     
G03  20793286.829   109269472.783        -895.574          45.000  
G04  21886911.065   115016490.770        2236.385          45.000  
G09  23741954.717   124764813.148        3386.622          43.000  
G17  22051013.680   115878833.763        -683.424          45.000  
G19  22149000.946   116393792.517         965.487          43.000  
G02  23705044.959   124570826.174       -3050.051          44.000  
G21  24468954.764   128585155.558       -3122.192          38.000  
G01  22112225.415   116200547.684       -2935.534          45.000  
G28  24388743.687   128163692.431        -544.983          39.000  
G31  23935726.786   125783102.687        1195.629          36.000  
G06  24150177.956   126910047.165        3077.208          36.000  
> 2023 09 02 10 45 10.0020000  0 11                     
G03  20793457.038   109270368.693        -896.059          45.000  
G04  21886485.908   115014254.584        2236.125          45.000  
G09  23741310.490   124761426.537        3386.560          43.000  
G17  22051144.103   115879517.388        -683.818          45.000  
G19  22148817.125   116392827.510         964.645          43.000  
G02  23705625.527   124573876.307       -3050.109          44.000  
G21  24469548.735   128588278.093       -3122.558          38.000  
G01  22112784.171   116203483.348       -2935.773          45.000  
G28  24388847.516   128164237.609        -545.264          39.000  
G31  23935499.130   125781907.363        1195.322          35.000  
G06  24149592.920   126906970.614        3076.656          36.000  
> 2023 09 02 10 45 11.0020000  0 11                     
G03  20793627.771   109271264.994        -896.466          44.000  
G04  21886060.681   115012018.872        2235.508          45.000  
G09  23740666.018   124758040.130        3386.473          43.000  
G17  22051274.561   115880201.622        -684.617          45.000  
G19  22148633.444   116391863.189         963.882          43.000  
G02  23706206.026   124576926.706       -3050.613          44.000  
G21  24470142.775   128591400.774       -3122.821          38.000  
G01  22113343.066   116206419.368       -2936.063          45.000  
G28  24388951.589   128164783.417        -546.033          39.000  
G31  23935271.370   125780712.623        1194.595          35.000  
G06  24149007.395   126903894.091        3076.797          36.000  
> 2023 09 02 10 45 12.0020000  0 11                     
G03  20793798.329   109272161.998        -897.358          44.000  
G04  21885635.105   115009783.902        2234.586          45.000  
G09  23740021.617   124754654.214        3385.769          43.000  
G17  22051405.124   115880886.731        -685.553          46.000  
G19  22148450.112   116390899.827         962.903          43.000  
G02  23706786.769   124579977.630       -3051.323          44.000  
G21  24470736.955   128594523.855       -3123.401          38.000  
G01  22113901.717   116209356.023       -2937.046          45.000  
G28  24389056.116   128165330.165        -547.314          39.000  
G31  23935044.238   125779518.729        1193.218          35.000  
G06  24148422.429   126900817.987        3075.884          36.000  
> 2023 09 02 10 45 13.0020000  0 11                     
G03  20793968.958   109273059.376        -897.518          44.000  
G04  21885210.122   115007549.392        2234.509          45.000  
G09  23739377.180   124751268.483        3385.704          43.000  
G17  22051535.686   115881572.413        -685.775          46.000  
G19  22148266.536   116389937.117         962.537          43.000  
G02  23707367.443   124583028.782       -3051.067          44.000  
G21  24471330.856   128597647.085       -3122.894          38.000  
G01  22114460.438   116212293.007       -2937.168          45.000  
G28  24389160.642   128165877.463        -547.528          39.000  
G31  23934816.757   125778325.395        1193.164          35.000  
G06  24147837.149   126897741.938        3076.128          36.000  
> 2023 09 02 10 45 14.0020000  0 11                     
G03  20794139.481   109273957.081        -898.184          44.000  
G04  21884785.279   115005315.234        2233.489          46.000  
G09  23738732.988   124747882.869        3384.988          43.000  
G17  22051666.319   115882258.599        -686.864          45.000  
G19  22148083.413   116388975.009         961.379          43.000  
G02  23707948.430   124586080.092       -3051.942          44.000  
G21  24471924.861   128600770.379       -3123.932          38.000  
G01  22115019.229   116215230.243       -2937.761          45.000  
G28  24389265.204   128166425.327        -548.566          39.000  
G31  23934589.869   125777132.540        1192.361          36.000  
G06  24147252.043   126894665.906        3075.261          36.000  
> 2023 09 02 10 45 15.0020000  0 11                     
G03  20794310.319   109274855.362        -898.528          45.000  
G04  21884360.541   115003081.727        2233.152          46.000  
G09  23738088.691   124744497.630        3385.148          43.000  
G17  22051796.846   115882945.562        -687.162          45.000  
G19  22147900.326   116388013.739         961.002          43.000  
G02  23708528.895   124589131.809       -3051.910          44.000  
G21  24472519.181   128603893.958       -3123.651          38.000  
G01  22115578.020   116218168.027       -2938.185          45.000  
G28  24389369.801   128166973.975        -549.036          40.000  
G31  23934362.563   125775940.417        1192.152          35.000  
G06  24146667.042   126891590.086        3075.605          36.000  
> 2023 09 02 10 45 16.0020000  0 11                     
G03  20794481.401   109275754.161        -899.174          45.000  
G04  21883935.908   115000848.802        2232.585          46.000  
G09  23737444.429   124741112.725        3384.673          43.000  
G17  22051927.444   115883633.246        -688.164          45.000  
G19  22147717.412   116387053.286         959.944          43.000  
G02  23709109.289   124592183.899       -3052.376          44.000  
G21  24473113.500   128607017.823       -3124.219          38.000  
G01  22116136.951   116221106.247       -2938.607          45.000  
G28  24389474.746   128167523.367        -549.670          40.000  
G31  23934135.745   125774749.019        1190.833          36.000  
G06  24146081.831   126888514.501        3075.309          37.000  
> 2023 09 02 10 45 17.0020000  0 11                     
G03  20794652.587   109276653.609        -899.180          45.000  
G04  21883511.414   114998616.582        2232.513          46.000  
G09  23736800.306   124737728.276        3384.587          43.000  
G17  22052058.250   115884321.778        -688.422          45.000  
G19  22147534.988   116386093.756         959.651          43.000  
G02  23709690.206   124595236.475       -3052.057          44.000  
G21  24473707.925   128610142.082       -3123.920          38.000  
G01  22116695.986   116224045.065       -2938.478          45.000  
G28  24389579.866   128168073.639        -550.189          40.000  
G31  23933909.346   125773558.414        1190.760          36.000  
G06  24145496.900   126885439.243        3075.935          37.000  
> 2023 09 02 10 45 18.0020000  0 11                     
G03  20794823.774   109277553.584        -900.239          45.000  
G04  21883086.885   114996384.962        2231.261          46.000  
G09  23736156.114   124734344.127        3384.214          43.000  
G17  22052189.581   115885011.008        -689.480          45.000  
G19  22147352.738   116385135.009         958.329          43.000  
G02  23710271.438   124598289.436       -3053.075          45.000  
G21  24474302.174   128613266.594       -3124.676          38.000  
G01  22117255.126   116226984.375       -2939.553          45.000  
G28  24389684.882   128168624.644        -551.654          40.000  
G31  23933682.842   125772368.490        1189.942          36.000  
G06  24144911.969   126882364.194        3075.340          37.000  
> 2023 09 02 10 45 19.0020000  0 11                     
G03  20794994.926   109278453.948        -900.552          45.000  
G04  21882662.286   114994153.770        2230.990          46.000  
G09  23735512.236   124730960.206        3383.648          43.000  
G17  22052320.772   115885700.827        -690.011          45.000  
G19  22147170.243   116384176.937         957.794          43.000  
G02  23710852.740   124601342.619       -3053.354          45.000  
G21  24474896.703   128616391.229       -3124.713          38.000  
G01  22117814.789   116229923.998       -2939.718          45.000  
G28  24389790.037   128169176.236        -551.843          40.000  
G31  23933456.512   125771179.142        1189.097          36.000  
G06  24144327.247   126879289.251        3074.375          38.000  
> 2023 09 02 10 45 20.0020000  0 11                     
G03  20795166.392   109279354.927        -901.114          45.000  
G04  21882238.106   114991923.269        2230.258          46.000  
G09  23734868.602   124727576.679        3383.419          43.000  
G17  22052451.997   115886391.465        -690.929          45.000  
G19  22146988.203   116383219.768         957.002          43.000  
G02  23711433.902   124604396.249       -3053.628          45.000  
G21  24475491.267   128619516.213       -3124.786          38.000  
G01  22118374.173   116232864.204       -2940.386          45.000  
G28  24389895.297   128169728.691        -552.667          40.000  
G31  23933230.323   125769990.555        1188.393          36.000  
G06  24143742.525   126876214.558        3074.464          38.000  
> 2023 09 02 10 45 21.0020000  0 11                     
G03  20795337.857   109280256.370        -901.531          45.000  
G04  21881813.612   114989693.297        2229.704          46.000  
G09  23734224.864   124724193.427        3383.279          43.000  
G17  22052583.502   115887082.764        -691.510          45.000  
G19  22146806.127   116382263.342         956.212          43.000  
G02  23712015.169   124607450.198       -3053.966          45.000  
G21  24476086.040   128622641.416       -3125.268          38.000  
G01  22118933.732   116235804.795       -2940.547          45.000  
G28  24390000.382   128170281.817        -553.333          40.000  
G31  23933004.203   125768802.636        1187.371          36.000  
G06  24143157.768   126873140.041        3074.406          38.000  
> 2023 09 02 10 45 22.0020000  0 11                     
G03  20795509.533   109281158.294        -902.312          45.000  
G04  21881389.293   114987463.852        2229.215          46.000  
G09  23733581.160   124720810.453        3382.809          43.000  
G17  22052715.181   115887774.728        -692.417          45.000  
G19  22146624.296   116381307.656         955.308          43.000  
G02  23712596.505   124610504.462       -3054.394          45.000  
G21  24476680.709   128625766.814       -3125.238          38.000  
G01  22119493.395   116238745.815       -2941.223          45.000  
G28  24390105.572   128170835.625        -553.918          39.000  
G31  23932778.222   125767615.307        1187.417          36.000  
G06  24142572.837   126870065.694        3073.959          38.000  
> 2023 09 02 10 45 23.0020000  0 11                     
G03  20795681.348   109282060.856        -903.168          45.000  
G04  21880965.113   114985235.112        2228.156          46.000  
G09  23732937.177   124717427.935        3381.971          43.000  
G17  22052846.930   115888467.518        -693.474          45.000  
G19  22146442.604   116380352.896         954.065          43.000  
G02  23713177.528   124613559.201       -3055.129          45.000  
G21  24477275.552   128628892.603       -3126.245          38.000  
G01  22120053.373   116241687.419       -2942.187          45.000  
G28  24390210.831   128171390.327        -555.457          39.000  
G31  23932552.486   125766428.830        1185.889          36.000  
G06  24141987.976   126866991.646        3073.580          38.000  
> 2023 09 02 10 45 24.0020000  0 11                     
G03  20795852.918   109282963.847        -903.460          45.000  
G04  21880541.038   114983006.873        2227.882          46.000  
G09  23732293.578   124714045.631        3382.214          42.000  
G17  22052978.889   115889160.954        -693.959          45.000  
G19  22146261.157   116379398.848         953.607          43.000  
G02  23713758.864   124616614.223       -3055.195          45.000  
G21  24477870.639   128632018.552       -3126.117          38.000  
G01  22120613.420   116244629.397       -2942.072          45.000  
G28  24390316.231   128171945.651        -555.530          39.000  
G31  23932326.646   125765242.934        1185.246          36.000  
G06  24141402.905   126863917.715        3074.100          37.000  
> 2023 09 02 10 45 25.0020000  0 11                     
G03  20796024.698   109283867.087        -903.348          45.000  
G04  21880116.893   114980778.953        2227.552          46.000  
G09  23731649.840   124710663.421        3382.232          42.000  
G17  22053110.499   115889854.835        -694.110          45.000  
G19  22146079.954   116378445.326         953.251          44.000  
G02  23714340.550   124619669.340       -3055.361          45.000  
G21  24478465.761   128635144.491       -3126.257          39.000  
G01  22121173.537   116247571.591       -2942.385          45.000  
G28  24390421.735   128172501.483        -556.189          38.000  
G31  23932100.875   125764057.415        1185.377          36.000  
G06  24140817.938   126860843.746        3073.800          37.000  
> 2023 09 02 10 45 26.0020000  0 11                     
G03  20796196.757   109284770.988        -904.140          45.000  
G04  21879692.992   114978551.717        2226.954          46.000  
G09  23731006.066   124707281.620        3381.500          42.000  
G17  22053242.422   115890549.542        -695.125          45.000  
G19  22145898.925   116377492.732         952.125          43.000  
G02  23714922.201   124622724.941       -3055.932          45.000  
G21  24479060.465   128638270.829       -3126.318          39.000  
G01  22121733.654   116250514.362       -2942.935          46.000  
G28  24390527.378   128173058.153        -556.824          38.000  
G31  23931875.383   125762872.781        1183.970          36.000  
G06  24140232.728   126857770.110        3073.577          37.000  
> 2023 09 02 10 45 27.0020000  0 11                     
G03  20796368.886   109285675.434        -904.711          45.000  
G04  21879269.056   114976325.107        2226.496          46.000  
G09  23730362.537   124703900.200        3381.552          42.000  
G17  22053374.800   115891245.011        -695.823          45.000  
G19  22145717.897   116376540.958         951.311          43.000  
G02  23715503.816   124625780.930       -3056.194          45.000  
G21  24479655.587   128641397.467       -3126.928          39.000  
G01  22122293.702   116253457.652       -2943.475          46.000  
G28  24390633.162   128173615.599        -557.727          38.000  
G31  23931650.101   125761688.819        1183.726          36.000  
G06  24139647.832   126854696.701        3073.350          37.000  
> 2023 09 02 10 45 28.0020000  0 11                     
G03  20796541.574   109286580.292        -905.181          45.000  
G04  21878845.365   114974098.982        2225.674          46.000  
G09  23729718.554   124700518.987        3380.901          42.000  
G17  22053507.247   115891941.079        -696.667          45.000  
G19  22145536.868   116375589.879         950.542          43.000  
G02  23716085.676   124628837.174       -3056.550          45.000  
G21  24480250.953   128644524.224       -3126.941          39.000  
G01  22122853.889   116256401.277       -2943.906          46.000  
G28  24390739.259   128174173.694        -558.539          38.000  
G31  23931424.818   125760505.468        1182.956          36.000  
G06  24139063.040   126851623.382        3073.189          37.000  
> 2023 09 02 10 45 29.0020000  0 11                     
G03  20796714.051   109287485.700        -905.785          45.000  
G04  21878422.267   114971873.470        2224.879          46.000  
G09  23729075.339   124697138.110        3380.665          42.000  
G17  22053639.764   115892637.884        -697.351          44.000  
G19  22145356.049   116374639.617         949.620          43.000  
G02  23716667.571   124631893.803       -3056.958          45.000  
G21  24480846.180   128647651.280       -3127.222          39.000  
G01  22123414.145   116259345.400       -2944.429          46.000  
G28  24390845.461   128174732.540        -559.558          38.000  
G31  23931199.850   125759322.806        1182.001          36.000  
G06  24138478.388   126848550.310        3072.811          37.000  
> 2023 09 02 10 45 30.0020000  0 11                     
G03  20796886.495   109288391.517        -906.211          45.000  
G04  21877998.715   114969648.403        2224.833          46.000  
G09  23728431.775   124693757.476        3380.224          42.000  
G17  22053772.350   115893335.295        -697.875          45.000  
G19  22145175.823   116373690.058         948.812          44.000  
G02  23717249.257   124634950.687       -3057.100          45.000  
G21  24481441.512   128650778.469       -3127.203          39.000  
G01  22123974.646   116262289.878       -2944.893          45.000  
G28  24390951.942   128175292.019        -560.199          38.000  
G31  23930974.708   125758140.716        1181.562          36.000  
G06  24137893.631   126845477.331        3073.091          37.000  
> 2023 09 02 10 45 31.0020000  0 11                     
G03  20797059.112   109289297.881        -906.814          45.000  
G04  21877575.233   114967423.987        2223.964          45.000  
G09  23727788.595   124690377.193        3379.832          42.000  
G17  22053904.972   115894033.453        -698.654          44.000  
G19  22144995.528   116372741.310         948.298          44.000  
G02  23717830.942   124638007.963       -3057.481          45.000  
G21  24482036.844   128653905.980       -3127.777          39.000  
G01  22124535.077   116265234.850       -2945.282          45.000  
G28  24391058.668   128175852.263        -560.614          38.000  
G31  23930749.739   125756959.362        1180.919          36.000  
G06  24137308.979   126842404.610        3072.198          37.000  
> 2023 09 02 10 45 32.0020000  0 11                     
G03  20797231.869   109290204.877        -907.071          45.000  
G04  21877151.961   114965200.244        2223.561          45.000  
G09  23727145.345   124686997.337        3379.817          42.000  
G17  22054037.943   115894732.436        -699.105          44.000  
G19  22144815.511   116371793.488         947.452          44.000  
G02  23718412.593   124641065.712       -3057.767          44.000  
G21  24482632.245   128657033.839       -3127.740          39.000  
G01  22125095.474   116268180.396       -2945.562          45.000  
G28  24391165.288   128176413.363        -561.652          38.000  
G31  23930524.632   125755778.798        1180.229          35.000  
G06  24136724.152   126839332.179        3072.761          37.000  
> 2023 09 02 10 45 33.0020000  0 11                     
G03  20797404.487   109291112.175        -907.690          45.000  
G04  21876728.758   114962976.868        2222.775          45.000  
G09  23726502.200   124683617.590        3379.421          42.000  
G17  22054170.913   115895431.932        -700.248          44.000  
G19  22144635.425   116370846.245         946.549          44.000  
G02  23718993.930   124644123.598       -3058.164          44.000  
G21  24483227.891   128660161.739       -3128.143          40.000  
G01  22125656.149   116271126.209       -2946.390          45.000  
G28  24391272.328   128176974.977        -562.170          38.000  
G31  23930300.012   125754598.689        1179.500          35.000  
G06  24136139.186   126836259.757        3072.060          37.000  
> 2023 09 02 10 45 34.0020000  0 11                     
G03  20797577.279   109292019.910        -907.929          45.000  
G04  21876305.660   114960753.987        2222.450          45.000  
G09  23725858.741   124680238.086        3379.430          42.000  
G17  22054304.024   115896132.030        -700.546          44.000  
G19  22144455.688   116369899.691         946.306          44.000  
G02  23719575.650   124647181.774       -3058.639          44.000  
G21  24483823.188   128663289.824       -3128.314          40.000  
G01  22126217.034   116274072.382       -2946.509          45.000  
G28  24391379.403   128177537.259        -562.787          38.000  
G31  23930075.533   125753419.206        1179.245          35.000  
G06  24135554.604   126833187.433        3071.981          37.000  
> 2023 09 02 10 45 35.0020000  0 11                     
G03  20797750.001   109292928.290        -908.755          45.000  
G04  21875882.772   114958531.813        2221.759          45.000  
G09  23725216.014   124676859.027        3378.857          42.000  
G17  22054437.169   115896832.974        -701.349          44.000  
G19  22144275.811   116368954.095         945.176          44.000  
G02  23720157.650   124650240.406       -3058.851          44.000  
G21  24484418.554   128666418.278       -3128.601          39.000  
G01  22126778.093   116277019.139       -2947.115          45.000  
G28  24391486.303   128178100.396        -563.464          38.000  
G31  23929851.123   125752240.542        1178.132          36.000  
G06  24134969.987   126830115.437        3071.826          37.000  
> 2023 09 02 10 45 36.0020000  0 11                     
G03  20797923.177   109293836.939        -909.011          45.000  
G04  21875460.127   114956309.977        2221.651          45.000  
G09  23724572.974   124673480.044        3378.853          42.000  
G17  22054570.174   115897534.385        -701.692          44.000  
G19  22144096.004   116368009.021         945.059          44.000  
G02  23720739.405   124653299.161       -3058.745          44.000  
G21  24485013.676   128669546.747       -3128.320          40.000  
G01  22127338.978   116279966.113       -2947.051          46.000  
G28  24391593.168   128178663.998        -563.739          39.000  
G31  23929626.818   125751062.301        1177.962          36.000  
G06  24134385.404   126827043.394        3072.245          37.000  
> 2023 09 02 10 45 37.0020000  0 11                     
G03  20798096.283   109294746.244        -909.808          45.000  
G04  21875037.588   114954088.865        2220.602          45.000  
G09  23723930.352   124670101.539        3378.076          43.000  
G17  22054703.320   115898236.647        -702.845          44.000  
G19  22143916.650   116367064.896         943.541          44.000  
G02  23721321.021   124656358.439       -3059.910          44.000  
G21  24485609.078   128672675.633       -3129.254          40.000  
G01  22127900.177   116282913.708       -2948.147          46.000  
G28  24391700.522   128179228.523        -564.984          38.000  
G31  23929402.757   125749884.890        1177.072          36.000  
G06  24133800.682   126823971.698        3071.557          37.000  
> 2023 09 02 10 45 38.0020000  0 11                     
G03  20798269.494   109295656.022        -909.966          46.000  
G04  21874614.978   114951868.278        2220.382          45.000  
G09  23723287.626   124666723.290        3378.282          43.000  
G17  22054837.163   115898939.573        -703.123          44.000  
G19  22143737.227   116366121.526         942.916          44.000  
G02  23721903.021   124659418.002       -3059.619          44.000  
G21  24486204.374   128675804.712       -3129.126          40.000  
G01  22128461.237   116285861.701       -2948.020          46.000  
G28  24391807.736   128179793.723        -565.155          38.000  
G31  23929179.115   125748708.136        1176.518          36.000  
G06  24133216.170   126820900.173        3071.646          37.000  
> 2023 09 02 10 45 39.0020000  0 11                     
G03  20798442.984   109296566.175        -910.370          46.000  
G04  21874192.509   114949648.134        2219.801          45.000  
G09  23722645.213   124663345.240        3377.744          43.000  
G17  22054970.692   115899643.082        -703.890          44.000  
G19  22143557.909   116365178.802         942.352          44.000  
G02  23722485.195   124662477.801       -3060.162          44.000  
G21  24486799.427   128678933.905       -3129.608          40.000  
G01  22129022.157   116288810.026       -2948.570          46.000  
G28  24391915.229   128180359.539        -566.223          37.000  
G31  23928955.159   125747531.922        1175.729          37.000  
G06  24132631.727   126817828.752        3071.017          37.000  
> 2023 09 02 10 45 40.0020000  0 11                     
G03  20798616.474   109297476.882        -910.899          46.000  
G04  21873770.074   114947428.614        2219.193          46.000  
G09  23722002.592   124659967.542        3377.329          43.000  
G17  22055104.221   115900347.318        -704.459          44.000  
G19  22143379.009   116364236.911         941.407          44.000  
G02  23723067.125   124665538.007       -3060.605          44.000  
G21  24487394.863   128682063.410       -3129.779          40.000  
G01  22129583.425   116291758.854       -2949.153          46.000  
G28  24392022.862   128180926.102        -566.534          37.000  
G31  23928731.936   125746356.394        1175.284          37.000  
G06  24132047.180   126814757.494        3071.431          37.000  
> 2023 09 02 10 45 41.0020000  0 11                     
G03  20798789.720   109298388.057        -911.350          46.000  
G04  21873347.709   114945209.606        2218.960          45.000  
G09  23721360.144   124656590.109        3377.572          43.000  
G17  22055237.924   115901052.229        -705.066          43.000  
G19  22143200.249   116363295.764         940.841          44.000  
G02  23723649.334   124668598.476       -3060.389          43.000  
G21  24487990.300   128685193.087       -3129.657          40.000  
G01  22130144.624   116294708.073       -2949.316          46.000  
G28  24392130.949   128181493.364        -567.596          38.000  
G31  23928508.468   125745181.520        1175.028          36.000  
G06  24131462.772   126811686.438        3071.176          37.000  
> 2023 09 02 10 45 42.0020000  0 11                     
G03  20798963.489   109299299.672        -911.966          46.000  
G04  21872925.483   114942991.107        2218.124          45.000  
G09  23720717.488   124653212.922        3376.881          43.000  
G17  22055372.047   115901757.790        -706.363          43.000  
G19  22143021.733   116362355.334         939.885          44.000  
G02  23724231.822   124671659.248       -3061.101          43.000  
G21  24488585.736   128688322.958       -3130.267          40.000  
G01  22130705.998   116297657.692       -2950.078          46.000  
G28  24392239.035   128182061.270        -568.359          38.000  
G31  23928285.245   125744007.279        1173.763          37.000  
G06  24130878.399   126808615.470        3070.632          37.000  
> 2023 09 02 10 45 43.0020000  0 11                     
G03  20799137.503   109300212.041        -912.407          46.000  
G04  21872503.293   114940773.436        2217.519          45.000  
G09  23720075.006   124649836.294        3376.716          43.000  
G17  22055506.309   115902464.260        -706.515          43.000  
G19  22142842.973   116361415.926         939.186          44.000  
G02  23724814.171   124674720.618       -3061.196          43.000  
G21  24489181.591   128691453.318       -3130.304          40.000  
G01  22131267.616   116300607.997       -2950.250          46.000  
G28  24392346.913   128182630.161        -569.147          38.000  
G31  23928062.336   125742833.932        1173.656          37.000  
G06  24130294.445   126805544.978        3070.606          37.000  
> 2023 09 02 10 45 44.0020000  0 11                     
G03  20799311.516   109301124.606        -912.933          46.000  
G04  21872081.486   114938556.011        2217.067          45.000  
G09  23719432.523   124646459.667        3376.295          43.000  
G17  22055640.501   115903171.138        -707.327          43.000  
G19  22142664.283   116360477.003         938.468          44.000  
G02  23725396.484   124677782.002       -3061.645          43.000  
G21  24489777.237   128694583.601       -3130.700          40.000  
G01  22131829.234   116303558.441       -2950.612          46.000  
G28  24392455.243   128183199.471        -569.727          38.000  
G31  23927839.043   125741660.991        1172.364          37.000  
G06  24129710.282   126802474.349        3070.388          37.000  
> 2023 09 02 10 45 45.0020000  0 11                     
G03  20799485.355   109302037.618        -913.354          46.000  
G04  21871659.470   114936339.100        2216.491          45.000  
G09  23718790.460   124643083.299        3375.910          43.000  
G17  22055775.007   115903878.659        -708.022          43.000  
G19  22142485.732   116359538.799         937.738          44.000  
G02  23725978.693   124680843.684       -3061.776          43.000  
G21  24490373.266   128697714.078       -3130.933          40.000  
G01  22132390.816   116306509.286       -2951.176          46.000  
G28  24392563.784   128183769.450        -570.728          39.000  
G31  23927616.343   125740488.626        1171.961          37.000  
G06  24129126.013   126799403.862        3070.333          37.000  
> 2023 09 02 10 45 46.0020000  0 11                     
G03  20799659.055   109302951.216        -913.898          46.000  
G04  21871237.733   114934122.844        2215.912          45.000  
G09  23718148.536   124639707.309        3375.829          43.000  
G17  22055909.653   115904586.964        -708.910          44.000  
G19  22142307.252   116358601.467         936.923          44.000  
G02  23726561.391   124683905.802       -3062.386          43.000  
G21  24490969.156   128700844.869       -3130.951          40.000  
G01  22132952.469   116309460.663       -2951.665          46.000  
G28  24392672.464   128184340.214        -571.246          39.000  
G31  23927393.609   125739317.048        1171.042          38.000  
G06  24128541.815   126796333.675        3069.534          37.000  
> 2023 09 02 10 45 47.0020000  0 11                     
G03  20799832.929   109303865.187        -914.401          46.000  
G04  21870815.996   114931907.022        2215.487          45.000  
G09  23717506.299   124636331.535        3375.274          43.000  
G17  22056044.718   115905295.823        -709.526          44.000  
G19  22142128.876   116357664.797         936.238          44.000  
G02  23727144.159   124686968.151       -3062.579          42.000  
G21  24491564.907   128703975.809       -3131.115          41.000  
G01  22133514.192   116312412.374       -2952.133          46.000  
G28  24392781.144   128184911.594        -571.893          39.000  
G31  23927170.839   125738146.002        1170.643          38.000  
G06  24127957.896   126793263.499        3070.058          37.000  
> 2023 09 02 10 45 48.0020000  0 11                     
G03  20800006.873   109304779.757        -914.938          46.000  
G04  21870394.399   114929691.884        2214.646          45.000  
G09  23716863.956   124632956.144        3374.993          43.000  
G17  22056180.271   115906005.500        -710.339          44.000  
G19  22141950.499   116356729.014         935.215          44.000  
G02  23727727.205   124690030.933       -3063.326          43.000  
G21  24492161.041   128707107.069       -3131.695          41.000  
G01  22134076.089   116315364.616       -2952.675          47.000  
G28  24392890.103   128185483.794        -572.723          39.000  
G31  23926948.105   125736975.732        1169.750          38.000  
G06  24127373.628   126790193.628        3069.793          37.000  
> 2023 09 02 10 45 49.0020000  0 11                     
G03  20800181.061   109305694.959        -915.770          46.000  
G04  21869972.941   114927477.440        2213.742          45.000  
G09  23716221.718   124629581.206        3374.396          43.000  
G17  22056315.510   115906715.998        -711.124          44.000  
G19  22141772.542   116355794.149         934.258          44.000  
G02  23728310.008   124693094.178       -3063.492          43.000  
G21  24492757.245   128710238.692       -3131.830          41.000  
G01  22134637.951   116318317.434       -2953.228          47.000  
G28  24392999.027   128186056.845        -573.785          39.000  
G31  23926725.405   125735806.260        1169.075          38.000  
G06  24126789.569   126787124.109        3069.378          37.000  
> 2023 09 02 10 45 50.0020000  0 11                     
G03  20800355.319   109306610.560        -915.681          46.000  
G04  21869551.623   114925263.409        2214.101          45.000  
G09  23715579.725   124626206.448        3374.844          43.000  
G17  22056451.098   115907427.055        -711.138          44.000  
G19  22141594.515   116354859.930         934.293          44.000  
G02  23728892.880   124696157.656       -3063.513          43.000  
G21  24493353.205   128713370.445       -3131.873          41.000  
G01  22135200.197   116321270.597       -2953.343          47.000  
G28  24393107.777   128186630.511        -573.676          38.000  
G31  23926503.054   125734637.337        1168.454          38.000  
G06  24126205.196   126784054.632        3069.691          37.000  
> 2023 09 02 10 45 51.0020000  0 11                     
G03  20800529.821   109307526.726        -916.376          46.000  
G04  21869130.375   114923050.064        2213.000          45.000  
G09  23714937.801   124622832.074        3374.123          43.000  
G17  22056586.652   115908138.902        -712.163          44.000  
G19  22141416.558   116353926.590         932.941          44.000  
G02  23729475.961   124699221.561       -3064.214          43.000  
G21  24493949.444   128716502.508       -3132.153          41.000  
G01  22135762.024   116324224.261       -2953.810          47.000  
G28  24393217.085   128187204.949        -574.677          38.000  
G31  23926280.948   125733469.139        1168.049          38.000  
G06  24125621.102   126780985.436        3069.087          37.000  
> 2023 09 02 10 45 52.0020000  0 11                     
G03  20800704.393   109308443.344        -917.053          46.000  
G04  21868709.371   114920837.203        2212.362          45.000  
G09  23714295.773   124619457.940        3374.017          43.000  
G17  22056722.763   115908851.388        -713.046          44.000  
G19  22141238.600   116352993.958         932.101          44.000  
G02  23730058.764   124702285.740       -3064.625          43.000  
G21  24494545.474   128719634.761       -3132.751          41.000  
G01  22136324.096   116327178.329       -2954.457          47.000  
G28  24393326.254   128187780.066        -575.562          38.000  
G31  23926058.876   125732301.587        1166.742          38.000  
G06  24125037.183   126777916.357        3068.680          37.000  
> 2023 09 02 10 45 53.0020000  0 11                     
G03  20800878.720   109309360.363        -917.342          46.000  
G04  21868288.542   114918624.819        2211.863          45.000  
G09  23713653.640   124616084.038        3373.648          43.000  
G17  22056858.770   115909564.474        -713.536          44.000  
G19  22141061.341   116352062.022         931.288          44.000  
G02  23730642.020   124705350.169       -3064.607          43.000  
G21  24495141.608   128722767.154       -3132.751          42.000  
G01  22136886.307   116330132.742       -2954.708          47.000  
G28  24393435.492   128188355.809        -576.050          38.000  
G31  23925837.084   125731134.597        1166.667          38.000  
G06  24124452.845   126774847.371        3068.783          37.000  
> 2023 09 02 10 45 54.0020000  0 11                     
G03  20801053.188   109310277.934        -917.843          46.000  
G04  21867867.538   114916413.037        2211.608          45.000  
G09  23713011.472   124612710.485        3373.210          43.000  
G17  22056994.987   115910278.291        -713.894          44.000  
G19  22140884.012   116351130.904         930.575          44.000  
G02  23731224.927   124708414.967       -3065.097          42.000  
G21  24495737.812   128725899.819       -3132.776          41.000  
G01  22137448.518   116333087.638       -2955.234          46.000  
G28  24393545.079   128188932.301        -577.057          38.000  
G31  23925615.362   125729968.334        1165.809          39.000  
G06  24123869.065   126771778.653        3068.660          37.000  
> 2023 09 02 10 45 55.0020000  0 11                     
G03  20801227.446   109311195.836        -918.381          46.000  
G04  21867446.987   114914201.681        2210.626          45.000  
G09  23712369.443   124609337.073        3372.949          43.000  
G17  22057130.959   115910992.659        -715.034          44.000  
G19  22140706.822   116350200.385         930.033          44.000  
G02  23731808.078   124711479.958       -3065.517          42.000  
G21  24496334.051   128729032.574       -3132.977          41.000  
G01  22138010.868   116336042.819       -2955.746          47.000  
G28  24393654.527   128189509.368        -577.795          38.000  
G31  23925393.988   125728802.584        1165.001          39.000  
G06  24123285.042   126768709.909        3068.798          36.000  
> 2023 09 02 10 45 56.0020000  0 11                     
G03  20801402.297   109312114.308        -918.895          46.000  
G04  21867026.437   114911990.922        2210.155          45.000  
G09  23711727.450   124605964.033        3372.690          43.000  
G17  22057267.210   115911707.777        -715.869          44.000  
G19  22140530.052   116349270.727         928.918          44.000  
G02  23732391.404   124714545.373       -3065.892          42.000  
G21  24496930.325   128732165.630       -3133.417          41.000  
G01  22138573.289   116338998.500       -2956.294          47.000  
G28  24393764.324   128190087.226        -578.870          38.000  
G31  23925172.580   125727637.559        1164.000          39.000  
G06  24122700.983   126765641.470        3068.045          36.000  
> 2023 09 02 10 45 57.0020000  0 11                     
G03  20801576.973   109313033.404        -919.389          46.000  
G04  21866605.957   114909780.866        2209.917          45.000  
G09  23711085.456   124602591.421        3372.620          43.000  
G17  22057403.322   115912423.695        -716.156          44.000  
G19  22140352.827   116348341.960         928.422          44.000  
G02  23732974.835   124717611.218       -3065.907          43.000  
G21  24497526.529   128735299.046       -3133.404          41.000  
G01  22139135.675   116341954.745       -2956.372          46.000  
G28  24393874.365   128190665.893        -579.108          38.000  
G31  23924951.172   125726473.296        1164.005          39.000  
G06  24122116.959   126762573.308        3068.121          36.000  
> 2023 09 02 10 45 58.0020000  0 11                     
G03  20801751.860   109313952.748        -919.764          46.000  
G04  21866185.232   114907571.140        2209.174          45.000  
G09  23710443.637   124599218.881        3371.930          43.000  
G17  22057539.818   115913140.070        -716.825          44.000  
G19  22140175.812   116347413.745         927.609          43.000  
G02  23733558.126   124720677.174       -3066.173          43.000  
G21  24498122.594   128738432.454       -3133.667          41.000  
G01  22139698.235   116344911.216       -2956.956          46.000  
G28  24393984.615   128191245.060        -579.700          38.000  
G31  23924730.077   125725309.494        1163.566          39.000  
G06  24121533.040   126759505.083        3067.978          36.000  
> 2023 09 02 10 45 59.0020000  0 11                     
G03  20801926.571   109314872.665        -920.496          46.000  
G04  21865764.612   114905362.041        2208.404          45.000  
G09  23709801.993   124595846.700        3371.784          43.000  
G17  22057676.174   115913857.226        -717.784          44.000  
G19  22139999.321   116346486.366         926.848          43.000  
G02  23734141.661   124723743.567       -3066.976          43.000  
G21  24498718.728   128741566.174       -3134.002          42.000  
G01  22140260.795   116347868.189       -2957.441          46.000  
G28  24394094.866   128191825.004        -580.640          38.000  
G31  23924508.948   125724146.440        1162.510          39.000  
G06  24120949.051   126756437.144        3067.729          36.000  
> 2023 09 02 10 46 00.0020000  0 11                     
G03  20802101.667   109315793.105        -920.262          46.000  
G04  21865344.306   114903153.517        2208.726          45.000  
G09  23709160.174   124592474.859        3372.102          43.000  
G17  22057812.844   115914575.089        -717.943          44.000  
G19  22139822.794   116345559.801         926.587          44.000  
G02  23734725.057   124726810.299       -3066.683          43.000  
G21  24499315.386   128744700.162       -3133.722          42.000  
G01  22140823.529   116350825.632       -2957.318          46.000  
G28  24394205.291   128192405.713        -580.829          38.000  
G31  23924287.714   125722984.075        1162.352          39.000  
G06  24120364.748   126753369.407        3067.915          35.000  
> 2023 09 02 10 46 01.0020000  0 11                     
G03  20802277.041   109316713.924        -921.381          46.000  
G04  21864924.140   114900945.463        2207.426          45.000  
G09  23708518.459   124589103.197        3371.284          43.000  
G17  22057949.688   115915293.522        -719.324          44.000  
G19  22139646.512   116344633.883         925.212          44.000  
G02  23735308.801   124729877.256       -3067.648          43.000  
G21  24499912.149   128747834.267       -3134.576          42.000  
G01  22141386.124   116353783.398       -2958.335          46.000  
G28  24394316.030   128192986.998        -581.799          38.000  
G31  23924066.515   125721822.250        1161.155          39.000  
G06  24119780.689   126750301.754        3067.044          35.000  
> 2023 09 02 10 46 02.0020000  0 11                     
G03  20802452.241   109317635.401        -921.448          46.000  
G04  21864503.799   114898738.107        2207.209          45.000  
G09  23707876.815   124585732.018        3371.032          42.000  
G17  22058086.533   115916012.806        -719.604          44.000  
G19  22139470.579   116343708.897         924.714          43.000  
G02  23735892.476   124732944.718       -3067.650          43.000  
G21  24500508.527   128750968.759       -3134.662          42.000  
G01  22141948.859   116356741.764       -2958.593          46.000  
G28  24394426.839   128193569.169        -582.562          38.000  
G31  23923845.456   125720661.275        1160.694          39.000  
G06  24119196.630   126747234.437        3066.811          35.000  
> 2023 09 02 10 46 03.0020000  0 11                     
G03  20802627.616   109318557.162        -921.884          46.000  
G04  21864083.423   114896531.104        2206.925          45.000  
G09  23707235.380   124582360.911        3371.304          43.000  
G17  22058223.901   115916732.564        -720.051          44.000  
G19  22139294.646   116342784.484         924.249          43.000  
G02  23736476.465   124736012.286       -3067.560          43.000  
G21  24501105.115   128754103.266       -3134.558          41.000  
G01  22142511.873   116359700.351       -2958.572          46.000  
G28  24394537.822   128194151.839        -582.800          39.000  
G31  23923624.641   125719500.719        1160.517          39.000  
G06  24118612.571   126744167.066        3067.111          35.000  
> 2023 09 02 10 46 04.0020000  0 11                     
G03  20802803.096   109319479.445        -922.572          45.000  
G04  21863663.536   114894324.702        2206.249          45.000  
G09  23706593.665   124578990.164        3370.397          43.000  
G17  22058361.513   115917453.049        -720.845          45.000  
G19  22139118.957   116341860.889         923.375          43.000  
G02  23737060.350   124739080.229       -3068.094          43.000  
G21  24501701.843   128757238.046       -3135.040          41.000  
G01  22143074.817   116362659.414       -2959.198          46.000  
G28  24394649.015   128194735.276        -583.942          39.000  
G31  23923403.931   125718340.881        1159.672          39.000  
G06  24118028.792   126741099.913        3067.041          35.000  
> 2023 09 02 10 46 05.0020000  0 11                     
G03  20802978.784   109320402.418        -923.209          45.000  
G04  21863243.684   114892119.054        2205.313          45.000  
G09  23705952.265   124575619.882        3370.188          42.000  
G17  22058498.637   115918174.409        -721.702          45.000  
G19  22138943.234   116340938.258         922.338          43.000  
G02  23737644.757   124742148.692       -3068.451          43.000  
G21  24502298.466   128760373.249       -3135.358          41.000  
G01  22143637.866   116365619.101       -2959.741          46.000  
G28  24394760.557   128195319.602        -584.686          39.000  
G31  23923183.011   125717181.899        1158.715          39.000  
G06  24117444.838   126738033.129        3067.322          35.000  
> 2023 09 02 10 46 06.0020000  0 11                     
G03  20803154.613   109321325.586        -923.294          46.000  
G04  21862823.797   114889913.651        2205.240          45.000  
G09  23705311.005   124572249.612        3370.212          42.000  
G17  22058635.901   115918896.171        -722.053          45.000  
G19  22138767.684   116340016.109         921.610          43.000  
G02  23738228.746   124745217.213       -3068.645          43.000  
G21  24502895.089   128763508.372       -3134.961          41.000  
G01  22144200.984   116368578.944       -2960.087          46.000  
G28  24394872.099   128195904.336        -584.937          39.000  
G31  23922961.917   125716023.296        1158.056          38.000  
G06  24116861.407   126734966.266        3066.897          35.000  
> 2023 09 02 10 46 07.0020000  0 11                     
G03  20803330.581   109322249.141        -923.704          46.000  
G04  21862404.223   114887708.731        2204.435          45.000  
G09  23704669.604   124568879.563        3369.806          42.000  
G17  22058773.408   115919618.522        -722.758          45.000  
G19  22138592.205   116339094.611         920.942          43.000  
G02  23738812.631   124748285.971       -3069.082          43.000  
G21  24503491.817   128766643.661       -3135.467          42.000  
G01  22144764.173   116371539.119       -2960.635          46.000  
G28  24394984.199   128196489.700        -585.809          40.000  
G31  23922741.171   125714865.243        1157.714          38.000  
G06  24116277.697   126731899.491        3066.477          35.000  
> 2023 09 02 10 46 08.0020000  0 11                     
G03  20803506.653   109323173.455        -924.610          46.000  
G04  21861984.825   114885504.599        2203.893          45.000  
G09  23704028.414   124565510.057        3369.268          42.000  
G17  22058911.370   115920341.811        -723.655          45.000  
G19  22138416.830   116338174.141         920.255          43.000  
G02  23739396.620   124751355.302       -3069.508          43.000  
G21  24504088.509   128769779.403       -3135.791          42.000  
G01  22145327.605   116374499.966       -2960.997          46.000  
G28  24395096.055   128197076.021        -586.841          40.000  
G31  23922520.635   125713708.115        1156.594          38.000  
G06  24115694.267   126728833.136        3066.163          35.000  
> 2023 09 02 10 46 09.0020000  0 11                     
G03  20803682.796   109324098.158        -924.999          46.000  
G04  21861565.915   114883300.960        2203.276          45.000  
G09  23703387.397   124562140.750        3369.349          42.000  
G17  22059049.087   115921065.702        -724.208          45.000  
G19  22138241.770   116337254.385         919.297          43.000  
G02  23739980.609   124754424.898       -3069.903          43.000  
G21  24504685.516   128772915.289       -3135.712          42.000  
G01  22145891.108   116377461.170       -2961.132          46.000  
G28  24395208.190   128197662.962        -587.085          40.000  
G31  23922300.030   125712551.569        1156.158          38.000  
G06  24115110.976   126725766.847        3066.370          35.000  
> 2023 09 02 10 46 10.0020000  0 11                     
G03  20803858.973   109325023.389        -925.252          46.000  
G04  21861147.284   114881097.889        2203.017          45.000  
G09  23702746.137   124558771.787        3369.065          42.000  
G17  22059186.979   115921790.317        -725.012          45.000  
G19  22138066.884   116336335.404         918.773          43.000  
G02  23740564.912   124757494.822       -3069.932          43.000  
G21  24505282.279   128776051.459       -3136.218          42.000  
G01  22146454.785   116380422.841       -2961.691          46.000  
G28  24395320.290   128198250.651        -587.708          40.000  
G31  23922079.564   125711395.704        1155.548          38.000  
G06  24114527.336   126722700.796        3066.053          35.000  
> 2023 09 02 10 46 11.0020000  0 11                     
G03  20804035.535   109325949.023        -925.656          46.000  
G04  21860728.619   114878895.302        2202.454          45.000  
G09  23702105.085   124555403.022        3368.733          42.000  
G17  22059324.696   115922515.509        -725.386          44.000  
G19  22137892.032   116335417.116         918.013          43.000  
G02  23741149.215   124760564.997       -3069.982          43.000  
G21  24505879.286   128779187.742       -3136.059          42.000  
G01  22147018.427   116383384.874       -2962.036          46.000  
G28  24395432.530   128198838.949        -588.123          40.000  
G31  23921859.098   125710240.399        1155.450          37.000  
G06  24113944.010   126719634.822        3066.232          35.000  
> 2023 09 02 10 46 12.0020000  0 11                     
G03  20804212.131   109326874.980        -926.366          46.000  
G04  21860309.744   114876693.099        2201.779          46.000  
G09  23701463.964   124552034.409        3368.238          42.000  
G17  22059462.657   115923241.239        -726.376          44.000  
G19  22137717.460   116334499.446         916.935          43.000  
G02  23741733.413   124763635.355       -3070.787          43.000  
G21  24506476.188   128782324.111       -3136.627          41.000  
G01  22147582.278   116386347.166       -2962.714          46.000  
G28  24395544.560   128199427.843        -589.642          40.000  
G31  23921639.016   125709085.607        1154.364          37.000  
G06  24113360.858   126716568.886        3065.975          35.000  
> 2023 09 02 10 46 13.0020000  0 11                     
G03  20804388.622   109327801.449        -926.571          46.000  
G04  21859890.729   114874491.458        2201.484          45.000  
G09  23700822.704   124548666.103        3368.122          42.000  
G17  22059600.444   115923967.642        -726.543          44.000  
G19  22137542.958   116333582.527         916.589          43.000  
G02  23742317.891   124766706.043       -3070.730          43.000  
G21  24507072.985   128785460.719       -3136.700          41.000  
G01  22148145.990   116389309.901       -2962.877          46.000  
G28  24395657.219   128200017.416        -589.838          40.000  
G31  23921419.108   125707931.510        1153.771          37.000  
G06  24112777.288   126713503.135        3065.345          34.000  
> 2023 09 02 10 46 14.0020000  0 11                     
G03  20804565.184   109328728.167        -926.827          46.000  
G04  21859471.854   114872290.137        2201.179          45.000  
G09  23700181.688   124545297.841        3368.433          42.000  
G17  22059738.370   115924694.499        -727.025          44.000  
G19  22137368.421   116332666.176         916.082          43.000  
G02  23742901.845   124769776.817       -3070.564          43.000  
G21  24507669.434   128788597.300       -3136.480          41.000  
G01  22148710.086   116392272.838       -2963.126          46.000  
G28  24395769.738   128200607.464        -590.302          41.000  
G31  23921199.375   125706777.804        1153.629          38.000  
G06  24112193.683   126710437.285        3066.172          35.000  
> 2023 09 02 10 46 15.0020000  0 11                     
G03  20804741.745   109329655.494        -927.757          46.000  
G04  21859053.014   114870089.505        2200.113          45.000  
G09  23699540.950   124541930.022        3367.578          42.000  
G17  22059876.821   115925422.174        -728.136          44.000  
G19  22137194.128   116331750.679         915.120          42.000  
G02  23743486.357   124772848.074       -3071.642          43.000  
G21  24508266.336   128791734.257       -3137.378          41.000  
G01  22149274.077   116395236.325       -2963.845          46.000  
G28  24395882.327   128201198.363        -591.522          41.000  
G31  23920979.851   125705624.925        1152.516          38.000  
G06  24111610.148   126707371.802        3064.962          34.000  
> 2023 09 02 10 46 16.0020000  0 11                     
G03  20804918.585   109330583.542        -928.219          46.000  
G04  21858634.313   114867889.655        2199.764          46.000  
G09  23698900.283   124538562.737        3367.085          42.000  
G17  22060015.445   115926150.761        -728.993          44.000  
G19  22137020.080   116330836.225         914.070          43.000  
G02  23744070.870   124775919.874       -3071.888          43.000  
G21  24508863.377   128794871.649       -3137.396          42.000  
G01  22149838.312   116398200.492       -2964.536          46.000  
G28  24395994.950   128201790.187        -592.096          40.000  
G31  23920760.537   125704472.908        1151.460          38.000  
G06  24111026.578   126704306.692        3065.204          34.000  
> 2023 09 02 10 46 17.0020000  0 11                     
G03  20805095.426   109331511.834        -928.317          46.000  
G04  21858215.927   114865690.115        2199.571          46.000  
G09  23698259.546   124535195.484        3367.422          42.000  
G17  22060154.035   115926879.764        -728.958          43.000  
G19  22136846.520   116329922.264         914.041          43.000  
G02  23744655.452   124778991.739       -3071.677          43.000  
G21  24509460.315   128798009.009       -3137.042          42.000  
G01  22150402.582   116401164.816       -2964.194          46.000  
G28  24396108.098   128202382.479        -592.444          40.000  
G31  23920541.153   125703321.303        1151.591          38.000  
G06  24110442.833   126701241.497        3065.865          33.000  
> 2023 09 02 10 46 18.0020000  0 11                     
G03  20805271.848   109332440.582        -929.013          46.000  
G04  21857797.785   114863491.107        2198.647          46.000  
G09  23697619.018   124531828.526        3366.596          42.000  
G17  22060292.554   115927609.464        -730.546          43.000  
G19  22136672.960   116329009.087         912.342          43.000  
G02  23745240.174   124782063.933       -3072.621          43.000  
G21  24510057.566   128801146.608       -3138.049          42.000  
G01  22150966.818   116404129.573       -2965.187          46.000  
G28  24396221.070   128202975.471        -593.707          40.000  
G31  23920322.013   125702170.357        1150.516          38.000  
G06  24109859.333   126698176.522        3064.836          33.000  
> 2023 09 02 10 46 19.0020000  0 11                     
G03  20805448.688   109333370.042        -929.366          46.000  
G04  21857379.713   114861292.864        2198.385          46.000  
G09  23696978.421   124528462.044        3366.922          42.000  
G17  22060431.563   115928340.017        -730.406          43.000  
G19  22136499.226   116328096.865         911.941          43.000  
G02  23745825.035   124785136.645       -3072.395          43.000  
G21  24510654.503   128804284.617       -3137.665          42.000  
G01  22151531.053   116407094.966       -2965.228          46.000  
G28  24396334.113   128203569.349        -593.860          40.000  
G31  23920103.152   125701020.265        1150.539          38.000  
G06  24109275.902   126695111.872        3065.224          34.000  
> 2023 09 02 10 46 20.0020000  0 11                     
G03  20805625.738   109334299.682        -929.657          46.000  
G04  21856961.361   114859094.862        2197.990          46.000  
G09  23696338.103   124525095.579        3366.521          42.000  
G17  22060570.641   115929070.972        -731.022          43.000  
G19  22136325.701   116327185.102         911.768          43.000  
G02  23746409.862   124788209.407       -3072.625          43.000  
G21  24511251.928   128807422.543       -3137.604          42.000  
G01  22152095.114   116410060.472       -2965.514          46.000  
G28  24396447.330   128204163.643        -594.379          40.000  
G31  23919884.606   125699870.520        1149.688          38.000  
G06  24108692.367   126692047.111        3065.269          33.000  
> 2023 09 02 10 46 21.0020000  0 11                     
G03  20805802.579   109335229.745        -930.452          46.000  
G04  21856542.870   114856897.371        2196.964          46.000  
G09  23695697.645   124521729.345        3365.655          42.000  
G17  22060709.266   115929802.565        -732.249          43.000  
G19  22136152.316   116326274.062         910.352          43.000  
G02  23746994.758   124791282.422       -3073.321          44.000  
G21  24511848.900   128810560.666       -3138.605          42.000  
G01  22152659.314   116413026.358       -2966.201          46.000  
G28  24396560.721   128204758.580        -595.435          41.000  
G31  23919666.164   125698721.389        1148.743          39.000  
G06  24108105.830   126688982.466        3064.507          33.000  
> 2023 09 02 10 46 22.0020000  0 11                     
G03  20805979.314   109336160.366        -930.857          45.000  
G04  21856124.763   114854700.496        2196.555          46.000  
G09  23695057.117   124518363.488        3365.465          42.000  
G17  22060848.658   115930534.894        -732.690          43.000  
G19  22135979.419   116325363.867         909.589          43.000  
G02  23747579.934   124794355.855       -3073.726          44.000  
G21  24512445.977   128813699.056       -3138.513          42.000  
G01  22153223.898   116415992.762       -2966.836          46.000  
G28  24396674.252   128205354.318        -596.130          41.000  
G31  23919448.106   125697572.991        1148.118          39.000  
G06  24107518.875   126685918.132        3064.234          33.000  
> 2023 09 02 10 46 23.0020000  0 11                     
G03  20806156.364   109337091.370        -931.253          45.000  
G04  21855706.551   114852504.062        2196.327          46.000  
G09  23694416.834   124514997.819        3365.507          42.000  
G17  22060987.981   115931267.810        -733.220          43.000  
G19  22135806.731   116324454.311         909.567          43.000  
G02  23748164.900   124797429.497       -3073.638          44.000  
G21  24513043.263   128816837.607       -3138.831          42.000  
G01  22153788.483   116418959.475       -2966.884          46.000  
G28  24396787.679   128205950.655        -596.722          40.000  
G31  23919230.048   125696425.159        1147.615          39.000  
G06  24106936.561   126682853.784        3064.630          32.000  
> 2023 09 02 10 46 24.0020000  0 11                     
G03  20806333.728   109338022.784        -931.508          45.000  
G04  21855288.583   114850308.110        2195.965          46.000  
G09  23693776.550   124511632.348        3365.764          42.000  
G17  22061127.513   115932001.302        -733.473          43.000  
G19  22135633.765   116323545.467         908.759          43.000  
G02  23748749.971   124800503.392       -3073.827          44.000  
G21  24513640.724   128819976.274       -3138.330          42.000  
G01  22154353.172   116421926.541       -2967.017          46.000  
G28  24396901.001   128206547.611        -597.272          40.000  
G31  23919011.781   125695277.897        1146.918          40.000  
G06  24106358.749   126679789.591        3063.728          33.000  
> 2023 09 02 10 46 25.0020000  0 11                     
G03  20806510.918   109338954.620        -932.217          45.000  
G04  21854870.720   114848112.652        2195.014          46.000  
G09  23693135.988   124508267.123        3365.071          42.000  
G17  22061266.905   115932735.429        -734.291          43.000  
G19  22135460.973   116322637.313         907.769          43.000  
G02  23749335.251   124803577.534       -3074.383          44.000  
G21  24514238.079   128823115.126       -3139.087          42.000  
G01  22154917.756   116424893.980       -2967.780          46.000  
G28  24397014.706   128207145.204        -597.998          40.000  
G31  23918793.932   125694131.238        1146.019          40.000  
G06  24105773.713   126676725.474        3064.079          32.000  
> 2023 09 02 10 46 26.0020000  0 11                     
G03  20806688.456   109339887.109        -932.757          45.000  
G04  21854453.102   114845917.907        2194.522          46.000  
G09  23692495.355   124504902.372        3364.474          41.000  
G17  22061406.541   115933470.421        -735.371          43.000  
G19  22135288.425   116321730.115         906.724          43.000  
G02  23749920.357   124806652.184       -3074.760          44.000  
G21  24514835.296   128826254.391       -3139.624          41.000  
G01  22155482.759   116427862.017       -2968.352          46.000  
G28  24397128.377   128207743.698        -599.030          40.000  
G31  23918576.118   125692985.402        1145.365          39.000  
G06  24105190.178   126673661.725        3063.259          32.000  
> 2023 09 02 10 46 27.0020000  0 11                     
G03  20806865.820   109340820.016        -933.398          45.000  
G04  21854035.274   114843723.665        2193.773          46.000  
G09  23691854.932   124501537.848        3364.255          42.000  
G17  22061546.492   115934206.020        -736.215          43.000  
G19  22135116.191   116320823.613         906.110          43.000  
G02  23750505.707   124809727.103       -3075.491          44.000  
G21  24515432.337   128829393.784       -3139.783          41.000  
G01  22156047.728   116430830.406       -2968.807          46.000  
G28  24397242.222   128208342.798        -599.670          40.000  
G31  23918358.340   125691840.135        1145.087          39.000  
G06  24104607.829   126670598.023        3063.751          33.000  
> 2023 09 02 10 46 28.0020000  0 11                     
G03  20807043.149   109341753.189        -933.742          45.000  
G04  21853617.934   114841529.742        2193.535          46.000  
G09  23691214.579   124498173.402        3364.126          42.000  
G17  22061686.303   115934942.057        -736.449          43.000  
G19  22134943.713   116319917.668         905.186          43.000  
G02  23751090.778   124812802.097       -3075.196          44.000  
G21  24516029.449   128832533.186       -3139.599          41.000  
G01  22156612.661   116433799.018       -2968.998          46.000  
G28  24397356.172   128208942.387        -599.957          40.000  
G31  23918140.596   125690695.349        1144.393          40.000  
G06  24104024.608   126667534.406        3062.485          32.000  
> 2023 09 02 10 46 29.0020000  0 11                     
G03  20807220.479   109342686.777        -933.717          45.000  
G04  21853200.804   114839336.316        2193.288          46.000  
G09  23690574.191   124494809.182        3364.098          42.000  
G17  22061826.219   115935678.730        -736.968          43.000  
G19  22134771.445   116319012.412         905.040          43.000  
G02  23751676.163   124815877.370       -3075.279          44.000  
G21  24516626.805   128835672.749       -3139.642          41.000  
G01  22157177.664   116436767.991       -2969.117          46.000  
G28  24397470.401   128209542.622        -600.391          40.000  
G31  23917923.271   125689551.136        1143.768          40.000  
G06  24103441.806   126664470.786        3063.582          33.000  
> 2023 09 02 10 46 30.0020000  0 11                     
G03  20807398.192   109343620.901        -934.764          45.000  
G04  21852783.430   114837143.479        2192.210          46.000  
G09  23689934.187   124491445.303        3363.304          42.000  
G17  22061966.170   115936416.105        -737.994          43.000  
G19  22134599.351   116318107.983         903.590          43.000  
G02  23752261.164   124818952.998       -3076.191          44.000  
G21  24517224.265   128838812.566       -3140.228          41.000  
G01  22157742.737   116439737.417       -2969.843          46.000  
G28  24397584.700   128210143.626        -601.807          40.000  
G31  23917706.016   125688407.630        1142.709          40.000  
G06  24102859.282   126661407.406        3062.675          33.000  
> 2023 09 02 10 46 31.0020000  0 11                     
G03  20807575.870   109344555.399        -934.664          45.000  
G04  21852366.439   114834951.097        2192.079          46.000  
G09  23689294.427   124488081.613        3363.515          42.000  
G17  22062106.714   115937154.064        -738.230          43.000  
G19  22134427.327   116317204.186         903.312          43.000  
G02  23752846.375   124822028.856       -3075.996          44.000  
G21  24517821.761   128841952.516       -3140.149          41.000  
G01  22158307.845   116442707.193       -2970.022          46.000  
G28  24397699.034   128210745.229        -602.032          40.000  
G31  23917488.586   125687264.677        1142.492          40.000  
G06  24102276.410   126658344.105        3063.922          33.000  
> 2023 09 02 10 46 32.0020000  0 11                     
G03  20807754.106   109345490.520        -935.379          45.000  
G04  21851949.344   114832759.399        2191.414          46.000  
G09  23688654.772   124484718.366        3362.967          42.000  
G17  22062247.537   115937892.837        -739.224          43.000  
G19  22134255.582   116316301.312         902.389          43.000  
G02  23753431.725   124825105.172       -3076.611          44.000  
G21  24518418.942   128845092.798       -3140.338          40.000  
G01  22158873.197   116445677.509       -2970.575          46.000  
G28  24397813.577   128211347.661        -603.094          40.000  
G31  23917271.156   125686122.491        1141.886          39.000  
G06  24101694.027   126655281.154        3062.659          33.000  
> 2023 09 02 10 46 33.0020000  0 11                     
G03  20807932.273   109346425.939        -935.331          45.000  
G04  21851532.494   114830568.073        2191.220          46.000  
G09  23688015.047   124481355.209        3363.155          42.000  
G17  22062388.535   115938632.112        -739.478          43.000  
G19  22134084.255   116315399.012         902.238          43.000  
G02  23754016.831   124828181.631       -3076.354          43.000  
G21  24519016.403   128848233.131       -3139.923          40.000  
G01  22159438.654   116448648.086       -2970.627          46.000  
G28  24397928.155   128211950.618        -603.015          40.000  
G31  23917054.390   125684980.817        1141.596          39.000  
G06  24101111.085   126652218.216        3062.489          32.000  
> 2023 09 02 10 46 34.0020000  0 11                     
G03  20808110.300   109347361.768        -936.191          45.000  
G04  21851115.643   114828377.210        2190.441          46.000  
G09  23687375.043   124477992.285        3362.625          42.000  
G17  22062529.358   115939371.978        -740.343          43.000  
G19  22133913.069   116314497.405         901.119          43.000  
G02  23754601.832   124831258.335       -3076.982          43.000  
G21  24519613.828   128851373.616       -3140.717          40.000  
G01  22160004.006   116451619.003       -2971.458          46.000  
G28  24398042.664   128212554.197        -604.022          40.000  
G31  23916837.449   125683839.695        1140.576          39.000  
G06  24100528.213   126649155.306        3062.621          32.000  
> 2023 09 02 10 46 35.0020000  0 11                     
G03  20808288.432   109348298.083        -936.298          45.000  
G04  21850698.966   114826186.918        2190.024          46.000  
G09  23686735.143   124474629.652        3362.777          42.000  
G17  22062670.216   115940112.543        -740.778          43.000  
G19  22133741.568   116313596.576         900.549          43.000  
G02  23755187.252   124834335.387       -3077.044          43.000  
G21  24520211.394   128854514.325       -3140.442          40.000  
G01  22160569.254   116454590.350       -2971.539          46.000  
G28  24398157.556   128213158.495        -604.559          40.000  
G31  23916620.647   125682699.245        1140.393          39.000  
G06  24099945.620   126646092.570        3063.167          33.000  
> 2023 09 02 10 46 36.0020000  0 11                     
G03  20808466.529   109349234.828        -936.921          45.000  
G04  21850282.500   114823997.103        2189.581          46.000  
G09  23686095.593   124471267.252        3362.267          42.000  
G17  22062811.598   115940853.726        -741.648          43.000  
G19  22133570.416   116312696.436         899.840          43.000  
G02  23755772.672   124837412.670       -3077.399          44.000  
G21  24520809.029   128857655.192       -3141.138          40.000  
G01  22161134.885   116457562.075       -2971.934          46.000  
G28  24398272.483   128213763.432        -605.231          40.000  
G31  23916403.671   125681559.412        1139.589          39.000  
G06  24099363.201   126643029.999        3062.635          33.000  
> 2023 09 02 10 46 37.0020000  0 11                     
G03  20808644.800   109350172.008        -937.061          45.000  
G04  21849865.858   114821807.831        2188.956          46.000  
G09  23685455.903   124467905.134        3361.928          42.000  
G17  22062952.805   115941595.542        -741.885          43.000  
G19  22133399.230   116311797.031         899.106          43.000  
G02  23756358.196   124840490.269       -3077.717          44.000  
G21  24521406.768   128860796.254       -3141.076          41.000  
G01  22161700.342   116460534.192       -2972.261          47.000  
G28  24398387.480   128214369.036        -605.408          39.000  
G31  23916187.044   125680420.189        1138.826          39.000  
G06  24098780.469   126639967.542        3062.829          33.000  
> 2023 09 02 10 46 38.0020000  0 11                     
G03  20808822.967   109351109.647        -938.362          45.000  
G04  21849449.391   114819619.045        2188.330          46.000  
G09  23684816.073   124464543.255        3361.521          42.000  
G17  22063094.222   115942338.006        -743.109          43.000  
G19  22133228.217   116310898.371         897.900          43.000  
G02  23756944.000   124843568.136       -3078.208          44.000  
G21  24522004.718   128863937.482       -3141.534          41.000  
G01  22162265.903   116463506.696       -2973.204          47.000  
G28  24398502.512   128214975.317        -606.891          39.000  
G31  23915970.836   125679281.563        1138.128          39.000  
G06  24098197.806   126636905.226        3062.441          33.000  
> 2023 09 02 10 46 39.0020000  0 11                     
G03  20809001.518   109352047.531        -938.085          45.000  
G04  21849032.645   114817430.601        2188.166          46.000  
G09  23684176.313   124461181.441        3361.373          42.000  
G17  22063235.534   115943080.914        -743.061          43.000  
G19  22133057.240   116310000.241         897.555          43.000  
G02  23757529.874   124846646.104       -3078.149          44.000  
G21  24522602.423   128867078.708       -3141.193          41.000  
G01  22162831.570   116466479.392       -2972.944          47.000  
G28  24398617.509   128215582.056        -607.117          39.000  
G31  23915754.209   125678143.399        1137.813          39.000  
G06  24097615.352   126633842.866        3061.942          33.000  
> 2023 09 02 10 46 40.0020000  0 11                     
G03  20809179.615   109352985.778        -938.496          44.000  
G04  21848616.178   114815242.570        2187.656          46.000  
G09  23683536.728   124457819.780        3361.523          42.000  
G17  22063377.195   115943824.384        -743.795          43.000  
G19  22132886.089   116309102.744         897.092          43.000  
G02  23758116.027   124849724.261       -3078.315          44.000  
G21  24523200.476   128870220.033       -3141.485          41.000  
G01  22163397.166   116469452.395       -2973.406          47.000  
G28  24398732.994   128216189.398        -607.910          39.000  
G31  23915537.652   125677005.752        1137.247          39.000  
G06  24097032.585   126630780.577        3062.149          32.000  
> 2023 09 02 10 46 41.0020000  0 11                     
G03  20809357.711   109353924.649        -939.249          44.000  
G04  21848199.956   114813055.241        2186.799          46.000  
G09  23682897.247   124454458.577        3361.036          42.000  
G17  22063518.995   115944568.651        -744.569          43.000  
G19  22132715.146   116308206.150         896.001          43.000  
G02  23758701.830   124852802.890       -3078.852          44.000  
G21  24523798.391   128873361.715       -3141.913          41.000  
G01  22163963.146   116472425.955       -2973.939          47.000  
G28  24398848.340   128216797.556        -608.472          39.000  
G31  23915321.234   125675868.891        1136.402          39.000  
G06  24096449.643   126627718.566        3060.554          32.000  
> 2023 09 02 10 46 42.0020000  0 11                     
G03  20809536.471   109354863.925        -939.483          44.000  
G04  21847783.663   114810868.373        2186.474          46.000  
G09  23682257.592   124451097.579        3360.722          42.000  
G17  22063660.935   115945313.534        -745.236          43.000  
G19  22132544.658   116307310.251         895.575          43.000  
G02  23759288.018   124855881.765       -3079.060          44.000  
G21  24524396.026   128876503.541       -3142.309          41.000  
G01  22164529.266   116475399.880       -2974.371          47.000  
G28  24398963.895   128217406.335        -608.887          38.000  
G31  23915104.747   125674732.636        1136.038          38.000  
G06  24095866.980   126624656.629        3062.178          32.000  
> 2023 09 02 10 46 43.0020000  0 11                     
G03  20809714.917   109355803.647        -939.534          44.000  
G04  21847367.441   114808682.029        2186.505          46.000  
G09  23681618.041   124447736.852        3361.056          42.000  
G17  22063803.189   115946059.055        -745.448          44.000  
G19  22132374.553   116306415.083         895.259          43.000  
G02  23759873.822   124858960.926       -3078.895          44.000  
G21  24524993.800   128879645.527       -3141.491          40.000  
G01  22165094.967   116478374.175       -2974.312          46.000  
G28  24399079.905   128218015.822        -609.857          39.000  
G31  23914888.399   125673596.990        1135.702          38.000  
G06  24095284.003   126621594.877        3062.339          32.000  
> 2023 09 02 10 46 44.0020000  0 11                     
G03  20809893.468   109356743.873        -940.459          43.000  
G04  21846951.358   114806496.273        2185.557          46.000  
G09  23680978.177   124444376.453        3360.500          42.000  
G17  22063945.653   115946805.292        -746.637          44.000  
G19  22132204.483   116305520.716         893.982          43.000  
G02  23760459.695   124862040.446       -3079.760          44.000  
G21  24525591.959   128882787.806       -3142.340          40.000  
G01  22165661.053   116481348.944       -2975.048          46.000  
G28  24399195.774   128218626.002        -610.315          39.000  
G31  23914672.260   125672462.044        1134.635          38.000  
G06  24094701.759   126618533.327        3061.731          33.000  
> 2023 09 02 10 46 45.0020000  0 11                     
G03  20810071.984   109357684.363        -940.455          43.000  
G04  21846535.275   114804310.836        2185.459          46.000  
G09  23680338.591   124441016.129        3360.473          42.000  
G17  22064088.012   115947551.961        -746.742          44.000  
G19  22132034.448   116304626.890         893.605          44.000  
G02  23761045.744   124865120.044       -3079.533          44.000  
G21  24526189.734   128885930.058       -3142.206          40.000  
G01  22166226.824   116484323.904       -2974.879          46.000  
G28  24399312.027   128219236.691        -610.852          39.000  
G31  23914456.017   125671327.533        1134.463          38.000  
G06  24094119.062   126615471.721        3061.424          32.000  
> 2023 09 02 10 46 46.0020000  0 11                     
G03  20810250.779   109358625.419        -941.346          43.000  
G04  21846119.645   114802126.030        2184.485          46.000  
G09  23679699.355   124437656.160        3359.827          42.000  
G17  22064230.406   115948299.394        -747.842          44.000  
G19  22131864.483   116303733.895         892.552          43.000  
G02  23761632.001   124868200.054       -3080.139          44.000  
G21  24526787.822   128889072.601       -3142.639          40.000  
G01  22166793.153   116487299.372       -2975.718          46.000  
G28  24399428.246   128219848.143        -611.816          39.000  
G31  23914240.053   125670193.736        1133.441          38.000  
G06  24093536.643   126612410.361        3060.654          33.000  
> 2023 09 02 10 46 47.0020000  0 11                     
G03  20810429.748   109359567.044        -941.898          43.000  
G04  21845703.981   114799941.872        2183.885          46.000  
G09  23679060.188   124434296.574        3359.684          42.000  
G17  22064373.218   115949047.588        -748.397          44.000  
G19  22131694.553   116302841.750         891.786          43.000  
G02  23762218.433   124871280.460       -3080.437          44.000  
G21  24527386.190   128892215.454       -3142.712          40.000  
G01  22167359.412   116490275.351       -2976.102          46.000  
G28  24399544.743   128220460.362        -612.201          39.000  
G31  23914024.369   125669060.718        1132.597          38.000  
G06  24092954.434   126609349.249        3060.836          34.000  
> 2023 09 02 10 46 48.0020000  0 11                     
G03  20810608.752   109360509.001        -942.037          43.000  
G04  21845288.492   114797758.135        2183.482          46.000  
G09  23678420.917   124430937.164        3359.204          43.000  
G17  22064515.682   115949796.335        -749.219          44.000  
G19  22131524.937   116301950.267         890.995          44.000  
G02  23762804.656   124874361.086       -3080.673          44.000  
G21  24527984.593   128895358.412       -3143.018          41.000  
G01  22167925.742   116493251.643       -2976.456          46.000  
G28  24399661.311   128221073.209        -613.287          39.000  
G31  23913808.998   125667928.188        1132.437          38.000  
G06  24092372.260   126606288.221        3060.464          34.000  
> 2023 09 02 10 46 49.0020000  0 11                     
G03  20810787.931   109361451.564        -942.801          43.000  
G04  21844873.141   114795575.041        2182.751          45.000  
G09  23677781.332   124427578.131        3358.971          43.000  
G17  22064658.006   115950545.846        -749.694          44.000  
G19  22131355.355   116301059.631         890.289          44.000  
G02  23763391.053   124877442.126       -3080.980          44.000  
G21  24528582.961   128898501.674       -3143.152          41.000  
G01  22168492.490   116496228.444       -2977.087          46.000  
G28  24399777.983   128221686.808        -613.660          39.000  
G31  23913593.523   125666796.454        1131.409          38.000  
G06  24091790.191   126603227.447        3060.526          34.000  
> 2023 09 02 10 46 50.0020000  0 11                     
G03  20810967.424   109362394.401        -943.123          43.000  
G04  21844458.071   114793392.300        2182.655          45.000  
G09  23677142.095   124424219.236        3358.664          43.000  
G17  22064800.679   115951295.862        -750.383          44.000  
G19  22131185.949   116300169.576         889.673          44.000  
G02  23763977.310   124880523.288       -3081.293          44.000  
G21  24529181.190   128901644.981       -3143.311          41.000  
G01  22169059.203   116499205.481       -2977.302          46.000  
G28  24399894.830   128222300.960        -614.392          38.000  
G31  23913378.117   125665665.153        1131.311          38.000  
G06  24091208.156   126600166.658        3060.150          34.000  
> 2023 09 02 10 46 51.0020000  0 11                     
G03  20811146.778   109363337.576        -943.358          43.000  
G04  21844042.686   114791209.968        2182.077          45.000  
G09  23676503.138   124420860.461        3358.582          43.000  
G17  22064943.177   115952046.391        -750.948          44.000  
G19  22131016.263   116299280.124         888.977          44.000  
G02  23764563.952   124883604.625       -3081.673          44.000  
G21  24529779.557   128904788.332       -3143.268          41.000  
G01  22169625.951   116502182.782       -2977.570          46.000  
G28  24400011.851   128222915.640        -615.045          39.000  
G31  23913162.572   125664534.392        1130.137          37.000  
G06  24090625.528   126597105.880        3060.290          34.000  
> 2023 09 02 10 46 52.0020000  0 11                     
G03  20811326.131   109364281.482        -944.536          43.000  
G04  21843627.545   114789028.426        2181.242          45.000  
G09  23675863.762   124417502.226        3357.830          43.000  
G17  22065085.955   115952797.843        -752.053          44.000  
G19  22130846.996   116298391.679         888.031          44.000  
G02  23765150.419   124886686.523       -3082.264          44.000  
G21  24530377.925   128907932.161       -3144.177          41.000  
G01  22170192.769   116505160.758       -2978.462          46.000  
G28  24400129.047   128223531.265        -616.150          39.000  
G31  23912947.551   125663404.501        1129.362          37.000  
G06  24090043.075   126594045.505        3060.319          33.000  
> 2023 09 02 10 46 53.0020000  0 11                     
G03  20811505.729   109365225.557        -944.246          43.000  
G04  21843212.579   114786847.154        2180.982          45.000  
G09  23675224.630   124414143.973        3358.250          43.000  
G17  22065229.221   115953549.661        -752.025          44.000  
G19  22130678.217   116297503.707         887.589          44.000  
G02  23765737.025   124889768.451       -3081.927          44.000  
G21  24530976.224   128911075.914       -3143.579          41.000  
G01  22170760.076   116508138.848       -2978.091          46.000  
G28  24400246.521   128224147.298        -616.333          39.000  
G31  23912732.250   125662274.989        1129.021          37.000  
G06  24089460.831   126590985.010        3060.492          34.000  
> 2023 09 02 10 46 54.0020000  0 11                     
G03  20811685.536   109366170.111        -944.858          43.000  
G04  21842797.438   114784666.395        2180.571          45.000  
G09  23674585.638   124410786.004        3358.067          43.000  
G17  22065372.662   115954302.146        -752.813          44.000  
G19  22130509.229   116296616.491         886.819          44.000  
G02  23766323.841   124892850.668       -3082.261          44.000  
G21  24531574.312   128914219.870       -3144.025          41.000  
G01  22171327.138   116511117.361       -2978.746          46.000  
G28  24400363.996   128224764.029        -617.145          39.000  
G31  23912517.333   125661146.105        1128.411          37.000  
G06  24088878.412   126587924.710        3060.409          34.000  
> 2023 09 02 10 46 55.0020000  0 11                     
G03  20811865.657   109367115.003        -944.898          43.000  
G04  21842382.367   114782486.078        2180.309          45.000  
G09  23673946.542   124407428.225        3358.079          43.000  
G17  22065515.684   115955055.193        -753.118          44.000  
G19  22130340.625   116295729.903         886.531          44.000  
G02  23766910.448   124895933.110       -3082.436          44.000  
G21  24532172.471   128917363.921       -3143.976          41.000  
G01  22171893.886   116514096.167       -2978.831          46.000  
G28  24400481.925   128225381.320        -617.383          39.000  
G31  23912302.277   125660017.754        1128.303          37.000  
G06  24088296.203   126584864.435        3060.314          35.000  
> 2023 09 02 10 46 56.0020000  0 11                     
G03  20812045.673   109368060.328        -945.453          43.000  
G04  21841967.157   114780306.242        2179.736          45.000  
G09  23673307.654   124404070.669        3357.336          43.000  
G17  22065659.439   115955808.844        -753.761          44.000  
G19  22130172.021   116294844.024         885.602          44.000  
G02  23767497.229   124899015.783       -3082.660          45.000  
G21  24532770.839   128920508.121       -3144.098          41.000  
G01  22172460.704   116517075.333       -2979.202          46.000  
G28  24400599.469   128225999.248        -618.109          39.000  
G31  23912087.255   125658889.985        1127.837          36.000  
G06  24087714.204   126581804.300        3059.785          34.000  
> 2023 09 02 10 46 57.0020000  0 11                     
G03  20812225.969   109369006.318        -946.419          44.000  
G04  21841552.505   114778127.124        2178.899          46.000  
G09  23672668.837   124400713.569        3356.935          42.000  
G17  22065802.949   115956563.350        -754.712          44.000  
G19  22130004.045   116293959.083         884.531          43.000  
G02  23768084.254   124902098.975       -3083.437          45.000  
G21  24533369.172   128923652.731       -3144.861          41.000  
G01  22173027.732   116520055.099       -2979.867          46.000  
G28  24400717.398   128226618.080        -619.214          39.000  
G31  23911872.478   125657763.099        1126.306          36.000  
G06  24087132.169   126578744.478        3059.660          34.000  
> 2023 09 02 10 46 58.0020000  0 11                     
G03  20812406.334   109369952.551        -946.506          44.000  
G04  21841137.818   114775948.350        2178.547          46.000  
G09  23672030.054   124397356.561        3357.021          42.000  
G17  22065946.425   115957318.332        -755.365          43.000  
G19  22129836.139   116293074.683         884.257          43.000  
G02  23768671.419   124905182.239       -3083.183          45.000  
G21  24533967.435   128926797.313       -3144.550          41.000  
G01  22173594.480   116523035.085       -2980.224          46.000  
G28  24400835.327   128227237.388        -619.714          40.000  
G31  23911658.084   125656636.642        1125.878          36.000  
G06  24086550.065   126575684.643        3059.708          34.000  
> 2023 09 02 10 46 59.0020000  0 11                     
G03  20812586.525   109370899.165        -946.851          44.000  
G04  21840723.200   114773770.019        2177.964          46.000  
G09  23671391.271   124393999.732        3356.744          42.000  
G17  22066090.040   115958073.853        -755.787          43.000  
G19  22129668.199   116292190.957         883.529          44.000  
G02  23769258.409   124908265.729       -3083.640          45.000  
G21  24534566.047   128929942.021       -3144.855          41.000  
G01  22174161.507   116526015.379       -2980.531          46.000  
G28  24400953.744   128227857.284        -620.343          40.000  
G31  23911443.551   125655510.681        1126.085          36.000  
G06  24085968.065   126572624.846        3059.927          35.000  
> 2023 09 02 10 47 00.0020000  0 11                     
G03  20812766.891   109371846.319        -947.629          44.000  
G04  21840308.723   114771592.303        2177.385          46.000  
G09  23670752.384   124390643.273        3356.253          42.000  
G17  22066233.900   115958830.133        -756.666          43.000  
G19  22129500.502   116291308.065         882.606          44.000  
G02  23769845.435   124911349.621       -3084.317          45.000  
G21  24535164.276   128933087.029       -3145.416          41.000  
G01  22174728.814   116528996.171       -2981.172          46.000  
G28  24401072.301   128228477.944        -621.234          40.000  
G31  23911229.193   125654385.489        1124.927          35.000  
G06  24085386.345   126569565.347        3058.911          35.000  
> 2023 09 02 10 47 01.0020000  0 11                     
G03  20812947.500   109372794.010        -947.865          44.000  
G04  21839894.455   114769415.197        2176.677          45.000  
G09  23670113.671   124387287.155        3356.156          42.000  
G17  22066377.480   115959587.133        -757.281          43.000  
G19  22129332.701   116290425.992         881.554          44.000  
G02  23770432.635   124914433.856       -3084.407          45.000  
G21  24535762.958   128936232.293       -3145.538          41.000  
G01  22175296.155   116531977.420       -2981.315          46.000  
G28  24401190.997   128229099.357        -621.741          40.000  
G31  23911015.218   125653261.007        1124.019          35.000  
G06  24084804.519   126566506.004        3059.345          35.000  
> 2023 09 02 10 47 02.0020000  0 11                     
G03  20813128.040   109373742.028        -948.178          44.000  
G04  21839480.361   114767238.509        2176.549          45.000  
G09  23669475.272   124383931.190        3356.232          43.000  
G17  22066521.445   115960344.687        -757.875          44.000  
G19  22129165.179   116289544.535         881.285          44.000  
G02  23771019.730   124917518.285       -3084.434          45.000  
G21  24536361.256   128939377.637       -3145.440          41.000  
G01  22175863.497   116534958.957       -2981.429          46.000  
G28  24401309.763   128229721.337        -622.076          40.000  
G31  23910801.418   125652137.014        1124.526          35.000  
G06  24084222.415   126563446.726        3059.255          35.000  
> 2023 09 02 10 47 03.0020000  0 11                     
G03  20813308.720   109374690.436        -948.521          44.000  
G04  21839066.512   114765062.244        2176.199          46.000  
G09  23668836.594   124380575.426        3355.885          43.000  
G17  22066665.863   115961102.779        -758.199          43.000  
G19  22128997.622   116288663.749         880.547          44.000  
G02  23771606.825   124920602.930       -3084.590          45.000  
G21  24536959.799   128942523.083       -3145.520          41.000  
G01  22176430.559   116537940.824       -2981.921          46.000  
G28  24401428.494   128230343.931        -622.870          40.000  
G31  23910587.513   125651013.620        1123.409          34.000  
G06  24083640.660   126560387.480        3059.874          35.000  
> 2023 09 02 10 47 04.0020000  0 11                     
G03  20813489.504   109375639.225        -948.840          44.000  
G04  21838653.011   114762886.443        2175.752          46.000  
G09  23668198.091   124377219.852        3355.756          43.000  
G17  22066810.246   115961861.457        -758.787          43.000  
G19  22128829.890   116287783.617         879.706          44.000  
G02  23772193.745   124923687.809       -3084.838          45.000  
G21  24537558.655   128945668.664       -3145.563          41.000  
G01  22176997.936   116540922.998       -2982.133          46.000  
G28  24401547.400   128230967.098        -623.419          40.000  
G31  23910373.818   125649890.756        1123.138          34.000  
G06  24083058.800   126557328.375        3059.179          36.000  
> 2023 09 02 10 47 05.0020000  0 11                     
G03  20813670.219   109376588.478        -949.443          44.000  
G04  21838239.267   114760711.189        2175.167          46.000  
G09  23667559.657   124373864.584        3355.117          43.000  
G17  22066954.629   115962620.809        -759.486          43.000  
G19  22128662.612   116286904.228         879.112          44.000  
G02  23772780.910   124926772.987       -3085.257          45.000  
G21  24538157.477   128948814.453       -3145.947          41.000  
G01  22177565.417   116543905.612       -2982.616          46.000  
G28  24401666.236   128231590.954        -623.883          40.000  
G31  23910160.158   125648768.553        1121.780          34.000  
G06  24082476.870   126554269.404        3059.152          36.000  
> 2023 09 02 10 47 06.0020000  0 11                     
G03  20813850.898   109377538.188        -949.583          45.000  
G04  21837825.487   114758536.456        2174.645          46.000  
G09  23666921.119   124370509.551        3355.152          43.000  
G17  22067099.291   115963380.827        -760.397          43.000  
G19  22128495.579   116286025.599         878.391          44.000  
G02  23773368.354   124929858.461       -3085.390          45.000  
G21  24538756.438   128951960.417       -3145.685          41.000  
G01  22178133.282   116546888.609       -2982.976          46.000  
G28  24401785.177   128232215.521        -624.756          40.000  
G31  23909946.532   125647646.986        1121.281          34.000  
G06  24081894.940   126551210.563        3059.127          36.000  
> 2023 09 02 10 47 07.0020000  0 11                     
G03  20814031.648   109378488.235        -950.448          44.000  
G04  21837411.812   114756362.128        2173.859          46.000  
G09  23666282.964   124367154.683        3354.508          43.000  
G17  22067243.988   115964141.347        -761.213          43.000  
G19  22128328.545   116285147.581         877.422          44.000  
G02  23773955.554   124932944.107       -3086.040          45.000  
G21  24539355.120   128955106.473       -3146.332          41.000  
G01  22178701.216   116549871.883       -2983.510          46.000  
G28  24401904.118   128232840.613        -625.507          40.000  
G31  23909732.872   125646525.894        1120.466          34.000  
G06  24081313.080   126548151.801        3058.403          36.000  
> 2023 09 02 10 47 08.0020000  0 11                     
G03  20814212.502   109379438.677        -950.631          44.000  
G04  21836998.417   114754188.266        2173.608          46.000  
G09  23665644.915   124363800.009        3354.538          43.000  
G17  22067388.860   115964902.458        -761.277          43.000  
G19  22128161.791   116284270.233         877.096          44.000  
G02  23774542.405   124936030.007       -3086.092          45.000  
G21  24539954.012   128958252.649       -3146.264          41.000  
G01  22179268.907   116552855.485       -2983.716          46.000  
G28  24402023.233   128233466.336        -625.916          40.000  
G31  23909519.455   125645405.379        1120.291          33.000  
G06  24080730.906   126545093.047        3059.119          36.000  
> 2023 09 02 10 47 09.0020000  0 11                     
G03  20814393.391   109380389.382        -950.920          45.000  
G04  21836584.951   114752014.749        2173.395          46.000  
G09  23665006.865   124360445.433        3354.344          43.000  
G17  22067533.767   115965664.050        -761.777          43.000  
G19  22127995.246   116283393.463         876.381          44.000  
G02  23775129.361   124939116.027       -3085.973          45.000  
G21  24540552.903   128961398.831       -3146.112          41.000  
G01  22179836.597   116555839.307       -2984.047          46.000  
G28  24402142.488   128234092.571        -626.599          40.000  
G31  23909306.388   125644285.338        1119.683          34.000  
G06  24080149.255   126542034.343        3058.560          36.000  
> 2023 09 02 10 47 10.0020000  0 11                     
G03  20814574.454   109381340.528        -951.305          45.000  
G04  21836171.521   114749841.736        2172.667          46.000  
G09  23664368.536   124357091.108        3354.065          43.000  
G17  22067679.267   115966426.268        -762.651          44.000  
G19  22127828.736   116282517.398         875.675          44.000  
G02  23775716.491   124942202.330       -3086.518          44.000  
G21  24541151.725   128964545.201       -3146.496          41.000  
G01  22180404.497   116558823.511       -2984.514          46.000  
G28  24402262.161   128234719.437        -626.959          40.000  
G31  23909093.880   125643165.863        1119.445          33.000  
G06  24079567.465   126538975.759        3058.619          36.000  
> 2023 09 02 10 47 11.0020000  0 11                     
G03  20814755.517   109382292.247        -952.077          45.000  
G04  21835758.125   114747669.372        2171.955          46.000  
G09  23663730.347   124353737.169        3353.624          43.000  
G17  22067824.487   115967189.257        -763.533          44.000  
G19  22127662.331   116281642.199         874.640          44.000  
G02  23776303.795   124945289.041       -3087.125          44.000  
G21  24541750.965   128967691.859       -3146.875          41.000  
G01  22180972.362   116561808.237       -2985.266          46.000  
G28  24402381.974   128235347.122        -628.174          40.000  
G31  23908881.161   125642047.177        1118.351          34.000  
G06  24078985.430   126535917.441        3057.957          36.000  
> 2023 09 02 10 47 12.0020000  0 11                     
G03  20814936.616   109383244.327        -952.400          45.000  
G04  21835344.799   114745497.443        2171.648          46.000  
G09  23663092.367   124350383.410        3353.608          43.000  
G17  22067969.848   115967952.790        -763.826          44.000  
G19  22127495.995   116280767.634         874.221          44.000  
G02  23776890.960   124948375.956       -3087.264          44.000  
G21  24542349.857   128970838.636       -3146.991          42.000  
G01  22181540.297   116564793.243       -2985.206          46.000  
G28  24402501.264   128235975.364        -628.687          40.000  
G31  23908668.827   125640929.086        1117.159          33.000  
G06  24078403.396   126532859.137        3058.127          36.000  
> 2023 09 02 10 47 13.0020000  0 11                     
G03  20815118.028   109384196.823        -952.608          45.000  
G04  21834931.508   114743326.016        2171.037          46.000  
G09  23662454.421   124347029.891        3353.301          43.000  
G17  22068115.243   115968716.959        -764.490          44.000  
G19  22127329.451   116279893.782         873.485          44.000  
G02  23777478.334   124951463.122       -3087.340          44.000  
G21  24542949.097   128973985.549       -3147.040          42.000  
G01  22182108.546   116567778.631       -2985.589          46.000  
G28  24402620.833   128236604.261        -629.364          40.000  
G31  23908456.144   125639811.503        1117.372          33.000  
G06  24077821.326   126529800.980        3057.990          36.000  
> 2023 09 02 10 47 14.0020000  0 11                     
G03  20815299.441   109385149.817        -953.294          45.000  
G04  21834518.357   114741155.130        2170.653          46.000  
G09  23661816.546   124343676.670        3353.078          43.000  
G17  22068260.952   115969481.794        -765.151          44.000  
G19  22127163.290   116279020.710         872.555          44.000  
G02  23778065.883   124954550.623       -3087.567          44.000  
G21  24543547.779   128977132.705       -3147.113          42.000  
G01  22182676.899   116570764.453       -2986.024          46.000  
G28  24402740.472   128237233.874        -630.005          40.000  
G31  23908243.600   125638694.602        1117.149          32.000  
G06  24077239.431   126526743.012        3057.619          36.000  
> 2023 09 02 10 47 15.0020000  0 11                     
G03  20815480.818   109386103.173        -953.465          45.000  
G04  21834105.240   114738984.707        2170.290          46.000  
G09  23661178.601   124340323.647        3352.935          43.000  
G17  22068406.487   115970247.199        -765.424          44.000  
G19  22126997.408   116278148.277         872.322          44.000  
G02  23778653.362   124957638.321       -3087.638          44.000  
G21  24544147.055   128980279.971       -3147.040          41.000  
G01  22183244.939   116573750.582       -2986.069          46.000  
G28  24402860.704   128237864.050        -630.286          40.000  
G31  23908031.161   125637578.325        1115.453          32.000  
G06  24076657.571   126523685.088        3058.158          36.000  
> 2023 09 02 10 47 16.0020000  0 11                     
G03  20815662.335   109387056.950        -953.984          45.000  
G04  21833692.019   114736814.764        2169.468          46.000  
G09  23660540.377   124336970.840        3352.873          43.000  
G17  22068552.231   115971013.229        -766.351          43.000  
G19  22126831.631   116277276.568         871.382          44.000  
G02  23779241.225   124960726.284       -3088.083          44.000  
G21  24544746.086   128983427.405       -3147.534          41.000  
G01  22183813.188   116576737.095       -2986.927          46.000  
G28  24402980.622   128238494.906        -631.104          40.000  
G31  23907819.001   125636462.592        1114.799          32.000  
G06  24076075.432   126520627.312        3057.409          35.000  
> 2023 09 02 10 47 17.0020000  0 11                     
G03  20815843.783   109388011.059        -954.365          45.000  
G04  21833278.938   114734645.219        2169.187          46.000  
G09  23659902.502   124333618.198        3352.373          43.000  
G17  22068698.080   115971779.762        -766.804          44.000  
G19  22126665.644   116276405.469         870.647          44.000  
G02  23779828.530   124963814.418       -3088.237          44.000  
G21  24545345.396   128986574.886       -3147.681          42.000  
G01  22184381.192   116579723.856       -2987.040          46.000  
G28  24403100.574   128239126.281        -631.836          40.000  
G31  23907606.807   125635347.319        1115.455          33.000  
G06  24075493.327   126517569.507        3057.923          36.000  
> 2023 09 02 10 47 18.0020000  0 11                     
G03  20816025.335   109388965.451        -954.494          45.000  
G04  21832865.751   114732476.052        2168.839          46.000  
G09  23659264.487   124330265.658        3352.278          43.000  
G17  22068844.313   115972546.797        -767.433          44.000  
G19  22126499.553   116275534.965         870.027          44.000  
G02  23780416.393   124966902.687       -3088.525          44.000  
G21  24545944.218   128989722.399       -3147.723          42.000  
G01  22184949.790   116582710.857       -2987.122          46.000  
G28  24403220.771   128239758.190        -632.404          39.000  
G31  23907394.682   125634232.603        1114.743          32.000  
G06  24074911.398   126514511.744        3057.561          36.000  
> 2023 09 02 10 47 19.0020000  0 11                     
G03  20816207.166   109389920.411        -955.123          45.000  
G04  21832452.879   114730307.504        2168.153          45.000  
G09  23658626.646   124326913.492        3352.175          43.000  
G17  22068990.581   115973314.584        -767.909          44.000  
G19  22126333.706   116274665.283         869.235          44.000  
G02  23781004.116   124969991.351       -3088.909          44.000  
G21  24546543.109   128992870.209       -3148.126          42.000  
G01  22185518.144   116585698.371       -2987.846          46.000  
G28  24403340.899   128240390.864        -632.819          39.000  
G31  23907182.662   125633118.585        1113.780          32.000  
G06  24074329.328   126511454.199        3057.544          36.000  
> 2023 09 02 10 47 20.0020000  0 11                     
G03  20816389.172   109390875.684        -955.422          45.000  
G04  21832040.321   114728139.329        2168.241          45.000  
G09  23657988.666   124323561.438        3352.061          43.000  
G17  22069136.709   115974082.874        -768.439          44.000  
G19  22126168.069   116273796.188         869.192          44.000  
G02  23781591.909   124973080.147       -3088.724          44.000  
G21  24547142.175   128996018.056       -3147.717          42.000  
G01  22186086.637   116588686.116       -2987.655          46.000  
G28  24403461.026   128241024.075        -633.258          39.000  
G31  23906971.061   125632005.047        1113.255          32.000  
G06  24073747.398   126508396.664        3058.063          35.000  
> 2023 09 02 10 47 21.0020000  0 11                     
G03  20816571.178   109391831.169        -955.583          45.000  
G04  21831627.693   114725971.476        2167.714          45.000  
G09  23657350.896   124320209.437        3351.959          43.000  
G17  22069283.291   115974851.595        -768.931          44.000  
G19  22126002.745   116272927.639         868.317          44.000  
G02  23782179.632   124976169.017       -3088.840          44.000  
G21  24547741.136   128999165.885       -3147.833          42.000  
G01  22186655.375   116591674.051       -2988.073          46.000  
G28  24403581.572   128241657.747        -634.070          39.000  
G31  23906759.320   125630891.966        1112.668          32.000  
G06  24073165.538   126505339.085        3057.655          36.000  
> 2023 09 02 10 47 22.0020000  0 11                     
G03  20816753.602   109392787.301        -956.407          45.000  
G04  21831215.484   114723804.308        2167.136          45.000  
G09  23656713.090   124316857.893        3351.438          43.000  
G17  22069429.977   115975621.146        -769.856          44.000  
G19  22125837.631   116272059.992         867.451          44.000  
G02  23782767.181   124979258.375       -3089.579          44.000  
G21  24548340.272   129002314.089       -3148.352          42.000  
G01  22187224.112   116594662.558       -2988.768          46.000  
G28  24403702.223   128242292.261        -634.790          39.000  
G31  23906547.963   125629779.630        1112.098          32.000  
G06  24072583.678   126502281.807        3057.434          36.000  
> 2023 09 02 10 47 23.0020000  0 11                     
G03  20816935.957   109393743.982        -956.834          45.000  
G04  21830803.170   114721637.788        2166.211          45.000  
G09  23656075.390   124313506.710        3351.132          44.000  
G17  22069577.117   115976391.442        -770.710          44.000  
G19  22125672.517   116271193.205         866.309          43.000  
G02  23783355.009   124982348.108       -3089.784          44.000  
G21  24548939.338   129005462.577       -3148.779          42.000  
G01  22187793.024   116597651.543       -2989.047          45.000  
G28  24403822.874   128242927.571        -635.791          39.000  
G31  23906336.571   125628668.073        1111.542          32.000  
G06  24072002.167   126499224.777        3057.343          36.000  
> 2023 09 02 10 47 24.0020000  0 11                     
G03  20817118.312   109394701.015        -957.264          46.000  
G04  21830391.136   114719471.671        2165.858          45.000  
G09  23655437.689   124310155.707        3350.804          44.000  
G17  22069723.909   115977162.279        -771.230          44.000  
G19  22125507.787   116270327.020         865.793          44.000  
G02  23783942.628   124985438.026       -3089.966          44.000  
G21  24549538.753   129008611.117       -3148.431          42.000  
G01  22188361.831   116600640.845       -2989.708          45.000  
G28  24403943.525   128243563.419        -636.157          39.000  
G31  23906125.318   125627557.041        1110.952          33.000  
G06  24071420.307   126496167.790        3056.804          36.000  
> 2023 09 02 10 47 25.0020000  0 11                     
G03  20817300.597   109395658.567        -957.906          46.000  
G04  21829979.032   114717306.173        2165.188          45.000  
G09  23654800.232   124306805.031        3350.675          44.000  
G17  22069870.770   115977933.838        -771.879          44.000  
G19  22125343.581   116269461.673         865.109          44.000  
G02  23784530.526   124988528.318       -3090.232          44.000  
G21  24550138.203   129011759.968       -3149.036          42.000  
G01  22188930.429   116603630.589       -2989.871          45.000  
G28  24404064.455   128244200.022        -636.847          39.000  
G31  23905914.101   125626446.696        1110.497          32.000  
G06  24070838.587   126493111.059        3056.822          36.000  
> 2023 09 02 10 47 26.0020000  0 11                     
G03  20817482.742   109396616.493        -958.087          46.000  
G04  21829566.823   114715141.112        2164.858          45.000  
G09  23654162.602   124303454.559        3350.467          43.000  
G17  22070017.875   115978705.971        -772.471          45.000  
G19  22125178.676   116268596.976         864.336          44.000  
G02  23785118.459   124991618.836       -3090.893          43.000  
G21  24550737.653   129014908.907       -3149.023          42.000  
G01  22189499.272   116606620.671       -2990.300          45.000  
G28  24404185.768   128244837.256        -637.708          39.000  
G31  23905702.988   125625336.993        1108.811          33.000  
G06  24070256.622   126490054.368        3056.677          36.000  
> 2023 09 02 10 47 27.0020000  0 11                     
G03  20817665.411   109397574.901        -958.864          46.000  
G04  21829154.893   114712976.609        2164.042          45.000  
G09  23653524.936   124300104.385        3349.754          43.000  
G17  22070165.050   115979478.773        -773.328          45.000  
G19  22125014.191   116267733.052         863.524          43.000  
G02  23785706.461   124994709.662       -3091.053          43.000  
G21  24551336.789   129018058.062       -3149.182          42.000  
G01  22190068.044   116609611.168       -2990.906          45.000  
G28  24404307.013   128245475.155        -638.367          39.000  
G31  23905491.980   125624227.848        1108.888          32.000  
G06  24069674.762   126486997.832        3056.517          36.000  
> 2023 09 02 10 47 28.0020000  0 11                     
G03  20817848.254   109398533.835        -958.984          46.000  
G04  21828742.544   114710812.709        2163.490          45.000  
G09  23652887.130   124296754.535        3349.930          43.000  
G17  22070312.400   115980252.312        -773.950          45.000  
G19  22124849.391   116266869.945         862.887          43.000  
G02  23786294.359   124997800.861       -3091.479          43.000  
G21  24551935.645   129021207.498       -3149.530          42.000  
G01  22190637.165   116612602.144       -2991.142          45.000  
G28  24404428.536   128246113.833        -639.008          39.000  
G31  23905281.181   125623119.511        1107.417          32.000  
G06  24069093.390   126483941.575        3056.403          36.000  
> 2023 09 02 10 47 29.0020000  0 11                     
G03  20818030.958   109399492.985        -959.228          46.000  
G04  21828330.195   114708649.076        2163.453          45.000  
G09  23652249.883   124293404.734        3349.896          43.000  
G17  22070460.063   115981026.240        -774.138          45.000  
G19  22124685.114   116266007.331         862.363          43.000  
G02  23786882.536   125000892.113       -3091.220          43.000  
G21  24552535.165   129024356.872       -3149.323          41.000  
G01  22191206.182   116615593.279       -2991.490          45.000  
G28  24404550.199   128246752.915        -638.861          39.000  
G31  23905072.093   125622011.437        1107.655          32.000  
G06  24068511.740   126480885.219        3055.947          36.000  
> 2023 09 02 10 47 30.0020000  0 11                     
G03  20818213.488   109400452.698        -959.935          46.000  
G04  21827918.475   114706486.087        2162.802          44.000  
G09  23651612.706   124290055.301        3349.219          43.000  
G17  22070607.308   115981800.924        -775.145          45.000  
G19  22124520.733   116265145.576         861.545          43.000  
G02  23787470.643   125003983.747       -3091.750          43.000  
G21  24553134.161   129027506.553       -3149.939          41.000  
G01  22191775.408   116618584.891       -2991.918          45.000  
G28  24404671.966   128247392.819        -640.570          39.000  
G31  23904861.294   125620904.168        1106.490          31.000  
G06  24067929.775   126477829.078        3056.043          36.000  
> 2023 09 02 10 47 31.0020000  0 11                     
G03  20818396.331   109401412.798        -959.865          46.000  
G04  21827506.650   114704323.596        2162.447          44.000  
G09  23650975.249   124286706.096        3349.400          43.000  
G17  22070754.693   115982576.215        -775.292          45.000  
G19  22124357.050   116264284.496         860.972          43.000  
G02  23788058.890   125007075.648       -3091.872          43.000  
G21  24553733.262   129030656.377       -3149.689          41.000  
G01  22192344.599   116621576.871       -2991.941          45.000  
G28  24404794.083   128248033.339        -640.912          40.000  
G31  23904650.356   125619797.470        1106.707          31.000  
G06  24067348.054   126474773.067        3055.929          36.000  
> 2023 09 02 10 47 32.0020000  0 11                     
G03  20818579.244   109402373.140        -960.503          46.000  
G04  21827094.755   114702161.395        2161.763          44.000  
G09  23650337.863   124283356.946        3348.855          43.000  
G17  22070902.322   115983351.917        -776.185          45.000  
G19  22124193.332   116263423.936         860.210          43.000  
G02  23788647.591   125010167.610       -3092.207          43.000  
G21  24554332.642   129033806.162       -3150.049          41.000  
G01  22192913.825   116624568.998       -2992.229          44.000  
G28  24404916.269   128248674.278        -641.327          40.000  
G31  23904440.814   125618691.164        1106.107          31.000  
G06  24066766.369   126471716.984        3056.071          36.000  
> 2023 09 02 10 47 33.0020000  0 11                     
G03  20818762.611   109403334.104        -960.924          46.000  
G04  21826683.069   114699999.887        2161.329          44.000  
G09  23649700.406   124280008.212        3348.920          43.000  
G17  22071050.125   115984128.439        -776.439          45.000  
G19  22124029.614   116262564.309         859.348          43.000  
G02  23789236.012   125013260.020       -3092.376          43.000  
G21  24554931.708   129036956.308       -3150.085          40.000  
G01  22193483.226   116627561.714       -2992.759          44.000  
G28  24405038.491   128249316.097        -642.023          39.000  
G31  23904226.909   125617585.670        1105.198          31.000  
G06  24066184.928   126468661.190        3056.180          36.000  
> 2023 09 02 10 47 34.0020000  0 11                     
G03  20818945.559   109404295.449        -961.583          46.000  
G04  21826271.209   114697838.834        2160.766          44.000  
G09  23649062.915   124276659.678        3348.572          43.000  
G17  22071197.649   115984905.547        -777.444          44.000  
G19  22123866.001   116261705.320         858.655          43.000  
G02  23789824.817   125016352.662       -3092.751          43.000  
G21  24555531.228   129040106.574       -3150.445          40.000  
G01  22194052.906   116630554.739       -2993.077          45.000  
G28  24405160.677   128249958.479        -642.755          39.000  
G31  23904012.271   125616480.795        1104.658          30.000  
G06  24065603.068   126465605.502        3055.952          36.000  
> 2023 09 02 10 47 35.0020000  0 11                     
G03  20819128.437   109405257.196        -962.153          46.000  
G04  21825859.943   114695678.259        2160.048          44.000  
G09  23648425.598   124273311.383        3347.719          43.000  
G17  22071345.278   115985683.261        -778.517          44.000  
G19  22123702.493   116260847.040         857.737          43.000  
G02  23790413.692   125019445.563       -3093.575          43.000  
G21  24556130.433   129043256.990       -3150.873          41.000  
G01  22194622.516   116633548.143       -2993.983          45.000  
G28  24405282.829   128250601.530        -644.012          39.000  
G31  23903802.101   125615376.431        1103.736          29.000  
G06  24065021.522   126462549.936        3054.871          36.000  
> 2023 09 02 10 47 36.0020000  0 11                     
G03  20819311.525   109406219.381        -962.527          46.000  
G04  21825448.990   114693518.195        2159.696          44.000  
G09  23647788.316   124269963.346        3347.732          43.000  
G17  22071493.570   115986461.592        -778.724          44.000  
G19  22123539.508   116259989.492         856.886          43.000  
G02  23791002.114   125022538.712       -3093.361          43.000  
G21  24556729.848   129046407.565       -3150.537          41.000  
G01  22195192.231   116636541.893       -2993.962          45.000  
G28  24405405.469   128251245.215        -643.896          40.000  
G31  23903585.544   125614272.728        1103.432          28.000  
G06  24064439.976   126459494.465        3055.259          36.000  
> 2023 09 02 10 47 37.0020000  0 11                     
G03  20819494.543   109407181.946        -962.683          46.000  
G04  21825038.072   114691358.588        2159.498          44.000  
G09  23647151.209   124266615.490        3347.871          43.000  
G17  22071641.443   115987240.499        -779.376          44.000  
G19  22123376.453   116259132.605         856.435          43.000  
G02  23791590.849   125025632.090       -3093.396          43.000  
G21  24557329.333   129049558.264       -3150.635          40.000  
G01  22195762.190   116639535.982       -2994.212          45.000  
G28  24405528.074   128251889.507        -644.501          40.000  
G31  23903377.886   125613169.551        1102.908          28.000  
G06  24063858.465   126456439.105        3054.853          36.000  
> 2023 09 02 10 47 38.0020000  0 11                     
G03  20819677.945   109408145.039        -963.247          46.000  
G04  21824627.294   114689199.588        2158.675          44.000  
G09  23646513.892   124263268.001        3347.283          43.000  
G17  22071789.491   115988020.105        -779.645          44.000  
G19  22123213.712   116258276.510         855.792          43.000  
G02  23792179.899   125028725.839       -3093.677          43.000  
G21  24557928.434   129052709.227       -3150.946          40.000  
G01  22196331.939   116642530.533       -2994.794          45.000  
G28  24405650.784   128252534.563        -645.410          40.000  
G31  23903172.113   125612067.088        1102.142          28.000  
G06  24063277.128   126453383.918        3055.123          36.000  
> 2023 09 02 10 47 39.0020000  0 11                     
G03  20819861.207   109409108.627        -964.094          46.000  
G04  21824216.760   114687041.150        2158.003          44.000  
G09  23645876.889   124259920.812        3346.811          43.000  
G17  22071937.957   115988800.440        -781.022          44.000  
G19  22123050.971   116257421.191         854.873          43.000  
G02  23792769.053   125031819.935       -3094.477          43.000  
G21  24558527.814   129055860.433       -3151.458          40.000  
G01  22196901.898   116645525.518       -2995.322          45.000  
G28  24405773.529   128253180.304        -646.558          39.000  
G31  23902967.946   125610965.280        1101.314          28.000  
G06  24062695.792   126450328.940        3055.125          36.000  
> 2023 09 02 10 47 40.0020000  0 11                     
G03  20820044.748   109410072.518        -964.012          46.000  
G04  21823806.331   114684883.101        2157.871          44.000  
G09  23645240.131   124256573.748        3346.874          43.000  
G17  22072086.738   115989581.246        -781.179          44.000  
G19  22122888.649   116256566.491         854.482          43.000  
G02  23793357.823   125034914.169       -3094.384          43.000  
G21  24559127.020   129059011.676       -3151.318          40.000  
G01  22197471.892   116648520.740       -2995.401          45.000  
G28  24405896.553   128253826.577        -646.515          39.000  
G31  23902764.022   125609863.962        1101.240          30.000  
G06  24062114.874   126447273.995        3054.963          37.000  
> 2023 09 02 10 47 41.0020000  0 11                     
G03  20820228.185   109411036.839        -964.583          46.000  
G04  21823395.518   114682725.551        2157.160          44.000  
G09  23644603.442   124253226.938        3346.595          43.000  
G17  22072235.449   115990362.694        -781.766          44.000  
G19  22122725.874   116255712.516         853.635          43.000  
G02  23793946.628   125038008.676       -3094.611          43.000  
G21  24559726.574   129062163.094       -3151.550          40.000  
G01  22198041.991   116651516.353       -2995.783          45.000  
G28  24406019.821   128254473.516        -647.125          40.000  
G31  23902555.353   125608763.318        1100.099          30.000  
G06  24061534.096   126444219.187        3054.420          37.000  
> 2023 09 02 10 47 42.0020000  0 11                     
G03  20820411.482   109412001.614        -964.501          46.000  
G04  21822985.019   114680568.521        2157.188          44.000  
G09  23643966.753   124249880.388        3346.975          43.000  
G17  22072384.439   115991144.791        -781.953          44.000  
G19  22122563.761   116254859.272         853.343          43.000  
G02  23794535.957   125041103.452       -3094.465          43.000  
G21  24560325.989   129065314.687       -3151.062          40.000  
G01  22198612.264   116654512.364       -2995.755          45.000  
G28  24406143.055   128255121.136        -647.400          39.000  
G31  23902343.961   125607663.271        1099.809          30.000  
G06  24060952.689   126441164.483        3055.216          36.000  
> 2023 09 02 10 47 43.0020000  0 11                     
G03  20820594.989   109412966.726        -965.250          46.000  
G04  21822574.730   114678411.899        2156.450          44.000  
G09  23643329.681   124246533.985        3346.341          43.000  
G17  22072532.870   115991927.399        -782.791          44.000  
G19  22122401.369   116254006.649         852.211          43.000  
G02  23795125.111   125044198.411       -3095.005          43.000  
G21  24560925.544   129068466.359       -3151.684          40.000  
G01  22199182.502   116657508.663       -2996.680          45.000  
G28  24406266.358   128255769.343        -648.615          39.000  
G31  23902137.839   125606563.676        1100.594          30.000  
G06  24060371.248   126438109.847        3054.299          36.000  
> 2023 09 02 10 47 44.0020000  0 11                     
G03  20820778.704   109413932.408        -965.674          46.000  
G04  21822164.580   114676255.926        2155.873          44.000  
G09  23642692.922   124243187.984        3346.042          43.000  
G17  22072681.790   115992710.783        -783.503          44.000  
G19  22122239.152   116253154.882         851.489          42.000  
G02  23795714.301   125047293.789       -3095.213          44.000  
G21  24561525.203   129071618.341       -3151.965          40.000  
G01  22199752.705   116660505.423       -2996.620          44.000  
G28  24406390.010   128256418.286        -648.914          39.000  
G31  23901927.005   125605464.875        1099.026          29.000  
G06  24059789.807   126435055.480        3054.387          36.000  
> 2023 09 02 10 47 45.0020000  0 11                     
G03  20820962.316   109414898.384        -965.841          46.000  
G04  21821754.430   114674100.328        2155.659          44.000  
G09  23642056.548   124239842.102        3346.054          42.000  
G17  22072830.536   115993494.663        -784.019          44.000  
G19  22122077.214   116252303.712         851.099          42.000  
G02  23796303.385   125050389.305       -3095.420          44.000  
G21  24562125.037   129074770.355       -3152.099          40.000  
G01  22200322.909   116663502.484       -2997.028          44.000  
G28  24406513.697   128257067.801        -649.640          39.000  
G31  23901714.531   125604366.590        1098.360          28.000  
G06  24059208.261   126432001.108        3054.530          36.000  
> 2023 09 02 10 47 46.0020000  0 11                     
G03  20821146.311   109415864.752        -966.582          46.000  
G04  21821344.699   114671945.194        2155.002          45.000  
G09  23641419.824   124236496.436        3345.617          43.000  
G17  22072979.770   115994279.124        -784.757          43.000  
G19  22121915.032   116251453.243         849.862          42.000  
G02  23796892.609   125053485.035       -3095.800          44.000  
G21  24562724.871   129077922.505       -3152.380          40.000  
G01  22200893.217   116666499.849       -2997.599          44.000  
G28  24406637.594   128257717.894        -650.464          40.000  
G31  23901512.702   125603268.888        1097.175          29.000  
G06  24058626.680   126428946.821        3054.157          36.000  
> 2023 09 02 10 47 47.0020000  0 11                     
G03  20821330.445   109416831.561        -966.821          46.000  
G04  21820934.898   114669790.596        2154.726          45.000  
G09  23640783.485   124233151.045        3345.403          43.000  
G17  22073129.214   115995064.225        -785.098          43.000  
G19  22121753.164   116250603.485         849.713          43.000  
G02  23797481.728   125056581.080       -3095.982          44.000  
G21  24563324.739   129081074.812       -3152.112          40.000  
G01  22201463.734   116669497.608       -2997.676          44.000  
G28  24406761.700   128258368.686        -650.873          39.000  
G31  23901299.810   125602171.746        1096.829          28.000  
G06  24058045.378   126425892.647        3054.549          36.000  
> 2023 09 02 10 47 48.0020000  0 11                     
G03  20821514.545   109417798.735        -967.321          46.000  
G04  21820525.132   114667636.431        2153.996          45.000  
G09  23640146.587   124229805.816        3345.212          43.000  
G17  22073278.623   115995849.900        -785.979          43.000  
G19  22121591.505   116249754.373         848.940          43.000  
G02  23798071.057   125059677.300       -3096.270          44.000  
G21  24563924.678   129084227.242       -3152.521          40.000  
G01  22202034.461   116672495.661       -2998.169          44.000  
G28  24406885.876   128259020.037        -651.801          39.000  
G31  23901085.521   125601075.199        1096.335          27.000  
G06  24057464.251   126422838.599        3053.523          36.000  
> 2023 09 02 10 47 49.0020000  0 11                     
G03  20821698.889   109418766.351        -968.088          46.000  
G04  21820115.436   114665482.772        2153.120          45.000  
G09  23639509.933   124226460.836        3344.344          43.000  
G17  22073428.276   115996636.179        -786.886          43.000  
G19  22121429.951   116248905.981         847.600          42.000  
G02  23798660.316   125062773.795       -3096.922          44.000  
G21  24564524.965   129087379.833       -3152.863          40.000  
G01  22202605.118   116675494.105       -2999.150          44.000  
G28  24407009.947   128259672.082        -652.777          39.000  
G31  23900877.654   125599979.335        1095.331          27.000  
G06  24056882.775   126419784.621        3053.468          35.000  
> 2023 09 02 10 47 50.0020000  0 11                     
G03  20821882.780   109419734.332        -968.058          46.000  
G04  21819705.739   114663329.557        2153.080          44.000  
G09  23638873.279   124223116.051        3344.760          42.000  
G17  22073577.684   115997423.051        -787.145          43.000  
G19  22121268.397   116248058.269         847.365          42.000  
G02  23799249.366   125065870.518       -3096.644          43.000  
G21  24565125.218   129090532.559       -3152.850          40.000  
G01  22203175.670   116678492.847       -2998.709          44.000  
G28  24407134.262   128260324.654        -652.789          39.000  
G31  23900666.262   125598884.008        1094.789          28.000  
G06  24056301.578   126416730.740        3054.258          36.000  
> 2023 09 02 10 47 51.0020000  0 11                     
G03  20822066.775   109420702.653        -968.703          46.000  
G04  21819296.008   114661176.757        2152.283          45.000  
G09  23638236.625   124219771.437        3344.168          42.000  
G17  22073727.233   115998210.451        -787.898          43.000  
G19  22121107.157   116247211.177         846.357          42.000  
G02  23799838.415   125068967.416       -3097.436          43.000  
G21  24565725.191   129093685.327       -3153.137          39.000  
G01  22203746.432   116681491.874       -2999.401          44.000  
G28  24407258.333   128260977.804        -653.241          38.000  
G31  23900456.441   125597789.170        1094.370          28.000  
G06  24055720.416   126413676.910        3053.599          36.000  
> 2023 09 02 10 47 52.0020000  0 11                     
G03  20822250.665   109421671.647        -969.251          46.000  
G04  21818886.521   114659024.697        2151.953          45.000  
G09  23637600.181   124216427.298        3344.061          42.000  
G17  22073877.095   115998998.715        -788.455          43.000  
G19  22120945.917   116246365.020         845.904          42.000  
G02  23800427.674   125072064.809       -3097.490          43.000  
G21  24566325.095   129096838.510       -3153.265          39.000  
G01  22204317.019   116684491.531       -2999.843          44.000  
G28  24407382.648   128261631.874        -654.425          38.000  
G31  23900250.074   125596695.177        1094.168          30.000  
G06  24055139.533   126410623.407        3053.923          36.000  
> 2023 09 02 10 47 53.0020000  0 11                     
G03  20822434.940   109422640.903        -969.643          46.000  
G04  21818477.209   114656872.991        2151.498          45.000  
G09  23636963.492   124213083.280        3343.445          42.000  
G17  22074027.237   115999787.442        -789.218          43.000  
G19  22120784.991   116245519.439         845.117          42.000  
G02  23801017.038   125075162.330       -3097.952          43.000  
G21  24566925.382   129099991.704       -3153.253          40.000  
G01  22204888.060   116687491.388       -3000.236          44.000  
G28  24407507.033   128262286.421        -655.170          38.000  
G31  23900038.473   125595601.702        1092.138          30.000  
G06  24054558.580   126407569.921        3053.258          36.000  
> 2023 09 02 10 47 54.0020000  0 11                     
G03  20822619.423   109423610.420        -969.423          46.000  
G04  21818067.827   114654721.616        2151.392          45.000  
G09  23636326.978   124209739.313        3343.963          42.000  
G17  22074177.483   116000576.625        -789.302          43.000  
G19  22120624.100   116244674.411         844.811          42.000  
G02  23801606.471   125078259.933       -3097.646          43.000  
G21  24567525.356   129103144.912       -3153.357          39.000  
G01  22205458.578   116690491.442       -2999.984          44.000  
G28  24407631.523   128262941.451        -655.103          38.000  
G31  23899832.316   125594508.554        1092.979          31.000  
G06  24053977.663   126404516.366        3053.996          36.000  
> 2023 09 02 10 47 55.0020000  0 11                     
G03  20822804.081   109424580.482        -970.254          46.000  
G04  21817658.445   114652570.871        2150.453          45.000  
G09  23635691.057   124206395.713        3343.373          42.000  
G17  22074327.800   116001366.547        -790.060          43.000  
G19  22120463.523   116243830.200         843.787          42.000  
G02  23802195.660   125081357.923       -3098.034          42.000  
G21  24568125.259   129106298.400       -3154.077          39.000  
G01  22206029.653   116693491.992       -3000.740          45.000  
G28  24407756.537   128263597.246        -656.219          38.000  
G31  23899621.727   125593416.202        1091.516          30.000  
G06  24053396.570   126401463.070        3052.887          36.000  
> 2023 09 02 10 47 56.0020000  0 11                     
G03  20822988.426   109425550.944        -970.667          46.000  
G04  21817249.202   114650420.595        2149.918          45.000  
G09  23635054.613   124203052.346        3343.053          42.000  
G17  22074478.220   116002157.083        -791.089          43.000  
G19  22120303.016   116242986.702         842.965          42.000  
G02  23802785.268   125084456.162       -3098.338          42.000  
G21  24568725.337   129109452.015       -3154.126          39.000  
G01  22206600.729   116696492.882       -3001.084          44.000  
G28  24407881.410   128264253.707        -657.043          38.000  
G31  23899417.071   125592324.452        1090.365          30.000  
G06  24052815.374   126398409.861        3052.849          35.000  
> 2023 09 02 10 47 57.0020000  0 11                     
G03  20823173.154   109426521.797        -970.985          46.000  
G04  21816840.309   114648270.776        2149.698          45.000  
G09  23634418.692   124199709.150        3343.194          42.000  
G17  22074628.920   116002948.191        -791.371          43.000  
G19  22120142.997   116242143.866         842.709          42.000  
G02  23803374.702   125087554.621       -3098.439          42.000  
G21  24569325.311   129112605.744       -3153.638          39.000  
G01  22207171.980   116699494.108       -3001.399          44.000  
G28  24408006.319   128264910.732        -657.184          38.000  
G31  23899209.448   125591233.148        1091.177          32.000  
G06  24052234.002   126395356.724        3053.321          36.000  
> 2023 09 02 10 47 58.0020000  0 11                     
G03  20823358.056   109427493.146        -971.907          46.000  
G04  21816431.625   114646121.537        2148.826          45.000  
G09  23633783.086   124196366.302        3342.541          42.000  
G17  22074779.690   116003739.973        -792.135          43.000  
G19  22119982.874   116241301.820         841.504          42.000  
G02  23803964.135   125090653.436       -3099.288          42.000  
G21  24569925.284   129115759.719       -3154.022          39.000  
G01  22207742.986   116702495.764       -3002.185          44.000  
G28  24408131.472   128265568.491        -658.185          38.000  
G31  23899002.558   125590142.637        1089.522          32.000  
G06  24051653.224   126392303.809        3052.372          36.000  
> 2023 09 02 10 47 59.0020000  0 11                     
G03  20823542.819   109428464.904        -972.056          46.000  
G04  21816022.836   114643972.809        2148.107          45.000  
G09  23633147.165   124193023.695        3342.374          42.000  
G17  22074930.739   116004532.398        -792.986          43.000  
G19  22119823.030   116240460.469         840.725          42.000  
G02  23804553.673   125093752.489       -3099.290          42.000  
G21  24570525.083   129118913.871       -3154.443          39.000  
G01  22208314.585   116705497.772       -3002.193          44.000  
G28  24408256.416   128266226.899        -658.716          38.000  
G31  23898797.239   125589052.686        1089.691          32.000  
G06  24051072.062   126389250.984        3052.896          36.000  
> 2023 09 02 10 48 00.0020000  0 11                     
G03  20823727.407   109429437.177        -972.358          46.000  
G04  21815614.187   114641824.651        2147.933          45.000  
G09  23632511.314   124189681.419        3342.299          42.000  
G17  22075081.754   116005325.526        -793.485          43.000  
G19  22119663.081   116239619.939         840.229          43.000  
G02  23805143.386   125096851.886       -3099.533          43.000  
G21  24571125.231   129122068.241       -3154.291          39.000  
G01  22208885.975   116708500.254       -3002.677          44.000  
G28  24408381.848   128266886.040        -659.406          38.000  
G31  23898584.974   125587963.459        1088.909          32.000  
G06  24050491.249   126386198.395        3052.752          36.000  
> 2023 09 02 10 48 01.0020000  0 11                     
G03  20823912.449   109430409.824        -972.700          46.000  
G04  21815205.503   114639676.937        2147.496          45.000  
G09  23631875.463   124186339.313        3342.259          42.000  
G17  22075232.663   116006119.202        -793.943          43.000  
G19  22119503.237   116238780.051         839.789          43.000  
G02  23805733.413   125099951.507       -3099.609          43.000  
G21  24571725.449   129125222.716       -3154.419          38.000  
G01  22209457.400   116711503.024       -3002.894          44.000  
G28  24408507.594   128267545.747        -660.077          38.000  
G31  23898377.875   125586874.734        1088.809          32.000  
G06  24049910.471   126383145.862        3053.434          36.000  
> 2023 09 02 10 48 02.0020000  0 11                     
G03  20824097.561   109431382.724        -973.028          45.000  
G04  21814797.168   114637529.553        2147.195          45.000  
G09  23631239.681   124182997.301        3341.822          42.000  
G17  22075383.712   116006913.316        -794.402          43.000  
G19  22119343.358   116237940.712         838.976          43.000  
G02  23806323.126   125103051.211       -3099.711          43.000  
G21  24572325.352   129128377.207       -3154.803          38.000  
G01  22210028.650   116714505.997       -3003.283          44.000  
G28  24408633.375   128268205.931        -660.638          38.000  
G31  23898173.429   125585786.519        1088.095          32.000  
G06  24049329.797   126380093.322        3052.324          36.000  
> 2023 09 02 10 48 03.0020000  0 11                     
G03  20824282.883   109432356.181        -973.732          45.000  
G04  21814388.902   114635382.821        2146.147          45.000  
G09  23630603.202   124179655.655        3341.582          42.000  
G17  22075534.936   116007708.201        -795.305          43.000  
G19  22119183.829   116237102.236         837.871          43.000  
G02  23806913.257   125106151.322       -3100.368          43.000  
G21  24572925.500   129131531.974       -3154.926          38.000  
G01  22210600.180   116717509.463       -3003.823          44.000  
G28  24408759.226   128268866.936        -661.566          38.000  
G31  23897968.144   125584699.018        1086.350          33.000  
G06  24048749.054   126377041.020        3051.969          36.000  
> 2023 09 02 10 48 04.0020000  0 11                     
G03  20824468.413   109433330.115        -974.079          46.000  
G04  21813980.463   114633236.623        2146.156          45.000  
G09  23629967.212   124176314.314        3341.526          42.000  
G17  22075686.718   116008503.746        -795.750          43.000  
G19  22119024.857   116236264.503         837.588          43.000  
G02  23807503.214   125109251.744       -3100.427          43.000  
G21  24573526.137   129134686.954       -3154.907          39.000  
G01  22211171.569   116720513.353       -3003.923          45.000  
G28  24408885.182   128269528.598        -661.932          38.000  
G31  23897762.336   125583612.165        1086.453          33.000  
G06  24048168.520   126373988.848        3052.430          36.000  
> 2023 09 02 10 48 05.0020000  0 11                     
G03  20824654.014   109434304.375        -974.776          46.000  
G04  21813571.778   114631090.824        2145.397          45.000  
G09  23629331.535   124172973.142        3340.854          42.000  
G17  22075838.430   116009299.814        -796.367          43.000  
G19  22118865.711   116235427.392         836.638          43.000  
G02  23808093.241   125112352.335       -3101.002          43.000  
G21  24574126.424   129137842.001       -3155.176          38.000  
G01  22211743.239   116723517.527       -3004.654          44.000  
G28  24409011.068   128270190.801        -662.646          38.000  
G31  23897556.703   125582525.837        1085.571          34.000  
G06  24047587.951   126370936.756        3051.872          37.000  
> 2023 09 02 10 48 06.0020000  0 11                     
G03  20824839.859   109435279.177        -975.454          46.000  
G04  21813163.618   114628945.647        2144.785          45.000  
G09  23628695.614   124169632.313        3340.287          42.000  
G17  22075990.317   116010096.626        -797.581          43.000  
G19  22118706.949   116234591.102         835.885          43.000  
G02  23808683.512   125115453.292       -3101.409          43.000  
G21  24574726.851   129140997.331       -3155.487          39.000  
G01  22212314.733   116726522.156       -3005.182          43.000  
G28  24409137.093   128270853.780        -663.397          38.000  
G31  23897350.127   125581440.231        1085.205          34.000  
G06  24047007.173   126367884.893        3051.345          37.000  
> 2023 09 02 10 48 07.0020000  0 11                     
G03  20825025.215   109436254.465        -975.570          46.000  
G04  21812755.422   114626801.054        2144.230          45.000  
G09  23628059.728   124166291.803        3340.453          42.000  
G17  22076142.413   116010894.131        -797.607          43.000  
G19  22118548.082   116233755.617         835.281          43.000  
G02  23809273.573   125118554.566       -3101.497          42.000  
G21  24575327.208   129144152.892       -3155.450          38.000  
G01  22212886.367   116729527.242       -3005.364          44.000  
G28  24409263.433   128271517.483        -663.538          38.000  
G31  23897143.831   125580355.310        1085.178          34.000  
G06  24046426.570   126364833.206        3051.736          37.000  
> 2023 09 02 10 48 08.0020000  0 11                     
G03  20825210.920   109437229.990        -975.695          46.000  
G04  21812347.192   114624656.764        2144.153          45.000  
G09  23627424.121   124162951.360        3340.216          42.000  
G17  22076294.230   116011692.069        -798.143          43.000  
G19  22118389.181   116232920.654         834.814          43.000  
G02  23809863.949   125121655.961       -3101.611          42.000  
G21  24575927.635   129147308.442       -3155.865          38.000  
G01  22213457.897   116732532.512       -3005.514          44.000  
G28  24409389.807   128272181.688        -664.746          39.000  
G31  23896937.395   125579270.818        1084.558          34.000  
G06  24045845.757   126361781.452        3051.707          37.000  
> 2023 09 02 10 48 09.0020000  0 11                     
G03  20825396.939   109438206.044        -976.138          46.000  
G04  21811939.415   114622513.077        2143.402          45.000  
G09  23626788.201   124159611.244        3339.921          42.000  
G17  22076446.430   116012490.746        -799.125          43.000  
G19  22118230.523   116232086.515         833.535          43.000  
G02  23810454.011   125124757.690       -3101.766          42.000  
G21  24576528.063   129150464.230       -3155.621          38.000  
G01  22214029.810   116735538.217       -3005.950          44.000  
G28  24409516.286   128272846.608        -665.253          39.000  
G31  23896731.098   125578187.004        1083.862          35.000  
G06  24045265.153   126358729.991        3050.883          37.000  
> 2023 09 02 10 48 10.0020000  0 11                     
G03  20825582.784   109439182.563        -976.598          46.000  
G04  21811532.092   114620369.950        2142.773          46.000  
G09  23626152.489   124156271.420        3339.753          42.000  
G17  22076598.701   116013290.057        -799.637          44.000  
G19  22118072.424   116231253.121         832.880          43.000  
G02  23811044.526   125127859.725       -3102.366          42.000  
G21  24577128.594   129153620.223       -3156.177          38.000  
G01  22214601.724   116738544.366       -3006.431          44.000  
G28  24409643.045   128273512.202        -666.071          38.000  
G31  23896525.081   125577103.880        1082.431          36.000  
G06  24044684.759   126355678.646        3051.096          37.000  
> 2023 09 02 10 48 11.0020000  0 11                     
G03  20825768.385   109440159.398        -977.328          46.000  
G04  21811124.804   114618227.198        2142.179          46.000  
G09  23625516.882   124152931.738        3339.428          42.000  
G17  22076751.007   116014089.901        -800.530          43.000  
G19  22117914.081   116230420.340         832.161          43.000  
G02  23811635.111   125130961.917       -3102.457          43.000  
G21  24577729.161   129156776.283       -3156.494          38.000  
G01  22215173.672   116741550.749       -3006.925          44.000  
G28  24409769.768   128274178.362        -666.925          38.000  
G31  23896319.517   125576021.234        1081.932          37.000  
G06  24044104.225   126352627.284        3051.003          37.000  
> 2023 09 02 10 48 12.0020000  0 11                     
G03  20825954.195   109441136.693        -977.616          46.000  
G04  21810717.237   114616084.984        2141.905          46.000  
G09  23624881.660   124149592.323        3339.239          42.000  
G17  22076903.207   116014890.412        -801.000          43.000  
G19  22117756.087   116229588.302         831.516          44.000  
G02  23812225.592   125134064.416       -3102.864          42.000  
G21  24578329.902   129159932.520       -3156.219          38.000  
G01  22215745.760   116744557.520       -3006.824          44.000  
G28  24409896.876   128274845.209        -667.444          38.000  
G31  23896114.059   125574939.190        1081.833          38.000  
G06  24043524.075   126349576.129        3051.122          38.000  
> 2023 09 02 10 48 13.0020000  0 11                     
G03  20826140.074   109442114.349        -977.751          46.000  
G04  21810309.705   114613943.218        2141.549          46.000  
G09  23624246.367   124146253.118        3338.921          42.000  
G17  22077055.234   116015691.466        -801.360          43.000  
G19  22117598.197   116228756.918         830.885          44.000  
G02  23812816.107   125137167.116       -3102.864          42.000  
G21  24578930.678   129163088.876       -3156.500          38.000  
G01  22216318.057   116747564.620       -3007.025          44.000  
G28  24410023.564   128275512.600        -667.822          38.000  
G31  23895908.111   125573857.733        1081.271          38.000  
G06  24042943.785   126346525.041        3051.006          38.000  
> 2023 09 02 10 48 14.0020000  0 11                     
G03  20826326.198   109443092.518        -978.805          45.000  
G04  21809902.765   114611802.049        2140.647          46.000  
G09  23623610.760   124142914.228        3338.472          42.000  
G17  22077207.574   116016493.216        -802.351          43.000  
G19  22117440.377   116227926.326         830.009          44.000  
G02  23813406.518   125140270.169       -3103.459          42.000  
G21  24579531.420   129166245.485       -3157.263          39.000  
G01  22216890.250   116750572.190       -3008.104          44.000  
G28  24410150.567   128276180.755        -668.903          38.000  
G31  23895702.303   125572776.982        1080.115          38.000  
G06  24042363.112   126343474.164        3050.466          37.000  
> 2023 09 02 10 48 15.0020000  0 11                     
G03  20826512.671   109444071.204        -978.658          46.000  
G04  21809495.687   114609661.470        2140.369          46.000  
G09  23622975.049   124139575.708        3338.528          42.000  
G17  22077360.054   116017295.687        -802.589          43.000  
G19  22117282.732   116227096.554         829.574          44.000  
G02  23813997.033   125143373.576       -3103.421          42.000  
G21  24580132.370   129169402.339       -3157.080          39.000  
G01  22217462.792   116753580.201       -3007.952          44.000  
G28  24410277.814   128276849.625        -668.817          37.000  
G31  23895496.635   125571696.930        1079.975          38.000  
G06  24041782.857   126340423.504        3050.382          38.000  
> 2023 09 02 10 48 16.0020000  0 11                     
G03  20826698.970   109445050.248        -979.155          46.000  
G04  21809088.329   114607521.312        2140.014          46.000  
G09  23622339.582   124136237.354        3338.146          42.000  
G17  22077512.674   116018098.690        -803.322          43.000  
G19  22117125.017   116226267.429         828.737          44.000  
G02  23814587.688   125146477.179       -3103.866          43.000  
G21  24580733.460   129172559.273       -3157.208          39.000  
G01  22218035.264   116756588.512       -3008.570          44.000  
G28  24410404.991   128277519.105        -669.489          38.000  
G31  23895290.967   125570617.390        1079.659          38.000  
G06  24041202.952   126337372.868        3050.395          38.000  
> 2023 09 02 10 48 17.0020000  0 11                     
G03  20826885.303   109446029.803        -979.762          46.000  
G04  21808681.180   114605381.760        2139.416          46.000  
G09  23621703.696   124132899.343        3337.752          42.000  
G17  22077665.293   116018902.439        -803.982          43.000  
G19  22116967.476   116225439.108         827.904          44.000  
G02  23815178.588   125149581.127       -3103.941          43.000  
G21  24581334.516   129175716.474       -3157.275          39.000  
G01  22218607.910   116759597.285       -3009.082          44.000  
G28  24410532.099   128278189.324        -670.715          38.000  
G31  23895086.066   125569538.600        1078.632          38.000  
G06  24040622.557   126334322.458        3050.278          38.000  
> 2023 09 02 10 48 18.0020000  0 11                     
G03  20827072.056   109447009.754        -980.048          46.000  
G04  21808273.962   114603242.681        2138.826          46.000  
G09  23621068.508   124129561.534        3337.572          42.000  
G17  22077818.506   116019706.765        -804.777          43.000  
G19  22116809.796   116224611.482         827.219          44.000  
G02  23815769.243   125152685.321       -3104.435          43.000  
G21  24581935.676   129178873.808       -3157.495          39.000  
G01  22219180.626   116762606.387       -3009.277          44.000  
G28  24410660.148   128278860.128        -670.752          38.000  
G31  23894880.956   125568460.374        1077.487          38.000  
G06  24040042.024   126331272.155        3050.349          38.000  
> 2023 09 02 10 48 19.0020000  0 11                     
G03  20827258.494   109447990.021        -980.416          46.000  
G04  21807866.988   114601103.975        2138.668          46.000  
G09  23620433.704   124126223.846        3337.761          42.000  
G17  22077971.684   116020511.568        -804.869          43.000  
G19  22116652.325   116223784.431         826.881          44.000  
G02  23816359.688   125155789.633       -3104.192          42.000  
G21  24582536.522   129182031.147       -3157.086          39.000  
G01  22219753.656   116765615.718       -3009.297          44.000  
G28  24410787.989   128279531.482        -671.503          38.000  
G31  23894675.951   125567382.572        1077.995          38.000  
G06  24039461.804   126328221.840        3050.939          38.000  
> 2023 09 02 10 48 20.0020000  0 11                     
G03  20827445.141   109448970.464        -980.705          46.000  
G04  21807460.049   114598965.557        2138.141          46.000  
G09  23619798.970   124122886.184        3337.658          42.000  
G17  22078124.827   116021316.803        -805.651          43.000  
G19  22116494.994   116222957.901         826.143          44.000  
G02  23816950.203   125158894.030       -3104.729          42.000  
G21  24583137.263   129185188.465       -3157.116          39.000  
G01  22220326.477   116768625.211       -3009.629          45.000  
G28  24410916.003   128280203.268        -671.942          38.000  
G31  23894470.911   125566305.214        1077.216          38.000  
G06  24038881.549   126325171.483        3050.173          38.000  
> 2023 09 02 10 48 21.0020000  0 11                     
G03  20827632.173   109449951.312        -980.995          46.000  
G04  21807053.215   114596827.610        2137.726          46.000  
G09  23619164.166   124119548.729        3337.224          42.000  
G17  22078278.354   116022122.618        -806.273          43.000  
G19  22116338.187   116222132.033         825.465          44.000  
G02  23817540.998   125161998.630       -3104.860          43.000  
G21  24583738.248   129188345.899       -3157.289          39.000  
G01  22220899.333   116771635.032       -3010.098          45.000  
G28  24411044.611   128280875.640        -672.461          38.000  
G31  23894266.046   125565228.450        1076.067          38.000  
G06  24038301.085   126322121.200        3050.244          37.000  
> 2023 09 02 10 48 22.0020000  0 11                     
G03  20827819.204   109450932.605        -981.649          46.000  
G04  21806646.450   114594690.195        2136.870          45.000  
G09  23618529.466   124116211.568        3336.874          43.000  
G17  22078431.812   116022929.069        -806.741          43.000  
G19  22116181.170   116221306.910         824.623          44.000  
G02  23818131.513   125165103.524       -3105.328          43.000  
G21  24584339.338   129191503.525       -3158.189          40.000  
G01  22221472.258   116774645.246       -3010.690          45.000  
G28  24411173.080   128281548.714        -673.553          38.000  
G31  23894060.866   125564152.285        1075.400          38.000  
G06  24037720.481   126319071.050        3049.585          37.000  
> 2023 09 02 10 48 23.0020000  0 11                     
G03  20828006.445   109451914.479        -982.252          46.000  
G04  21806239.406   114592553.410        2136.479          45.000  
G09  23617894.837   124112874.796        3336.475          43.000  
G17  22078585.269   116023736.293        -807.759          43.000  
G19  22116024.292   116220482.647         823.586          44.000  
G02  23818722.203   125168208.832       -3105.748          42.000  
G21  24584940.429   129194661.451       -3158.275          40.000  
G01  22222045.742   116777655.964       -3011.042          45.000  
G28  24411301.339   128282222.567        -674.457          38.000  
G31  23893856.210   125563076.883        1074.596          38.000  
G06  24037140.087   126316021.133        3050.107          37.000  
> 2023 09 02 10 48 24.0020000  0 11                     
G03  20828193.267   109452896.699        -982.391          46.000  
G04  21805832.886   114590417.079        2136.019          45.000  
G09  23617260.103   124109538.213        3336.417          43.000  
G17  22078739.284   116024544.068        -808.203          44.000  
G19  22115867.938   116219659.035         823.358          45.000  
G02  23819312.823   125171314.321       -3105.583          42.000  
G21  24585541.344   129197819.491       -3158.233          40.000  
G01  22222618.982   116780666.980       -3011.138          45.000  
G28  24411429.703   128282897.024        -674.915          38.000  
G31  23893651.623   125562002.009        1074.561          39.000  
G06  24036559.728   126312971.312        3050.219          37.000  
> 2023 09 02 10 48 25.0020000  0 11                     
G03  20828380.159   109453879.354        -983.200          46.000  
G04  21805426.191   114588281.255        2135.227          45.000  
G09  23616625.194   124106201.873        3336.117          43.000  
G17  22078893.091   116025352.469        -809.075          44.000  
G19  22115711.270   116218836.145         822.311          45.000  
G02  23819903.827   125174420.100       -3105.967          42.000  
G21  24586142.260   129200977.667       -3158.709          40.000  
G01  22223192.326   116783678.371       -3011.652          45.000  
G28  24411557.857   128283572.094        -675.220          37.000  
G31  23893446.967   125560927.763        1073.558          39.000  
G06  24035979.369   126309921.636        3049.407          38.000  
