     3.03           OBSERVATION DATA    M: Mixed            RINEX VERSION / TYPE
RTKCONV demo5 b34a                      20231118 160452 UTC PGM / RUN BY / DATE 
format: u-blox UBX                                          COMMENT             
log: C:\Users\oo\Desktop\log_gnss_03062023-07-10-40.ubx     COMMENT             
                                                            MARKER NAME         
                                                            MARKER NUMBER       
                                                            MARKER TYPE         
                                                            OBSERVER / AGENCY   
                                                            REC # / TYPE / VERS 
                                                            ANT # / TYPE        
  4201757.8543   177857.8424  4779295.7946                  APPROX POSITION XYZ 
        0.0000        0.0000        0.0000                  ANTENNA: DELTA H/E/N
G    4 C1C L1C D1C S1C                                      SYS / # / OBS TYPES 
E    4 C1X L1X D1X S1X                                      SYS / # / OBS TYPES 
  2023    11    17    17    50   34.9960000     GPS         TIME OF FIRST OBS   
  2023    11    17    18    41   45.9960000     GPS         TIME OF LAST OBS    
G L1C                                                       SYS / PHASE SHIFT   
E L1X  0.00000                                              SYS / PHASE SHIFT   
  0                                                         GLONASS SLOT / FRQ #
 C1C    0.000 C1P    0.000 C2C    0.000 C2P    0.000        GLONASS COD/PHS/BIS 
                                                            END OF HEADER       
> 2023 11 17 17 50 34.9960000  0 14                     
G06  22373034.327 2 117571105.40811      -182.410          36.000  
G11  22365738.967 1 117532732.12931      1916.021          44.000  
G12  19650917.102 1 103266256.06111     -1453.644          47.000  
G24  22503331.194 1 118255801.92411     -3268.664          43.000  
G25  18780086.339 1  98690020.24211       994.349          48.000  
G28  21842385.840 1 114782527.01011      3442.602          38.000  
G32  20942797.904 1 110055139.42411      -424.139          46.000  
G29  21535008.910 1 113167223.65411      3639.073          42.000  
E05  22773729.305 1 119676763.28811     -2050.270          42.000  
E03  24170037.026 1 127014423.87511       540.525          41.000  
G31  23894176.945 2 125564733.48411      3909.739          37.000  
G03  24269563.778 4 127537440.31312       223.820          33.000  
E25  23732230.904 1 124713726.18411      2099.313          43.000  
E24  22356781.166 1 117485692.27411      -228.895          46.000  
> 2023 11 17 17 50 35.9960000  0 14                     
G06  22373069.140 2 117571288.987 1      -183.739          36.000  
G11  22365374.362 1 117530816.49321      1915.382          44.000  
G12  19651193.670 1 103267710.210 1     -1454.321          46.000  
G24  22503953.085 1 118259070.809 1     -3268.927          42.000  
G25  18779897.301 1  98689026.549 1       993.607          48.000  
G28  21841730.759 2 114779084.679 1      3442.504          38.000  
G32  20942879.187 1 110055564.328 1      -425.118          46.000  
G29  21534316.642 1 113163584.724 1      3639.074          41.000  
E05  22774119.474 1 119678814.078 1     -2051.220          41.000  
E03  24169934.244 1 127013883.922 1       539.680          40.000  
G31  23893433.496 1 125560823.901 1      3909.816          37.000  
G03  24269521.199 4 127537216.199 2       223.450          32.000  
E25  23731831.084 1 124711627.088 1      2099.134          42.000  
E24  22356824.914 1 117485921.600 1      -229.398          45.000  
> 2023 11 17 17 50 36.9960000  0 14                     
G06  22373104.285 2 117571474.942 1      -186.926          36.000  
G11  22365010.054 1 117528902.61211      1912.666          44.000  
G12  19651471.024 1 103269166.458 1     -1456.708          46.000  
G24  22504575.395 1 118262341.589 1     -3271.112          42.000  
G25  18779708.717 1  98688035.069 1       990.934          48.000  
G28  21841075.782 2 114775644.316 1      3439.840          37.000  
G32  20942960.487 1 110055991.632 1      -428.196          46.000  
G29  21533624.689 1 113159947.862 1      3636.284          42.000  
E05  22774510.010 1 119680866.886 1     -2053.514          41.000  
E03  24169832.422 1 127013346.188 1       537.158          41.000  
G31  23892690.291 2 125556916.130 1      3907.067          37.000  
G03  24269478.987 4 127536994.439 3       221.120          32.000  
E25  23731432.050 1 124709529.911 1      2096.804          42.000  
E24  22356868.609 1 117486152.859 1      -231.809          45.000  
> 2023 11 17 17 50 37.9960000  0 14                     
G06  22373139.570 2 117571661.720 1      -186.630          36.000  
G11  22364646.077 1 117526989.943 1      1912.769          44.000  
G12  19651748.011 1 103270623.249 1     -1456.622          46.000  
G24  22505197.390 1 118265612.706 1     -3270.618          42.000  
G25  18779520.307 1  98687044.196 1       991.090          48.000  
G28  21840421.190 1 114772204.290 1      3440.668          37.000  
G32  20943041.805 1 110056419.721 1      -428.237          46.000  
G29  21532932.857 1 113156311.472 1      3636.440          42.000  
E05  22774900.668 1 119682920.165 1     -2052.847          41.000  
E03  24169730.373 1 127012809.112 1       536.985          40.000  
G31  23891946.598 2 125553008.512 1      3907.699          37.000  
G03  24269436.950 4 127536773.534 2       220.069          32.000  
E25  23731033.173 1 124707433.065 1      2097.067          42.000  
E24  22356912.881 1 117486384.484 1      -231.271          45.000  
> 2023 11 17 17 50 45.9960000  0 14                     
G06  22373428.510 2 117573176.513 1      -194.752          37.000  
G11  22361736.829 1 117511704.454 1      1906.036          44.000  
G12  19653967.348 1 103282287.690 1     -1462.195          46.000  
G24  22510177.874 1 118291784.669 1     -3274.756          42.000  
G25  18778014.126 1  98679130.691 1       984.688          48.000  
G28  21835184.048 2 114744688.934 1      3436.202          37.000  
G32  20943696.660 1 110059864.687 1      -436.087          46.000  
G29  21527397.788 1 113127228.526 1      3631.415          42.000  
E05  22778028.777 1 119699354.494 1     -2057.848          41.000  
E03  24168915.623 1 127008526.880 1       530.812          41.000  
G31  23885998.691 1 125521746.371 1      3904.563          38.000  
G03  24269105.360 2 127535025.263 1       213.180          35.000  
E25  23727841.912 1 124690660.801 1      2093.345          42.000  
E24  22357266.562 1 117488242.537 1      -235.739          45.000  
> 2023 11 17 17 50 46.9960000  0 14                     
G06  22373465.854 2 117573372.573 1      -197.110          37.000  
G11  22361374.406 1 117509799.932 1      1903.558          44.000  
G12  19654245.870 1 103283751.170 1     -1464.276          46.000  
G24  22510801.423 1 118295060.698 1     -3276.746          42.000  
G25  18777827.182 1  98678147.353 1       982.464          48.000  
G28  21834530.328 2 114741254.246 1      3433.757          37.000  
G32  20943779.775 1 110060301.986 1      -438.308          45.000  
G29  21526706.968 1 113123598.350 1      3629.701          41.000  
E05  22778420.639 1 119701413.967 1     -2060.576          41.000  
E03  24168814.603 1 127007997.603 1       527.960          41.000  
G31  23885255.992 2 125517842.584 1      3903.063          38.000  
G03  24269065.016 2 127534813.321 1       210.697          35.000  
E25  23727443.978 1 124688568.783 1      2090.769          42.000  
E24  22357311.705 1 117488479.574 1      -238.104          45.000  
> 2023 11 17 17 50 47.9960000  0 14                     
G06  22373503.319 2 117573569.459 1      -197.143          37.000  
G11  22361012.192 1 117507896.073 1      1903.234          44.000  
G12  19654524.271 1 103285215.169 1     -1464.459          46.000  
G24  22511425.129 1 118298337.042 1     -3276.562          42.000  
G25  18777639.958 1  98677164.605 1       982.395          48.000  
G28  21833876.573 2 114737819.898 1      3434.167          37.000  
G32  20943863.013 1 110060740.062 1      -438.114          45.000  
G29  21526016.045 1 113119968.644 1      3629.628          42.000  
E05  22778812.606 1 119703473.844 1     -2059.934          42.000  
E03  24168713.793 1 127007468.878 1       528.858          41.000  
G31  23884513.241 1 125513938.953 1      3903.693          38.000  
G03  24269024.985 4 127534602.138 2       210.966          35.000  
E25  23727046.060 1 124686477.015 1      2091.890          42.000  
E24  22357356.709 1 117488716.931 1      -237.155          45.000  
> 2023 11 17 17 50 48.9960000  0 14                     
G06  22373541.134 2 117573767.741 1      -197.993          37.000  
G11  22360650.222 2 117505993.497 1      1902.386          44.000  
G12  19654803.004 1 103286680.276 1     -1464.947          46.000  
G24  22512049.201 2 118301614.304 1     -3277.124          43.000  
G25  18777453.084 1  98676183.074 1       981.756          48.000  
G28  21833223.324 2 114734386.553 1      3433.315          38.000  
G32  20943946.442 2 110061179.568 1      -439.433          45.000  
G29  21525325.784 1 113116340.006 1      3629.047          42.000  
E05  22779204.712 2 119705534.828 1     -2060.874          42.000  
E03  24168613.367 2 127006941.490 1       527.536          40.000  
G31  23883770.630 2 125510036.163 1      3902.946          38.000  
G03  24268984.849 4 127534392.370 2       209.984          35.000  
E25  23726647.968 2 124684386.206 1      2091.210          42.000  
E24  22357402.080 2 117488955.320 1      -238.280          45.000  
> 2023 11 17 17 50 49.9960000  0 14                     
G06  22373579.629 2 117573969.330 1      -201.218          37.000  
G11  22360288.950 1 117504094.079 1      1900.079          44.000  
G12  19655082.190 1 103288148.388 1     -1467.572          46.000  
G24  22512673.587 1 118304894.361 1     -3279.565          43.000  
G25  18777266.698 1  98675204.651 1       978.870          48.000  
G28  21832570.424 2 114730956.055 1      3430.828          38.000  
G32  20944030.709 1 110061622.348 1      -442.514          45.000  
G29  21524636.046 1 113112714.326 1      3626.132          42.000  
E05  22779597.709 1 119707598.721 1     -2063.333          42.000  
E03  24168513.570 2 127006417.158 1       524.956          40.000  
G31  23883028.437 2 125506136.038 1      3900.714          38.000  
G03  24268945.604 4 127534185.837 2       207.339          34.000  
E25  23726250.452 1 124682298.181 1      2088.676          42.000  
E24  22357447.765 1 117489196.527 1      -240.590          45.000  
> 2023 11 17 17 50 50.9960000  0 14                     
G06  22373617.705 2 117574170.177 1      -200.855          37.000  
G11  22359927.347 1 117502193.810 1      1900.274          44.000  
G12  19655361.323 1 103289615.485 1     -1467.194          46.000  
G24  22513297.188 1 118308173.191 1     -3278.790          43.000  
G25  18777080.190 1  98674225.264 1       979.586          48.000  
G28  21831917.140 2 114727524.315 1      3431.948          37.000  
G32  20944114.802 1 110062064.365 1      -441.940          45.000  
G29  21523945.803 1 113109087.558 1      3627.051          42.000  
E05  22779990.094 1 119709661.512 1     -2062.145          41.000  
E03  24168413.720 1 127005891.926 1       525.582          40.000  
G31  23882286.436 1 125502234.545 1      3902.120          38.000  
G03  24268906.149 4 127533978.539 2       207.355          34.000  
E25  23725853.128 1 124680208.912 1      2089.761          42.000  
E24  22357493.414 1 117489436.537 1      -239.162          45.000  
> 2023 11 17 17 50 51.9960000  0 14                     
G06  22373655.921 4 117574370.693 2      -195.541          37.000  
G11  22359565.621 1 117500293.093 1      1905.649          44.000  
G12  19655640.405 1 103291081.954 1     -1461.420          46.000  
G24  22513921.103 2 118311451.225 1     -3273.010          43.000  
G25  18776893.717 1  98673245.380 1       985.029          47.000  
G28  21831263.839 2 114724091.857 1      3437.590          37.000  
G32  20944198.982 1 110062506.049 1      -436.547          45.000  
G29  21523255.438 2 113105460.131 1      3632.756          42.000  
E05  22780382.253 2 119711723.679 1     -2057.265          41.000  
E03  24168313.381 1 127005366.236 1       530.533          40.000  
G31  23881543.807 2 125498332.145 1      3908.077          38.000  
G03  24268866.484 4 127533770.883 2       212.569          34.000  
E25  23725455.141 2 124678118.836 1      2095.412          43.000  
E24  22357538.610 1 117489675.839 1      -234.100          45.000  
> 2023 11 17 17 50 52.9960000  0 14                     
G06  22373693.439 2 117574568.170 2      -198.564          37.000  
G11  22359203.023 2 117498389.176 1      1903.042          44.000  
G12  19655919.015 1 103292545.080 1     -1464.081          46.000  
G24  22514544.390 2 118314725.703 1     -3275.208          43.000  
G25  18776706.389 2  98672262.235 1       982.187          47.000  
G28  21830609.909 2 114720655.880 1      3435.395          37.000  
G32  20944282.132 2 110062944.685 1      -439.781          45.000  
G29  21522564.775 2 113101829.312 1      3629.868          42.000  
E05  22780773.487 2 119713782.399 1     -2059.545          41.000  
E03  24168212.588 2 127004837.300 1       527.673          40.000  
G31  23880800.672 2 125494426.110 1      3905.218          38.000  
G03  24268826.349 4 127533560.154 2       209.855          34.000  
E25  23725056.788 2 124676025.208 1      2092.714          43.000  
E24  22357583.719 2 117489911.638 1      -236.715          45.000  
> 2023 11 17 17 50 53.9960000  0 15                     
G06  22373731.114 2 117574766.955 1      -198.647          37.000  
G11  22358840.826 1 117496486.483 1      1902.607          44.000  
G12  19656197.538 1 103294009.250 1     -1464.087          46.000  
G24  22515167.572 1 118318001.040 1     -3274.963          42.000  
G25  18776519.166 1  98671280.235 1       981.888          47.000  
G28  21829956.329 1 114717220.810 1      3435.235          38.000  
G32  20944366.155 1 110063384.641 1      -439.943          45.000  
G29  21521874.096 1 113098199.488 1      3629.861          41.000  
E05  22781165.349 1 119715842.127 1     -2059.660          41.000  
E03  24168112.058 1 127004309.509 1       527.896          41.000  
G31  23880057.398 1 125490520.772 1      3905.490          38.000  
G03  24268786.789 4 127533350.716 2       209.713          34.000  
E25  23724658.696 1 124673932.411 1      2092.824          42.000  
E24  22357628.950 1 117490148.327 1      -236.666          45.000  
E10  26315904.820 8 138291023.419 1      3379.970          41.000  
> 2023 11 17 17 50 54.9960000  0 15                     
G06  22373769.365 4 117574967.465 3      -199.457          37.000  
G11  22358479.031 4 117494585.356 2      1902.259          44.000  
G12  19656476.078 4 103295474.836 2     -1464.276          46.000  
G24  22515791.121 4 118321277.593 2     -3275.262          42.000  
G25  18776332.553 4  98670299.727 2       981.699          47.000  
G28  21829302.591 4 114713787.012 3      3435.140          38.000  
G32  20944450.125 4 110063826.277 2      -440.571          45.000  
G29  21521183.521 4 113094571.019 2      3629.719          41.000  
E05  22781557.211 4 119717903.194 3     -2059.387          41.000  
E03  24168012.120 4 127003783.261 3       527.509          41.000  
G31  23879314.559 4 125486616.505 3      3905.450          38.000  
G03  24268747.073 8 127533142.996 3       208.975          34.000  
E25  23724260.726 4 124671840.788 3      2093.601          42.000  
E24  22357674.268 4 117490386.267 3      -236.199          45.000  
E10  26315261.745 8 138287644.759 3      3380.271          41.000  
> 2023 11 17 17 50 55.9960000  0 15                     
G06  22373807.407 4 117575167.848 2      -198.009          38.000  
G11  22358116.956 2 117492683.998 1      1903.508          44.000  
G12  19656754.967 2 103296940.027 1     -1463.098          46.000  
G24  22516414.512 2 118324553.533 1     -3273.724          42.000  
G25  18776145.871 2  98669318.917 1       983.099          48.000  
G28  21828649.081 4 114710352.646 2      3436.811          38.000  
G32  20944534.078 2 110064267.809 1      -439.369          45.000  
G29  21520492.876 2 113090942.097 1      3631.240          41.000  
E05  22781949.352 4 119719963.827 2     -2058.469          41.000  
E03  24167911.764 4 127003256.745 2       528.535          41.000  
G31  23878571.477 2 125482711.551 1      3907.288          39.000  
G03  24268707.321 4 127532935.099 2       209.621          34.000  
E25  23723862.285 4 124669748.633 2      2094.159          42.000  
E24  22357719.569 4 117490623.708 2      -235.362          45.000  
E10  26314616.977 4 138284265.424 2      3381.618          41.000  
> 2023 11 17 17 50 56.9960000  0 15                     
G06  22373845.413 4 117575366.674 2      -199.102          38.000  
G11  22357754.969 2 117490780.927 1      1902.745          44.000  
G12  19657033.490 2 103298403.320 1     -1463.196          46.000  
G24  22517037.136 2 118327827.385 1     -3273.681          42.000  
G25  18775958.996 2  98668336.313 1       982.706          48.000  
G28  21827995.064 2 114706916.253 1      3436.392          38.000  
G32  20944617.822 2 110064707.726 1      -440.195          45.000  
G29  21519802.057 2 113087311.237 1      3630.802          41.000  
E05  22782341.005 2 119722022.503 2     -2058.891          41.000  
E03  24167811.355 2 127002728.482 2       527.728          41.000  
G31  23877827.696 2 125478804.331 1      3907.652          38.000  
G03  24268667.412 4 127532725.555 2       209.637          34.000  
E25  23723463.635 2 124667654.331 2      2094.110          42.000  
E24  22357764.277 2 117490859.077 2      -235.585          45.000  
E10  26313974.791 4 138280883.917 1      3381.383          41.000  
> 2023 11 17 17 50 57.9960000  0 15                     
G06  22373883.455 2 117575566.490 1      -201.060          38.000  
G11  22357393.034 1 117488878.711 1      1901.899          44.000  
G12  19657312.240 1 103299867.356 1     -1464.606          46.000  
G24  22517660.039 1 118331101.774 1     -3274.823          42.000  
G25  18775772.296 1  98667354.527 1       981.362          48.000  
G28  21827341.152 2 114703480.401 1      3435.411          38.000  
G32  20944701.583 1 110065148.639 1      -441.470          45.000  
G29  21519111.133 1 113083681.051 1      3629.671          41.000  
E05  22782732.989 1 119724081.807 1     -2059.720          41.000  
E03  24167711.017 1 127002201.024 1       526.898          41.000  
G31  23877084.369 2 125474897.588 1      3906.350          38.000  
G03  24268627.608 4 127532517.024 2       208.364          34.000  
E25  23723065.317 1 124665560.537 1      2093.397          42.000  
E24  22357809.176 1 117491095.023 1      -236.370          45.000  
E10  26313331.908 1 138277502.828 1      3380.586          41.000  
> 2023 11 17 17 50 58.9960000  0 15                     
G06  22373921.933 2 117575768.235 1      -203.298          38.000  
G11  22357031.396 2 117486978.329 1      1898.701          44.000  
G12  19657591.007 1 103301333.021 1     -1467.181          46.000  
G24  22518283.169 2 118334377.606 1     -3277.215          42.000  
G25  18775585.806 1  98666374.481 1       978.601          48.000  
G28  21826687.798 2 114700046.057 1      3432.835          38.000  
G32  20944785.920 1 110065591.487 1      -444.564          45.000  
G29  21518420.366 2 113080052.451 1      3627.057          41.000  
E05  22783125.061 2 119726142.746 1     -2062.466          41.000  
E03  24167610.975 2 127001675.358 1       523.901          41.000  
G31  23876341.374 2 125470992.150 1      3903.571          38.000  
G03  24268588.363 4 127532310.390 2       205.069          34.000  
E25  23722666.998 2 124663468.203 1      2090.884          42.000  
E24  22357854.512 1 117491332.483 1      -239.005          45.000  
E10  26312688.623 1 138274123.100 1      3378.122          41.000  
> 2023 11 17 17 50 59.9960000  0 15                     
G06  22373960.794 4 117575972.374 2      -202.364          38.000  
G11  22356670.298 2 117485080.189 1      1899.783          43.000  
G12  19657870.019 2 103302800.777 1     -1465.735          46.000  
G24  22518906.822 2 118337655.329 1     -3275.873          42.000  
G25  18775399.752 2  98665396.618 1       979.705          48.000  
G28  21826034.445 4 114696613.626 2      3434.509          38.000  
G32  20944870.588 2 110066036.691 1      -443.570          45.000  
G29  21517730.088 4 113076425.899 2      3628.522          41.000  
E05  22783517.499 2 119728205.698 2     -2061.691          41.000  
E03  24167511.718 2 127001151.898 2       524.760          41.000  
G31  23875598.623 4 125467088.440 2      3905.859          39.000  
G03  24268549.309 4 127532106.120 3       205.668          34.000  
E25  23722269.307 2 124661377.748 2      2092.164          42.000  
E24  22357899.673 2 117491571.884 2      -237.885          46.000  
E10  26312046.088 2 138270745.191 2      3379.416          41.000  
> 2023 11 17 17 51 00.9960000  0 15                     
G06  22373999.359 2 117576174.934 1      -203.925          38.000  
G11  22356308.782 2 117483180.340 1      1898.540          43.000  
G12  19658149.222 2 103304266.687 1     -1467.346          46.000  
G24  22519530.144 2 118340930.980 1     -3276.996          42.000  
G25  18775213.575 2  98664416.973 1       978.237          47.000  
G28  21825381.196 2 114693179.212 1      3433.226          38.000  
G32  20944954.873 2 110066480.304 1      -445.164          45.000  
G29  21517039.234 2 113072797.426 1      3626.921          41.000  
E05  22783910.111 2 119730266.686 1     -2062.045          41.000  
E03  24167411.798 2 127000626.665 1       524.029          41.000  
G31  23874855.296 2 125463182.583 1      3904.609          39.000  
G03  24268509.942 4 127531900.188 2       204.982          34.000  
E25  23721871.303 2 124659285.202 1      2091.539          42.000  
E24  22357944.695 2 117491809.248 1      -238.557          45.000  
E10  26311402.612 2 138267365.073 1      3379.052          41.000  
> 2023 11 17 17 51 01.9960000  0 15                     
G06  22374038.203 4 117576378.590 2      -205.303          38.000  
G11  22355947.441 4 117481281.506 2      1897.045          44.000  
G12  19658428.007 4 103305733.396 2     -1468.420          46.000  
G24  22520153.361 4 118344207.250 2     -3277.747          42.000  
G25  18775027.451 4  98663438.257 2       976.927          48.000  
G28  21824727.825 4 114689745.463 2      3431.941          38.000  
G32  20945039.820 4 110066925.030 2      -446.623          45.000  
G29  21516348.990 4 113069169.713 2      3626.222          41.000  
E05  22784302.497 4 119732328.487 2     -2063.895          41.000  
E03  24167312.122 4 127000102.438 2       521.716          41.000  
G31  23874112.109 4 125459277.206 2      3904.042          39.000  
G03  24268471.167 4 127531695.415 3       202.423          34.000  
E25  23721473.246 4 124657193.336 2      2089.415          42.000  
E24  22357989.925 4 117492047.337 2      -240.327          45.000  
E10  26310759.868 4 138263985.551 2      3377.583          41.000  
> 2023 11 17 17 51 02.9960000  0 15                     
G06  22374076.821 2 117576581.640 1      -202.860          38.000  
G11  22355585.837 2 117479381.901 1      1900.129          44.000  
G12  19658706.966 2 103307199.190 1     -1465.234          46.000  
G24  22520776.386 2 118347482.421 1     -3274.554          42.000  
G25  18774841.153 1  98662458.708 1       980.047          48.000  
G28  21824073.983 2 114686310.641 1      3435.124          38.000  
G32  20945124.210 2 110067369.105 1      -443.569          45.000  
G29  21515658.293 2 113065541.053 1      3629.156          41.000  
E05  22784694.359 2 119734389.281 2     -2060.196          41.000  
E03  24167212.202 2 126999577.328 2       525.720          41.000  
G31  23873368.555 2 125455370.619 1      3907.123          39.000  
G03  24268432.340 4 127531489.924 2       206.109          34.000  
E25  23721074.962 2 124655100.264 1      2093.671          43.000  
E24  22358035.226 2 117492284.315 1      -236.415          45.000  
E10  26310116.216 2 138260604.802 2      3381.438          41.000  
> 2023 11 17 17 51 03.9960000  0 15                     
G06  22374115.368 2 117576784.656 1      -208.334          38.000  
G11  22355224.530 1 117477482.161 1      1894.276          44.000  
G12  19658986.013 1 103308664.683 1     -1470.654          46.000  
G24  22521399.272 1 118350757.072 1     -3279.663          42.000  
G25  18774654.505 1  98661478.951 1       974.505          48.000  
G28  21823420.158 2 114682875.348 1      3429.957          37.000  
G32  20945208.913 1 110067813.178 1      -449.607          45.000  
G29  21514967.875 1 113061912.047 1      3623.519          41.000  
E05  22785086.517 2 119736449.736 1     -2066.165          41.000  
E03  24167112.160 2 126999052.084 1       519.719          41.000  
G31  23872625.141 2 125451463.407 1      3901.848          39.000  
G03  24268393.409 4 127531284.436 2       199.568          34.000  
E25  23720676.626 1 124653006.712 1      2088.180          43.000  
E24  22358080.213 1 117492520.850 1      -241.739          45.000  
E10  26309472.443 2 138257223.444 1      3376.278          41.000  
> 2023 11 17 17 51 04.9960000  0 15                     
G06  22374154.631 2 117576989.841 1      -203.566          38.000  
G11  22354863.503 1 117475584.425 1      1899.573          44.000  
G12  19659265.199 1 103310132.042 1     -1465.399          46.000  
G24  22522022.402 1 118354033.396 1     -3274.371          42.000  
G25  18774468.503 1  98660501.149 1       979.514          48.000  
G28  21822767.066 2 114679441.758 1      3435.685          38.000  
G32  20945293.581 1 110068259.369 1      -444.549          45.000  
G29  21514277.702 2 113058284.837 1      3629.065          41.000  
E05  22785479.043 2 119738511.931 1     -2060.122          41.000  
E03  24167012.572 2 126998528.807 1       525.242          41.000  
G31  23871881.639 2 125447557.709 1      3907.728          39.000  
G03  24268354.722 4 127531081.019 2       205.286          34.000  
E25  23720278.656 2 124650914.812 1      2093.938          43.000  
E24  22358125.392 2 117492759.103 1      -236.317          45.000  
E10  26308829.437 2 138253843.680 1      3381.754          41.000  
> 2023 11 17 17 51 05.9960000  0 15                     
G06  22374193.039 4 117577191.353 2      -202.772          38.000  
G11  22354501.515 2 117473682.936 1      1900.158          44.000  
G12  19659543.565 2 103311595.458 1     -1464.581          46.000  
G24  22522644.973 2 118357305.591 1     -3273.407          42.000  
G25  18774282.013 2  98659519.488 1       980.305          48.000  
G28  21822112.683 2 114676004.123 1      3436.058          38.000  
G32  20945377.657 2 110068701.911 1      -444.034          45.000  
G29  21513586.621 2 113054653.658 1      3629.914          41.000  
E05  22785871.009 2 119740570.188 2     -2059.413          41.000  
E03  24166912.111 2 126998001.745 2       525.579          41.000  
G31  23871137.789 2 125443647.774 1      3908.822          38.000  
G03  24268315.354 4 127530873.958 2       205.196          34.000  
E25  23719879.832 2 124648818.786 2      2094.866          43.000  
E24  22358170.012 2 117492993.291 2      -235.362          45.000  
E10  26308185.594 2 138250459.693 2      3382.994          41.000  
> 2023 11 17 17 51 06.9960000  0 15                     
G06  22374231.779 2 117577394.604 1      -203.795          38.000  
G11  22354139.772 1 117471783.021 1      1899.664          44.000  
G12  19659822.314 1 103313060.300 1     -1464.886          46.000  
G24  22523267.876 1 118360578.979 1     -3273.547          42.000  
G25  18774095.400 1  98658539.352 1       979.779          48.000  
G28  21821458.649 2 114672567.726 1      3436.109          38.000  
G32  20945462.185 1 110069146.159 1      -444.712          45.000  
G29  21512895.889 1 113051023.837 1      3629.526          41.000  
E05  22786262.976 1 119742629.794 1     -2059.795          41.000  
E03  24166812.034 1 126997476.180 1       525.386          41.000  
G31  23870393.886 1 125439738.959 1      3908.765          38.000  
G03  24268276.126 4 127530668.547 2       205.301          34.000  
E25  23719481.251 1 124646723.944 1      2094.696          43.000  
E24  22358215.033 1 117493228.732 1      -235.649          45.000  
E10  26307542.013 1 138247076.812 1      3382.838          41.000  
> 2023 11 17 17 51 07.9960000  0 15                     
G06  22374270.518 1 117577598.664 1      -204.149          38.000  
G11  22353778.274 1 117469883.810 1      1898.987          44.000  
G12  19660101.378 1 103314525.669 1     -1465.515          46.000  
G24  22523890.901 1 118363852.722 1     -3274.005          42.000  
G25  18773909.311 1  98657559.843 1       979.219          48.000  
G28  21820804.876 1 114669131.696 1      3435.948          38.000  
G32  20945546.802 1 110069591.208 1      -445.406          45.000  
G29  21512205.384 1 113047394.503 1      3629.423          42.000  
E05  22786655.484 1 119744689.856 1     -2060.204          41.000  
E03  24166712.393 1 126996951.296 1       524.682          40.000  
G31  23869649.826 1 125435830.318 1      3908.669          38.000  
G03  24268237.107 2 127530463.939 1       204.296          34.000  
E25  23719082.653 1 124644629.439 1      2094.403          43.000  
E24  22358259.549 1 117493464.569 1      -235.963          45.000  
E10  26306898.204 1 138243694.203 1      3382.713          41.000  
> 2023 11 17 17 51 08.9960000  0 15                     
G06  22374309.799 1 117577803.341 1      -204.831          38.000  
G11  22353417.037 1 117467985.090 1      1898.309          43.000  
G12  19660380.198 1 103315991.355 1     -1465.851          45.000  
G24  22524513.769 1 118367126.569 1     -3274.213          41.000  
G25  18773723.170 1  98656580.728 1       978.874          48.000  
G28  21820151.121 1 114665695.841 1      3435.599          38.000  
G32  20945631.644 1 110070036.844 1      -445.918          45.000  
G29  21511514.861 1 113043765.420 1      3629.063          41.000  
E05  22787047.398 1 119746750.196 1     -2060.625          41.000  
E03  24166612.770 1 126996426.840 1       524.213          40.000  
G31  23868905.941 1 125431921.696 1      3908.436          39.000  
G03  24268198.473 4 127530259.944 2       203.326          34.000  
E25  23718683.811 1 124642535.047 1      2094.355          43.000  
E24  22358304.710 1 117493700.569 1      -236.111          45.000  
E10  26306254.344 1 138240311.620 1      3382.354          41.000  
> 2023 11 17 17 51 09.9960000  0 15                     
G06  22374348.852 2 117578008.836 1      -205.817          38.000  
G11  22353055.887 1 117466087.076 1      1897.465          43.000  
G12  19660659.401 1 103317457.582 1     -1466.827          46.000  
G24  22525137.004 1 118370400.746 1     -3274.603          42.000  
G25  18773536.749 1  98655602.258 1       978.059          47.000  
G28  21819497.349 1 114662260.371 1      3435.414          38.000  
G32  20945716.610 1 110070483.314 1      -446.896          45.000  
G29  21510824.374 1 113040136.853 1      3628.221          41.000  
E05  22787439.627 1 119748810.989 1     -2061.056          41.000  
E03  24166513.059 1 126995903.068 1       523.343          40.000  
G31  23868162.265 1 125428013.300 1      3908.440          38.000  
G03  24268159.733 2 127530056.685 1       203.101          34.000  
E25  23718285.353 1 124640440.991 1      2093.909          43.000  
E24  22358349.941 1 117493936.974 1      -236.787          45.000  
E10  26305610.867 1 138236929.286 1      3382.169          41.000  
> 2023 11 17 17 51 10.9960000  0 15                     
G06  22374388.028 1 117578215.143 1      -206.584          38.000  
G11  22352694.825 1 117464189.733 1      1897.288          43.000  
G12  19660938.762 1 103318924.332 1     -1466.791          46.000  
G24  22525760.029 1 118373675.286 1     -3274.347          43.000  
G25  18773350.800 1  98654624.400 1       977.908          48.000  
G28  21818843.681 1 114658825.276 1      3435.172          38.000  
G32  20945801.802 1 110070930.582 1      -447.501          45.000  
G29  21510133.991 1 113036508.741 1      3627.910          41.000  
E05  22787832.117 1 119750872.267 1     -2061.293          41.000  
E03  24166413.506 1 126995379.896 1       523.505          40.000  
G31  23867418.118 2 125424105.093 1      3908.301          38.000  
G03  24268121.395 2 127529854.233 1       202.687          34.000  
E25  23717887.244 1 124638347.227 1      2094.358          43.000  
E24  22358395.015 1 117494173.740 1      -236.514          45.000  
E10  26304967.163 1 138233547.186 1      3382.671          42.000  
> 2023 11 17 17 51 11.9960000  0 15                     
G06  22374427.151 1 117578421.943 1      -207.374          38.000  
G11  22352333.518 1 117462292.726 1      1896.659          43.000  
G12  19661217.826 1 103320391.271 1     -1467.230          46.000  
G24  22526382.914 1 118376949.760 1     -3274.505          42.000  
G25  18773165.025 1  98653646.833 1       977.401          48.000  
G28  21818190.136 1 114655390.235 1      3434.985          38.000  
G32  20945886.976 1 110071378.324 1      -448.287          45.000  
G29  21509443.573 1 113032880.760 1      3628.019          41.000  
E05  22788224.555 1 119752933.664 1     -2061.791          41.000  
E03  24166314.406 1 126994857.078 1       522.794          41.000  
G31  23866674.215 1 125420196.779 1      3908.080          38.000  
G03  24268083.005 2 127529652.232 1       201.938          35.000  
E25  23717488.733 1 124636253.473 1      2093.930          43.000  
E24  22358439.897 1 117494410.561 1      -236.826          45.000  
E10  26304323.407 1 138230164.977 1      3382.256          42.000  
> 2023 11 17 17 51 12.9960000  0 15                     
G06  22374466.449 1 117578629.336 1      -207.396          39.000  
G11  22351972.508 1 117460396.224 1      1896.552          43.000  
G12  19661496.890 1 103321858.508 1     -1467.035          46.000  
G24  22527005.852 1 118380224.382 1     -3274.310          42.000  
G25  18772978.988 1  98652669.653 1       977.260          48.000  
G28  21817536.154 1 114651955.347 1      3434.728          38.000  
G32  20945972.185 1 110071826.631 1      -448.300          45.000  
G29  21508753.644 1 113029253.054 1      3627.875          42.000  
E05  22788617.098 1 119754995.291 1     -2061.536          41.000  
E03  24166215.149 1 126994334.665 1       522.406          40.000  
G31  23865930.365 1 125416288.416 1      3908.724          38.000  
G03  24268044.893 2 127529450.818 1       201.128          34.000  
E25  23717090.188 1 124634159.804 1      2094.165          43.000  
E24  22358485.232 1 117494647.538 1      -236.749          45.000  
E10  26303679.878 1 138226782.797 1      3382.463          41.000  
> 2023 11 17 17 51 13.9960000  0 15                     
G06  22374506.114 1 117578837.316 1      -208.431          38.000  
G11  22351611.742 1 117458500.160 1      1895.867          43.000  
G12  19661776.233 1 103323326.051 1     -1467.889          46.000  
G24  22527628.808 1 118383499.107 1     -3274.744          42.000  
G25  18772793.143 1  98651692.868 1       976.432          48.000  
G28  21816882.573 1 114648520.570 1      3434.350          38.000  
G32  20946058.023 1 110072275.533 1      -449.527          45.000  
G29  21508063.627 1 113025625.578 1      3627.437          42.000  
E05  22789009.082 1 119757057.178 1     -2062.152          41.000  
E03  24166115.700 1 126993812.680 1       521.417          40.000  
G31  23865186.654 1 125412380.066 1      3907.998          38.000  
G03  24268006.869 2 127529249.933 1       200.800          34.000  
E25  23716691.642 1 124632066.238 1      2093.487          43.000  
E24  22358530.533 1 117494884.667 1      -237.375          45.000  
E10  26303036.244 1 138223400.621 1      3381.968          41.000  
> 2023 11 17 17 51 14.9960000  0 15                     
G06  22374545.673 1 117579046.010 1      -208.926          38.000  
G11  22351251.203 1 117456604.707 1      1895.639          43.000  
G12  19662055.593 1 103324794.023 1     -1467.969          46.000  
G24  22528251.955 1 118386774.066 1     -3274.725          42.000  
G25  18772607.350 1  98650716.621 1       976.178          48.000  
G28  21816229.150 1 114645086.126 1      3434.155          38.000  
G32  20946143.599 1 110072725.144 1      -449.767          45.000  
G29  21507373.628 1 113021998.517 1      3627.196          42.000  
E05  22789401.607 1 119759119.421 1     -2061.998          41.000  
E03  24166016.112 1 126993291.243 1       521.353          40.000  
G31  23864442.664 2 125408471.798 1      3909.124          38.000  
G03  24267968.915 4 127529049.779 2       199.429          34.000  
E25  23716293.306 1 124629972.906 1      2093.303          42.000  
E24  22358575.921 1 117495122.098 1      -237.383          45.000  
E10  26302392.418 1 138220018.619 1      3382.237          41.000  
> 2023 11 17 17 51 15.9960000  0 15                     
G06  22374585.407 1 117579255.334 1      -209.952          38.000  
G11  22350890.402 1 117454709.745 1      1894.912          43.000  
G12  19662335.024 1 103326262.321 1     -1468.433          46.000  
G24  22528875.224 1 118390049.139 1     -3275.281          42.000  
G25  18772421.628 1  98649740.778 1       975.605          48.000  
G28  21815575.587 2 114641651.805 1      3434.369          38.000  
G32  20946229.018 1 110073175.340 1      -450.505          45.000  
G29  21506683.646 1 113018371.717 1      3626.541          42.000  
E05  22789793.958 1 119761181.937 1     -2062.817          41.000  
E03  24165916.611 1 126992770.253 1       520.466          40.000  
G31  23863699.058 2 125404563.584 1      3907.674          38.000  
G03  24267931.275 4 127528850.160 2       199.415          34.000  
E25  23715895.144 1 124627879.667 1      2093.134          42.000  
E24  22358620.908 1 117495359.684 1      -237.804          45.000  
E10  26301749.029 1 138216636.641 1      3381.901          41.000  
> 2023 11 17 17 51 16.9960000  0 15                     
G06  22374625.211 1 117579465.317 1      -209.801          38.000  
G11  22350530.108 1 117452815.373 1      1894.385          43.000  
G12  19662614.646 1 103327731.017 1     -1468.610          46.000  
G24  22529498.441 1 118393324.393 1     -3274.902          42.000  
G25  18772236.080 1  98648765.423 1       975.516          48.000  
G28  21814922.146 2 114638217.773 1      3434.319          38.000  
G32  20946314.751 1 110073626.229 1      -450.846          45.000  
G29  21505993.612 1 113014745.235 1      3626.423          42.000  
E05  22790186.536 1 119763244.818 1     -2063.009          41.000  
E03  24165817.616 1 126992249.770 1       520.756          41.000  
G31  23862955.102 2 125400655.375 1      3908.740          38.000  
G03  24267893.408 4 127528651.211 2       199.544          34.000  
E25  23715496.965 1 124625786.631 1      2093.492          42.000  
E24  22358666.104 1 117495597.533 1      -237.557          45.000  
E10  26301105.796 1 138213254.746 1      3382.164          41.000  
> 2023 11 17 17 51 17.9960000  0 15                     
G06  22374665.521 1 117579676.039 1      -211.551          38.000  
G11  22350169.656 1 117450921.458 1      1893.531          43.000  
G12  19662894.268 1 103329200.086 1     -1469.507          46.000  
G24  22530121.920 1 118396599.784 1     -3275.726          44.000  
G25  18772050.444 1  98647790.527 1       974.896          48.000  
G28  21814268.775 2 114634783.934 1      3433.284          38.000  
G32  20946400.693 1 110074077.761 1      -451.811          45.000  
G29  21505303.439 1 113011119.091 1      3626.006          41.000  
E05  22790578.904 2 119765307.959 1     -2063.678          41.000  
E03  24165719.005 1 126991729.773 1       519.955          41.000  
G31  23862211.095 2 125396747.257 1      3908.455          38.000  
G03  24267855.768 2 127528452.896 1       197.325          35.000  
E25  23715098.559 1 124623693.751 1      2092.604          43.000  
E24  22358711.614 1 117495835.589 1      -238.220          45.000  
E10  26300462.145 1 138209872.928 1      3381.556          41.000  
> 2023 11 17 17 51 18.9960000  0 15                     
G06  22374705.796 1 117579887.357 1      -211.776          38.000  
G11  22349809.431 1 117449028.149 1      1893.134          43.000  
G12  19663173.856 1 103330669.533 1     -1469.647          46.000  
G24  22530745.486 1 118399875.413 1     -3275.671          43.000  
G25  18771865.210 1  98646816.131 1       974.152          48.000  
G28  21813615.072 2 114631350.345 1      3433.120          38.000  
G32  20946486.967 1 110074529.958 1      -452.517          45.000  
G29  21504613.230 1 113007493.273 1      3625.525          41.000  
E05  22790971.970 1 119767371.420 1     -2063.915          41.000  
E03  24165620.184 1 126991210.309 1       519.333          40.000  
G31  23861467.297 2 125392839.210 1      3908.130          38.000  
G03  24267818.320 2 127528255.245 1       197.407          35.000  
E25  23714699.996 1 124621601.057 1      2092.351          42.000  
E24  22358756.793 1 117496073.915 1      -238.504          45.000  
E10  26299818.529 1 138206491.239 1      3381.716          41.000  
> 2023 11 17 17 51 19.9960000  0 15                     
G06  22374745.914 1 117580099.206 1      -211.828          38.000  
G11  22349449.451 1 117447135.235 1      1892.718          43.000  
G12  19663453.740 1 103332139.226 1     -1469.800          46.000  
G24  22531369.175 1 118403151.063 1     -3275.598          43.000  
G25  18771680.046 1  98645842.061 1       973.725          48.000  
G28  21812961.963 1 114627916.861 1      3432.947          38.000  
G32  20946572.979 1 110074982.659 1      -452.797          44.000  
G29  21503923.092 1 113003867.653 1      3625.784          41.000  
E05  22791364.547 1 119769435.112 1     -2063.966          41.000  
E03  24165521.276 1 126990691.198 1       518.637          41.000  
G31  23860723.691 2 125388931.098 1      3907.794          38.000  
G03  24267780.854 2 127528058.072 1       197.323          36.000  
E25  23714301.974 1 124619508.396 1      2092.545          43.000  
E24  22358802.303 1 117496312.301 1      -238.545          45.000  
E10  26299174.912 1 138203109.514 1      3381.557          41.000  
> 2023 11 17 17 51 20.9960000  0 15                     
G06  22374786.312 1 117580311.663 1      -212.616          39.000  
G11  22349089.400 1 117445242.790 1      1892.611          44.000  
G12  19663733.536 1 103333609.208 1     -1469.696          47.000  
G24  22531992.549 1 118406426.853 1     -3275.507          41.000  
G25  18771494.742 1  98644868.370 1       973.911          48.000  
G28  21812308.662 1 114624483.464 1      3433.519          38.000  
G32  20946659.358 1 110075435.969 1      -453.278          44.000  
G29  21503233.197 1 113000242.287 1      3625.542          41.000  
E05  22791757.125 1 119771498.957 1     -2063.503          40.000  
E03  24165422.543 1 126990172.487 1       518.971          41.000  
G31  23859979.823 1 125385022.937 1      3908.606          38.000  
G03  24267743.563 2 127527861.475 1       196.398          35.000  
E25  23713903.917 1 124617415.807 1      2092.941          43.000  
E24  22358847.482 1 117496550.857 1      -238.334          45.000  
E10  26298531.261 1 138199727.795 1      3382.240          40.000  
> 2023 11 17 17 51 21.9960000  0 15                     
G06  22374827.267 1 117580524.692 1      -212.719          39.000  
G11  22348729.472 1 117443350.784 1      1892.292          43.000  
G12  19664013.089 1 103335079.486 1     -1470.050          46.000  
G24  22532615.905 1 118409702.732 1     -3275.427          43.000  
G25  18771309.909 1  98643895.072 1       973.454          48.000  
G28  21811654.959 1 114621050.244 1      3433.197          38.000  
G32  20946745.387 1 110075889.827 1      -453.661          45.000  
G29  21502543.059 1 112996617.174 1      3625.344          41.000  
E05  22792150.017 1 119773563.093 1     -2063.624          41.000  
E03  24165323.879 1 126989654.214 1       518.356          41.000  
G31  23859236.409 2 125381114.744 1      3908.497          38.000  
G03  24267706.097 2 127527665.382 1       196.472          35.000  
E25  23713505.791 1 124615323.326 1      2092.570          43.000  
E24  22358892.730 1 117496789.556 1      -238.626          45.000  
E10  26297887.575 1 138196346.107 1      3382.112          41.000  
> 2023 11 17 17 51 22.9960000  0 15                     
G06  22374868.014 1 117580738.121 1      -214.059          38.000  
G11  22348369.579 1 117441459.077 1      1891.147          43.000  
G12  19664292.833 1 103336549.851 1     -1470.850          46.000  
G24  22533239.140 1 118412978.472 1     -3276.300          42.000  
G25  18771124.483 1  98642921.953 1       972.513          48.000  
G28  21811001.536 1 114617616.927 1      3433.033          38.000  
G32  20946831.713 1 110076344.073 1      -454.907          45.000  
G29  21501853.391 1 112992992.092 1      3624.724          42.000  
E05  22792542.926 1 119775627.256 1     -2064.748          41.000  
E03  24165225.408 1 126989136.155 1       517.278          41.000  
G31  23858493.047 1 125377206.327 1      3908.028          38.000  
G03  24267668.981 2 127527469.703 1       194.831          35.000  
E25  23713107.524 1 124613230.715 1      2092.030          42.000  
E24  22358938.205 1 117497028.173 1      -239.139          45.000  
E10  26297244.430 1 138192964.187 1      3381.463          41.000  
> 2023 11 17 17 51 23.9960000  0 15                     
G06  22374909.004 1 117580952.417 1      -214.592          39.000  
G11  22348010.314 1 117439568.109 1      1890.212          43.000  
G12  19664572.630 1 103338020.824 1     -1471.698          46.000  
G24  22533862.165 1 118416254.591 1     -3276.617          42.000  
G25  18770939.494 1  98641949.520 1       971.798          48.000  
G28  21810348.374 1 114614184.122 1      3431.903          38.000  
G32  20946918.179 1 110076799.180 1      -455.958          45.000  
G29  21501163.636 1 112989367.565 1      3623.904          42.000  
E05  22792935.556 1 119777691.938 1     -2065.283          41.000  
E03  24165126.779 1 126988618.780 1       516.618          41.000  
G31  23857749.493 2 125373298.191 1      3907.326          38.000  
G03  24267632.039 2 127527274.845 1       193.941          35.000  
E25  23712708.996 1 124611138.498 1      2091.646          42.000  
E24  22358983.768 1 117497267.283 1      -239.728          45.000  
E10  26296600.761 1 138189582.597 1      3380.989          41.000  
> 2023 11 17 17 51 24.9960000  0 15                     
G06  22374949.803 1 117581167.234 1      -214.803          39.000  
G11  22347650.665 1 117437677.509 1      1890.375          43.000  
G12  19664852.392 1 103339492.001 1     -1471.271          46.000  
G24  22534485.592 1 118419530.752 1     -3276.447          42.000  
G25  18770754.626 1  98640977.406 1       971.780          48.000  
G28  21809695.213 2 114610751.340 1      3432.782          38.000  
G32  20947005.081 1 110077254.795 1      -456.041          45.000  
G29  21500473.794 1 112985743.200 1      3624.227          42.000  
E05  22793328.151 1 119779756.789 1     -2064.941          41.000  
E03  24165028.499 1 126988101.767 1       516.720          41.000  
G31  23857006.096 2 125369389.940 1      3908.313          38.000  
G03  24267595.271 2 127527080.482 1       193.988          35.000  
E25  23712311.131 1 124609046.301 1      2091.847          43.000  
E24  22359029.121 1 117497506.442 1      -239.297          45.000  
E10  26295957.005 1 138186200.930 1      3381.317          41.000  
> 2023 11 17 17 51 25.9960000  0 15                     
G06  22374991.073 1 117581382.525 1      -215.517          39.000  
G11  22347291.120 1 117435787.236 1      1890.369          43.000  
G12  19665132.503 1 103340963.344 1     -1471.283          46.000  
G24  22535109.018 1 118422806.874 1     -3276.184          42.000  
G25  18770569.933 1  98640005.548 1       971.761          48.000  
G28  21809041.859 1 114607318.575 1      3433.124          38.000  
G32  20947091.914 1 110077710.840 1      -456.285          45.000  
G29  21499784.162 1 112982118.960 1      3624.277          42.000  
E05  22793720.955 1 119781821.732 1     -2064.785          41.000  
E03  24164930.010 1 126987585.032 1       516.765          41.000  
G31  23856262.822 1 125365481.558 1      3908.487          38.000  
G03  24267558.085 2 127526886.528 1       193.539          35.000  
E25  23711912.882 1 124606954.044 1      2092.389          43.000  
E24  22359074.317 1 117497745.622 1      -239.058          45.000  
E10  26295313.546 1 138182819.126 1      3382.016          41.000  
> 2023 11 17 17 51 26.9960000  0 15                     
G06  22375032.377 1 117581598.538 1      -216.332          39.000  
G11  22346931.471 1 117433897.623 1      1889.043          43.000  
G12  19665412.614 1 103342435.155 1     -1472.278          46.000  
G24  22535732.218 1 118426083.258 1     -3276.678          42.000  
G25  18770385.187 1  98639034.249 1       970.748          48.000  
G28  21808388.680 1 114603886.157 1      3431.841          38.000  
G32  20947178.885 1 110078167.630 1      -457.446          45.000  
G29  21499094.669 1 112978495.142 1      3623.253          42.000  
E05  22794114.004 1 119783887.091 1     -2065.800          41.000  
E03  24164831.731 1 126987068.910 1       515.188          41.000  
G31  23855519.233 1 125361573.326 1      3907.701          38.000  
G03  24267521.317 2 127526693.283 1       192.808          35.000  
E25  23711514.791 1 124604862.055 1      2091.703          43.000  
E24  22359119.810 1 117497985.130 1      -239.924          45.000  
E10  26294670.418 1 138179437.538 1      3381.056          41.000  
> 2023 11 17 17 51 27.9960000  0 15                     
G06  22375074.013 1 117581815.241 1      -217.109          39.000  
G11  22346571.927 1 117432008.541 1      1888.694          44.000  
G12  19665692.795 1 103343907.337 1     -1472.546          46.000  
G24  22536355.696 1 118429359.814 1     -3276.605          42.000  
G25  18770200.477 1  98638063.413 1       970.615          48.000  
G28  21807735.431 1 114600453.930 1      3432.223          38.000  
G32  20947265.997 1 110078625.066 1      -457.883          45.000  
G29  21498405.228 1 112974871.635 1      3623.318          42.000  
E05  22794507.192 1 119785952.767 1     -2066.311          41.000  
E03  24164733.695 1 126986553.242 1       515.304          41.000  
G31  23854775.976 1 125357665.136 1      3908.483          38.000  
G03  24267484.706 2 127526500.713 1       192.157          35.000  
E25  23711116.716 1 124602770.230 1      2091.762          43.000  
E24  22359165.494 1 117498224.847 1      -239.803          45.000  
E10  26294026.836 1 138176055.994 1      3381.416          41.000  
> 2023 11 17 17 51 28.9960000  0 15                     
G06  22375115.562 1 117582032.527 1      -217.382          40.000  
G11  22346212.749 1 117430119.924 1      1888.409          44.000  
G12  19665972.958 1 103345379.810 1     -1472.436          46.000  
G24  22536979.454 1 118432636.483 1     -3276.697          42.000  
G25  18770015.801 1  98637092.983 1       970.284          48.000  
G28  21807082.444 1 114597021.867 1      3432.301          38.000  
G32  20947353.492 1 110079083.093 1      -458.198          45.000  
G29  21497715.857 1 112971248.396 1      3623.377          42.000  
E05  22794900.398 1 119788018.659 1     -2065.833          41.000  
E03  24164635.538 1 126986038.009 1       515.360          41.000  
G31  23854032.248 1 125353756.952 1      3908.508          38.000  
G03  24267448.096 2 127526308.697 1       191.479          35.000  
E25  23710718.467 1 124600678.506 1      2091.791          43.000  
E24  22359210.900 1 117498464.743 1      -239.873          45.000  
E10  26293383.342 1 138172674.489 1      3381.646          41.000  
> 2023 11 17 17 51 29.9960000  0 15                     
G06  22375157.425 1 117582250.786 1      -218.449          40.000  
G11  22345853.432 1 117428232.142 1      1887.468          44.000  
G12  19666253.243 1 103346852.963 1     -1473.248          46.000  
G24  22537603.143 1 118435913.608 1     -3277.173          42.000  
G25  18769831.352 1  98636123.305 1       969.502          48.000  
G28  21806429.439 1 114593590.326 1      3431.574          38.000  
G32  20947440.988 1 110079542.069 1      -459.219          45.000  
G29  21497026.452 1 112967625.765 1      3622.645          42.000  
E05  22795293.377 1 119790085.181 1     -2066.884          41.000  
E03  24164537.869 1 126985523.581 1       514.372          41.000  
G31  23853288.572 2 125349849.105 1      3907.866          38.000  
G03  24267411.590 2 127526117.594 1       190.345          35.000  
E25  23710320.794 1 124598587.256 1      2091.055          43.000  
E24  22359256.707 1 117498705.152 1      -240.482          45.000  
E10  26292739.953 1 138169293.384 1      3380.992          41.000  
> 2023 11 17 17 51 30.9960000  0 15                     
G06  22375199.131 1 117582469.513 1      -218.756          40.000  
G11  22345494.289 1 117426344.726 1      1887.316          44.000  
G12  19666533.598 1 103348326.337 1     -1473.382          46.000  
G24  22538227.110 1 118439190.740 1     -3277.130          42.000  
G25  18769646.799 1  98635153.923 1       969.170          48.000  
G28  21805776.557 1 114590158.817 1      3431.656          38.000  
G32  20947528.640 1 110080001.517 1      -459.644          45.000  
G29  21496337.238 1 112964003.291 1      3622.828          42.000  
E05  22795686.390 1 119792151.814 1     -2066.366          41.000  
E03  24164439.869 1 126985009.472 1       513.980          41.000  
G31  23852544.878 1 125345941.173 1      3907.880          37.000  
G03  24267375.171 2 127525926.923 1       190.823          35.000  
E25  23709922.580 1 124596495.982 1      2091.259          43.000  
E24  22359302.461 1 117498945.604 1      -240.276          45.000  
E10  26292096.807 1 138165912.168 1      3381.372          41.000  
> 2023 11 17 17 51 31.9960000  0 15                     
G06  22375240.803 1 117582688.694 1      -219.416          40.000  
G11  22345134.902 1 117424457.641 1      1886.729          44.000  
G12  19666814.006 1 103349799.865 1     -1473.633          46.000  
G24  22538850.886 1 118442467.819 1     -3277.087          42.000  
G25  18769462.106 1  98634184.785 1       968.944          48.000  
G28  21805123.709 1 114586727.336 1      3431.499          38.000  
G32  20947616.275 1 110080461.397 1      -460.102          45.000  
G29  21495647.989 1 112960380.936 1      3622.220          42.000  
E05  22796079.998 1 119794218.571 1     -2066.886          41.000  
E03  24164342.584 1 126984495.619 1       513.815          41.000  
G31  23851801.185 1 125342033.028 1      3908.158          38.000  
G03  24267338.945 2 127525736.715 1       189.893          35.000  
E25  23709524.663 1 124594404.660 1      2091.322          43.000  
E24  22359348.285 1 117499186.065 1      -240.592          45.000  
E10  26291453.208 1 138162530.827 1      3381.354          41.000  
> 2023 11 17 17 51 32.9960000  0 15                     
G06  22375282.927 1 117582908.497 1      -219.805          40.000  
G11  22344775.829 1 117422571.030 1      1886.553          44.000  
G12  19667094.518 1 103351273.712 1     -1473.718          46.000  
G24  22539474.574 1 118445745.018 1     -3277.197          42.000  
G25  18769277.605 1  98633216.066 1       968.819          48.000  
G28  21804470.583 1 114583296.017 1      3431.413          38.000  
G32  20947703.945 1 110080921.888 1      -460.588          45.000  
G29  21494958.793 1 112956758.840 1      3622.302          42.000  
E05  22796473.291 1 119796285.578 1     -2066.742          41.000  
E03  24164245.020 1 126983982.244 1       513.362          41.000  
G31  23851058.033 2 125338124.894 1      3908.510          37.000  
G03  24267302.875 2 127525547.091 1       189.301          35.000  
E25  23709126.746 1 124592313.457 1      2091.397          43.000  
E24  22359394.179 1 117499426.724 1      -240.588          45.000  
E10  26290809.836 1 138159149.533 1      3381.607          41.000  
> 2023 11 17 17 51 33.9960000  0 15                     
G06  22375324.756 1 117583128.744 1      -220.746          40.000  
G11  22344416.843 1 117420684.757 1      1885.869          44.000  
G12  19667375.048 1 103352747.754 1     -1474.390          46.000  
G24  22540098.122 1 118449022.183 1     -3277.246          43.000  
G25  18769093.348 1  98632247.609 1       968.133          48.000  
G28  21803817.700 1 114579864.712 1      3431.231          38.000  
G32  20947791.772 1 110081382.817 1      -461.430          45.000  
G29  21494269.579 1 112953136.867 1      3621.708          42.000  
E05  22796866.845 1 119798352.692 1     -2067.563          41.000  
E03  24164147.438 1 126983469.130 1       512.874          41.000  
G31  23850314.304 2 125334216.604 1      3908.686          37.000  
G03  24267266.701 2 127525357.850 1       188.721          35.000  
E25  23708728.828 1 124590222.205 1      2090.961          43.000  
E24  22359439.847 1 117499667.369 1      -240.941          45.000  
E10  26290166.237 1 138155768.118 1      3381.177          41.000  
> 2023 11 17 17 51 34.9960000  0 15                     
G06  22375366.915 1 117583349.600 1      -221.243          40.000  
G11  22344057.944 1 117418798.962 1      1885.761          43.000  
G12  19667655.752 1 103354222.102 1     -1474.255          46.000  
G24  22540721.758 1 118452299.464 1     -3277.081          42.000  
G25  18768908.829 1  98631279.562 1       967.905          48.000  
G28  21803165.062 1 114576433.580 1      3431.271          38.000  
G32  20947879.599 1 110081844.341 1      -461.851          45.000  
G29  21493580.522 1 112949515.173 1      3621.660          42.000  
E05  22797260.191 1 119800420.048 1     -2067.223          41.000  
E03  24164049.839 1 126982956.458 1       512.606          41.000  
G31  23849570.489 2 125330308.355 1      3908.426          37.000  
G03  24267230.841 2 127525169.210 1       188.438          35.000  
E25  23708331.086 1 124588131.063 1      2091.535          43.000  
E24  22359485.898 1 117499908.202 1      -240.780          45.000  
E10  26289522.883 1 138152386.723 1      3381.524          42.000  
> 2023 11 17 17 51 35.9960000  0 15                     
G06  22375409.197 1 117583570.919 1      -221.719          40.000  
G11  22343699.133 1 117416913.524 1      1885.215          43.000  
G12  19667936.352 1 103355696.631 1     -1474.658          46.000  
G24  22541345.534 1 118455576.742 1     -3277.441          43.000  
G25  18768724.886 1  98630311.791 1       967.510          48.000  
G28  21802512.127 1 114573002.479 1      3430.592          38.000  
G32  20947967.234 1 110082306.316 1      -462.253          45.000  
G29  21492891.535 1 112945893.633 1      3621.386          42.000  
E05  22797653.536 1 119802487.521 1     -2067.580          41.000  
E03  24163951.943 1 126982444.097 1       511.925          40.000  
G31  23848826.726 1 125326399.954 1      3908.196          37.000  
G03  24267194.963 2 127524980.986 1       188.156          35.000  
E25  23707933.447 1 124586039.915 1      2091.064          43.000  
E24  22359531.495 1 117500149.091 1      -240.976          45.000  
E10  26288879.877 1 138149005.226 1      3381.422          41.000  
> 2023 11 17 17 51 36.9960000  0 15                     
G06  22375451.235 1 117583792.819 1      -222.131          40.000  
G11  22343340.723 1 117415028.520 1      1884.870          43.000  
G12  19668216.846 1 103357171.430 1     -1474.884          46.000  
G24  22541969.414 1 118458854.081 1     -3277.405          43.000  
G25  18768540.647 1  98629344.375 1       967.233          48.000  
G28  21801859.472 1 114569571.495 1      3430.921          38.000  
G32  20948055.218 1 110082768.847 1      -462.758          45.000  
G29  21492202.478 1 112942272.310 1      3621.232          42.000  
E05  22798046.829 1 119804555.222 1     -2067.917          41.000  
E03  24163854.588 1 126981932.128 1       511.665          40.000  
G31  23848083.050 2 125322491.498 1      3908.473          37.000  
G03  24267159.085 2 127524793.320 1       187.855          34.000  
E25  23707535.565 1 124583948.831 1      2090.838          43.000  
E24  22359577.581 1 117500390.089 1      -241.111          45.000  
E10  26288235.999 1 138145623.722 1      3381.505          41.000  
> 2023 11 17 17 51 37.9960000  0 15                     
G06  22375493.429 1 117584015.316 1      -223.211          40.000  
G11  22342982.033 1 117413143.999 1      1884.289          43.000  
G12  19668497.900 1 103358646.529 1     -1475.317          46.000  
G24  22542592.823 1 118462131.513 1     -3277.429          43.000  
G25  18768356.512 1  98628377.367 1       966.913          47.000  
G28  21801206.537 1 114566140.655 1      3430.807          39.000  
G32  20948143.219 1 110083231.967 1      -463.335          45.000  
G29  21491513.666 1 112938651.236 1      3620.997          42.000  
E05  22798440.454 1 119806623.151 1     -2068.067          41.000  
E03  24163757.652 1 126981420.588 1       511.275          40.000  
G31  23847339.164 1 125318583.013 1      3908.798          37.000  
G03  24267123.417 2 127524606.205 1       187.078          34.000  
E25  23707137.491 1 124581857.832 1      2090.893          43.000  
E24  22359623.650 1 117500631.222 1      -241.170          45.000  
E10  26287592.348 1 138142242.233 1      3381.623          41.000  
> 2023 11 17 17 51 38.9960000  0 15                     
G06  22375535.799 1 117584238.493 1      -223.476          40.000  
G11  22342623.449 1 117411260.066 1      1883.500          43.000  
G12  19668778.586 1 103360122.042 1     -1475.635          46.000  
G24  22543216.703 1 118465409.183 1     -3277.863          43.000  
G25  18768172.378 1  98627410.875 1       966.308          47.000  
G28  21800554.160 1 114562710.119 1      3430.388          39.000  
G32  20948231.238 1 110083695.796 1      -464.418          45.000  
G29  21490824.854 1 112935030.568 1      3620.286          42.000  
E05  22798834.026 1 119808691.449 1     -2068.508          41.000  
E03  24163660.210 1 126980909.589 1       510.572          40.000  
G31  23846595.454 2 125314674.669 1      3908.661          37.000  
G03  24267087.958 2 127524419.793 1       185.999          34.000  
E25  23706739.626 1 124579767.046 1      2090.618          43.000  
E24  22359669.753 1 117500872.656 1      -241.655          45.000  
E10  26286948.958 1 138138860.900 1      3381.243          41.000  
> 2023 11 17 17 51 39.9960000  0 15                     
G06  22375578.011 1 117584462.168 1      -224.413          40.000  
G11  22342265.109 1 117409376.465 1      1883.103          43.000  
G12  19669059.727 1 103361597.740 1     -1476.062          46.000  
G24  22543840.740 1 118468686.813 1     -3277.740          43.000  
G25  18767988.505 1  98626444.647 1       965.865          47.000  
G28  21799901.383 1 114559279.600 1      3430.170          39.000  
G32  20948319.397 1 110084160.062 1      -464.701          45.000  
G29  21490136.041 1 112931409.999 1      3620.175          42.000  
E05  22799227.633 1 119810759.858 1     -2068.700          41.000  
E03  24163563.117 1 126980398.894 1       510.167          40.000  
G31  23845851.621 2 125310766.174 1      3908.328          37.000  
G03  24267052.465 2 127524233.772 1       185.637          34.000  
E25  23706341.447 1 124577676.234 1      2090.551          43.000  
E24  22359715.508 1 117501114.132 1      -241.720          45.000  
E10  26286305.499 1 138135479.448 1      3381.192          41.000  
> 2023 11 17 17 51 40.9960000  0 15                     
G06  22375620.345 1 117584686.402 1      -224.902          40.000  
G11  22341906.821 1 117407493.319 1      1882.711          43.000  
G12  19669340.675 1 103363073.719 1     -1476.617          46.000  
G24  22544464.656 1 118471964.542 1     -3277.997          43.000  
G25  18767804.614 1  98625478.797 1       965.376          47.000  
G28  21799248.605 1 114555849.223 1      3429.822          38.000  
G32  20948407.590 1 110084624.888 1      -465.432          45.000  
G29  21489447.386 1 112927789.669 1      3619.702          43.000  
E05  22799621.641 1 119812828.491 1     -2069.042          41.000  
E03  24163465.902 1 126979888.589 1       509.803          40.000  
G31  23845108.119 2 125306857.637 1      3908.283          37.000  
G03  24267017.407 2 127524048.340 1       184.653          34.000  
E25  23705943.634 1 124575585.491 1      2090.423          43.000  
E24  22359761.541 1 117501355.730 1      -241.883          45.000  
E10  26285662.441 1 138132097.984 1      3381.336          41.000  
> 2023 11 17 17 51 41.9960000  0 15                     
G06  22375663.220 1 117584911.339 1      -225.504          40.000  
G11  22341548.393 1 117405610.761 1      1882.144          43.000  
G12  19669621.432 1 103364550.093 1     -1476.617          46.000  
G24  22545088.361 1 118475242.474 1     -3278.094          43.000  
G25  18767621.108 1  98624513.468 1       964.869          47.000  
G28  21798595.862 1 114552419.077 1      3430.020          38.000  
G32  20948496.464 1 110085090.424 1      -466.080          45.000  
G29  21488758.852 1 112924169.712 1      3619.679          43.000  
E05  22800015.650 1 119814897.469 1     -2069.112          41.000  
E03  24163368.774 1 126979378.838 1       509.339          40.000  
G31  23844364.810 1 125302949.205 1      3908.170          37.000  
G03  24266982.297 2 127523863.554 1       184.349          35.000  
E25  23705545.595 1 124573494.975 1      2090.306          43.000  
E24  22359807.889 1 117501597.599 1      -242.057          45.000  
E10  26285018.702 1 138128716.672 1      3381.234          41.000  
> 2023 11 17 17 51 42.9960000  0 15                     
G06  22375705.589 1 117585136.949 1      -225.777          40.000  
G11  22341190.245 1 117403728.733 1      1882.091          43.000  
G12  19669902.188 1 103366026.834 1     -1476.654          46.000  
G24  22545712.137 1 118478520.575 1     -3277.930          43.000  
G25  18767437.322 1  98623548.581 1       964.895          47.000  
G28  21797943.381 1 114548989.165 1      3430.346          39.000  
G32  20948585.041 1 110085556.587 1      -466.268          45.000  
G29  21488069.883 1 112920550.065 1      3619.732          42.000  
E05  22800409.309 1 119816966.752 1     -2069.018          41.000  
E03  24163271.524 1 126978869.560 1       509.185          40.000  
G31  23843621.099 1 125299040.824 1      3908.717          37.000  
G03  24266947.257 2 127523679.396 1       184.083          35.000  
E25  23705147.538 1 124571404.608 1      2090.548          43.000  
E24  22359853.783 1 117501839.683 1      -241.858          45.000  
E10  26284375.435 1 138125335.440 1      3381.314          41.000  
> 2023 11 17 17 51 43.9960000  0 15                     
G06  22375748.621 1 117585363.058 1      -226.706          40.000  
G11  22340832.341 1 117401847.090 1      1881.415          43.000  
G12  19670183.102 1 103367503.795 1     -1477.386          46.000  
G24  22546336.017 1 118481798.697 1     -3278.693          43.000  
G25  18767253.467 1  98622584.016 1       964.218          47.000  
G28  21797290.690 1 114545559.340 1      3429.585          39.000  
G32  20948674.055 1 110086023.249 1      -467.048          45.000  
G29  21487381.210 1 112916930.584 1      3619.243          42.000  
E05  22800803.353 1 119819036.191 1     -2069.629          41.000  
E03  24163174.955 1 126978360.629 1       508.304          40.000  
G31  23842877.371 1 125295132.328 1      3908.253          37.000  
G03  24266912.200 2 127523495.725 1       183.631          35.000  
E25  23704749.777 1 124569314.255 1      2090.069          43.000  
E24  22359899.834 1 117502081.843 1      -242.321          45.000  
E10  26283732.272 1 138121954.113 1      3381.434          41.000  
> 2023 11 17 17 51 44.9960000  0 15                     
G06  22375791.741 1 117585589.944 1      -227.161          40.000  
G11  22340474.647 1 117399966.097 1      1880.736          44.000  
G12  19670464.347 1 103368981.217 1     -1477.545          46.000  
G24  22546960.019 1 118485077.079 1     -3278.558          43.000  
G25  18767069.838 1  98621620.017 1       963.767          47.000  
G28  21796637.913 1 114542129.821 1      3429.676          38.000  
G32  20948763.138 1 110086490.684 1      -467.874          45.000  
G29  21486692.450 1 112913311.544 1      3618.832          42.000  
E05  22801197.466 1 119821106.054 1     -2070.246          41.000  
E03  24163078.368 1 126977852.278 1       508.147          40.000  
G31  23842133.869 1 125291223.989 1      3908.736          37.000  
G03  24266877.282 2 127523312.788 1       182.665          35.000  
E25  23704352.279 1 124567224.177 1      2089.842          43.000  
E24  22359945.955 1 117502324.337 1      -242.670          45.000  
E10  26283088.796 1 138118573.018 1      3381.010          41.000  
> 2023 11 17 17 51 45.9960000  0 15                     
G06  22375834.738 1 117585817.562 1      -228.006          40.000  
G11  22340116.830 1 117398085.731 1      1880.102          44.000  
G12  19670745.243 1 103370459.105 1     -1478.125          46.000  
G24  22547583.847 1 118488355.720 1     -3278.644          43.000  
G25  18766886.838 1  98620656.563 1       963.296          47.000  
G28  21795985.414 1 114538700.627 1      3428.977          38.000  
G32  20948852.344 1 110086958.818 1      -468.409          45.000  
G29  21486003.585 1 112909692.914 1      3618.407          42.000  
E05  22801591.666 1 119823176.307 1     -2070.525          41.000  
E03  24162981.711 1 126977344.545 1       507.371          40.000  
G31  23841390.298 2 125287315.800 1      3908.458          37.000  
G03  24266842.835 2 127523130.580 1       182.117          35.000  
E25  23703954.396 1 124565134.337 1      2089.676          43.000  
E24  22359992.233 1 117502567.136 1      -242.864          46.000  
E10  26282445.441 1 138115192.070 1      3381.123          41.000  
> 2023 11 17 17 51 46.9960000  0 15                     
G06  22375878.311 1 117586045.958 1      -228.860          40.000  
G11  22339758.978 1 117396206.009 1      1879.270          44.000  
G12  19671026.506 1 103371937.467 1     -1478.668          46.000  
G24  22548207.797 1 118491634.646 1     -3279.034          44.000  
G25  18766703.453 1  98619693.694 1       962.724          47.000  
G28  21795332.619 1 114535271.769 1      3428.293          38.000  
G32  20948941.706 1 110087427.737 1      -469.427          45.000  
G29  21485315.087 1 112906074.709 1      3617.806          42.000  
E05  22801985.779 1 119825246.974 1     -2071.013          41.000  
E03  24162885.543 1 126976837.372 1       506.823          40.000  
G31  23840646.343 1 125283407.791 1      3907.971          37.000  
G03  24266808.510 2 127522949.117 1       180.940          36.000  
E25  23703556.601 1 124563044.768 1      2089.465          43.000  
E24  22360038.564 1 117502810.250 1      -243.343          46.000  
E10  26281802.470 1 138111811.324 1      3380.697          41.000  
> 2023 11 17 17 51 47.9960000  0 15                     
G06  22375922.077 1 117586274.792 1      -229.218          40.000  
G11  22339401.633 1 117394326.597 1      1879.282          44.000  
G12  19671307.769 1 103373415.974 1     -1478.558          46.000  
G24  22548831.625 1 118494913.523 1     -3278.875          44.000  
G25  18766520.313 1  98618731.064 1       962.523          47.000  
G28  21794679.859 1 114531842.888 1      3428.890          38.000  
G32  20949030.929 1 110087897.076 1      -469.437          45.000  
G29  21484626.222 1 112902456.620 1      3617.835          42.000  
E05  22802380.172 1 119827317.738 1     -2070.921          41.000  
E03  24162788.904 1 126976330.493 1       506.721          40.000  
G31  23839902.475 2 125279499.598 1      3908.385          37.000  
G03  24266774.326 2 127522768.072 1       180.469          36.000  
E25  23703159.085 1 124560955.163 1      2089.570          43.000  
E24  22360084.719 1 117503053.403 1      -243.031          46.000  
E10  26281159.133 1 138108430.445 1      3380.998          41.000  
> 2023 11 17 17 51 48.9960000  0 15                     
G06  22375965.248 1 117586504.135 1      -229.745          40.000  
G11  22339043.973 1 117392447.566 1      1878.918          44.000  
G12  19671589.328 1 103374894.693 1     -1478.668          46.000  
G24  22549455.540 1 118498192.402 1     -3278.875          43.000  
G25  18766337.068 1  98617768.745 1       962.287          47.000  
G28  21794027.604 1 114528414.102 1      3428.631          39.000  
G32  20949120.362 1 110088366.905 1      -470.323          45.000  
G29  21483937.602 1 112898838.665 1      3617.827          42.000  
E05  22802774.407 1 119829388.642 1     -2071.114          41.000  
E03  24162692.491 1 126975823.948 1       506.269          40.000  
G31  23839158.747 2 125275591.328 1      3907.930          37.000  
G03  24266739.739 2 127522587.468 1       180.318          36.000  
E25  23702761.692 1 124558865.546 1      2089.724          43.000  
E24  22360131.154 1 117503296.608 1      -243.291          46.000  
E10  26280515.464 1 138105049.501 1      3381.010          41.000  
> 2023 11 17 17 51 49.9960000  0 15                     
G06  22376009.014 1 117586733.926 1      -230.484          40.000  
G11  22338686.435 1 117390568.867 1      1878.573          44.000  
G12  19671870.939 1 103376373.581 1     -1479.138          46.000  
G24  22550079.420 1 118501471.240 1     -3278.979          43.000  
G25  18766153.911 1  98616806.666 1       961.828          47.000  
G28  21793375.280 1 114524985.292 1      3428.929          38.000  
G32  20949209.951 1 110088837.161 1      -470.429          45.000  
G29  21483248.702 1 112895220.841 1      3617.704          42.000  
E05  22803168.311 1 119831459.630 1     -2071.028          41.000  
E03  24162596.166 1 126975317.679 1       505.896          40.000  
G31  23838415.280 2 125271682.855 1      3908.373          37.000  
G03  24266705.240 2 127522407.315 1       179.606          36.000  
E25  23702364.193 1 124556775.891 1      2089.583          43.000  
E24  22360177.380 1 117503539.823 1      -243.395          46.000  
E10  26279872.075 1 138101668.419 1      3381.042          41.000  
> 2023 11 17 17 51 50.9960000  0 15                     
G06  22376052.744 1 117586964.444 1      -230.728          40.000  
G11  22338329.230 1 117388690.799 1      1877.901          44.000  
G12  19672152.499 1 103377852.916 1     -1479.364          46.000  
G24  22550703.492 1 118504750.349 1     -3279.205          43.000  
G25  18765970.701 1  98615845.157 1       961.293          47.000  
G28  21792722.869 1 114521556.832 1      3428.445          38.000  
G32  20949299.767 1 110089308.162 1      -471.151          45.000  
G29  21482560.378 1 112891603.437 1      3617.300          42.000  
E05  22803562.616 1 119833531.022 1     -2071.310          41.000  
E03  24162500.068 1 126974811.977 1       505.625          40.000  
G31  23837671.796 2 125267774.546 1      3908.559          37.000  
G03  24266670.933 2 127522227.845 1       179.438          35.000  
E25  23701966.537 1 124554686.481 1      2089.458          43.000  
E24  22360223.588 1 117503783.344 1      -243.288          46.000  
E10  26279228.650 1 138098287.525 1      3381.110          41.000  
> 2023 11 17 17 51 51.9960000  0 15                     
G06  22376096.596 1 117587195.199 1      -230.760          40.000  
G11  22337971.622 1 117386812.826 1      1877.893          44.000  
G12  19672433.744 1 103379332.175 1     -1479.279          46.000  
G24  22551327.460 1 118508029.174 1     -3278.729          43.000  
G25  18765787.509 1  98614883.648 1       961.564          47.000  
G28  21792070.196 1 114518128.117 1      3428.723          38.000  
G32  20949389.619 1 110089779.387 1      -471.423          45.000  
G29  21481872.142 1 112887985.904 1      3617.530          42.000  
E05  22803957.183 1 119835602.285 1     -2071.330          41.000  
E03  24162403.673 1 126974306.349 1       505.458          40.000  
G31  23836928.347 2 125263865.876 1      3908.881          37.000  
G03  24266636.608 2 127522048.565 1       178.829          35.000  
E25  23701568.899 1 124552596.790 1      2089.835          43.000  
E24  22360269.866 1 117504026.659 1      -243.237          46.000  
E10  26278584.947 1 138094906.265 1      3381.496          41.000  
> 2023 11 17 17 51 52.9960000  0 15                     
G06  22376140.641 1 117587426.705 1      -231.837          40.000  
G11  22337614.294 1 117384935.479 1      1877.123          44.000  
G12  19672715.565 1 103380811.891 1     -1479.742          46.000  
G24  22551951.253 1 118511308.261 1     -3279.260          43.000  
G25  18765604.473 1  98613922.709 1       960.698          47.000  
G28  21791417.802 1 114514699.744 1      3427.821          38.000  
G32  20949479.487 1 110090251.327 1      -472.241          45.000  
G29  21481183.783 1 112884368.795 1      3616.701          42.000  
E05  22804350.738 1 119837673.951 1     -2071.948          41.000  
E03  24162307.417 1 126973801.281 1       504.940          40.000  
G31  23836184.619 2 125259957.333 1      3908.417          37.000  
G03  24266602.389 2 127521870.010 1       178.562          35.000  
E25  23701171.261 1 124550507.369 1      2089.380          43.000  
E24  22360316.476 1 117504270.278 1      -243.669          46.000  
E10  26277941.104 1 138091525.200 1      3380.810          41.000  
> 2023 11 17 17 51 53.9960000  0 15                     
G06  22376184.528 1 117587658.585 1      -231.716          39.000  
G11  22337257.158 1 117383058.383 1      1877.378          44.000  
G12  19672997.316 1 103382291.695 1     -1479.755          46.000  
G24  22552575.011 1 118514587.225 1     -3278.680          43.000  
G25  18765421.613 1  98612961.937 1       960.900          47.000  
G28  21790765.408 2 114511271.279 1      3428.769          38.000  
G32  20949569.321 1 110090723.642 1      -472.117          45.000  
G29  21480495.337 1 112880751.711 1      3617.316          42.000  
E05  22804744.519 1 119839745.628 1     -2071.459          41.000  
E03  24162211.005 1 126973296.436 1       505.071          40.000  
G31  23835441.013 2 125256048.542 1      3909.202          37.000  
G03  24266568.378 2 127521691.790 1       178.316          35.000  
E25  23700773.606 1 124548417.815 1      2089.917          43.000  
E24  22360362.562 1 117504513.847 1      -243.311          46.000  
E10  26277297.679 1 138088143.910 1      3381.709          41.000  
> 2023 11 17 17 51 54.9960000  0 15                     
G06  22376228.834 1 117587891.130 1      -233.150          40.000  
G11  22336899.952 1 117381181.841 1      1876.117          44.000  
G12  19673278.928 1 103383771.865 1     -1480.609          46.000  
G24  22553198.926 1 118517866.373 1     -3279.474          43.000  
G25  18765238.769 1  98612001.650 1       959.738          47.000  
G28  21790113.137 1 114507843.057 1      3427.802          38.000  
G32  20949659.713 1 110091196.620 1      -473.683          45.000  
G29  21479806.978 1 112877134.986 1      3616.261          42.000  
E05  22805138.947 1 119841817.634 1     -2072.632          41.000  
E03  24162115.063 1 126972792.084 1       503.888          40.000  
G31  23834697.232 2 125252139.803 1      3908.964          37.000  
G03  24266534.594 2 127521514.240 1       177.292          35.000  
E25  23700376.177 1 124546328.441 1      2089.025          43.000  
E24  22360408.979 1 117504757.619 1      -244.154          46.000  
E10  26276654.429 1 138084762.738 1      3380.845          41.000  
> 2023 11 17 17 51 55.9960000  0 15                     
G06  22376273.280 1 117588124.460 1      -232.991          39.000  
G11  22336542.798 1 117379305.962 1      1875.983          44.000  
G12  19673560.784 1 103385252.533 1     -1480.548          46.000  
G24  22553822.998 1 118521145.809 1     -3279.309          43.000  
G25  18765056.222 1  98611041.930 1       959.878          47.000  
G28  21789460.830 1 114504415.201 1      3427.801          38.000  
G32  20949749.896 1 110091670.350 1      -473.512          45.000  
G29  21479119.073 1 112873518.691 1      3616.400          42.000  
E05  22805532.885 1 119843890.058 1     -2072.201          41.000  
E03  24162019.000 1 126972288.359 1       503.759          40.000  
G31  23833953.521 2 125248231.309 1      3908.379          37.000  
G03  24266500.758 4 127521337.419 2       176.827          35.000  
E25  23699978.801 1 124544239.363 1      2089.246          43.000  
E24  22360455.746 1 117505001.781 1      -243.770          46.000  
E10  26276011.214 1 138081381.767 1      3381.364          41.000  
> 2023 11 17 17 51 56.9960000  0 15                     
G06  22376317.830 1 117588358.163 1      -234.065          40.000  
G11  22336185.715 1 117377430.323 1      1875.440          44.000  
G12  19673842.657 1 103386733.279 1     -1481.158          46.000  
G24  22554446.948 1 118524425.133 1     -3279.699          43.000  
G25  18764873.449 1  98610082.394 1       959.290          47.000  
G28  21788808.436 1 114500987.245 1      3427.833          38.000  
G32  20949840.305 1 110092144.451 1      -474.427          45.000  
G29  21478430.854 1 112869902.430 1      3616.210          42.000  
E05  22805927.155 1 119845962.492 1     -2072.635          41.000  
E03  24161923.111 1 126971784.817 1       503.387          40.000  
G31  23833209.915 2 125244322.505 1      3908.805          37.000  
G03  24266466.835 2 127521160.930 1       176.229          35.000  
E25  23699581.093 1 124542150.128 1      2089.083          42.000  
E24  22360502.513 1 117505245.857 1      -244.271          46.000  
E10  26275367.772 1 138078000.598 1      3381.061          41.000  
> 2023 11 17 17 51 57.9960000  0 15                     
G06  22376362.346 1 117588592.561 1      -234.273          39.000  
G11  22335828.893 1 117375555.264 1      1875.155          44.000  
G12  19674124.426 1 103388214.402 1     -1480.798          46.000  
G24  22555071.107 1 118527704.642 1     -3279.230          43.000  
G25  18764691.146 1  98609123.357 1       959.240          47.000  
G28  21788155.868 2 114497559.551 1      3428.090          38.000  
G32  20949930.732 1 110092619.219 1      -474.496          45.000  
G29  21477742.739 1 112866286.532 1      3616.066          42.000  
E05  22806321.216 1 119848035.286 1     -2072.768          41.000  
E03  24161827.431 1 126971281.804 1       503.251          40.000  
G31  23832466.466 2 125240413.814 1      3908.985          37.000  
G03  24266433.139 2 127520985.121 1       175.999          35.000  
E25  23699183.228 1 124540061.112 1      2089.269          42.000  
E24  22360548.773 1 117505490.187 1      -244.197          46.000  
E10  26274724.400 1 138074619.540 1      3381.350          41.000  
> 2023 11 17 17 51 58.9960000  0 15                     
G06  22376407.053 1 117588827.383 1      -235.155          40.000  
G11  22335472.332 1 117373680.514 1      1874.235          44.000  
G12  19674406.142 1 103389695.693 1     -1481.647          46.000  
G24  22555695.284 1 118530984.091 1     -3279.565          43.000  
G25  18764508.617 1  98608164.557 1       958.333          47.000  
G28  21787503.561 1 114494131.869 1      3427.378          38.000  
G32  20950021.299 1 110093094.423 1      -475.681          45.000  
G29  21477054.590 1 112862670.727 1      3615.378          42.000  
E05  22806716.045 1 119850108.150 1     -2073.433          41.000  
E03  24161731.874 1 126970779.080 1       502.044          40.000  
G31  23831722.790 2 125236504.956 1      3908.944          37.000  
G03  24266399.530 2 127520809.727 1       174.507          35.000  
E25  23698785.625 1 124537972.024 1      2088.776          42.000  
E24  22360595.505 1 117505734.519 1      -244.726          46.000  
E10  26274080.225 1 138071238.350 1      3380.947          41.000  
> 2023 11 17 17 51 59.9960000  0 15                     
G06  22376452.127 1 117589063.225 1      -236.091          40.000  
G11  22335115.737 1 117371806.659 1      1873.682          44.000  
G12  19674688.347 1 103391177.689 1     -1482.031          46.000  
G24  22556319.129 1 118534264.068 1     -3279.925          43.000  
G25  18764326.262 1  98607206.572 1       957.729          47.000  
G28  21786851.482 1 114490704.748 1      3427.088          38.000  
G32  20950111.953 1 110093570.622 1      -476.610          45.000  
G29  21476366.598 1 112859055.608 1      3614.898          42.000  
E05  22807110.490 1 119852181.660 1     -2073.646          41.000  
E03  24161636.299 1 126970277.161 1       501.885          40.000  
G31  23830979.184 2 125232596.515 1      3908.324          37.000  
G03  24266365.921 2 127520635.272 1       174.379          35.000  
E25  23698388.301 1 124535883.456 1      2088.591          42.000  
E24  22360642.097 1 117505979.411 1      -244.825          46.000  
E10  26273437.604 1 138067857.594 1      3380.896          41.000  
> 2023 11 17 17 52 00.9960000  0 15                     
G06  22376497.253 1 117589299.690 1      -236.928          40.000  
G11  22334759.561 1 117369933.289 1      1873.187          44.000  
G12  19674970.307 1 103392660.015 1     -1482.544          46.000  
G24  22556943.428 1 118537544.165 1     -3280.273          44.000  
G25  18764143.838 1  98606249.002 1       957.232          47.000  
G28  21786199.419 2 114487277.800 1      3427.059          38.000  
G32  20950202.520 1 110094047.413 1      -477.230          45.000  
G29  21475678.780 1 112855440.743 1      3614.901          42.000  
E05  22807505.074 1 119854255.435 1     -2073.997          41.000  
E03  24161540.637 1 126969775.716 1       501.077          40.000  
G31  23830234.984 2 125228688.076 1      3908.299          37.000  
G03  24266332.818 2 127520461.430 1       173.375          34.000  
E25  23697990.994 1 124533794.997 1      2088.283          42.000  
E24  22360688.497 1 117506224.489 1      -245.041          46.000  
E10  26272793.935 1 138064476.891 1      3380.633          41.000  
> 2023 11 17 17 52 01.9960000  0 15                     
G06  22376542.484 1 117589536.862 1      -237.348          40.000  
G11  22334403.053 1 117368060.529 1      1872.792          44.000  
G12  19675252.355 1 103394142.758 1     -1482.611          46.000  
G24  22557567.867 1 118540824.496 1     -3280.084          44.000  
G25  18763961.780 1  98605291.967 1       956.891          47.000  
G28  21785547.514 1 114483851.143 1      3426.948          38.000  
G32  20950293.522 1 110094524.925 1      -477.655          45.000  
G29  21474990.945 1 112851826.287 1      3614.523          42.000  
E05  22807899.990 1 119856329.581 1     -2073.972          41.000  
E03  24161445.551 1 126969274.821 1       500.896          40.000  
G31  23829491.256 2 125224779.724 1      3908.416          37.000  
G03  24266299.767 2 127520288.252 1       173.108          34.000  
E25  23697593.653 1 124531706.788 1      2088.138          42.000  
E24  22360735.455 1 117506469.859 1      -245.195          46.000  
E10  26272150.580 1 138061096.338 1      3380.483          41.000  
> 2023 11 17 17 52 02.9960000  0 15                     
G06  22376587.628 1 117589774.464 1      -237.737          40.000  
G11  22334046.684 1 117366188.058 1      1872.530          44.000  
G12  19675534.630 1 103395625.637 1     -1482.727          46.000  
G24  22558191.939 1 118544104.737 1     -3279.950          44.000  
G25  18763780.036 1  98604335.139 1       956.822          47.000  
G28  21784895.347 1 114480424.474 1      3426.963          38.000  
G32  20950384.316 1 110095002.850 1      -478.170          45.000  
G29  21474303.563 1 112848211.925 1      3614.367          42.000  
E05  22808294.679 1 119858403.792 1     -2073.892          41.000  
E03  24161350.273 1 126968774.167 1       500.573          40.000  
G31  23828747.528 2 125220871.200 1      3909.047          37.000  
G03  24266267.170 4 127520115.481 2       172.344          34.000  
E25  23697196.049 1 124529618.473 1      2088.374          42.000  
E24  22360781.978 1 117506715.203 1      -245.160          46.000  
E10  26271507.418 1 138057715.612 1      3381.000          41.000  
> 2023 11 17 17 52 03.9960000  0 15                     
G06  22376633.243 1 117590012.534 1      -238.682          40.000  
G11  22333690.281 1 117364315.948 1      1871.788          44.000  
G12  19675816.713 1 103397108.694 1     -1483.246          46.000  
G24  22558816.081 1 118547384.986 1     -3280.609          44.000  
G25  18763598.135 1  98603378.595 1       956.102          47.000  
G28  21784243.128 1 114476997.841 1      3426.433          38.000  
G32  20950475.267 1 110095481.219 1      -479.042          45.000  
G29  21473615.955 1 112844597.679 1      3613.870          42.000  
E05  22808689.124 1 119860478.134 1     -2074.750          41.000  
E03  24161255.274 1 126968273.820 1       500.034          40.000  
G31  23828003.643 2 125216962.546 1      3908.663          37.000  
G03  24266234.154 2 127519943.154 1       171.877          34.000  
E25  23696798.690 1 124527530.148 1      2088.017          43.000  
E24  22360829.041 1 117506960.597 1      -245.660          46.000  
E10  26270864.063 1 138054334.794 1      3380.763          41.000  
> 2023 11 17 17 52 04.9960000  0 15                     
G06  22376678.613 1 117590251.237 1      -238.689          40.000  
G11  22333334.366 1 117362444.356 1      1871.620          44.000  
G12  19676099.162 1 103398592.094 1     -1483.136          46.000  
G24  22559440.398 1 118550665.358 1     -3280.225          44.000  
G25  18763416.338 1  98602422.500 1       956.092          47.000  
G28  21783590.961 1 114473571.393 1      3426.846          38.000  
G32  20950566.566 1 110095960.219 1      -478.999          45.000  
G29  21472928.259 1 112840983.732 1      3614.141          42.000  
E05  22809083.830 1 119862552.743 1     -2074.393          41.000  
E03  24161160.153 1 126967773.953 1       499.715          40.000  
G31  23827259.705 2 125213053.936 1      3908.679          37.000  
G03  24266201.644 2 127519771.436 1       171.421          34.000  
E25  23696401.628 1 124525441.957 1      2088.519          43.000  
E24  22360875.633 1 117507206.181 1      -245.385          46.000  
E10  26270220.656 1 138050954.044 1      3381.097          41.000  
> 2023 11 17 17 52 05.9960000  0 15                     
G06  22376724.350 1 117590490.623 1      -239.454          40.000  
G11  22332978.626 1 117360573.312 1      1870.854          44.000  
G12  19676381.611 1 103400075.881 1     -1483.826          46.000  
G24  22560064.888 1 118553945.919 1     -3280.444          44.000  
G25  18763234.751 1  98601466.872 1       955.625          47.000  
G28  21782939.003 1 114470145.198 1      3426.363          38.000  
G32  20950657.517 1 110096439.893 1      -479.879          45.000  
G29  21472240.965 1 112837370.136 1      3613.907          43.000  
E05  22809478.833 1 119864627.685 1     -2074.759          41.000  
E03  24161065.677 1 126967274.564 1       499.597          40.000  
G31  23826515.645 1 125209145.363 1      3909.228          37.000  
G03  24266169.169 2 127519600.345 1       170.927          34.000  
E25  23696004.182 1 124523353.953 1      2088.151          43.000  
E24  22360922.435 1 117507451.985 1      -245.452          46.000  
E10  26269577.336 1 138047573.400 1      3380.907          41.000  
> 2023 11 17 17 52 06.9960000  0 15                     
G06  22376770.157 1 117590730.489 1      -240.175          40.000  
G11  22332622.537 1 117358702.624 1      1870.477          44.000  
G12  19676663.886 1 103401559.849 1     -1484.082          46.000  
G24  22560689.170 1 118557226.465 1     -3280.548          44.000  
G25  18763052.920 1  98600511.542 1       955.042          47.000  
G28  21782287.185 1 114466719.044 1      3426.135          38.000  
G32  20950748.903 1 110096920.006 1      -480.527          45.000  
G29  21471553.671 1 112833756.708 1      3613.329          43.000  
E05  22809874.046 1 119866702.753 1     -2075.147          41.000  
E03  24160970.783 1 126966775.526 1       498.653          40.000  
G31  23825771.812 2 125205236.710 1      3908.799          37.000  
G03  24266136.869 4 127519429.694 2       170.955          34.000  
E25  23695606.771 1 124521265.943 1      2087.829          43.000  
E24  22360969.201 1 117507697.873 1      -246.103          46.000  
E10  26268934.191 1 138044192.660 1      3380.624          41.000  
> 2023 11 17 17 52 07.9960000  0 15                     
G06  22376816.086 1 117590970.734 1      -240.508          40.000  
G11  22332266.657 1 117356832.219 1      1870.013          44.000  
G12  19676946.265 1 103403043.919 1     -1484.613          46.000  
G24  22561313.347 1 118560506.919 1     -3280.640          44.000  
G25  18762870.810 1  98599556.410 1       954.631          47.000  
G28  21781635.472 1 114463292.853 1      3425.869          38.000  
G32  20950840.151 1 110097400.516 1      -480.817          45.000  
G29  21470866.464 1 112830143.326 1      3612.980          43.000  
E05  22810268.839 1 119868777.855 1     -2075.372          41.000  
E03  24160875.749 1 126966276.689 1       498.469          40.000  
G31  23825028.014 2 125201327.824 1      3908.754          37.000  
G03  24266104.481 2 127519259.450 1       169.938          34.000  
E25  23695209.534 1 124519177.808 1      2087.850          43.000  
E24  22361016.055 1 117507943.692 1      -246.092          46.000  
E10  26268290.889 1 138040811.749 1      3380.643          41.000  
> 2023 11 17 17 52 08.9960000  0 15                     
G06  22376862.259 1 117591211.770 1      -241.456          40.000  
G11  22331910.865 1 117354962.452 1      1869.352          44.000  
G12  19677228.732 1 103404528.451 1     -1484.918          46.000  
G24  22561937.698 1 118563787.631 1     -3281.006          44.000  
G25  18762689.310 1  98598601.817 1       954.368          47.000  
G28  21780983.654 1 114459866.971 1      3425.674          38.000  
G32  20950932.113 1 110097881.766 1      -481.514          45.000  
G29  21470178.890 1 112826530.357 1      3612.656          43.000  
E05  22810663.703 1 119870853.359 1     -2075.753          41.000  
E03  24160780.610 1 126965778.448 1       497.739          40.000  
G31  23824283.727 2 125197419.092 1      3908.582          37.000  
G03  24266072.251 4 127519089.885 2       169.326          34.000  
E25  23694812.367 1 124517089.937 1      2087.924          43.000  
E24  22361062.856 1 117508189.841 1      -246.411          46.000  
E10  26267647.482 1 138037431.011 1      3380.702          41.000  
> 2023 11 17 17 52 09.9960000  0 15                     
G06  22376908.153 1 117591453.530 1      -242.011          40.000  
G11  22331555.317 1 117353093.310 1      1868.939          44.000  
G12  19677511.129 1 103406013.444 1     -1485.156          46.000  
G24  22562562.067 1 118567068.601 1     -3281.018          44.000  
G25  18762507.723 1  98597647.793 1       953.799          47.000  
G28  21780331.993 1 114456441.430 1      3425.072          38.000  
G32  20951023.483 1 110098363.762 1      -482.373          45.000  
G29  21469491.648 1 112822917.822 1      3612.318          43.000  
E05  22811059.299 1 119872929.279 1     -2076.154          41.000  
E03  24160685.873 1 126965280.778 1       497.516          40.000  
G31  23823539.929 2 125193510.504 1      3908.737          37.000  
G03  24266040.457 2 127518921.069 1       168.940          35.000  
E25  23694415.218 1 124515002.338 1      2087.525          43.000  
E24  22361109.693 1 117508436.299 1      -246.649          46.000  
E10  26267003.848 1 138034050.459 1      3380.508          41.000  
> 2023 11 17 17 52 10.9960000  0 15                     
G06  22376954.327 1 117591695.806 1      -242.438          40.000  
G11  22331199.646 1 117351224.555 1      1868.609          44.000  
G12  19677793.805 1 103407498.654 1     -1485.333          46.000  
G24  22563186.453 1 118570349.595 1     -3281.006          44.000  
G25  18762326.293 1  98596694.075 1       953.624          47.000  
G28  21779679.913 1 114453015.914 1      3425.619          38.000  
G32  20951115.253 1 110098846.252 1      -482.668          45.000  
G29  21468804.546 1 112819305.456 1      3612.220          43.000  
E05  22811454.564 1 119875005.339 1     -2076.022          40.000  
E03  24160590.996 1 126964783.474 1       497.214          40.000  
G31  23822795.800 2 125189601.821 1      3908.601          37.000  
G03  24266008.348 2 127518752.702 1       168.490          35.000  
E25  23694017.981 1 124512914.754 1      2087.372          43.000  
E24  22361156.704 1 117508682.826 1      -246.597          46.000  
E10  26266360.336 1 138030669.841 1      3380.772          41.000  
> 2023 11 17 17 52 11.9960000  0 15                     
G06  22377000.500 1 117591938.704 1      -242.530          40.000  
G11  22330844.325 1 117349356.322 1      1868.356          44.000  
G12  19678076.429 1 103408984.210 1     -1485.535          46.000  
G24  22563811.049 1 118573630.728 1     -3280.920          44.000  
G25  18762144.915 1  98595740.800 1       953.274          47.000  
G28  21779028.252 1 114449590.640 1      3425.258          39.000  
G32  20951207.146 1 110099329.352 1      -483.028          45.000  
G29  21468117.287 1 112815693.384 1      3612.282          43.000  
E05  22811849.847 1 119877081.676 1     -2076.277          41.000  
E03  24160496.259 1 126964286.627 1       496.915          40.000  
G31  23822051.810 2 125185693.183 1      3908.812          37.000  
G03  24265976.362 2 127518585.022 1       167.436          35.000  
E25  23693620.552 1 124510827.295 1      2087.587          43.000  
E24  22361203.610 1 117508929.567 1      -246.708          46.000  
E10  26265717.069 1 138027289.312 1      3380.583          41.000  
> 2023 11 17 17 52 12.9960000  0 15                     
G06  22377046.987 1 117592182.378 1      -244.044          40.000  
G11  22330488.707 1 117347488.718 1      1867.303          44.000  
G12  19678359.105 1 103410470.214 1     -1486.212          46.000  
G24  22564435.400 1 118576912.121 1     -3281.409          44.000  
G25  18761963.363 1  98594788.071 1       952.540          47.000  
G28  21778376.679 1 114446165.662 1      3424.464          38.000  
G32  20951299.179 1 110099813.198 1      -484.150          45.000  
G29  21467430.114 1 112812081.739 1      3611.372          43.000  
E05  22812244.605 1 119879158.411 1     -2076.943          40.000  
E03  24160401.452 1 126963790.358 1       495.946          40.000  
G31  23821308.029 2 125181784.673 1      3908.514          37.000  
G03  24265944.917 2 127518417.957 1       166.962          35.000  
E25  23693223.507 1 124508740.085 1      2087.073          43.000  
E24  22361250.464 1 117509176.601 1      -247.182          46.000  
E10  26265073.854 1 138023908.924 1      3380.079          41.000  
> 2023 11 17 17 52 13.9960000  0 16                     
G06  22377093.475 1 117592426.655 1      -244.427          40.000  
G11  22330133.141 1 117345621.594 1      1867.053          44.000  
G12  19678642.008 1 103411956.543 1     -1486.383          46.000  
G24  22565059.821 1 118580193.621 1     -3281.445          44.000  
G25  18761782.160 1  98593835.760 1       952.130          47.000  
G28  21777725.140 1 114442740.855 1      3424.650          39.000  
G32  20951390.984 1 110100297.641 1      -484.540          45.000  
G29  21466742.768 1 112808470.362 1      3611.162          43.000  
E05  22812640.027 1 119881235.435 1     -2077.482          40.000  
E03  24160307.186 1 126963294.517 1       495.902          40.000  
G31  23820564.301 2 125177876.170 1      3908.371          37.000  
G03  24265913.227 2 127518251.535 1       166.310          36.000  
E25  23692826.550 1 124506652.999 1      2087.139          43.000  
E24  22361297.667 1 117509423.800 1      -247.250          46.000  
E31  25141522.058 9 132119600.649 4     -1976.414          37.000  
E10  26264430.831 1 138020528.585 1      3380.294          41.000  
> 2023 11 17 17 52 14.9960000  0 16                     
G06  22377139.945 1 117592671.497 1      -245.334          40.000  
G11  22329778.030 1 117343754.945 1      1866.270          44.000  
G12  19678924.754 1 103413443.153 1     -1486.713          46.000  
G24  22565684.225 1 118583475.219 1     -3281.756          44.000  
G25  18761601.149 1  98592883.842 1       951.614          47.000  
G28  21777073.671 1 114439316.211 1      3423.956          39.000  
G32  20951483.296 1 110100782.667 1      -485.494          44.000  
G29  21466055.194 1 112804859.230 1      3610.790          43.000  
E05  22813035.467 1 119883312.625 1     -2077.251          40.000  
E03  24160213.286 1 126962799.112 1       495.113          40.000  
G31  23819820.363 2 125173967.629 1      3908.524          37.000  
G03  24265881.956 2 127518085.670 1       165.134          36.000  
E25  23692429.261 1 124504565.995 1      2086.744          43.000  
E24  22361344.538 1 117509671.181 1      -247.667          46.000  
E31  25141901.775 9 132121577.113 2     -1976.764          37.000  
E10  26263787.668 1 138017148.255 1      3380.197          41.000  
> 2023 11 17 17 52 15.9960000  0 16                     
G06  22377186.554 1 117592916.799 1      -245.798          40.000  
G11  22329422.987 1 117341888.605 1      1865.989          43.000  
G12  19679207.587 1 103414929.908 1     -1486.902          46.000  
G24  22566308.681 1 118586756.762 1     -3281.659          44.000  
G25  18761419.859 1  98591932.144 1       951.459          47.000  
G28  21776421.975 1 114435891.517 1      3424.773          39.000  
G32  20951575.520 1 110101268.096 1      -485.721          45.000  
G29  21465368.127 1 112801248.188 1      3611.103          43.000  
E05  22813430.801 1 119885389.936 1     -2077.696          40.000  
E03  24160118.968 1 126962303.962 1       494.894          40.000  
G31  23819076.425 2 125170058.971 1      3908.245          37.000  
G03  24265850.476 2 127517920.153 1       165.330          36.000  
E25  23692031.797 1 124502478.915 1      2086.946          43.000  
E24  22361391.496 1 117509918.536 1      -247.527          46.000  
E31  25142277.478 8 132123553.405 1     -1976.482          37.000  
E10  26263144.471 1 138013767.786 1      3380.458          41.000  
> 2023 11 17 17 52 16.9960000  0 16                     
G06  22377233.321 1 117593162.796 1      -246.412          40.000  
G11  22329067.631 1 117340022.871 1      1865.189          43.000  
G12  19679490.542 1 103416417.106 1     -1487.689          46.000  
G24  22566933.329 1 118590038.525 1     -3282.098          44.000  
G25  18761238.917 1  98590980.994 1       950.455          47.000  
G28  21775770.419 1 114432467.159 1      3423.828          39.000  
G32  20951668.076 1 110101754.238 1      -486.842          44.000  
G29  21464680.414 1 112797637.564 1      3610.030          43.000  
E05  22813826.363 1 119887467.586 1     -2078.083          40.000  
E03  24160024.929 1 126961809.374 1       494.019          40.000  
G31  23818332.453 2 125166150.373 1      3908.285          37.000  
G03  24265819.362 2 127517755.376 1       164.095          36.000  
E25  23691634.805 1 124500392.085 1      2086.408          43.000  
E24  22361438.804 1 117510166.177 1      -248.089          46.000  
E31  25142654.664 4 132125529.834 1     -1976.973          37.000  
E10  26262501.482 1 138010387.478 1      3379.886          41.000  
> 2023 11 17 17 52 17.9960000  0 16                     
G06  22377280.105 1 117593409.586 1      -246.771          40.000  
G11  22328712.921 1 117338157.793 1      1864.845          43.000  
G12  19679773.567 1 103417904.766 1     -1487.744          46.000  
G24  22567557.855 1 118593320.570 1     -3282.092          44.000  
G25  18761058.046 1  98590030.400 1       950.474          47.000  
G28  21775118.880 1 114429043.113 1      3424.056          39.000  
G32  20951760.475 1 110102241.146 1      -487.160          44.000  
G29  21463993.329 1 112794027.363 1      3609.910          42.000  
E05  22814222.029 1 119889545.681 1     -2078.192          40.000  
E03  24159930.732 1 126961315.399 1       493.456          40.000  
G31  23817588.742 2 125162241.969 1      3908.250          37.000  
G03  24265788.318 2 127517591.325 1       163.763          35.000  
E25  23691237.812 1 124498305.527 1      2086.427          43.000  
E24  22361485.989 1 117510414.164 1      -248.139          46.000  
E31  25143029.059 4 132127506.429 1     -1976.776          37.000  
E10  26261858.058 1 138007007.362 1      3380.266          41.000  
> 2023 11 17 17 52 18.9960000  0 16                     
G06  22377327.011 1 117593657.039 1      -247.429          40.000  
G11  22328357.861 1 117336293.254 1      1864.700          43.000  
G12  19680056.906 1 103419392.814 1     -1487.982          46.000  
G24  22568182.782 1 118596602.803 1     -3282.080          44.000  
G25  18760877.157 1  98589080.301 1       950.172          47.000  
G28  21774467.446 1 114425619.324 1      3423.645          39.000  
G32  20951853.397 1 110102728.712 1      -487.727          44.000  
G29  21463306.366 1 112790417.494 1      3609.833          42.000  
E05  22814617.329 1 119891624.098 1     -2078.482          40.000  
E03  24159837.147 1 126960821.901 1       493.620          40.000  
G31  23816844.560 2 125158333.624 1      3908.813          37.000  
G03  24265757.449 2 127517427.933 1       163.304          35.000  
E25  23690840.610 1 124496219.152 1      2086.424          43.000  
E24  22361533.454 1 117510662.386 1      -248.125          46.000  
E31  25143406.821 2 132129483.128 1     -1976.646          37.000  
E10  26261214.756 1 138003627.366 1      3380.250          41.000  
> 2023 11 17 17 52 19.9960000  0 16                     
G06  22377374.231 1 117593904.866 1      -248.200          40.000  
G11  22328002.976 1 117334428.982 1      1863.863          43.000  
G12  19680339.914 1 103420880.937 1     -1488.586          46.000  
G24  22568807.587 1 118599884.905 1     -3282.227          44.000  
G25  18760696.268 1  98588130.359 1       949.633          47.000  
G28  21773816.047 1 114422195.453 1      3423.604          39.000  
G32  20951946.180 1 110103216.640 1      -488.510          44.000  
G29  21462619.246 1 112786807.655 1      3609.577          42.000  
E05  22815012.768 1 119893702.503 1     -2078.788          40.000  
E03  24159743.422 1 126960328.643 1       492.611          40.000  
G31  23816100.360 2 125154425.060 1      3908.259          37.000  
G03  24265726.475 2 127517264.848 1       162.778          35.000  
E25  23690443.461 1 124494132.632 1      2086.257          43.000  
E24  22361580.325 1 117510910.527 1      -248.365          46.000  
E31  25143782.681 2 132131459.581 1     -1976.866          37.000  
E10  26260571.820 1 138000247.149 1      3380.058          41.000  
> 2023 11 17 17 52 20.9960000  0 16                     
G06  22377421.574 1 117594153.478 1      -249.075          40.000  
G11  22327647.986 1 117332565.370 1      1863.316          43.000  
G12  19680623.253 1 103422369.553 1     -1488.879          46.000  
G24  22569432.305 1 118603167.309 1     -3282.629          44.000  
G25  18760515.693 1  98587181.025 1       948.898          47.000  
G28  21773164.752 1 114418771.939 1      3423.299          39.000  
G32  20952039.207 1 110103705.323 1      -489.163          44.000  
G29  21461932.336 1 112783198.295 1      3609.021          42.000  
E05  22815408.470 1 119895781.353 1     -2079.101          40.000  
E03  24159649.801 1 126959835.967 1       492.281          40.000  
G31  23815356.213 2 125150516.705 1      3907.992          37.000  
G03  24265695.605 2 127517102.536 1       161.891          35.000  
E25  23690046.451 1 124492046.419 1      2085.838          43.000  
E24  22361627.842 1 117511159.025 1      -248.583          46.000  
E31  25144159.449 2 132133436.233 1     -1976.808          37.000  
E10  26259928.622 1 137996867.163 1      3379.638          41.000  
> 2023 11 17 17 52 21.9960000  0 16                     
G06  22377468.916 1 117594402.595 1      -249.673          40.000  
G11  22327293.310 1 117330702.136 1      1862.922          43.000  
G12  19680906.802 1 103423858.379 1     -1489.221          46.000  
G24  22570057.005 1 118606449.711 1     -3282.617          44.000  
G25  18760335.153 1  98586231.986 1       948.813          47.000  
G28  21772513.493 1 114415348.483 1      3423.346          39.000  
G32  20952132.392 1 110104194.510 1      -489.639          44.000  
G29  21461245.496 1 112779589.093 1      3608.901          42.000  
E05  22815804.258 1 119897860.351 1     -2079.308          40.000  
E03  24159555.727 1 126959343.630 1       492.119          40.000  
G31  23814612.363 2 125146608.196 1      3908.114          37.000  
G03  24265664.561 4 127516940.694 2       161.378          34.000  
E25  23689649.301 1 124489960.198 1      2086.082          43.000  
E24  22361674.905 1 117511407.598 1      -248.820          46.000  
E31  25144535.309 1 132135412.791 1     -1976.767          37.000  
E10  26259285.617 1 137993487.106 1      3379.855          41.000  
> 2023 11 17 17 52 22.9960000  0 16                     
G06  22377516.294 1 117594652.255 1      -249.862          40.000  
G11  22326938.495 1 117328839.343 1      1862.767          43.000  
G12  19681190.193 1 103425347.467 1     -1489.178          46.000  
G24  22570681.618 1 118609732.176 1     -3282.422          45.000  
G25  18760154.613 1  98585283.310 1       948.705          47.000  
G28  21771861.936 1 114411925.144 1      3423.756          39.000  
G32  20952225.785 1 110104684.217 1      -489.688          44.000  
G29  21460558.620 1 112775980.110 1      3608.859          42.000  
E05  22816199.942 1 119899939.556 1     -2079.178          40.000  
E03  24159462.072 1 126958851.669 1       492.211          40.000  
G31  23813868.652 2 125142699.644 1      3908.798          37.000  
G03  24265633.483 4 127516779.368 2       161.008          33.000  
E25  23689252.606 1 124487874.036 1      2086.313          43.000  
E24  22361722.126 1 117511656.277 1      -248.543          46.000  
E31  25144911.100 1 132137389.328 1     -1976.780          37.000  
E10  26258642.314 1 137990107.011 1      3380.320          40.000  
> 2023 11 17 17 52 23.9960000  0 16                     
G06  22377564.090 1 117594902.327 1      -250.839          40.000  
G11  22326584.064 1 117326976.839 1      1861.807          43.000  
G12  19681473.829 1 103426836.661 1     -1489.880          46.000  
G24  22571306.546 1 118613014.543 1     -3282.764          45.000  
G25  18759974.440 1  98584334.845 1       947.660          47.000  
G28  21771210.572 1 114408501.790 1      3422.844          39.000  
G32  20952318.934 1 110105174.343 1      -490.775          44.000  
G29  21459871.518 1 112772371.206 1      3608.186          42.000  
E05  22816595.625 1 119902018.788 1     -2079.691          40.000  
E03  24159368.399 1 126958359.963 1       491.180          40.000  
G31  23813124.697 2 125138790.909 1      3908.183          37.000  
G03  24265602.735 4 127516618.421 2       159.761          33.000  
E25  23688855.927 1 124485787.786 1      2085.722          43.000  
E24  22361769.590 1 117511904.922 1      -249.197          46.000  
E31  25145287.396 1 132139365.645 1     -1976.816          37.000  
E10  26257998.977 1 137986726.773 1      3379.648          40.000  
> 2023 11 17 17 52 24.9960000  0 16                     
G06  22377611.851 1 117595153.311 1      -251.235          40.000  
G11  22326229.580 1 117325115.127 1      1861.330          43.000  
G12  19681757.151 1 103428326.480 1     -1490.051          46.000  
G24  22571931.263 1 118616297.337 1     -3282.935          45.000  
G25  18759794.319 1  98583387.089 1       947.526          47.000  
G28  21770558.929 1 114405078.916 1      3422.610          38.000  
G32  20952412.363 1 110105665.346 1      -491.218          44.000  
G29  21459184.904 1 112768762.854 1      3608.486          42.000  
E05  22816991.204 1 119904098.600 1     -2079.945          40.000  
E03  24159275.267 1 126957869.017 1       490.739          40.000  
G31  23812381.056 2 125134882.487 1      3907.638          37.000  
G03  24265572.128 4 127516458.370 2       159.721          32.000  
E25  23688458.813 1 124483701.953 1      2085.837          43.000  
E24  22361817.003 1 117512154.050 1      -249.233          46.000  
E31  25145663.239 1 132141342.297 1     -1976.661          38.000  
E10  26257355.500 1 137983346.848 1      3380.086          40.000  
> 2023 11 17 17 52 25.9960000  0 16                     
G06  22377659.665 1 117595404.709 1      -251.957          40.000  
G11  22325875.585 1 117323253.680 1      1861.204          43.000  
G12  19682040.734 1 103429816.391 1     -1489.911          46.000  
G24  22572556.016 1 118619580.036 1     -3282.782          45.000  
G25  18759613.988 1  98582439.536 1       947.295          47.000  
G28  21769907.721 1 114401655.982 1      3422.823          38.000  
G32  20952505.913 1 110106156.752 1      -491.632          44.000  
G29  21458498.133 1 112765154.594 1      3608.156          42.000  
E05  22817386.679 1 119906178.443 1     -2079.918          40.000  
E03  24159182.205 1 126957378.284 1       490.434          40.000  
G31  23811637.101 2 125130973.834 1      3908.574          37.000  
G03  24265541.677 4 127516298.636 2       159.721          33.000  
E25  23688061.715 1 124481616.029 1      2085.888          43.000  
E24  22361864.694 1 117512403.138 1      -249.161          46.000  
E31  25146039.745 1 132143318.754 1     -1976.444          38.000  
E10  26256712.094 1 137979966.776 1      3380.177          40.000  
> 2023 11 17 17 52 26.9960000  0 16                     
G06  22377707.618 1 117595656.558 1      -252.151          40.000  
G11  22325521.468 1 117321392.597 1      1860.924          42.000  
G12  19682324.562 1 103431306.509 1     -1490.356          46.000  
G24  22573180.821 1 118622862.718 1     -3282.837          45.000  
G25  18759433.675 1  98581492.271 1       946.849          47.000  
G28  21769256.113 1 114398233.118 1      3422.599          38.000  
G32  20952599.324 1 110106648.621 1      -492.406          44.000  
G29  21457811.450 1 112761546.495 1      3607.469          42.000  
E05  22817782.554 1 119908258.427 1     -2080.245          40.000  
E03  24159088.725 1 126956887.855 1       490.246          40.000  
G31  23810892.989 2 125127065.046 1      3909.127          37.000  
G03  24265511.069 4 127516139.392 2       158.643          33.000  
E25  23687664.618 1 124479530.097 1      2085.419          43.000  
E24  22361911.984 1 117512652.262 1      -249.149          46.000  
E31  25146415.762 1 132145295.108 1     -1976.542          38.000  
E10  26256068.844 1 137976586.613 1      3379.950          40.000  
> 2023 11 17 17 52 27.9960000  0 16                     
G06  22377755.850 1 117595909.274 1      -253.230          40.000  
G11  22325167.473 1 117319532.260 1      1860.016          42.000  
G12  19682608.285 1 103432797.162 1     -1490.869          46.000  
G24  22573805.661 1 118626145.761 1     -3283.081          45.000  
G25  18759253.659 1  98580545.661 1       946.165          47.000  
G28  21768604.714 1 114394810.664 1      3421.739          38.000  
G32  20952693.329 1 110107141.333 1      -493.265          44.000  
G29  21457125.237 1 112757938.869 1      3607.440          42.000  
E05  22818178.290 1 119910338.885 1     -2080.694          40.000  
E03  24158995.645 1 126956398.123 1       489.232          40.000  
G31  23810149.278 2 125123156.569 1      3907.912          37.000  
G03  24265481.020 2 127515980.958 1       157.648          33.000  
E25  23687267.696 1 124477444.486 1      2085.360          43.000  
E24  22361959.169 1 117512901.819 1      -249.782          46.000  
E31  25146791.954 1 132147271.703 1     -1976.710          37.000  
E10  26255425.594 1 137973206.729 1      3379.561          40.000  
> 2023 11 17 17 52 28.9960000  0 16                     
G06  22377804.100 1 117596162.754 1      -253.989          40.000  
G11  22324813.826 1 117317672.566 1      1859.479          42.000  
G12  19682891.834 1 103434288.315 1     -1491.406          46.000  
G24  22574430.676 1 118629429.068 1     -3283.276          45.000  
G25  18759073.503 1  98579599.604 1       945.760          47.000  
G28  21767953.768 1 114391388.502 1      3422.085          38.000  
G32  20952787.211 1 110107634.764 1      -493.747          44.000  
G29  21456438.711 1 112754331.698 1      3607.008          42.000  
E05  22818574.201 1 119912419.769 1     -2081.053          40.000  
E03  24158902.426 1 126955908.988 1       488.847          40.000  
G31  23809405.584 2 125119248.202 1      3908.242          37.000  
G03  24265450.744 2 127515823.227 1       157.577          34.000  
E25  23686870.825 1 124475359.171 1      2085.135          43.000  
E24  22362006.739 1 117513151.694 1      -249.995          46.000  
E31  25147168.320 1 132149248.486 1     -1976.767          37.000  
E10  26254782.344 1 137969827.033 1      3379.632          40.000  
> 2023 11 17 17 52 29.9960000  0 16                     
G06  22377852.594 1 117596417.045 1      -254.793          40.000  
G11  22324460.058 1 117315813.556 1      1858.654          43.000  
G12  19683175.784 1 103435779.954 1     -1492.163          46.000  
G24  22575055.603 1 118632712.699 1     -3283.704          45.000  
G25  18758893.661 1  98578654.160 1       945.113          47.000  
G28  21767302.736 1 114387966.746 1      3421.492          38.000  
G32  20952881.250 1 110108129.008 1      -494.603          45.000  
G29  21455752.743 1 112750725.004 1      3606.339          42.000  
E05  22818970.268 1 119914501.095 1     -2081.585          40.000  
E03  24158809.172 1 126955420.478 1       488.096          40.000  
G31  23808661.385 2 125115340.064 1      3907.942          37.000  
G03  24265420.660 2 127515666.362 1       156.035          34.000  
E25  23686474.025 1 124473274.146 1      2084.850          43.000  
E24  22362054.395 1 117513401.928 1      -250.391          46.000  
E31  25147544.338 1 132151225.465 1     -1977.045          37.000  
E10  26254138.937 1 137966447.564 1      3379.296          40.000  
> 2023 11 17 17 52 30.9960000  0 16                     
G06  22377901.193 1 117596671.921 1      -255.246          40.000  
G11  22324106.534 1 117313955.016 1      1858.553          43.000  
G12  19683459.681 1 103437271.902 1     -1492.126          46.000  
G24  22575680.268 1 118635996.419 1     -3283.722          45.000  
G25  18758713.993 1  98577709.121 1       944.863          47.000  
G28  21766651.598 1 114384545.133 1      3421.595          38.000  
G32  20952975.150 1 110108623.822 1      -494.842          45.000  
G29  21455066.635 1 112747118.566 1      3606.108          42.000  
E05  22819366.144 1 119916582.650 1     -2081.578          40.000  
E03  24158716.948 1 126954932.403 1       487.843          40.000  
G31  23807917.569 1 125111431.898 1      3908.354          37.000  
G03  24265391.082 2 127515509.957 1       156.095          34.000  
E25  23686077.678 1 124471189.230 1      2084.927          43.000  
E24  22362101.999 1 117513652.328 1      -250.503          46.000  
E31  25147920.809 1 132153202.459 1     -1977.137          37.000  
E10  26253496.001 1 137963068.130 1      3379.553          40.000  
> 2023 11 17 17 52 31.9960000  0 16                     
G06  22377949.740 1 117596927.317 1      -255.437          40.000  
G11  22323753.028 1 117312096.902 1      1858.192          43.000  
G12  19683743.980 1 103438764.087 1     -1492.029          46.000  
G24  22576304.986 1 118639280.202 1     -3283.673          45.000  
G25  18758534.378 1  98576764.420 1       944.640          47.000  
G28  21766000.618 1 114381123.627 1      3421.874          38.000  
G32  20953069.521 1 110109119.182 1      -495.329          45.000  
G29  21454380.423 1 112743512.320 1      3606.349          42.000  
E05  22819762.194 1 119918664.411 1     -2081.752          40.000  
E03  24158624.165 1 126954444.686 1       487.697          40.000  
G31  23807173.911 2 125107523.686 1      3908.354          37.000  
G03  24265361.399 2 127515354.115 1       155.668          35.000  
E25  23685681.087 1 124469104.356 1      2085.108          43.000  
E24  22362149.761 1 117513902.835 1      -250.458          46.000  
E31  25148296.948 1 132155179.398 1     -1976.831          37.000  
E10  26252852.646 1 137959688.656 1      3379.768          41.000  
> 2023 11 17 17 52 32.9960000  0 16                     
G06  22377998.495 1 117597183.260 1      -256.146          40.000  
G11  22323399.434 1 117310239.206 1      1857.520          43.000  
G12  19684027.808 1 103440256.526 1     -1492.639          46.000  
G24  22576929.651 1 118642564.003 1     -3283.844          45.000  
G25  18758354.728 1  98575820.056 1       944.112          47.000  
G28  21765349.114 1 114377702.230 1      3421.286          38.000  
G32  20953164.101 1 110109615.038 1      -495.833          45.000  
G29  21453694.368 1 112739906.288 1      3605.720          42.000  
E05  22820158.558 1 119920746.334 1     -2082.321          40.000  
E03  24158531.190 1 126953957.357 1       487.061          40.000  
G31  23806430.095 2 125103615.383 1      3908.557          37.000  
G03  24265331.925 2 127515198.739 1       155.266          35.000  
E25  23685284.304 1 124467019.513 1      2084.948          43.000  
E24  22362197.714 1 117514153.429 1      -250.808          46.000  
E31  25148672.965 1 132157156.248 1     -1976.541          37.000  
E10  26252209.798 1 137956309.164 1      3379.558          40.000  
> 2023 11 17 17 52 33.9960000  0 16                     
G06  22378047.129 1 117597439.891 1      -257.053          40.000  
G11  22323046.207 1 117308382.058 1      1856.907          43.000  
G12  19684311.845 1 103441749.325 1     -1492.877          46.000  
G24  22577554.648 1 118645847.990 1     -3283.948          45.000  
G25  18758175.165 1  98574876.162 1       943.766          47.000  
G28  21764698.081 1 114374281.063 1      3421.056          38.000  
G32  20953258.803 1 110110111.561 1      -496.882          44.000  
G29  21453008.609 1 112736300.573 1      3605.766          42.000  
E05  22820555.062 1 119922828.553 1     -2082.027          40.000  
E03  24158438.303 1 126953470.500 1       486.662          40.000  
G31  23805686.332 2 125099707.162 1      3908.243          37.000  
G03  24265302.592 2 127515044.033 1       154.325          35.000  
E25  23684887.434 1 124464934.842 1      2084.865          43.000  
E24  22362245.353 1 117514404.243 1      -250.796          46.000  
E31  25149049.035 1 132159133.204 1     -1976.739          37.000  
E10  26251566.391 1 137952929.746 1      3379.756          41.000  
> 2023 11 17 17 52 34.9960000  0 16                     
G06  22378096.129 1 117597697.023 1      -257.307          40.000  
G11  22322692.875 1 117306525.302 1      1856.577          43.000  
G12  19684596.040 1 103443242.361 1     -1493.085          46.000  
G24  22578179.750 1 118649131.994 1     -3283.881          45.000  
G25  18757995.306 1  98573932.587 1       943.666          47.000  
G28  21764046.909 1 114370859.977 1      3421.224          38.000  
G32  20953353.401 1 110110608.594 1      -497.159          44.000  
G29  21452322.414 1 112732695.077 1      3605.417          42.000  
E05  22820951.235 1 119924910.966 1     -2082.315          40.000  
E03  24158345.799 1 126952984.024 1       486.283          41.000  
G31  23804942.464 1 125095798.844 1      3908.638          37.000  
G03  24265273.083 2 127514889.808 1       153.622          35.000  
E25  23684490.930 1 124462850.207 1      2084.810          43.000  
E24  22362292.853 1 117514655.144 1      -250.598          46.000  
E31  25149425.244 1 132161110.087 1     -1976.896          37.000  
E10  26250923.437 1 137949550.293 1      3379.714          41.000  
> 2023 11 17 17 52 35.9960000  0 16                     
G06  22378144.781 1 117597954.879 1      -258.146          40.000  
G11  22322339.665 1 117304669.150 1      1856.355          43.000  
G12  19684880.164 1 103444735.810 1     -1493.152          46.000  
G24  22578804.416 1 118652416.223 1     -3283.868          45.000  
G25  18757815.796 1  98572989.541 1       943.146          47.000  
G28  21763395.614 1 114367439.157 1      3421.233          38.000  
G32  20953448.557 1 110111106.332 1      -497.729          44.000  
G29  21451636.411 1 112729089.950 1      3605.287          42.000  
E05  22821347.442 1 119926993.729 1     -2082.500          40.000  
E03  24158253.243 1 126952498.069 1       486.371          41.000  
G31  23804198.649 2 125091890.658 1      3908.774          37.000  
G03  24265244.029 2 127514736.255 1       153.637          35.000  
E25  23684094.199 1 124460765.789 1      2084.688          43.000  
E24  22362340.841 1 117514906.345 1      -251.057          46.000  
E31  25149801.488 1 132163087.075 1     -1976.725          37.000  
E10  26250280.118 1 137946170.996 1      3379.551          41.000  
> 2023 11 17 17 52 36.9960000  0 16                     
G06  22378193.571 1 117598213.100 1      -258.441          40.000  
G11  22321986.664 1 117302813.263 1      1855.571          43.000  
G12  19685164.498 1 103446229.333 1     -1493.488          46.000  
G24  22579429.465 1 118655700.325 1     -3283.990          45.000  
G25  18757636.495 1  98572046.666 1       942.799          47.000  
G28  21762744.564 1 114364018.335 1      3420.191          38.000  
G32  20953543.277 1 110111604.415 1      -498.260          45.000  
G29  21450950.303 1 112725484.854 1      3604.966          42.000  
E05  22821743.666 1 119929076.504 1     -2083.060          40.000  
E03  24158160.966 1 126952012.344 1       485.322          41.000  
G31  23803454.903 2 125087982.237 1      3908.385          37.000  
G03  24265215.009 2 127514583.047 1       152.698          35.000  
E25  23683697.294 1 124458681.248 1      2084.414          43.000  
E24  22362388.567 1 117515157.474 1      -251.315          46.000  
E31  25150177.540 1 132165063.846 1     -1976.851          37.000  
E10  26249637.042 1 137942791.469 1      3379.538          41.000  
> 2023 11 17 17 52 37.9960000  0 16                     
G06  22378242.607 1 117598471.950 1      -259.229          40.000  
G11  22321633.524 1 117300957.875 1      1855.171          43.000  
G12  19685448.919 1 103447723.215 1     -1494.299          46.000  
G24  22580054.218 1 118658984.565 1     -3284.442          45.000  
G25  18757457.054 1  98571104.227 1       942.080          47.000  
G28  21762093.444 1 114360597.645 1      3420.266          38.000  
G32  20953638.031 1 110112103.116 1      -498.995          45.000  
G29  21450264.353 1 112721880.071 1      3604.564          42.000  
E05  22822139.961 1 119931159.559 1     -2083.374          40.000  
E03  24158068.655 1 126951527.072 1       484.822          41.000  
G31  23802710.878 2 125084073.823 1      3908.671          37.000  
G03  24265186.216 2 127514430.468 1       151.675          35.000  
E25  23683300.493 1 124456596.832 1      2084.179          43.000  
E24  22362436.398 1 117515408.788 1      -251.553          46.000  
E31  25150553.471 1 132167040.675 1     -1976.992          37.000  
E10  26248993.897 1 137939412.026 1      3379.320          40.000  
> 2023 11 17 17 52 38.9960000  0 16                     
G06  22378291.991 1 117598731.688 1      -260.447          40.000  
G11  22321280.663 1 117299103.253 1      1854.179          43.000  
G12  19685733.288 1 103449217.668 1     -1495.056          46.000  
G24  22580679.284 1 118662269.196 1     -3285.156          45.000  
G25  18757277.788 1  98570162.496 1       941.121          47.000  
G28  21761442.726 1 114357177.418 1      3419.790          38.000  
G32  20953733.327 1 110112602.707 1      -500.519          45.000  
G29  21449578.402 1 112718275.852 1      3603.547          42.000  
E05  22822536.482 1 119933243.130 1     -2083.759          40.000  
E03  24157976.692 1 126951042.503 1       484.055          41.000  
G31  23801967.324 2 125080165.728 1      3907.345          37.000  
G03  24265157.580 2 127514278.696 1       151.100          35.000  
E25  23682904.146 1 124454512.808 1      2083.697          43.000  
E24  22362484.491 1 117515660.550 1      -252.180          46.000  
E31  25150929.784 1 132169017.779 1     -1977.626          37.000  
E10  26248350.473 1 137936032.899 1      3378.569          40.000  
> 2023 11 17 17 52 39.9960000  0 16                     
G06  22378341.357 1 117598991.919 1      -260.741          40.000  
G11  22320927.733 1 117297249.009 1      1854.187          43.000  
G12  19686017.761 1 103450712.316 1     -1494.769          46.000  
G24  22581304.247 1 118665553.827 1     -3284.796          45.000  
G25  18757098.574 1  98569221.030 1       941.332          47.000  
G28  21760791.850 2 114353757.256 1      3420.057          38.000  
G32  20953828.361 1 110113102.741 1      -500.202          45.000  
G29  21448892.033 1 112714671.765 1      3603.914          42.000  
E05  22822932.916 1 119935326.835 1     -2083.547          40.000  
E03  24157884.904 1 126950558.268 1       484.089          41.000  
G31  23801223.736 2 125076257.486 1      3908.295          37.000  
G03  24265128.473 2 127514127.384 1       151.279          35.000  
E25  23682507.503 1 124452428.775 1      2084.099          43.000  
E24  22362532.130 1 117515912.367 1      -251.789          46.000  
E31  25151306.116 1 132170994.769 1     -1976.984          37.000  
E10  26247707.205 1 137932653.680 1      3379.112          40.000  
> 2023 11 17 17 52 40.9960000  0 16                     
G06  22378390.986 1 117599252.613 1      -260.851          40.000  
G11  22320575.012 1 117295395.128 1      1853.754          43.000  
G12  19686302.078 1 103452207.152 1     -1494.867          46.000  
G24  22581928.860 1 118668838.415 1     -3284.271          45.000  
G25  18756919.483 1  98568279.851 1       941.267          47.000  
G28  21760140.870 1 114350337.124 1      3420.538          38.000  
G32  20953923.430 1 110113603.241 1      -500.392          44.000  
G29  21448206.326 1 112711067.831 1      3603.949          42.000  
E05  22823329.786 1 119937410.682 1     -2083.911          40.000  
E03  24157792.871 1 126950074.340 1       483.879          41.000  
G31  23800479.815 2 125072349.116 1      3908.601          37.000  
G03  24265099.785 2 127513976.543 1       150.608          35.000  
E25  23682110.790 1 124450344.731 1      2084.115          43.000  
E24  22362580.188 1 117516164.224 1      -251.787          46.000  
E31  25151682.220 1 132172971.637 1     -1976.817          37.000  
E10  26247064.339 1 137929274.375 1      3379.458          40.000  
> 2023 11 17 17 52 41.9960000  0 16                     
G06  22378440.666 1 117599514.090 1      -261.472          40.000  
G11  22320222.465 1 117293541.904 1      1853.226          43.000  
G12  19686586.987 1 103453702.476 1     -1495.264          46.000  
G24  22582553.787 1 118672123.321 1     -3284.894          45.000  
G25  18756740.723 1  98567339.266 1       940.607          47.000  
G28  21759489.959 1 114346917.350 1      3420.092          38.000  
G32  20954018.830 1 110114104.526 1      -501.356          44.000  
G29  21447520.149 1 112707464.358 1      3603.405          42.000  
E05  22823726.395 1 119939494.938 1     -2083.988          40.000  
E03  24157700.752 1 126949591.036 1       483.012          41.000  
G31  23799735.791 2 125068440.923 1      3908.589          37.000  
G03  24265071.376 2 127513826.444 1       149.812          35.000  
E25  23681714.530 1 124448260.971 1      2083.728          43.000  
E24  22362628.368 1 117516416.427 1      -252.133          46.000  
E31  25152058.220 1 132174948.714 1     -1976.925          37.000  
E10  26246421.281 1 137925895.272 1      3379.314          40.000  
> 2023 11 17 17 52 42.9960000  0 16                     
G06  22378490.853 1 117599776.232 1      -262.574          40.000  
G11  22319870.197 1 117291689.217 1      1852.504          43.000  
G12  19686871.583 1 103455198.146 1     -1495.630          47.000  
G24  22583178.976 1 118675408.361 1     -3284.869          45.000  
G25  18756561.840 1  98566399.124 1       940.067          47.000  
G28  21758839.432 1 114343497.779 1      3419.773          38.000  
G32  20954114.405 1 110114606.444 1      -502.062          44.000  
G29  21446834.268 1 112703861.184 1      3602.947          42.000  
E05  22824123.073 1 119941579.493 1     -2084.639          40.000  
E03  24157609.365 1 126949108.202 1       482.303          41.000  
G31  23798991.870 2 125064532.770 1      3908.781          37.000  
G03  24265042.915 2 127513676.988 1       149.113          34.000  
E25  23681318.463 1 124446177.370 1      2083.401          43.000  
E24  22362676.251 1 117516668.837 1      -252.470          46.000  
E31  25152434.447 1 132176925.860 1     -1977.508          37.000  
E10  26245778.171 1 137922516.262 1      3378.970          40.000  
> 2023 11 17 17 52 43.9960000  0 17                     
G06  22378540.901 1 117600038.752 1      -262.897          40.000  
G11  22319517.808 1 117289836.802 1      1852.216          43.000  
G12  19687156.266 1 103456693.922 1     -1495.941          46.000  
G24  22583804.182 1 118678693.318 1     -3284.979          45.000  
G25  18756383.098 1  98565459.181 1       939.695          47.000  
G28  21758188.923 1 114340078.183 1      3419.672          38.000  
G32  20954209.805 1 110115108.738 1      -502.677          44.000  
G29  21446148.509 1 112700258.077 1      3602.900          42.000  
E05  22824520.171 1 119943664.084 1     -2084.809          40.000  
E03  24157517.681 1 126948625.584 1       482.271          41.000  
G31  23798248.159 2 125060624.443 1      3908.299          36.000  
G03  24265014.366 2 127513527.865 1       148.405          34.000  
E25  23680921.767 1 124444093.644 1      2083.612          43.000  
E24  22362724.309 1 117516921.195 1      -252.525          46.000  
E31  25152810.691 1 132178902.775 1     -1977.144          37.000  
E10  26245134.938 1 137919137.065 1      3379.075          40.000  
E33  25258441.257 9               6       219.659          34.000  
> 2023 11 17 17 52 44.9960000  0 17                     
G06  22378590.895 1 117600301.857 1      -263.134          40.000  
G11  22319165.418 1 117287984.875 1      1851.617          43.000  
G12  19687441.071 1 103458190.007 1     -1496.167          46.000  
G24  22584429.214 1 118681978.368 1     -3285.071          45.000  
G25  18756204.128 1  98564519.637 1       939.372          47.000  
G28  21757538.431 1 114336658.768 1      3419.336          38.000  
G32  20954305.607 1 110115611.615 1      -503.120          44.000  
G29  21445462.768 1 112696655.218 1      3602.699          42.000  
E05  22824916.936 1 119945748.913 1     -2084.845          40.000  
E03  24157425.597 1 126948143.411 1       481.968          41.000  
G31  23797504.169 2 125056716.097 1      3908.587          37.000  
G03  24264986.149 2 127513379.302 1       148.580          34.000  
E25  23680525.141 1 124442010.031 1      2083.604          43.000  
E24  22362772.419 1 117517173.740 1      -252.625          46.000  
E31  25153186.900 1 132180879.707 1     -1976.942          37.000  
E10  26244492.299 1 137915757.896 1      3379.283          40.000  
E33  25258399.777 9 132733795.03213       219.585          34.000  
> 2023 11 17 17 52 45.9960000  0 17                     
G06  22378641.187 1 117600565.702 1      -264.715          40.000  
G11  22318813.499 1 117286133.517 1      1850.674          43.000  
G12  19687725.754 1 103459686.471 1     -1496.881          47.000  
G24  22585054.543 1 118685263.618 1     -3285.718          45.000  
G25  18756025.386 1  98563580.588 1       938.559          47.000  
G28  21756887.974 1 114333239.592 1      3418.671          38.000  
G32  20954401.391 1 110116115.172 1      -504.263          44.000  
G29  21444777.271 1 112693052.722 1      3602.324          42.000  
E05  22825313.876 1 119947834.087 1     -2085.584          40.000  
E03  24157333.774 1 126947661.740 1       481.353          40.000  
G31  23796760.214 2 125052807.838 1      3907.712          37.000  
G03  24264957.845 2 127513231.431 1       146.948          34.000  
E25  23680128.637 1 124439926.609 1      2083.074          43.000  
E24  22362820.181 1 117517426.520 1      -253.113          46.000  
E31  25153562.918 1 132182856.720 1     -1977.331          37.000  
E10  26243849.259 1 137912378.866 1      3378.614          40.000  
E33  25258357.164 9 132733575.703 2       218.898          34.000  
> 2023 11 17 17 52 46.9960000  0 17                     
G06  22378691.566 1 117600830.237 1      -264.857          40.000  
G11  22318461.703 1 117284282.770 1      1850.524          43.000  
G12  19688010.541 1 103461183.393 1     -1496.985          46.000  
G24  22585679.732 1 118688549.109 1     -3285.480          45.000  
G25  18755847.010 1  98562642.090 1       938.260          47.000  
G28  21756237.710 1 114329820.708 1      3418.923          39.000  
G32  20954497.594 1 110116619.455 1      -504.605          44.000  
G29  21444091.757 1 112689450.671 1      3601.752          42.000  
E05  22825710.589 1 119949919.636 1     -2085.575          40.000  
E03  24157241.968 1 126947180.658 1       481.104          40.000  
G31  23796016.399 2 125048899.729 1      3907.533          36.000  
G03  24264929.646 2 127513084.234 1       146.764          34.000  
E25  23679732.098 1 124437843.445 1      2083.121          43.000  
E24  22362868.430 1 117517679.610 1      -253.182          46.000  
E31  25153939.179 1 132184833.899 1     -1977.091          37.000  
E10  26243206.201 1 137908999.985 1      3379.008          40.000  
E33  25258319.506 8 132733356.954 2       219.268          34.000  
> 2023 11 17 17 52 47.9960000  0 17                     
G06  22378741.910 1 117601095.405 1      -265.606          40.000  
G11  22318109.662 1 117282432.536 1      1850.194          43.000  
G12  19688295.503 1 103462680.647 1     -1497.412          46.000  
G24  22586304.868 1 118691834.719 1     -3285.534          45.000  
G25  18755668.756 1  98561704.011 1       937.830          47.000  
G28  21755587.340 1 114326402.026 1      3418.673          39.000  
G32  20954593.274 1 110117124.341 1      -505.118          44.000  
G29  21443406.487 1 112685848.880 1      3601.505          42.000  
E05  22826107.233 1 119952005.438 1     -2085.683          40.000  
E03  24157150.476 1 126946700.029 1       480.718          40.000  
G31  23795272.583 4 125044991.601 2      3908.411          36.000  
G03  24264901.795 2 127512937.633 1       146.403          34.000  
E25  23679335.664 1 124435760.381 1      2083.292          43.000  
E24  22362916.960 1 117517932.866 1      -253.079          46.000  
E31  25154315.039 1 132186811.087 1     -1976.901          37.000  
E10  26242563.056 1 137905621.165 1      3379.052          40.000  
E33  25258276.439 4 132733138.737 1       218.246          34.000  
> 2023 11 17 17 52 48.9960000  0 17                     
G06  22378792.760 1 117601361.050 1      -265.980          40.000  
G11  22317757.464 1 117280582.662 1      1849.677          43.000  
G12  19688580.134 1 103464178.067 1     -1497.485          46.000  
G24  22586930.109 1 118695120.315 1     -3285.669          45.000  
G25  18755490.310 1  98560766.208 1       937.377          47.000  
G28  21754936.656 2 114322983.374 1      3418.595          39.000  
G32  20954689.477 1 110117629.679 1      -505.584          44.000  
G29  21442721.217 1 112682247.227 1      3601.623          42.000  
E05  22826503.789 1 119954091.372 1     -2085.970          40.000  
E03  24157058.985 1 126946219.713 1       479.991          40.000  
G31  23794528.558 2 125041083.366 1      3908.170          36.000  
G03  24264873.613 4 127512791.488 2       145.754          34.000  
E25  23678939.248 1 124433677.320 1      2082.946          43.000  
E24  22362965.052 1 117518186.181 1      -253.566          46.000  
E31  25154691.249 1 132188788.171 1     -1977.421          37.000  
E10  26241920.294 1 137902242.251 1      3378.695          40.000  
E33  25258235.710 2 132732920.836 1       217.401          34.000  
> 2023 11 17 17 52 49.9960000  0 17                     
G06  22378843.435 1 117601627.452 1      -266.906          40.000  
G11  22317405.598 1 117278733.429 1      1848.817          43.000  
G12  19688864.956 1 103465675.959 1     -1498.321          46.000  
G24  22587555.665 1 118698406.167 1     -3286.145          45.000  
G25  18755311.881 1  98559828.962 1       936.641          47.000  
G28  21754286.287 1 114319565.067 1      3417.862          39.000  
G32  20954785.889 1 110118135.767 1      -506.532          44.000  
G29  21442036.191 1 112678646.018 1      3600.781          42.000  
E05  22826900.956 1 119956177.713 1     -2086.772          40.000  
E03  24156967.808 1 126945739.982 1       479.227          40.000  
G31  23793784.987 2 125037175.279 1      3907.985          36.000  
G03  24264845.919 2 127512646.082 1       144.742          34.000  
E25  23678542.657 1 124431594.513 1      2082.362          43.000  
E24  22363013.006 1 117518439.805 1      -253.972          46.000  
E31  25155067.458 1 132190765.427 1     -1977.727          37.000  
E10  26241277.568 1 137898863.509 1      3378.696          40.000  
E33  25258195.365 2 132732703.526 1       216.952          34.000  
> 2023 11 17 17 52 50.9960000  0 17                     
G06  22378894.320 1 117601894.668 1      -267.391          40.000  
G11  22317053.854 1 117276884.888 1      1848.541          43.000  
G12  19689150.058 1 103467174.368 1     -1498.205          46.000  
G24  22588180.993 1 118701692.351 1     -3285.913          45.000  
G25  18755133.662 1  98558892.334 1       936.752          47.000  
G28  21753635.934 1 114316147.119 1      3418.291          39.000  
G32  20954882.302 1 110118642.644 1      -506.787          44.000  
G29  21441351.253 1 112675045.280 1      3601.023          42.000  
E05  22827298.071 1 119958264.488 1     -2086.432          40.000  
E03  24156876.491 1 126945260.881 1       479.224          40.000  
G31  23793041.259 2 125033267.411 1      3908.783          36.000  
G03  24264818.365 2 127512501.427 1       144.822          34.000  
E25  23678146.065 1 124429512.027 1      2082.588          43.000  
E24  22363061.081 1 117518693.812 1      -253.836          46.000  
E31  25155443.440 1 132192742.867 1     -1976.910          37.000  
E10  26240634.649 1 137895485.049 1      3378.744          40.000  
E33  25258153.590 2 132732486.898 1       216.877          34.000  
> 2023 11 17 17 52 51.9960000  0 17                     
G06  22378945.152 1 117602162.420 1      -267.973          40.000  
G11  22316702.215 1 117275036.770 1      1848.012          43.000  
G12  19689435.404 1 103468673.036 1     -1498.798          46.000  
G24  22588806.566 1 118704978.570 1     -3286.029          45.000  
G25  18754955.618 1  98557956.041 1       936.328          47.000  
G28  21752985.617 1 114312729.270 1      3418.130          39.000  
G32  20954978.871 1 110119150.052 1      -507.369          44.000  
G29  21440666.175 1 112671444.765 1      3600.436          42.000  
E05  22827695.499 1 119960351.485 1     -2087.047          40.000  
E03  24156785.610 1 126944782.173 1       478.476          40.000  
G31  23792297.530 4 125029359.526 2      3907.402          36.000  
G03  24264791.161 2 127512357.286 1       143.949          34.000  
E25  23677749.788 1 124427429.567 1      2082.534          43.000  
E24  22363109.645 1 117518947.914 1      -254.063          46.000  
E31  25155819.667 1 132194720.291 1     -1977.321          37.000  
E10  26239991.906 1 137892106.540 1      3378.520          40.000  
E33  25258112.372 2 132732270.654 1       215.871          34.000  
> 2023 11 17 17 52 52.9960000  0 17                     
G06  22378996.369 1 117602430.704 1      -268.506          39.000  
G11  22316350.785 1 117273189.072 1      1847.585          43.000  
G12  19689720.470 1 103470171.936 1     -1498.932          46.000  
G24  22589431.790 1 118708264.832 1     -3286.169          45.000  
G25  18754777.538 1  98557020.106 1       935.974          47.000  
G28  21752335.265 1 114309311.538 1      3418.169          39.000  
G32  20955075.266 1 110119657.996 1      -508.085          44.000  
G29  21439981.463 1 112667844.445 1      3600.365          43.000  
E05  22828092.370 1 119962438.616 1     -2086.979          40.000  
E03  24156694.380 1 126944303.820 1       478.290          40.000  
G31  23791553.994 2 125025451.518 1      3907.843          36.000  
G03  24264764.165 4 127512213.644 2       143.553          34.000  
E25  23677353.616 1 124425347.160 1      2082.431          43.000  
E24  22363158.104 1 117519202.120 1      -254.292          46.000  
E31  25156196.068 1 132196697.652 1     -1977.407          37.000  
E10  26239348.760 1 137888727.980 1      3378.779          40.000  
E33  25258071.312 2 132732054.804 1       216.041          35.000  
> 2023 11 17 17 52 53.9960000  0 17                     
G06  22379047.201 1 117602699.464 1      -269.115          39.000  
G11  22315999.163 1 117271341.733 1      1847.061          43.000  
G12  19690005.816 1 103471671.021 1     -1499.463          46.000  
G24  22590057.066 1 118711551.077 1     -3286.560          45.000  
G25  18754599.354 1  98556084.448 1       935.364          47.000  
G28  21751685.401 1 114305893.874 1      3417.275          39.000  
G32  20955172.028 1 110120166.403 1      -509.127          44.000  
G29  21439296.908 1 112664244.282 1      3599.957          43.000  
E05  22828489.502 1 119964525.901 1     -2087.742          40.000  
E03  24156603.238 1 126943825.791 1       477.600          40.000  
G31  23790810.126 2 125021543.387 1      3907.871          36.000  
G03  24264737.013 4 127512070.487 2       142.843          35.000  
E25  23676957.182 1 124423264.731 1      2082.195          43.000  
E24  22363206.354 1 117519456.365 1      -254.626          46.000  
E31  25156572.435 1 132198674.881 1     -1977.497          37.000  
E10  26238706.069 1 137885349.355 1      3378.461          40.000  
E33  25258030.321 2 132731839.293 1       215.147          35.000  
> 2023 11 17 17 52 54.9960000  0 17                     
G06  22379098.295 1 117602969.101 1      -269.808          39.000  
G11  22315647.559 1 117269495.142 1      1846.594          43.000  
G12  19690291.110 1 103473170.687 1     -1499.615          46.000  
G24  22590682.273 1 118714837.706 1     -3286.377          44.000  
G25  18754421.327 1  98555149.476 1       934.779          47.000  
G28  21751035.137 1 114302476.615 1      3417.339          39.000  
G32  20955269.347 1 110120675.651 1      -509.409          44.000  
G29  21438612.424 1 112660644.662 1      3599.589          43.000  
E05  22828886.407 1 119966613.688 1     -2088.045          40.000  
E03  24156512.514 1 126943348.449 1       477.309          40.000  
G31  23790066.538 2 125017635.527 1      3908.098          36.000  
G03  24264710.331 2 127511928.121 1       142.833          35.000  
E25  23676561.149 1 124421182.680 1      2082.202          43.000  
E24  22363254.970 1 117519711.050 1      -254.717          46.000  
E31  25156948.958 1 132200652.404 1     -1977.492          37.000  
E10  26238063.081 1 137881971.031 1      3378.437          40.000  
E33  25257988.912 2 132731624.520 1       214.684          35.000  
> 2023 11 17 17 52 55.9960000  0 17                     
G06  22379149.616 1 117603239.228 1      -270.342          39.000  
G11  22315295.937 1 117267648.940 1      1845.910          43.000  
G12  19690576.194 1 103474670.540 1     -1499.988          46.000  
G24  22591307.846 1 118718124.311 1     -3286.615          44.000  
G25  18754243.509 1  98554214.790 1       934.393          47.000  
G28  21750384.819 1 114299059.410 1      3417.544          39.000  
G32  20955366.388 1 110121185.367 1      -510.065          44.000  
G29  21437927.974 1 112657045.188 1      3599.284          43.000  
E05  22829284.115 1 119968701.597 1     -2087.956          40.000  
E03  24156421.860 1 126942871.430 1       476.795          40.000  
G31  23789322.792 2 125013727.572 1      3907.626          35.000  
G03  24264683.318 2 127511786.271 1       141.364          35.000  
E25  23676165.029 1 124419100.618 1      2081.968          43.000  
E24  22363303.604 1 117519965.763 1      -254.727          46.000  
E31  25157325.359 1 132202629.799 1     -1977.384          37.000  
E10  26237420.023 1 137878592.609 1      3378.304          40.000  
E33  25257947.520 2 132731410.095 1       213.739          35.000  
> 2023 11 17 17 52 56.9960000  0 17                     
G06  22379201.147 1 117603510.086 1      -271.289          39.000  
G11  22314944.594 1 117265803.347 1      1845.295          42.000  
G12  19690861.610 1 103476170.839 1     -1500.555          46.000  
G24  22591933.384 1 118721411.167 1     -3286.920          45.000  
G25  18754065.796 1  98553280.630 1       933.909          47.000  
G28  21749734.799 1 114295642.537 1      3416.698          39.000  
G32  20955463.621 1 110121695.812 1      -510.742          45.000  
G29  21437243.594 1 112653446.126 1      3598.896          43.000  
E05  22829681.544 1 119970789.893 1     -2088.290          40.000  
E03  24156331.119 1 126942394.983 1       476.127          40.000  
G31  23788578.976 2 125009819.738 1      3907.487          35.000  
G03  24264656.899 2 127511645.077 1       141.058          35.000  
E25  23675769.067 1 124417018.798 1      2081.661          43.000  
E24  22363352.255 1 117520220.799 1      -255.289          46.000  
E31  25157701.673 1 132204607.349 1     -1977.613          37.000  
E10  26236777.192 1 137875214.373 1      3377.918          40.000  
E33  25257906.791 2 132731196.207 1       213.433          35.000  
> 2023 11 17 17 52 57.9960000  0 17                     
G06  22379252.712 1 117603781.509 1      -271.835          39.000  
G11  22314593.426 1 117263958.200 1      1845.180          42.000  
G12  19691147.026 1 103477671.412 1     -1500.574          46.000  
G24  22592558.555 1 118724698.078 1     -3286.627          45.000  
G25  18753887.909 1  98552346.842 1       933.918          47.000  
G28  21749084.604 1 114292225.785 1      3416.730          39.000  
G32  20955561.150 1 110122206.813 1      -511.145          45.000  
G29  21436558.917 1 112649847.306 1      3598.861          43.000  
E05  22830079.042 1 119972878.388 1     -2088.091          40.000  
E03  24156240.395 1 126941918.930 1       475.987          40.000  
G31  23787835.405 2 125005911.834 1      3908.660          35.000  
G03  24264630.060 2 127511504.409 1       141.315          35.000  
E25  23675372.772 1 124414937.038 1      2081.905          43.000  
E24  22363400.837 1 117520475.930 1      -255.002          46.000  
E31  25158078.249 1 132206584.868 1     -1977.299          37.000  
E10  26236134.413 1 137871836.123 1      3378.380          40.000  
E33  25257866.516 2 132730982.744 1       213.385          35.000  
> 2023 11 17 17 52 58.9960000  0 17                     
G06  22379304.487 1 117604053.517 1      -272.557          39.000  
G11  22314242.048 1 117262113.543 1      1844.273          42.000  
G12  19691432.546 1 103479172.295 1     -1501.099          46.000  
G24  22593183.901 1 118727985.100 1     -3286.963          45.000  
G25  18753710.335 1  98551413.468 1       933.184          47.000  
G28  21748434.461 1 114288809.189 1      3416.245          39.000  
G32  20955658.505 1 110122718.391 1      -511.879          45.000  
G29  21435874.519 1 112646248.744 1      3598.475          43.000  
E05  22830476.663 1 119974967.157 1     -2089.114          40.000  
E03  24156149.689 1 126941443.308 1       475.359          40.000  
G31  23787091.659 2 125002003.975 1      3908.030          35.000  
G03  24264603.658 2 127511364.321 1       140.568          35.000  
E25  23674976.670 1 124412855.400 1      2081.416          43.000  
E24  22363449.453 1 117520731.265 1      -255.443          46.000  
E31  25158454.406 1 132208562.398 1     -1977.658          37.000  
E10  26235491.390 1 137868457.906 1      3378.165          40.000  
E33  25257826.206 2 132730769.788 1       212.624          34.000  
> 2023 11 17 17 52 59.9960000  0 17                     
G06  22379356.210 1 117604325.920 1      -272.665          39.000  
G11  22313891.020 1 117260269.155 1      1844.139          42.000  
G12  19691718.171 1 103480673.264 1     -1501.129          46.000  
G24  22593809.195 1 118731272.019 1     -3287.103          44.000  
G25  18753532.727 1  98550480.283 1       932.882          47.000  
G28  21747784.283 1 114285392.535 1      3416.672          40.000  
G32  20955755.702 1 110123230.355 1      -512.453          44.000  
G29  21435189.895 1 112642650.249 1      3598.284          43.000  
E05  22830874.353 1 119977055.920 1     -2088.827          40.000  
E03  24156059.245 1 126940967.908 1       475.087          40.000  
G31  23786347.844 2 124998095.884 1      3908.243          35.000  
G03  24264577.343 4 127511224.634 2       139.677          35.000  
E25  23674580.253 1 124410773.631 1      2081.748          43.000  
E24  22363498.069 1 117520986.523 1      -255.286          46.000  
E31  25158830.720 1 132210539.704 1     -1977.065          37.000  
E10  26234848.611 1 137865079.507 1      3378.303          40.000  
E33  25257786.175 2 132730557.021 1       212.479          34.000  
> 2023 11 17 17 53 00.9960000  0 17                     
G06  22379408.403 1 117604598.958 1      -273.490          39.000  
G11  22313540.009 1 117258425.279 1      1843.380          42.000  
G12  19692003.831 1 103482174.572 1     -1501.520          46.000  
G24  22594434.558 1 118734559.054 1     -3287.122          44.000  
G25  18753355.258 1  98549547.512 1       932.673          47.000  
G28  21747134.123 1 114281976.105 1      3416.408          39.000  
G32  20955853.144 1 110123742.910 1      -512.876          44.000  
G29  21434505.079 1 112639052.045 1      3598.019          43.000  
E05  22831272.096 1 119979144.968 1     -2089.186          40.000  
E03  24155968.224 1 126940492.963 1       474.651          40.000  
G31  23785604.325 2 124994187.837 2      3908.110          35.000  
G03  24264551.011 2 127511085.514 1       138.595          35.000  
E25  23674183.941 1 124408692.007 1      2081.550          43.000  
E24  22363546.755 1 117521241.966 1      -255.552          46.000  
E31  25159207.051 1 132212517.061 1     -1977.414          37.000  
E10  26234206.042 1 137861701.173 1      3378.264          40.000  
E33  25257745.830 2 132730344.747 1       212.166          34.000  
> 2023 11 17 17 53 01.9960000  0 17                     
G06  22379460.265 1 117604872.707 1      -274.738          39.000  
G11  22313189.434 1 117256581.981 1      1842.444          42.000  
G12  19692289.526 1 103483676.287 1     -1502.393          46.000  
G24  22595060.044 1 118737846.315 1     -3287.836          44.000  
G25  18753177.894 1  98548615.259 1       931.582          47.000  
G28  21746483.945 1 114278559.949 1      3415.271          39.000  
G32  20955950.569 1 110124256.167 1      -514.148          44.000  
G29  21433820.175 1 112635454.218 1      3596.948          43.000  
E05  22831669.891 1 119981234.363 1     -2090.126          40.000  
E03  24155877.902 1 126940018.554 1       473.687          40.000  
G31  23784860.806 2 124990279.886 1      3907.109          35.000  
G03  24264524.766 2 127510947.060 1       137.398          35.000  
E25  23673787.769 1 124406610.589 1      2080.739          43.000  
E24  22363595.564 1 117521497.683 1      -256.292          46.000  
E31  25159583.225 1 132214494.521 1     -1978.111          37.000  
E10  26233563.088 1 137858322.970 1      3377.670          40.000  
E33  25257705.852 2 132730133.039 1       211.233          34.000  
> 2023 11 17 17 53 02.9960000  0 17                     
G06  22379512.738 1 117605147.327 1      -274.812          40.000  
G11  22312838.841 1 117254739.446 1      1842.671          42.000  
G12  19692575.221 1 103485178.593 1     -1502.362          46.000  
G24  22595685.721 1 118741133.950 1     -3287.524          44.000  
G25  18753000.286 1  98547683.692 1       931.591          47.000  
G28  21745833.977 1 114275144.216 1      3415.854          39.000  
G32  20956048.430 1 110124770.283 1      -514.249          44.000  
G29  21433135.289 1 112631856.927 1      3597.451          43.000  
E05  22832067.459 1 119983324.275 1     -2089.781          40.000  
E03  24155788.243 1 126939544.874 1       473.666          40.000  
G31  23784117.270 2 124986372.191 1      3908.153          35.000  
G03  24264498.852 2 127510809.476 1       137.154          35.000  
E25  23673391.579 1 124404529.554 1      2081.133          43.000  
E24  22363643.883 1 117521753.875 1      -256.105          46.000  
E31  25159959.557 1 132216472.269 1     -1977.484          37.000  
E10  26232920.257 1 137854945.072 1      3378.210          41.000  
E33  25257666.031 2 132729922.080 1       210.846          34.000  
> 2023 11 17 17 53 03.9960000  0 17                     
G06  22379565.176 1 117605422.530 1      -275.496          40.000  
G11  22312488.668 1 117252897.396 1      1841.789          42.000  
G12  19692861.091 1 103486681.168 1     -1502.747          46.000  
G24  22596311.329 1 118744421.667 1     -3287.872          44.000  
G25  18752823.114 1  98546752.513 1       930.939          47.000  
G28  21745183.887 1 114271728.627 1      3415.751          39.000  
G32  20956146.413 1 110125284.969 1      -514.964          44.000  
G29  21432450.333 1 112628259.886 1      3596.915          42.000  
E05  22832465.185 1 119985414.405 1     -2090.055          40.000  
E03  24155698.200 1 126939071.584 1       473.182          40.000  
G31  23783373.507 2 124982464.486 1      3908.245          35.000  
G03  24264472.921 2 127510672.384 1       136.679          35.000  
E25  23672995.965 1 124402448.592 1      2080.948          43.000  
E24  22363692.674 1 117522010.186 1      -256.398          46.000  
E31  25160335.661 1 132218450.006 1     -1977.788          37.000  
E10  26232277.426 1 137851567.206 1      3377.928          41.000  
E33  25257626.139 2 132729711.547 1       210.199          34.000  
> 2023 11 17 17 53 04.9960000  0 17                     
G06  22379617.649 1 117605698.169 1      -275.456          40.000  
G11  22312137.919 1 117251055.673 1      1841.804          42.000  
G12  19693147.501 1 103488183.903 1     -1502.490          46.000  
G24  22596936.832 1 118747709.346 1     -3287.207          44.000  
G25  18752646.221 1  98545821.582 1       931.164          48.000  
G28  21744533.709 1 114268313.088 1      3415.516          39.000  
G32  20956244.343 1 110125800.100 1      -515.048          44.000  
G29  21431765.290 1 112624662.983 1      3596.978          42.000  
E05  22832862.736 1 119987504.641 1     -2089.964          40.000  
E03  24155608.383 1 126938598.612 1       473.061          40.000  
G31  23782630.092 2 124978556.644 1      3908.381          35.000  
G03  24264447.060 2 127510535.742 1       136.394          35.000  
E25  23672599.933 1 124400367.606 1      2081.266          43.000  
E24  22363741.168 1 117522266.505 1      -255.964          46.000  
E31  25160711.818 1 132220427.606 1     -1977.454          37.000  
E10  26231634.595 1 137848189.229 1      3378.091          41.000  
E33  25257586.109 2 132729501.300 1       210.653          35.000  
> 2023 11 17 17 53 05.9960000  0 17                     
G06  22379670.558 1 117605974.557 1      -276.929          40.000  
G11  22311787.466 1 117249214.570 1      1840.502          42.000  
G12  19693433.458 1 103489687.081 1     -1503.522          46.000  
G24  22597562.510 1 118750997.275 1     -3288.141          44.000  
G25  18752469.101 1  98544891.199 1       929.917          48.000  
G28  21743883.671 1 114264897.817 1      3415.227          39.000  
G32  20956342.309 1 110126315.945 1      -516.342          44.000  
G29  21431080.299 1 112621066.463 1      3596.242          42.000  
E05  22833260.130 1 119989595.264 1     -2091.324          40.000  
E03  24155518.689 1 126938126.162 1       472.044          40.000  
G31  23781886.539 2 124974648.965 1      3907.239          35.000  
G03  24264421.460 2 127510399.798 1       135.562          35.000  
E25  23672204.441 1 124398286.855 1      2080.533          43.000  
E24  22363790.343 1 117522523.143 1      -257.217          46.000  
E31  25161088.341 1 132222405.335 1     -1977.994          37.000  
E10  26230991.624 1 137844811.388 1      3377.720          41.000  
E33  25257545.973 2 132729291.674 1       209.089          35.000  
> 2023 11 17 17 53 06.9960000  0 17                     
G06  22379723.362 1 117606251.689 1      -277.061          40.000  
G11  22311437.065 1 117247374.095 1      1840.561          42.000  
G12  19693719.485 1 103491190.723 1     -1503.674          46.000  
G24  22598188.519 1 118754285.461 1     -3288.184          44.000  
G25  18752292.173 1  98543961.359 1       929.797          48.000  
G28  21743233.790 1 114261482.912 1      3414.773          39.000  
G32  20956440.379 1 110126832.520 1      -516.621          44.000  
G29  21430395.099 1 112617470.385 1      3596.099          42.000  
E05  22833658.326 1 119991686.270 1     -2091.065          40.000  
E03  24155428.803 1 126937654.336 1       471.710          40.000  
G31  23781142.950 2 124970741.387 1      3908.019          35.000  
G03  24264395.704 2 127510264.577 1       135.407          35.000  
E25  23671808.705 1 124396206.361 1      2080.605          43.000  
E24  22363839.186 1 117522780.078 1      -256.966          46.000  
E31  25161464.498 1 132224383.224 1     -1977.494          37.000  
E10  26230348.828 1 137841433.767 1      3377.435          41.000  
E33  25257506.082 2 132729082.626 1       209.092          35.000  
> 2023 11 17 17 53 07.9960000  0 17                     
G06  22379776.393 1 117606529.436 1      -278.116          40.000  
G11  22311086.682 1 117245534.120 1      1839.621          42.000  
G12  19694005.790 1 103492694.660 1     -1504.083          46.000  
G24  22598814.092 1 118757573.745 1     -3288.312          44.000  
G25  18752115.630 1  98543031.939 1       929.082          48.000  
G28  21742583.961 1 114258068.150 1      3414.614          39.000  
G32  20956539.025 1 110127349.693 1      -517.343          44.000  
G29  21429710.858 1 112613874.579 1      3595.452          42.000  
E05  22834056.086 1 119993777.506 1     -2091.417          40.000  
E03  24155338.760 1 126937182.915 1       471.433          40.000  
G31  23780399.414 2 124966833.828 1      3907.675          35.000  
G03  24264369.720 2 127510129.931 1       134.493          35.000  
E25  23671412.620 1 124394125.969 1      2080.372          43.000  
E24  22363888.431 1 117523037.181 1      -257.305          46.000  
E31  25161840.865 1 132226361.134 1     -1978.214          37.000  
E10  26229705.840 1 137838056.146 1      3377.703          41.000  
E33  25257466.383 2 132728874.050 1       208.455          35.000  
> 2023 11 17 17 53 08.9960000  0 17                     
G06  22379829.041 1 117606807.716 1      -278.663          39.000  
G11  22310736.474 1 117243694.576 1      1839.116          42.000  
G12  19694292.044 1 103494198.856 1     -1504.449          46.000  
G24  22599439.822 1 118760862.078 1     -3288.427          44.000  
G25  18751938.911 1  98542102.856 1       928.796          48.000  
G28  21741934.307 1 114254653.485 1      3414.696          39.000  
G32  20956637.514 1 110127867.389 1      -517.963          44.000  
G29  21429026.356 1 112610278.978 1      3595.378          42.000  
E05  22834454.684 1 119995868.950 1     -2091.702          40.000  
E03  24155249.310 1 126936711.910 1       470.516          40.000  
G31  23779655.720 2 124962926.228 1      3907.349          35.000  
G03  24264343.981 2 127509995.825 1       133.751          35.000  
E25  23671017.302 1 124392045.632 1      2080.166          43.000  
E24  22363937.378 1 117523294.388 1      -257.280          46.000  
E31  25162217.022 2 132228339.007 1     -1978.108          37.000  
E10  26229063.340 1 137834678.536 1      3377.369          41.000  
E33  25257426.614 2 132728665.872 1       207.909          35.000  
> 2023 11 17 17 53 09.9960000  0 17                     
G06  22379882.177 1 117607086.822 1      -279.579          39.000  
G11  22310386.301 1 117241855.722 1      1838.481          42.000  
G12  19694578.297 1 103495703.573 1     -1504.858          46.000  
G24  22600065.796 1 118764150.739 1     -3288.959          44.000  
G25  18751762.280 1  98541174.403 1       928.166          48.000  
G28  21741284.496 1 114251239.250 1      3413.794          39.000  
G32  20956736.125 1 110128385.891 1      -518.783          44.000  
G29  21428341.644 1 112606683.885 1      3594.938          42.000  
E05  22834853.038 1 119997960.846 1     -2092.105          40.000  
E03  24155159.791 1 126936241.520 1       470.144          40.000  
G31  23778912.236 2 124959018.820 1      3907.637          35.000  
G03  24264318.591 2 127509862.462 1       133.004          35.000  
E25  23670621.689 1 124389965.615 1      2079.851          43.000  
E24  22363986.483 1 117523551.990 1      -257.948          46.000  
E31  25162593.632 1 132230317.066 1     -1978.012          37.000  
E10  26228420.753 1 137831301.167 1      3377.144          41.000  
E33  25257387.037 2 132728458.384 1       207.213          35.000  
> 2023 11 17 17 53 10.9960000  0 17                     
G06  22379935.452 1 117607366.513 1      -280.215          39.000  
G11  22310036.424 1 117240017.360 1      1838.098          42.000  
G12  19694864.655 1 103497208.602 1     -1505.170          46.000  
G24  22600691.979 1 118767439.495 1     -3288.830          44.000  
G25  18751585.509 1  98540246.341 1       927.854          48.000  
G28  21740634.650 1 114247825.163 1      3413.790          39.000  
G32  20956834.894 1 110128904.976 1      -519.422          44.000  
G29  21427657.386 1 112603089.055 1      3594.673          41.000  
E05  22835251.095 1 120000052.973 1     -2092.129          40.000  
E03  24155070.341 1 126935771.580 1       469.535          40.000  
G31  23778168.525 4 124955111.440 2      3907.274          35.000  
G03  24264293.393 2 127509729.692 1       132.621          36.000  
E25  23670225.673 1 124387885.697 1      2079.721          43.000  
E24  22364035.204 1 117523809.732 1      -257.784          46.000  
E31  25162969.806 1 132232295.134 1     -1977.563          37.000  
E10  26227778.045 1 137827923.813 1      3377.391          41.000  
E33  25257347.390 2 132728251.336 1       206.698          35.000  
> 2023 11 17 17 53 11.9960000  0 17                     
G06  22379989.007 1 117607647.061 1      -281.218          39.000  
G11  22309686.634 1 117238179.735 1      1836.984          42.000  
G12  19695151.100 1 103498714.173 1     -1505.927          46.000  
G24  22601317.988 1 118770728.600 1     -3289.392          44.000  
G25  18751408.913 1  98539318.946 1       926.877          48.000  
G28  21739984.873 1 114244411.462 1      3413.470          39.000  
G32  20956933.697 1 110129424.900 1      -520.556          44.000  
G29  21426973.826 1 112599494.752 1      3594.020          42.000  
E05  22835649.448 1 120002145.616 1     -2092.969          40.000  
E03  24154980.873 1 126935302.308 1       468.801          40.000  
G31  23777425.059 2 124951204.265 1      3907.147          35.000  
G03  24264268.160 2 127509597.734 1       131.448          36.000  
E25  23669829.990 1 124385806.135 1      2079.093          43.000  
E24  22364084.327 1 117524067.891 1      -258.294          46.000  
E31  25163346.260 1 132234273.497 1     -1978.723          37.000  
E10  26227135.196 1 137824546.765 1      3376.738          41.000  
E33  25257308.057 2 132728044.969 1       205.930          35.000  
> 2023 11 17 17 53 12.9960000  0 17                     
G06  22380042.527 1 117607928.190 1      -281.363          39.000  
G11  22309336.792 1 117236342.576 1      1836.923          42.000  
G12  19695437.860 1 103500220.037 1     -1505.835          46.000  
G24  22601943.823 1 118774017.790 1     -3289.099          44.000  
G25  18751232.561 1  98538391.945 1       926.906          48.000  
G28  21739335.132 1 114240997.963 1      3413.354          39.000  
G32  20957032.866 1 110129945.397 1      -520.690          44.000  
G29  21426289.970 1 112595900.720 1      3593.857          41.000  
E05  22836047.924 1 120004238.457 1     -2092.592          40.000  
E03  24154891.860 1 126934833.463 1       468.740          40.000  
G31  23776681.627 2 124947297.109 1      3907.303          35.000  
G03  24264243.206 2 127509466.337 1       131.395          36.000  
E25  23669434.114 1 124383726.667 1      2079.535          42.000  
E24  22364133.467 1 117524326.217 1      -258.254          46.000  
E31  25163722.836 1 132236251.819 1     -1978.150          37.000  
E10  26226492.731 1 137821169.714 1      3377.015          41.000  
E33  25257269.073 1 132727839.076 1       205.673          34.000  
> 2023 11 17 17 53 13.9960000  0 17                     
G06  22380096.099 1 117608209.701 1      -281.843          39.000  
G11  22308987.212 1 117234505.683 1      1836.508          42.000  
G12  19695724.480 1 103501725.996 1     -1506.140          46.000  
G24  22602569.832 1 118777306.881 1     -3289.172          44.000  
G25  18751056.401 1  98537465.122 1       926.583          48.000  
G28  21738685.268 1 114237584.399 1      3413.338          38.000  
G32  20957132.385 1 110130466.252 1      -521.114          44.000  
G29  21425606.270 1 112592306.710 1      3594.117          42.000  
E05  22836446.452 1 120006331.345 1     -2092.718          40.000  
E03  24154802.567 1 126934364.822 1       468.629          40.000  
G31  23775937.864 2 124943389.713 1      3907.840          34.000  
G03  24264218.183 2 127509335.291 1       130.674          36.000  
E25  23669038.361 1 124381647.074 1      2079.527          43.000  
E24  22364182.397 1 117524584.479 1      -258.265          46.000  
E31  25164099.045 1 132238229.971 1     -1978.292          37.000  
E10  26225849.987 1 137817792.505 1      3377.154          41.000  
E33  25257229.758 2 132727633.399 1       205.614          34.000  
> 2023 11 17 17 53 14.9960000  0 17                     
G06  22380149.880 1 117608492.062 1      -283.092          39.000  
G11  22308637.946 1 117232669.527 1      1835.945          41.000  
G12  19696011.187 1 103503232.495 1     -1506.775          46.000  
G24  22603195.649 1 118780596.317 1     -3289.502          45.000  
G25  18750880.206 1  98536538.957 1       925.763          48.000  
G28  21738035.632 1 114234171.245 1      3412.980          38.000  
G32  20957231.938 1 110130987.938 1      -522.108          44.000  
G29  21424922.658 1 112588713.248 1      3593.155          42.000  
E05  22836844.788 1 120008424.731 1     -2093.656          40.000  
E03  24154713.449 1 126933896.859 1       467.853          40.000  
G31  23775194.310 2 124939482.587 1      3906.902          34.000  
G03  24264193.386 2 127509205.055 1       130.009          36.000  
E25  23668642.555 1 124379567.843 1      2079.073          43.000  
E24  22364231.502 1 117524843.141 1      -258.800          46.000  
E31  25164475.725 1 132240208.331 1     -1978.586          37.000  
E10  26225207.034 1 137814415.558 1      3376.731          41.000  
E33  25257190.861 2 132727428.426 1       204.804          34.000  
> 2023 11 17 17 53 15.9960000  0 17                     
G06  22380203.679 1 117608774.850 1      -283.125          39.000  
G11  22308288.662 1 117230833.705 1      1835.621          41.000  
G12  19696298.190 1 103504739.154 1     -1506.995          46.000  
G24  22603821.746 1 118783885.695 1     -3289.673          45.000  
G25  18750703.802 1  98535613.036 1       925.399          48.000  
G28  21737385.733 1 114230758.107 1      3412.742          38.000  
G32  20957331.108 1 110131510.064 1      -522.736          44.000  
G29  21424239.098 1 112585119.898 1      3592.826          42.000  
E05  22837242.688 1 120010518.191 1     -2093.801          40.000  
E03  24154624.418 1 126933429.189 1       467.476          40.000  
G31  23774450.652 2 124935575.316 1      3906.488          34.000  
G03  24264168.711 2 127509075.240 1       129.196          36.000  
E25  23668246.731 1 124377488.563 1      2078.982          43.000  
E24  22364280.921 1 117525101.827 1      -258.968          46.000  
E31  25164852.371 1 132242186.549 1     -1978.231          37.000  
E10  26224564.552 1 137811038.495 1      3376.699          41.000  
E33  25257152.052 2 132727223.781 1       204.297          35.000  
> 2023 11 17 17 53 16.9960000  0 17                     
G06  22380257.932 1 117609058.496 1      -283.793          40.000  
G11  22307939.710 1 117228998.617 1      1834.562          41.000  
G12  19696584.793 1 103506246.363 1     -1507.556          46.000  
G24  22604447.807 1 118787175.445 1     -3290.082          45.000  
G25  18750527.747 1  98534687.760 1       924.993          48.000  
G28  21736736.201 1 114227345.386 1      3412.514          38.000  
G32  20957430.801 1 110132033.028 1      -523.566          44.000  
G29  21423555.817 1 112581527.055 1      3592.469          42.000  
E05  22837640.815 1 120012612.150 1     -2094.432          40.000  
E03  24154535.806 1 126932962.200 1       466.721          40.000  
G31  23773706.993 4 124931668.258 2      3907.054          34.000  
G03  24264144.124 2 127508946.245 1       128.509          36.000  
E25  23667851.100 1 124375409.639 1      2078.597          43.000  
E24  22364330.061 1 117525360.914 1      -259.318          46.000  
E31  25165228.755 1 132244165.041 1     -1978.627          37.000  
E10  26223921.965 1 137807661.720 1      3376.384          41.000  
E33  25257113.400 2 132727019.799 1       203.666          35.000  
> 2023 11 17 17 53 17.9960000  0 17                     
G06  22380312.133 1 117609342.686 1      -284.302          40.000  
G11  22307590.409 1 117227163.929 1      1834.552          42.000  
G12  19696871.465 1 103507753.804 1     -1507.483          46.000  
G24  22605074.043 1 118790465.202 1     -3289.789          45.000  
G25  18750351.727 1  98533762.824 1       924.854          48.000  
G28  21736086.495 1 114223932.774 1      3412.337          38.000  
G32  20957530.634 1 110132556.485 1      -523.620          44.000  
G29  21422872.362 1 112577934.402 1      3592.791          42.000  
E05  22838039.500 1 120014706.252 1     -2093.891          40.000  
E03  24154446.583 1 126932495.576 1       466.561          40.000  
G31  23772963.230 4 124927761.139 2      3907.101          34.000  
G03  24264119.362 2 127508817.735 1       128.211          36.000  
E25  23667455.469 1 124373330.731 1      2079.014          43.000  
E24  22364379.707 1 117525620.096 1      -259.159          46.000  
E31  25165605.313 1 132246143.440 1     -1978.072          37.000  
E10  26223279.570 1 137804284.884 1      3376.937          41.000  
E33  25257074.625 2 132726816.204 1       203.851          34.000  
> 2023 11 17 17 53 18.9960000  0 17                     
G06  22380366.699 1 117609627.565 1      -285.445          40.000  
G11  22307241.440 1 117225329.810 1      1834.023          42.000  
G12  19697158.329 1 103509261.612 1     -1507.819          46.000  
G24  22605700.349 1 118793755.146 1     -3290.045          44.000  
G25  18750175.741 1  98532838.374 1       924.188          48.000  
G28  21735436.806 2 114220520.376 1      3412.278          38.000  
G32  20957630.414 1 110133080.602 1      -524.379          45.000  
G29  21422188.820 1 112574342.122 1      3592.217          42.000  
E05  22838437.993 1 120016800.697 1     -2094.657          40.000  
E03  24154358.232 1 126932029.451 1       466.018          40.000  
G31  23772219.589 4 124923854.083 2      3907.555          34.000  
G03  24264095.054 2 127508689.857 1       127.659          36.000  
E25  23667060.099 1 124371252.013 1      2078.690          43.000  
E24  22364428.969 1 117525879.514 1      -259.538          46.000  
E31  25165982.360 1 132248121.943 1     -1978.387          37.000  
E10  26222637.071 1 137800908.179 1      3376.589          41.000  
E33  25257036.427 2 132726613.169 1       202.636          35.000  
> 2023 11 17 17 53 19.9960000  0 17                     
G06  22380421.022 1 117609912.953 1      -286.303          39.000  
G11  22306892.610 1 117223496.119 1      1833.152          42.000  
G12  19697445.542 1 103510769.680 1     -1508.472          46.000  
G24  22606326.428 1 118797045.140 1     -3290.466          45.000  
G25  18750000.227 1  98531914.256 1       923.537          48.000  
G28  21734787.309 1 114217108.115 1      3411.820          38.000  
G32  20957730.299 1 110133605.265 1      -525.277          45.000  
G29  21421505.190 1 112570750.039 1      3591.602          42.000  
E05  22838836.696 1 120018895.311 1     -2095.096          40.000  
E03  24154269.760 1 126931563.703 1       465.320          40.000  
G31  23771475.791 4 124919946.965 3      3907.116          34.000  
G03  24264070.659 2 127508562.519 1       126.605          36.000  
E25  23666664.084 1 124369173.340 1      2078.249          43.000  
E24  22364478.126 1 117526139.030 1      -259.815          46.000  
E31  25166359.197 1 132250100.395 1     -1978.797          37.000  
E10  26221994.693 1 137797531.433 1      3376.384          41.000  
E33  25256998.054 2 132726410.512 1       202.107          35.000  
> 2023 11 17 17 53 20.9960000  0 17                     
G06  22380475.519 1 117610198.961 1      -286.644          40.000  
G11  22306543.763 1 117221662.931 1      1832.632          42.000  
G12  19697732.529 1 103512278.076 1     -1508.801          46.000  
G24  22606952.629 1 118800335.252 1     -3290.295          44.000  
G25  18749824.294 1  98530990.562 1       923.418          48.000  
G28  21734137.742 2 114213696.040 1      3411.527          38.000  
G32  20957830.586 1 110134130.511 1      -525.667          45.000  
G29  21420821.787 1 112567158.251 1      3591.490          42.000  
E05  22839235.102 1 120020990.200 1     -2095.368          40.000  
E03  24154181.549 1 126931098.406 1       464.814          40.000  
G31  23770732.464 4 124916039.907 2      3907.202          34.000  
G03  24264046.490 2 127508435.765 1       126.192          36.000  
E25  23666268.418 1 124367094.789 1      2078.214          43.000  
E24  22364527.475 1 117526398.750 1      -260.193          46.000  
E31  25166735.755 1 132252078.867 1     -1978.651          37.000  
E10  26221352.037 1 137794154.749 1      3376.569          41.000  
E33  25256959.820 2 132726208.334 1       201.683          35.000  
> 2023 11 17 17 53 21.9960000  0 17                     
G06  22380529.998 1 117610485.902 1      -287.170          39.000  
G11  22306195.107 1 117219830.553 1      1832.166          42.000  
G12  19698019.742 1 103513787.084 1     -1509.271          46.000  
G24  22607578.830 1 118803625.791 1     -3290.747          44.000  
G25  18749648.535 1  98530067.587 1       922.838          48.000  
G28  21733488.262 2 114210284.437 1      3411.482          38.000  
G32  20957930.785 1 110134656.669 1      -526.345          45.000  
G29  21420138.576 1 112563567.050 1      3591.139          42.000  
E05  22839633.961 1 120023085.636 1     -2095.604          40.000  
E03  24154093.129 1 126930633.850 1       464.350          40.000  
G31  23769988.718 4 124912133.189 2      3906.289          34.000  
G03  24264022.548 2 127508309.861 1       125.887          36.000  
E25  23665873.205 1 124365016.667 1      2078.086          43.000  
E24  22364576.912 1 117526658.925 1      -260.331          46.000  
E31  25167112.349 1 132254057.650 1     -1978.848          37.000  
E10  26220710.148 1 137790778.421 1      3376.377          41.000  
E33  25256921.412 2 132726006.924 1       201.001          35.000  
> 2023 11 17 17 53 22.9960000  0 17                     
G06  22380584.810 1 117610773.367 1      -287.316          39.000  
G11  22305846.417 1 117217998.579 1      1832.124          41.000  
G12  19698306.990 1 103515296.330 1     -1509.302          46.000  
G24  22608204.944 1 118806916.362 1     -3290.417          44.000  
G25  18749472.969 1  98529144.960 1       922.624          48.000  
G28  21732838.974 1 114206872.950 1      3411.567          38.000  
G32  20958031.124 1 110135183.336 1      -526.672          45.000  
G29  21419455.313 1 112559976.051 1      3591.288          42.000  
E05  22840032.559 1 120025181.247 1     -2095.435          40.000  
E03  24154004.638 1 126930169.668 1       464.315          40.000  
G31  23769245.025 4 124908226.341 2      3906.583          34.000  
G03  24263998.851 1 127508184.477 1       125.424          36.000  
E25  23665477.940 1 124362938.568 1      2078.433          43.000  
E24  22364626.592 1 117526919.184 1      -260.075          46.000  
E31  25167488.558 2 132256036.387 1     -1978.328          37.000  
E10  26220067.369 1 137787402.054 1      3376.562          41.000  
E33  25256882.952 2 132725805.900 1       201.184          35.000  
> 2023 11 17 17 53 23.9960000  0 17                     
G06  22380639.219 1 117611061.303 1      -288.791          39.000  
G11  22305497.954 1 117216166.965 1      1830.978          41.000  
G12  19698594.482 1 103516805.727 1     -1509.894          46.000  
G24  22608831.005 1 118810206.882 1     -3290.979          44.000  
G25  18749297.472 1  98528222.581 1       921.887          48.000  
G28  21732189.704 1 114203461.468 1      3410.990          38.000  
G32  20958131.707 1 110135710.455 1      -527.862          45.000  
G29  21418771.840 1 112556385.176 1      3590.492          42.000  
E05  22840431.593 1 120027276.957 1     -2096.249          40.000  
E03  24153916.305 1 126929705.786 1       463.126          40.000  
G31  23768501.332 2 124904319.371 1      3906.235          34.000  
G03  24263974.944 1 127508059.526 1       124.376          36.000  
E25  23665082.431 1 124360860.432 1      2077.796          43.000  
E24  22364676.448 1 117527179.490 1      -260.617          46.000  
E31  25167864.976 1 132258014.973 1     -1978.886          37.000  
E10  26219424.974 1 137784025.575 1      3376.193          41.000  
E33  25256845.068 2 132725605.188 1       200.044          35.000  
> 2023 11 17 17 53 24.9960000  0 17                     
G06  22380694.065 1 117611349.923 1      -288.534          39.000  
G11  22305149.752 1 117214335.946 1      1830.879          41.000  
G12  19698881.678 1 103518315.581 1     -1509.894          46.000  
G24  22609457.241 1 118813497.642 1     -3290.674          44.000  
G25  18749121.853 1  98527300.739 1       921.687          48.000  
G28  21731540.556 1 114200050.283 1      3411.312          38.000  
G32  20958232.185 1 110136238.279 1      -527.961          45.000  
G29  21418088.385 1 112552794.700 1      3590.429          42.000  
E05  22840830.139 1 120029373.021 1     -2095.935          40.000  
E03  24153827.955 1 126929242.439 1       463.274          40.000  
G31  23767757.551 2 124900412.515 2      3906.721          34.000  
G03  24263951.212 2 127507935.259 1       124.578          36.000  
E25  23664687.149 1 124358782.550 1      2077.757          43.000  
E24  22364725.657 1 117527440.083 1      -260.621          46.000  
E31  25168241.901 1 132259993.720 1     -1978.918          37.000  
E10  26218782.318 1 137780649.260 1      3376.330          41.000  
E33  25256807.358 2 132725405.059 1       199.813          35.000  
> 2023 11 17 17 53 25.9960000  0 17                     
G06  22380749.121 1 117611639.023 1      -289.389          39.000  
G11  22304801.166 1 117212505.279 1      1830.442          41.000  
G12  19699169.257 1 103519825.606 1     -1510.315          46.000  
G24  22610083.320 1 118816788.356 1     -3290.729          44.000  
G25  18748946.496 1  98526379.159 1       921.303          48.000  
G28  21730891.338 1 114196639.146 1      3411.320          38.000  
G32  20958332.349 1 110136766.542 1      -528.708          45.000  
G29  21417404.773 1 112549204.348 1      3590.339          42.000  
E05  22841229.086 1 120031469.202 1     -2096.239          40.000  
E03  24153739.884 1 126928779.391 1       462.765          40.000  
G31  23767013.509 4 124896505.482 2      3907.298          34.000  
G03  24263927.637 2 127507811.427 1       123.736          36.000  
E25  23664291.221 1 124356704.596 1      2077.892          43.000  
E24  22364775.355 1 117527700.689 1      -260.681          46.000  
E31  25168618.198 1 132261972.285 1     -1978.307          37.000  
E10  26218139.661 1 137777272.840 1      3376.262          41.000  
E33  25256769.369 2 132725205.217 1       199.592          35.000  
> 2023 11 17 17 53 26.9960000  0 17                     
G06  22380804.246 1 117611928.715 1      -290.403          39.000  
G11  22304452.982 1 117210675.101 1      1829.403          41.000  
G12  19699456.785 1 103521335.924 1     -1510.944          46.000  
G24  22610709.364 1 118820079.178 1     -3291.248          44.000  
G25  18748771.365 1  98525457.975 1       920.567          48.000  
G28  21730242.295 1 114193228.176 1      3410.470          38.000  
G32  20958432.915 1 110137295.385 1      -529.408          44.000  
G29  21416721.143 1 112545614.284 1      3589.387          42.000  
E05  22841627.963 1 120033565.627 1     -2097.086          40.000  
E03  24153651.603 1 126928316.778 1       461.890          40.000  
G31  23766269.693 2 124892598.524 2      3906.586          34.000  
G03  24263904.445 2 127507688.148 1       122.759          36.000  
E25  23663896.078 1 124354626.760 1      2077.366          43.000  
E24  22364825.036 1 117527961.455 1      -261.294          46.000  
E31  25168994.861 1 132263950.873 1     -1978.737          37.000  
E10  26217497.423 1 137773896.441 1      3375.963          41.000  
E33  25256731.467 2 132725005.869 1       198.602          35.000  
> 2023 11 17 17 53 27.9960000  0 17                     
G06  22380859.371 1 117612219.194 1      -290.661          39.000  
G11  22304104.536 1 117208845.560 1      1829.628          41.000  
G12  19699744.155 1 103522846.715 1     -1510.693          46.000  
G24  22611335.652 1 118823370.276 1     -3290.924          44.000  
G25  18748596.147 1  98524537.369 1       920.836          48.000  
G28  21729593.094 1 114189817.541 1      3410.789          38.000  
G32  20958533.690 1 110137824.996 1      -529.632          44.000  
G29  21416037.757 1 112542024.644 1      3589.743          42.000  
E05  22842026.735 1 120035662.448 1     -2096.702          40.000  
E03  24153563.549 1 126927854.759 1       461.981          40.000  
G31  23765525.982 4 124888691.679 2      3907.329          34.000  
G03  24263881.184 2 127507565.626 1       122.789          36.000  
E25  23663500.865 1 124352549.207 1      2077.601          43.000  
E24  22364874.630 1 117528222.555 1      -260.964          46.000  
E31  25169371.698 1 132265929.658 1     -1978.501          37.000  
E10  26216855.028 1 137770520.243 1      3376.476          41.000  
E33  25256693.006 2 132724807.120 1       198.747          35.000  
> 2023 11 17 17 53 28.9960000  0 17                     
G06  22380914.531 1 117612510.027 1      -291.423          39.000  
G11  22303756.684 1 117207016.306 1      1828.897          41.000  
G12  19700031.682 1 103524357.583 1     -1510.956          46.000  
G24  22611961.993 1 118826661.235 1     -3290.973          44.000  
G25  18748421.157 1  98523616.952 1       920.117          48.000  
G28  21728944.225 2 114186406.833 1      3410.734          38.000  
G32  20958634.046 1 110138354.958 1      -530.259          44.000  
G29  21415354.355 1 112538435.059 1      3589.342          42.000  
E05  22842426.083 1 120037759.294 1     -2096.985          40.000  
E03  24153475.600 1 126927392.952 1       461.810          40.000  
G31  23764782.533 4 124884784.640 2      3907.621          34.000  
G03  24263858.132 1 127507443.427 1       122.114          36.000  
E25  23663105.635 1 124350471.516 1      2077.703          43.000  
E24  22364924.625 1 117528483.591 1      -261.127          46.000  
E31  25169748.064 1 132267908.217 1     -1978.504          37.000  
E10  26216212.337 1 137767143.866 1      3376.617          41.000  
E33  25256655.366 2 132724608.586 1       198.411          35.000  
> 2023 11 17 17 53 29.9960000  0 17                     
G06  22380969.744 1 117612801.444 1      -291.955          39.000  
G11  22303408.622 1 117205187.525 1      1828.174          41.000  
G12  19700319.279 1 103525868.759 1     -1511.615          46.000  
G24  22612588.124 1 118829952.315 1     -3291.510          44.000  
G25  18748246.079 1  98522696.941 1       919.394          48.000  
G28  21728295.112 1 114182996.330 1      3409.951          38.000  
G32  20958734.873 1 110138885.517 1      -531.380          44.000  
G29  21414670.777 1 112534845.744 1      3588.656          42.000  
E05  22842825.466 1 120039856.376 1     -2097.431          40.000  
E03  24153387.930 1 126926931.597 1       460.510          40.000  
G31  23764038.857 2 124880877.585 2      3907.211          34.000  
G03  24263835.307 2 127507321.833 1       121.042          36.000  
E25  23662710.039 1 124348393.947 1      2077.074          43.000  
E24  22364974.532 1 117528744.796 1      -261.730          46.000  
E31  25170124.099 1 132269886.788 1     -1979.155          37.000  
E10  26215570.221 1 137763767.532 1      3375.937          41.000  
E33  25256617.517 2 132724410.533 1       197.500          35.000  
> 2023 11 17 17 53 30.9960000  0 17                     
G06  22381025.183 1 117613093.818 1      -292.916          38.000  
G11  22303060.577 1 117203359.550 1      1827.449          41.000  
G12  19700607.225 1 103527380.558 1     -1512.109          46.000  
G24  22613214.552 1 118833243.798 1     -3291.644          44.000  
G25  18748071.001 1  98521777.634 1       918.884          48.000  
G28  21727646.156 1 114179586.281 1      3409.762          38.000  
G32  20958835.631 1 110139416.953 1      -531.920          44.000  
G29  21413987.880 1 112531257.017 1      3588.372          41.000  
E05  22843225.076 1 120041954.031 1     -2097.981          40.000  
E03  24153300.208 1 126926470.963 1       460.179          40.000  
G31  23763295.513 4 124876970.921 2      3906.036          34.000  
G03  24263812.675 2 127507201.100 1       119.993          36.000  
E25  23662314.949 1 124346316.785 1      2076.890          43.000  
E24  22365024.387 1 117529006.469 1      -261.905          46.000  
E31  25170500.780 1 132271865.657 1     -1979.051          37.000  
E10  26214927.547 1 137760391.526 1      3375.981          41.000  
E33  25256580.086 2 132724213.258 1       196.744          35.000  
> 2023 11 17 17 53 31.9960000  0 17                     
G06  22381081.111 1 117613386.854 1      -293.244          38.000  
G11  22302712.585 1 117201532.142 1      1827.448          41.000  
G12  19700894.997 1 103528892.748 1     -1512.274          46.000  
G24  22613841.033 1 118836535.501 1     -3291.852          44.000  
G25  18747896.341 1  98520858.836 1       918.569          48.000  
G28  21726997.444 1 114176176.519 1      3409.765          38.000  
G32  20958936.493 1 110139949.086 1      -532.405          44.000  
G29  21413304.879 1 112527668.651 1      3588.119          42.000  
E05  22843624.320 1 120044052.013 1     -2098.006          40.000  
E03  24153212.817 1 126926010.871 1       459.843          40.000  
G31  23762551.924 4 124873064.253 2      3906.836          34.000  
G03  24263790.181 1 127507081.016 1       119.944          36.000  
E25  23661919.457 1 124344239.827 1      2077.174          43.000  
E24  22365074.365 1 117529268.405 1      -261.943          46.000  
E31  25170876.919 1 132273844.635 1     -1978.865          37.000  
E10  26214285.589 1 137757015.669 1      3376.025          41.000  
E33  25256542.620 1 132724016.524 1       196.288          35.000  
> 2023 11 17 17 53 32.9960000  0 17                     
G06  22381136.743 1 117613680.534 1      -294.231          39.000  
G11  22302364.907 1 117199705.285 1      1826.481          41.000  
G12  19701182.855 1 103530405.281 1     -1512.848          46.000  
G24  22614467.460 1 118839827.328 1     -3291.998          44.000  
G25  18747721.473 1  98519940.481 1       918.053          48.000  
G28  21726348.645 1 114172766.950 1      3409.355          38.000  
G32  20959037.704 1 110140481.837 1      -533.152          44.000  
G29  21412622.244 1 112524080.602 1      3587.942          42.000  
E05  22844023.808 1 120046150.270 1     -2098.645          40.000  
E03  24153125.130 1 126925551.245 1       459.378          40.000  
G31  23761808.144 4 124869157.691 2      3906.234          34.000  
G03  24263767.670 2 127506961.562 1       119.025          36.000  
E25  23661524.297 1 124342163.028 1      2076.449          43.000  
E24  22365124.307 1 117529530.555 1      -262.332          46.000  
E31  25171253.599 1 132275823.668 1     -1979.334          37.000  
E10  26213643.124 1 137753639.888 1      3375.816          41.000  
E33  25256505.242 2 132723820.239 1       196.227          35.000  
> 2023 11 17 17 53 33.9960000  0 17                     
G06  22381192.915 1 117613975.151 1      -294.822          38.000  
G11  22302017.228 1 117197879.229 1      1825.602          41.000  
G12  19701470.557 1 103531918.432 1     -1513.416          46.000  
G24  22615093.714 1 118843119.566 1     -3292.297          44.000  
G25  18747546.901 1  98519022.841 1       917.263          48.000  
G28  21725699.724 1 114169357.884 1      3408.856          38.000  
G32  20959139.020 1 110141015.489 1      -534.033          43.000  
G29  21411939.678 1 112520493.144 1      3587.136          42.000  
E05  22844423.173 1 120048249.092 1     -2099.157          40.000  
E03  24153037.565 1 126925092.368 1       458.442          40.000  
G31  23761064.782 4 124865251.366 2      3906.398          34.000  
G03  24263745.125 2 127506842.979 1       118.370          36.000  
E25  23661129.067 1 124340086.636 1      2075.972          43.000  
E24  22365173.918 1 117529793.158 1      -262.887          46.000  
E31  25171630.315 1 132277803.022 1     -1979.485          37.000  
E10  26213000.502 1 137750264.453 1      3375.282          41.000  
E33  25256468.003 1 132723624.807 1       194.923          35.000  
> 2023 11 17 17 53 34.9960000  0 17                     
G06  22381248.930 1 117614270.406 1      -295.472          38.000  
G11  22301669.847 1 117196053.697 1      1825.272          41.000  
G12  19701758.556 1 103533431.942 1     -1513.678          46.000  
G24  22615719.950 1 118846411.973 1     -3292.389          44.000  
G25  18747372.259 1  98518105.654 1       916.961          48.000  
G28  21725051.134 1 114165949.022 1      3408.990          38.000  
G32  20959240.528 1 110141549.787 1      -534.702          43.000  
G29  21411257.166 1 112516906.012 1      3587.000          42.000  
E05  22844822.504 1 120050348.189 1     -2099.106          40.000  
E03  24152950.436 1 126924633.985 1       458.237          40.000  
G31  23760321.315 4 124861345.170 3      3905.987          34.000  
G03  24263722.736 2 127506725.040 1       117.136          36.000  
E25  23660734.064 1 124338010.385 1      2076.233          43.000  
E24  22365224.000 1 117530055.994 1      -262.886          46.000  
E31  25172006.978 1 132279782.405 1     -1979.158          37.000  
E10  26212358.195 1 137746889.098 1      3375.283          41.000  
E33  25256431.410 1 132723429.826 1       194.882          35.000  
> 2023 11 17 17 53 35.9960000  0 17                     
G06  22381305.172 1 117614566.035 1      -295.823          38.000  
G11  22301322.361 1 117194228.440 1      1825.167          41.000  
G12  19702046.484 1 103534945.540 1     -1513.666          46.000  
G24  22616346.360 1 118849704.263 1     -3292.230          44.000  
G25  18747197.949 1  98517188.658 1       916.761          48.000  
G28  21724402.649 1 114162540.145 1      3408.831          38.000  
G32  20959342.298 1 110142084.427 1      -534.698          43.000  
G29  21410574.879 1 112513318.928 1      3587.089          42.000  
E05  22845221.748 1 120052447.329 1     -2099.314          40.000  
E03  24152863.464 1 126924175.789 1       458.165          40.000  
G31  23759578.198 4 124857438.739 2      3906.203          34.000  
G03  24263700.295 2 127506607.409 1       117.179          36.000  
E25  23660338.799 1 124335934.046 1      2076.306          43.000  
E24  22365274.257 1 117530318.774 1      -262.937          46.000  
E31  25172383.902 1 132281761.622 1     -1979.042          37.000  
E10  26211715.643 1 137743513.572 1      3375.508          41.000  
E33  25256394.451 2 132723235.098 1       194.648          35.000  
> 2023 11 17 17 53 36.9960000  0 17                     
G06  22381361.379 1 117614862.280 1      -296.652          38.000  
G11  22300975.154 1 117192403.687 1      1824.246          41.000  
G12  19702334.395 1 103536459.444 1     -1514.014          46.000  
G24  22616972.753 1 118852996.660 1     -3292.370          44.000  
G25  18747023.359 1  98516272.065 1       916.455          48.000  
G28  21723754.094 1 114159131.432 1      3408.557          39.000  
G32  20959444.172 1 110142619.677 1      -535.510          44.000  
G29  21409892.785 1 112509732.141 1      3586.508          42.000  
E05  22845621.637 1 120054546.702 1     -2099.445          40.000  
E03  24152775.881 1 126923718.066 1       457.576          40.000  
G31  23758834.818 4 124853532.333 2      3906.454          34.000  
G03  24263678.011 2 127506490.387 1       116.536          36.000  
E25  23659944.110 1 124333857.812 1      2076.155          43.000  
E24  22365324.043 1 117530581.715 1      -262.978          46.000  
E31  25172760.530 1 132283740.828 1     -1979.407          37.000  
E10  26211073.195 1 137740138.077 1      3375.590          41.000  
E33  25256357.299 2 132723040.840 1       193.771          35.000  
> 2023 11 17 17 53 37.9960000  0 17                     
G06  22381417.551 2 117615159.223 1      -297.170          38.000  
G11  22300628.086 1 117190579.504 1      1823.919          41.000  
G12  19702622.708 1 103537973.764 1     -1514.758          46.000  
G24  22617599.408 1 118856289.273 1     -3293.036          44.000  
G25  18746848.910 1  98515355.998 1       915.579          48.000  
G28  21723105.295 1 114155722.996 1      3407.858          39.000  
G32  20959546.151 1 110143155.628 1      -536.759          44.000  
G29  21409210.726 1 112506145.723 1      3586.005          42.000  
E05  22846020.933 1 120056646.428 1     -2099.999          40.000  
E03  24152689.084 1 126923260.872 1       456.709          40.000  
G31  23758091.334 4 124849625.966 2      3906.325          34.000  
G03  24263656.146 2 127506374.010 1       115.811          36.000  
E25  23659549.264 1 124331781.764 1      2075.979          43.000  
E24  22365374.072 1 117530844.934 1      -263.541          46.000  
E31  25173137.019 1 132285720.151 1     -1979.436          37.000  
E10  26210430.748 1 137736762.726 1      3375.231          41.000  
E33  25256320.409 1 132722847.112 1       193.696          35.000  
> 2023 11 17 17 53 38.9960000  0 17                     
G06  22381474.177 1 117615456.778 1      -297.675          38.000  
G11  22300281.263 1 117188755.817 1      1823.601          41.000  
G12  19702911.003 1 103539488.366 1     -1514.441          46.000  
G24  22618225.906 1 118859581.957 1     -3292.413          44.000  
G25  18746674.756 1  98514440.316 1       915.659          48.000  
G28  21722456.950 1 114152314.696 1      3408.326          39.000  
G32  20959648.288 1 110143692.122 1      -536.620          44.000  
G29  21408528.492 1 112502559.564 1      3586.139          42.000  
E05  22846420.560 1 120058746.381 1     -2099.880          40.000  
E03  24152601.955 1 126922804.100 1       456.736          40.000  
G31  23757347.990 4 124845719.651 2      3906.486          34.000  
G03  24263634.281 2 127506258.206 1       115.656          36.000  
E25  23659154.069 1 124329705.849 1      2076.028          43.000  
E24  22365423.631 1 117531108.308 1      -263.312          46.000  
E31  25173513.629 1 132287699.459 1     -1978.912          37.000  
E10  26209788.371 1 137733387.409 1      3375.532          41.000  
E33  25256283.572 2 132722653.848 1       193.368          35.000  
> 2023 11 17 17 53 39.9960000  0 17                     
G06  22381531.083 1 117615754.836 1      -297.780          38.000  
G11  22299934.650 1 117186932.578 1      1823.071          41.000  
G12  19703199.472 1 103541003.247 1     -1514.966          46.000  
G24  22618852.543 1 118862874.721 1     -3292.798          44.000  
G25  18746500.621 1  98513524.997 1       915.298          48.000  
G28  21721808.430 1 114148906.541 1      3408.624          39.000  
G32  20959750.511 1 110144229.174 1      -537.284          44.000  
G29  21407846.067 1 112498973.645 1      3585.911          42.000  
E05  22846820.135 1 120060846.538 1     -2100.173          40.000  
E03  24152515.472 1 126922347.709 1       456.433          40.000  
G31  23756604.506 4 124841813.285 2      3906.027          34.000  
G03  24263612.451 2 127506142.935 1       115.125          36.000  
E25  23658758.961 1 124327629.977 1      2076.017          43.000  
E24  22365473.992 1 117531371.797 1      -263.427          46.000  
E31  25173890.066 2 132289678.775 1     -1979.275          37.000  
E10  26209146.046 1 137730012.086 1      3375.386          41.000  
E33  25256246.735 2 132722461.026 1       192.410          35.000  
> 2023 11 17 17 53 40.9960000  0 17                     
G06  22381588.180 1 117616053.727 1      -299.468          38.000  
G11  22299587.827 1 117185109.993 1      1822.154          41.000  
G12  19703487.855 1 103542518.589 1     -1515.729          46.000  
G24  22619479.250 1 118866167.752 1     -3293.414          44.000  
G25  18746326.537 1  98512610.260 1       914.267          48.000  
G28  21721160.102 1 114145498.746 1      3407.521          39.000  
G32  20959852.979 1 110144766.995 1      -538.481          44.000  
G29  21407164.217 1 112495388.180 1      3584.947          42.000  
E05  22847219.484 1 120062947.107 1     -2100.754          40.000  
E03  24152428.797 1 126921891.945 1       455.233          40.000  
G31  23755861.057 2 124837907.094 2      3905.905          34.000  
G03  24263590.237 2 127506028.388 1       114.027          36.000  
E25  23658364.394 1 124325554.390 1      2075.341          43.000  
E24  22365524.249 1 117531635.626 1      -264.132          46.000  
E31  25174266.833 1 132291658.238 1     -1979.892          37.000  
E10  26208503.930 1 137726636.966 1      3374.728          41.000  
E33  25256210.037 2 132722268.780 1       191.927          35.000  
> 2023 11 17 17 53 41.9960000  0 17                     
G06  22381644.945 1 117616353.325 1      -300.152          38.000  
G11  22299241.178 1 117183288.025 1      1821.485          41.000  
G12  19703776.254 1 103544034.361 1     -1516.083          46.000  
G24  22620105.922 1 118869461.006 1     -3293.494          44.000  
G25  18746152.576 1  98511696.045 1       913.942          48.000  
G28  21720511.617 1 114142091.251 1      3406.918          39.000  
G32  20959955.708 1 110145305.498 1      -538.764          44.000  
G29  21406482.210 1 112491803.093 1      3584.830          42.000  
E05  22847619.355 1 120065048.029 1     -2100.850          40.000  
E03  24152342.401 1 126921436.722 1       455.077          40.000  
G31  23755118.027 4 124834001.027 2      3905.557          34.000  
G03  24263568.459 2 127505914.587 1       112.624          36.000  
E25  23657969.408 1 124323479.027 1      2075.295          43.000  
E24  22365574.698 1 117531899.719 1      -264.212          46.000  
E31  25174643.130 1 132293637.804 1     -1979.497          37.000  
E10  26207861.518 1 137723261.988 1      3374.985          41.000  
E33  25256173.444 2 132722077.177 1       190.955          35.000  
> 2023 11 17 17 53 42.9960000  0 17                     
G06  22381702.095 1 117616653.465 1      -300.791          38.000  
G11  22298894.407 1 117181466.499 1      1821.130          41.000  
G12  19704064.584 1 103545550.393 1     -1516.382          46.000  
G24  22620732.822 1 118872754.327 1     -3293.665          44.000  
G25  18745978.562 1  98510782.205 1       913.355          48.000  
G28  21719863.498 1 114138683.855 1      3407.002          39.000  
G32  20960058.472 1 110145844.554 1      -539.400          44.000  
G29  21405800.168 1 112488218.253 1      3584.568          42.000  
E05  22848019.454 1 120067149.198 1     -2101.748          40.000  
E03  24152255.882 1 126920981.908 1       454.149          40.000  
G31  23754374.839 2 124830094.878 1      3906.586          34.000  
G03  24263546.803 2 127505801.232 1       112.961          36.000  
E25  23657574.161 1 124321403.734 1      2074.893          43.000  
E24  22365624.570 1 117532163.971 1      -264.513          46.000  
E31  25175019.653 1 132295617.343 1     -1979.544          36.000  
E10  26207219.332 1 137719887.022 1      3374.869          41.000  
E33  25256137.182 2 132721885.910 1       190.918          35.000  
> 2023 11 17 17 53 43.9960000  0 17                     
G06  22381759.279 2 117616954.260 1      -301.090          38.000  
G11  22298548.090 1 117179645.508 1      1820.824          41.000  
G12  19704353.141 1 103547066.766 1     -1516.284          46.000  
G24  22621359.581 1 118876047.812 1     -3293.530          44.000  
G25  18745805.003 1  98509868.801 1       913.247          48.000  
G28  21719215.223 1 114135276.685 1      3407.574          39.000  
G32  20960161.307 1 110146384.240 1      -539.757          44.000  
G29  21405117.970 1 112484633.717 1      3584.814          42.000  
E05  22848419.779 1 120069250.608 1     -2101.422          40.000  
E03  24152169.382 1 126920527.545 1       454.417          40.000  
G31  23753631.547 4 124826188.842 2      3906.561          34.000  
G03  24263525.217 2 127505688.535 1       112.644          36.000  
E25  23657179.280 1 124319328.591 1      2075.243          43.000  
E24  22365675.193 1 117532428.411 1      -264.283          46.000  
E31  25175395.880 1 132297596.992 1     -1979.451          36.000  
E10  26206577.147 1 137716512.138 1      3375.102          41.000  
E33  25256100.694 2 132721695.166 1       191.144          35.000  
> 2023 11 17 17 53 44.9960000  0 17                     
G06  22381816.271 1 117617255.825 1      -301.616          38.000  
G11  22298201.756 1 117177825.177 1      1820.343          41.000  
G12  19704641.925 1 103548583.623 1     -1516.766          46.000  
G24  22621986.428 1 118879341.536 1     -3293.463          44.000  
G25  18745631.321 1  98508955.973 1       912.915          48.000  
G28  21718567.052 1 114131869.857 1      3407.137          40.000  
G32  20960264.333 1 110146924.690 1      -540.481          44.000  
G29  21404435.683 1 112481049.649 1      3584.206          42.000  
E05  22848819.895 1 120071352.432 1     -2101.659          40.000  
E03  24152083.684 1 126920073.816 1       453.616          40.000  
G31  23752888.709 2 124822282.969 1      3905.548          34.000  
G03  24263503.823 2 127505576.577 1       111.953          36.000  
E25  23656784.416 1 124317253.705 1      2075.225          43.000  
E24  22365725.590 1 117532693.183 1      -264.478          46.000  
E31  25175772.630 1 132299576.754 1     -1979.073          36.000  
E10  26205934.804 1 137713137.471 1      3374.908          41.000  
E33  25256064.537 1 132721505.077 1       190.257          35.000  
> 2023 11 17 17 53 45.9960000  0 17                     
G06  22381873.473 1 117617557.773 1      -301.934          38.000  
G11  22297855.334 1 117176005.147 1      1819.875          41.000  
G12  19704930.394 1 103550100.597 1     -1517.053          46.000  
G24  22622613.187 1 118882635.205 1     -3293.658          44.000  
G25  18745457.359 1  98508043.371 1       912.524          48.000  
G28  21717919.108 1 114128463.051 1      3406.612          40.000  
G32  20960367.202 1 110147465.536 1      -541.267          44.000  
G29  21403753.345 1 112477465.661 1      3583.984          42.000  
E05  22849219.837 1 120073454.322 1     -2102.138          40.000  
E03  24151996.956 1 126919620.307 1       453.153          40.000  
G31  23752145.661 4 124818376.893 2      3906.223          34.000  
G03  24263482.656 2 127505465.011 1       111.320          36.000  
E25  23656390.111 1 124315178.759 1      2074.877          43.000  
E24  22365775.794 1 117532957.933 1      -264.964          46.000  
E31  25176148.839 1 132301556.401 1     -1979.802          36.000  
E10  26205292.811 1 137709762.637 1      3374.714          41.000  
E33  25256028.520 2 132721315.233 1       189.549          34.000  
> 2023 11 17 17 53 46.9960000  0 17                     
G06  22381931.373 1 117617860.466 1      -302.977          38.000  
G11  22297509.174 1 117174185.709 1      1818.938          41.000  
G12  19705218.969 1 103551617.975 1     -1517.609          46.000  
G24  22623240.174 1 118885929.067 1     -3293.860          44.000  
G25  18745283.957 1  98507131.277 1       911.761          48.000  
G28  21717271.164 1 114125056.476 1      3406.327          40.000  
G32  20960470.053 1 110148007.065 1      -542.095          44.000  
G29  21403071.443 1 112473882.038 1      3583.361          42.000  
E05  22849619.726 1 120075556.543 1     -2102.409          40.000  
E03  24151910.682 1 126919167.359 1       452.169          40.000  
G31  23751402.683 2 124814470.913 1      3906.021          35.000  
G03  24263461.873 2 127505354.141 1       109.753          36.000  
E25  23655994.951 1 124313104.010 1      2074.507          43.000  
E24  22365826.173 1 117533222.959 1      -265.435          46.000  
E31  25176525.432 2 132303536.103 1     -1979.940          36.000  
E10  26204650.643 1 137706387.945 1      3374.432          41.000  
E33  25255992.276 2 132721125.951 1       189.103          35.000  
> 2023 11 17 17 53 47.9960000  0 17                     
G06  22381989.081 1 117618163.690 1      -303.069          38.000  
G11  22297162.875 1 117172366.707 1      1819.016          40.000  
G12  19705507.787 1 103553135.623 1     -1517.462          46.000  
G24  22623866.898 1 118889222.995 1     -3293.640          45.000  
G25  18745110.362 1  98506219.538 1       911.853          48.000  
G28  21716623.255 1 114121650.034 1      3406.619          40.000  
G32  20960573.201 1 110148549.138 1      -541.940          44.000  
G29  21402389.541 1 112470298.654 1      3583.518          42.000  
E05  22850020.401 1 120077658.972 1     -2102.267          40.000  
E03  24151824.286 1 126918714.776 1       452.707          40.000  
G31  23750658.990 4 124810564.897 2      3906.830          35.000  
G03  24263440.427 2 127505243.729 1       110.219          36.000  
E25  23655600.314 1 124311029.332 1      2074.848          43.000  
E24  22365876.865 1 117533488.095 1      -264.954          46.000  
E31  25176902.217 1 132305515.789 1     -1979.375          36.000  
E10  26204008.736 1 137703013.240 1      3375.144          40.000  
E33  25255956.154 2 132720937.091 1       189.161          35.000  
> 2023 11 17 17 53 48.9960000  0 17                     
G06  22382047.155 1 117618467.413 1      -303.923          38.000  
G11  22296816.540 1 117170548.087 1      1818.317          40.000  
G12  19705796.676 1 103554653.436 1     -1517.999          46.000  
G24  22624493.658 1 118892516.900 1     -3294.135          45.000  
G25  18744936.959 1  98505308.094 1       911.081          48.000  
G28  21715975.485 1 114118243.667 1      3406.179          40.000  
G32  20960676.175 1 110149091.678 1      -543.012          44.000  
G29  21401707.569 1 112466715.438 1      3583.011          42.000  
E05  22850420.202 1 120079761.527 1     -2102.779          40.000  
E03  24151738.396 1 126918262.531 1       451.931          40.000  
G31  23749915.401 4 124806658.776 2      3906.310          35.000  
G03  24263419.242 2 127505133.816 1       109.283          36.000  
E25  23655205.608 1 124308954.640 1      2074.375          43.000  
E24  22365927.436 1 117533753.276 1      -265.426          46.000  
E31  25177278.968 2 132307495.357 1     -1979.581          36.000  
E10  26203366.726 1 137699638.463 1      3374.747          40.000  
E33  25255920.206 2 132720748.572 1       188.312          35.000  
> 2023 11 17 17 53 49.9960000  0 17                     
G06  22382105.020 1 117618771.954 1      -304.735          38.000  
G11  22296470.432 1 117168730.183 1      1817.515          40.000  
G12  19706085.808 1 103556171.801 1     -1518.555          46.000  
G24  22625120.801 1 118895811.132 1     -3294.324          45.000  
G25  18744763.731 1  98504397.277 1       910.472          48.000  
G28  21715327.733 1 114114837.682 1      3405.722          40.000  
G32  20960779.672 1 110149635.017 1      -543.699          44.000  
G29  21401025.806 1 112463132.714 1      3582.296          42.000  
E05  22850820.336 1 120081864.547 1     -2103.305          40.000  
E03  24151652.506 1 126917810.930 1       451.352          40.000  
G31  23749172.197 4 124802752.898 2      3905.330          35.000  
G03  24263398.040 2 127505024.669 1       108.899          36.000  
E25  23654810.971 1 124306880.269 1      2074.332          43.000  
E24  22365978.112 1 117534018.831 1      -265.726          46.000  
E31  25177655.561 1 132309475.154 1     -1979.704          37.000  
E10  26202724.121 1 137696263.954 1      3374.289          40.000  
E33  25255884.119 2 132720560.687 1       187.767          35.000  
> 2023 11 17 17 53 50.9960000  0 17                     
G06  22382163.356 1 117619077.218 1      -305.574          38.000  
G11  22296124.377 1 117166912.869 1      1817.143          40.000  
G12  19706374.993 1 103557690.575 1     -1518.823          46.000  
G24  22625747.805 1 118899105.576 1     -3294.226          44.000  
G25  18744590.258 1  98503486.975 1       910.366          48.000  
G28  21714679.981 1 114111431.998 1      3405.647          40.000  
G32  20960883.257 1 110150179.074 1      -544.372          44.000  
G29  21400344.113 1 112459550.375 1      3582.305          42.000  
E05  22851220.312 1 120083967.917 1     -2103.342          40.000  
E03  24151566.424 1 126917359.870 1       451.191          40.000  
G31  23748428.556 4 124798847.121 2      3905.425          35.000  
G03  24263377.169 2 127504916.232 1       108.150          36.000  
E25  23654416.334 1 124304806.120 1      2074.375          43.000  
E24  22366028.595 1 117534284.698 1      -265.771          46.000  
E31  25178032.136 1 132311455.109 1     -1980.225          36.000  
E10  26202082.459 1 137692889.584 1      3374.555          40.000  
E33  25255848.590 2 132720373.436 1       187.402          35.000  
> 2023 11 17 17 53 51.9960000  0 17                     
G06  22382221.692 1 117619382.979 1      -306.043          39.000  
G11  22295778.776 1 117165095.961 1      1816.452          40.000  
G12  19706664.039 1 103559209.566 1     -1519.305          46.000  
G24  22626374.756 1 118902400.045 1     -3294.568          44.000  
G25  18744417.117 1  98502577.000 1       909.664          48.000  
G28  21714031.863 1 114108026.389 1      3405.436          40.000  
G32  20960986.981 1 110150723.613 1      -544.895          44.000  
G29  21399661.932 1 112455968.226 1      3581.772          42.000  
E05  22851620.655 1 120086071.448 1     -2103.755          40.000  
E03  24151480.395 1 126916909.172 1       450.472          40.000  
G31  23747685.368 4 124794941.250 2      3905.646          35.000  
G03  24263356.386 2 127504808.272 1       107.468          35.000  
E25  23654021.698 1 124302732.003 1      2074.132          43.000  
E24  22366079.166 1 117534550.632 1      -266.220          46.000  
E31  25178408.922 1 132313434.946 1     -1980.274          36.000  
E10  26201439.942 1 137689515.173 1      3374.311          40.000  
E33  25255812.905 2 132720186.542 1       186.459          35.000  
> 2023 11 17 17 53 52.9960000  0 17                     
G06  22382280.377 1 117619689.562 1      -306.945          39.000  
G11  22295432.912 1 117163279.756 1      1815.813          40.000  
G12  19706953.224 1 103560729.075 1     -1519.861          46.000  
G24  22627001.446 1 118905694.825 1     -3294.989          44.000  
G25  18744244.150 1  98501667.644 1       908.951          48.000  
G28  21713384.058 1 114104621.170 1      3405.056          41.000  
G32  20961090.810 1 110151268.948 1      -545.795          44.000  
G29  21398980.431 1 112452386.569 1      3581.236          42.000  
E05  22852020.405 1 120088175.421 1     -2104.198          40.000  
E03  24151394.906 1 126916459.128 1       449.763          40.000  
G31  23746941.989 2 124791035.571 1      3906.408          35.000  
G03  24263335.935 2 127504701.076 1       106.838          36.000  
E25  23653627.305 1 124300658.212 1      2073.427          43.000  
E24  22366129.527 1 117534816.911 1      -266.360          46.000  
E31  25178786.143 1 132315415.007 1     -1980.327          36.000  
E10  26200797.984 1 137686141.009 1      3374.025          40.000  
E33  25255776.922 2 132720000.287 1       185.833          35.000  
> 2023 11 17 17 53 53.9960000  0 17                     
G06  22382338.609 1 117619996.977 1      -307.536          39.000  
G11  22295087.276 1 117161464.278 1      1815.097          40.000  
G12  19707242.461 1 103562249.123 1     -1520.160          46.000  
G24  22627628.711 1 118908989.948 1     -3295.197          44.000  
G25  18744071.079 1  98500758.913 1       908.537          48.000  
G28  21712736.166 1 114101216.364 1      3404.601          41.000  
G32  20961194.272 1 110151815.112 1      -546.478          44.000  
G29  21398298.721 1 112448805.406 1      3581.164          42.000  
E05  22852420.695 1 120090279.884 1     -2104.605          40.000  
E03  24151309.295 1 126916009.754 1       449.053          40.000  
G31  23746199.255 4 124787130.226 2      3905.385          35.000  
G03  24263315.570 1 127504594.704 1       106.059          36.000  
E25  23653232.599 1 124298584.739 1      2073.445          43.000  
E24  22366180.395 1 117535083.620 1      -266.755          46.000  
E31  25179163.574 1 132317395.300 1     -1980.206          37.000  
E10  26200155.885 1 137682767.124 1      3373.905          40.000  
E33  25255741.603 2 132719814.722 1       185.483          35.000  
> 2023 11 17 17 53 54.9960000  0 17                     
G06  22382397.486 1 117620304.814 1      -307.872          38.000  
G11  22294742.076 1 117159649.108 1      1815.211          40.000  
G12  19707531.768 1 103563769.281 1     -1520.013          46.000  
G24  22628255.645 1 118912284.979 1     -3294.745          44.000  
G25  18743898.043 1  98499850.408 1       908.561          48.000  
G28  21712088.711 1 114097811.537 1      3404.891          41.000  
G32  20961298.258 1 110152361.672 1      -546.655          44.000  
G29  21397617.255 1 112445224.350 1      3581.177          42.000  
E05  22852820.742 1 120092384.404 1     -2104.617          40.000  
E03  24151224.051 1 126915560.617 1       449.106          40.000  
G31  23745456.277 2 124783224.616 1      3905.701          35.000  
G03  24263295.101 2 127504488.724 1       105.546          36.000  
E25  23652837.735 1 124296511.204 1      2073.536          43.000  
E24  22366231.192 1 117535350.294 1      -266.490          46.000  
E31  25179540.586 1 132319375.440 1     -1980.153          37.000  
E10  26199513.822 1 137679393.083 1      3374.192          40.000  
E33  25255706.406 2 132719629.440 1       185.255          35.000  
> 2023 11 17 17 53 55.9960000  0 17                     
G06  22382456.293 1 117620613.253 1      -308.738          39.000  
G11  22294397.120 1 117157834.433 1      1814.411          41.000  
G12  19707821.005 1 103565289.766 1     -1520.844          46.000  
G24  22628882.928 1 118915580.134 1     -3295.337          44.000  
G25  18743725.251 1  98498942.321 1       907.789          48.000  
G28  21711440.767 1 114094406.892 1      3404.469          41.000  
G32  20961402.296 1 110152908.814 1      -547.490          44.000  
G29  21396935.807 1 112441643.576 1      3580.577          42.000  
E05  22853221.451 1 120094489.162 1     -2105.154          40.000  
E03  24151138.737 1 126915111.941 1       448.000          40.000  
G31  23744712.793 2 124779319.044 1      3905.008          35.000  
G03  24263274.789 2 127504383.275 1       105.233          36.000  
E25  23652443.273 1 124294437.772 1      2073.215          43.000  
E24  22366282.042 1 117535617.174 1      -267.119          46.000  
E31  25179917.632 1 132321355.577 1     -1980.166          37.000  
E10  26198871.584 1 137676019.092 1      3373.889          40.000  
E33  25255670.808 2 132719444.641 1       184.140          35.000  
> 2023 11 17 17 53 56.9960000  0 17                     
G06  22382514.996 1 117620922.288 1      -309.289          38.000  
G11  22294052.181 1 117156020.255 1      1813.638          41.000  
G12  19708110.382 1 103566810.536 1     -1521.014          46.000  
G24  22629509.862 1 118918875.381 1     -3295.557          44.000  
G25  18743552.563 1  98498034.635 1       907.201          48.000  
G28  21710793.312 1 114091002.409 1      3404.454          41.000  
G32  20961506.474 1 110153456.548 1      -548.167          43.000  
G29  21396254.428 1 112438063.080 1      3580.076          42.000  
E05  22853622.056 1 120096594.159 1     -2105.229          40.000  
E03  24151053.178 1 126914663.652 1       448.108          40.000  
G31  23743969.781 4 124775413.479 2      3904.921          35.000  
G03  24263254.774 2 127504278.425 1       104.436          36.000  
E25  23652048.689 1 124292364.437 1      2073.245          43.000  
E24  22366332.944 1 117535884.179 1      -267.193          46.000  
E31  25180294.313 1 132323335.704 1     -1980.025          37.000  
E10  26198229.591 1 137672645.136 1      3373.773          40.000  
E33  25255635.872 2 132719260.262 1       184.105          35.000  
> 2023 11 17 17 53 57.9960000  0 17                     
G06  22382574.082 1 117621232.049 1      -310.034          38.000  
G11  22293707.295 1 117154206.675 1      1813.502          41.000  
G12  19708399.812 1 103568331.741 1     -1521.313          46.000  
G24  22630136.918 1 118922170.844 1     -3295.392          44.000  
G25  18743380.033 1  98497127.484 1       906.933          48.000  
G28  21710145.786 1 114087598.253 1      3404.016          41.000  
G32  20961610.826 1 110154004.982 1      -548.507          43.000  
G29  21395573.416 1 112434482.990 1      3579.943          42.000  
E05  22854022.940 1 120098699.504 1     -2105.556          40.000  
E03  24150967.760 1 126914215.970 1       447.516          40.000  
G31  23743226.279 4 124771507.998 2      3905.593          35.000  
G03  24263235.090 2 127504174.272 1       104.197          36.000  
E25  23651654.070 1 124290291.350 1      2073.019          43.000  
E24  22366383.794 1 117536151.484 1      -267.459          46.000  
E31  25180671.028 1 132325316.006 1     -1980.208          37.000  
E10  26197587.405 1 137669271.341 1      3373.873          40.000  
E33  25255601.338 2 132719076.478 1       183.666          34.000  
> 2023 11 17 17 53 58.9960000  0 17                     
G06  22382633.326 1 117621542.403 1      -310.743          38.000  
G11  22293362.531 1 117152393.575 1      1812.858          41.000  
G12  19708689.485 1 103569853.228 1     -1521.582          46.000  
G24  22630764.062 1 118925466.408 1     -3295.837          44.000  
G25  18743207.206 1  98496220.708 1       906.707          48.000  
G28  21709497.895 1 114084194.227 1      3404.003          41.000  
G32  20961715.405 1 110154554.012 1      -549.406          43.000  
G29  21394892.090 1 112430903.158 1      3579.507          42.000  
E05  22854423.719 1 120100805.099 1     -2105.646          40.000  
E03  24150883.144 1 126913768.657 1       447.324          39.000  
G31  23742483.197 4 124767602.558 2      3905.140          35.000  
G03  24263215.388 2 127504070.665 1       103.134          36.000  
E25  23651259.608 1 124288218.336 1      2072.878          43.000  
E24  22366434.505 1 117536418.923 1      -267.477          46.000  
E31  25181047.813 1 132327296.273 1     -1980.273          37.000  
E10  26196944.888 1 137665897.560 1      3373.751          40.000  
E33  25255566.839 2 132718893.130 1       183.135          35.000  
> 2023 11 17 17 53 59.9960000  0 18                     
G06  22382692.517 1 117621853.242 1      -310.851          38.000  
G11  22293017.558 1 117150580.867 1      1812.787          41.000  
G12  19708979.019 1 103571374.918 1     -1521.515          46.000  
G24  22631391.118 1 118928761.965 1     -3295.441          44.000  
G25  18743034.746 1  98495314.252 1       906.545          48.000  
G28  21708850.230 1 114080790.287 1      3404.084          41.000  
G32  20961820.054 1 110155103.498 1      -549.372          43.000  
G29  21394211.444 1 112427323.506 1      3579.703          42.000  
E05  22854824.707 1 120102910.830 1     -2105.362          40.000  
E03  24150798.213 1 126913321.732 1       446.899          39.000  
G31  23741740.236 2 124763696.998 1      3905.580          35.000  
G03  24263196.071 2 127503967.551 1       103.005          36.000  
E12  25346386.777 4 133196171.231 1      2742.416          39.000  
E25  23650865.041 1 124286145.330 1      2073.175          43.000  
E24  22366485.616 1 117536686.444 1      -267.400          46.000  
E31  25181424.581 1 132329276.454 1     -1980.159          37.000  
E10  26196302.581 1 137662523.727 1      3374.235          40.000  
E33  25255532.201 2 132718710.138 1       183.238          35.000  
> 2023 11 17 17 54 00.9960000  0 18                     
G06  22382751.987 1 117622164.705 1      -312.139          38.000  
G11  22292672.881 1 117148768.681 1      1811.560          41.000  
G12  19709269.007 1 103572896.945 1     -1522.546          46.000  
G24  22632018.174 1 118932057.647 1     -3296.100          44.000  
G25  18742862.093 1  98494408.226 1       905.483          48.000  
G28  21708202.495 1 114077386.536 1      3403.576          41.000  
G32  20961924.634 1 110155653.611 1      -550.783          43.000  
G29  21393530.659 1 112423744.144 1      3578.788          42.000  
E05  22855225.277 1 120105016.827 1     -2106.397          40.000  
E03  24150713.248 1 126912875.231 1       446.103          39.000  
G31  23740996.979 4 124759791.476 2      3904.994          35.000  
G03  24263176.771 2 127503865.009 1       101.978          36.000  
E12  25345864.178 4 133193429.346 1      2741.714          39.000  
E25  23650470.282 1 124284072.455 1      2072.630          43.000  
E24  22366536.239 1 117536954.138 1      -268.027          46.000  
E31  25181801.453 1 132331256.654 1     -1980.327          37.000  
E10  26195661.215 1 137659149.955 1      3373.768          40.000  
E33  25255497.370 2 132718527.641 1       181.681          35.000  
> 2023 11 17 17 54 01.9960000  0 18                     
G06  22382811.283 1 117622477.160 1      -313.094          38.000  
G11  22292328.344 1 117146957.364 1      1810.728          41.000  
G12  19709558.733 1 103574419.641 1     -1523.242          46.000  
G24  22632645.387 1 118935353.820 1     -3296.625          44.000  
G25  18742689.702 1  98493502.987 1       904.650          48.000  
G28  21707554.691 1 114073983.352 1      3402.730          41.000  
G32  20962029.649 1 110156204.672 1      -551.669          44.000  
G29  21392849.768 1 112420165.443 1      3578.236          42.000  
E05  22855626.004 1 120107123.438 1     -2107.092          40.000  
E03  24150628.667 1 126912429.560 1       445.071          39.000  
G31  23740253.827 2 124755886.296 1      3905.105          35.000  
G03  24263157.768 2 127503763.423 1       101.117          36.000  
E12  25345342.835 2 133190688.073 1      2740.962          39.000  
E25  23650076.413 1 124282000.080 1      2071.922          43.000  
E24  22366587.491 1 117537222.377 1      -268.537          46.000  
E31  25182179.128 1 132333237.248 1     -1980.958          37.000  
E10  26195019.449 1 137655776.612 1      3372.891          40.000  
E33  25255463.167 2 132718345.949 1       181.455          35.000  
> 2023 11 17 17 54 02.9960000  0 18                     
G06  22382870.928 1 117622790.382 1      -313.734          38.000  
G11  22291984.034 1 117145146.706 1      1810.241          41.000  
G12  19709848.651 1 103575942.830 1     -1523.559          46.000  
G24  22633272.688 1 118938650.274 1     -3296.692          44.000  
G25  18742517.434 1  98492598.333 1       904.115          48.000  
G28  21706907.008 1 114070580.522 1      3402.463          41.000  
G32  20962134.787 1 110156756.513 1      -552.433          44.000  
G29  21392169.088 1 112416587.210 1      3577.828          42.000  
E05  22856027.167 1 120109230.473 1     -2107.526          40.000  
E03  24150543.824 1 126911984.497 1       444.815          39.000  
G31  23739510.535 2 124751981.358 1      3904.564          35.000  
G03  24263138.538 2 127503662.566 1       100.803          36.000  
E12  25344821.527 1 133187947.247 1      2740.498          39.000  
E25  23649681.654 1 124279927.973 1      2071.710          43.000  
E24  22366638.672 1 117537490.970 1      -268.897          46.000  
E31  25182555.983 1 132335218.037 1     -1981.065          37.000  
E10  26194377.036 1 137652403.475 1      3373.088          40.000  
E33  25255429.227 2 132718164.933 1       180.390          35.000  
> 2023 11 17 17 54 03.9960000  0 18                     
G06  22382930.695 1 117623104.296 1      -314.083          38.000  
G11  22291639.689 1 117143336.621 1      1810.181          41.000  
G12  19710138.429 1 103577466.400 1     -1523.553          46.000  
G24  22633900.023 1 118941946.912 1     -3296.484          44.000  
G25  18742345.392 1  98491694.157 1       904.120          48.000  
G28  21706259.553 1 114067177.946 1      3402.598          41.000  
G32  20962239.697 1 110157309.010 1      -552.668          44.000  
G29  21391488.285 1 112413009.322 1      3577.856          42.000  
E05  22856428.295 1 120111337.816 1     -2107.077          40.000  
E03  24150459.086 1 126911539.960 1       444.493          39.000  
G31  23738767.522 2 124748076.499 1      3905.035          35.000  
G03  24263119.569 2 127503562.378 1        99.981          36.000  
E12  25344299.923 1 133185206.711 1      2740.561          39.000  
E25  23649287.192 1 124277856.051 1      2072.350          43.000  
E24  22366689.958 1 117537759.798 1      -268.602          46.000  
E31  25182932.472 1 132337198.903 1     -1980.512          37.000  
E10  26193735.130 1 137649030.483 1      3373.032          40.000  
E33  25255394.553 2 132717984.440 1       180.544          35.000  
> 2023 11 17 17 54 04.9960000  0 18                     
G06  22382990.322 2 117623418.712 1      -314.616          38.000  
G11  22291295.378 1 117141526.943 1      1809.522          41.000  
G12  19710428.120 1 103578990.180 1     -1523.907          46.000  
G24  22634527.288 1 118945243.546 1     -3296.558          44.000  
G25  18742173.665 1  98490790.286 1       903.772          48.000  
G28  21705611.783 1 114063775.429 1      3402.536          41.000  
G32  20962344.957 1 110157861.985 1      -553.125          44.000  
G29  21390807.395 1 112409431.609 1      3577.813          42.000  
E05  22856829.196 1 120113445.325 1     -2107.499          40.000  
E03  24150374.574 1 126911095.749 1       444.005          39.000  
G31  23738024.614 2 124744171.532 1      3904.708          36.000  
G03  24263100.723 1 127503462.658 1        99.402          36.000  
E12  25343778.266 1 133182466.293 1      2740.519          39.000  
E25  23648892.904 1 124275784.161 1      2071.890          43.000  
E24  22366741.210 1 117538028.701 1      -268.991          46.000  
E31  25183309.763 1 132339179.692 1     -1980.762          37.000  
E10  26193093.329 1 137645657.411 1      3372.853          40.000  
E33  25255360.264 2 132717804.306 1       179.656          35.000  
> 2023 11 17 17 54 05.9960000  0 18                     
G06  22383050.351 1 117623733.505 1      -315.207          38.000  
G11  22290950.806 1 117139717.515 1      1809.097          41.000  
G12  19710718.160 1 103580514.036 1     -1523.932          46.000  
G24  22635154.606 1 118948540.069 1     -3296.594          44.000  
G25  18742001.414 1  98489886.609 1       903.499          48.000  
G28  21704964.223 1 114060372.876 1      3402.471          41.000  
G32  20962450.531 1 110158415.334 1      -553.668          44.000  
G29  21390126.784 1 112405853.961 1      3577.359          42.000  
E05  22857230.220 1 120115552.826 1     -2107.630          40.000  
E03  24150289.819 1 126910651.729 1       444.096          39.000  
G31  23737281.601 2 124740266.358 1      3904.699          36.000  
G03  24263081.859 1 127503363.287 1        98.928          36.000  
E12  25343256.696 1 133179725.917 1      2740.245          39.000  
E25  23648498.721 1 124273712.123 1      2072.068          43.000  
E24  22366792.025 1 117538297.537 1      -268.975          46.000  
E31  25183686.164 1 132341160.261 1     -1980.688          37.000  
E10  26192451.178 1 137642284.136 1      3373.540          40.000  
E33  25255325.904 2 132717624.355 1       179.972          35.000  
> 2023 11 17 17 54 06.9960000  0 18                     
G06  22383110.048 1 117624048.917 1      -316.343          39.000  
G11  22290606.618 1 117137908.611 1      1808.029          41.000  
G12  19711008.078 1 103582038.232 1     -1524.939          46.000  
G24  22635782.116 1 118951836.711 1     -3297.241          44.000  
G25  18741829.564 1  98488983.351 1       902.511          48.000  
G28  21704316.489 1 114056970.514 1      3401.751          41.000  
G32  20962555.773 1 110158969.277 1      -554.730          44.000  
G29  21389445.685 1 112402276.599 1      3576.687          42.000  
E05  22857631.278 1 120117660.595 1     -2108.213          40.000  
E03  24150205.499 1 126910208.203 1       442.733          39.000  
G31  23736538.466 2 124736361.155 1      3904.890          35.000  
G03  24263063.153 2 127503264.501 1        97.791          36.000  
E12  25342734.952 1 133176985.793 1      2739.223          39.000  
E25  23648104.608 1 124271640.233 1      2071.443          43.000  
E24  22366843.171 1 117538566.541 1      -269.458          46.000  
E31  25184063.298 1 132343140.827 1     -1980.928          37.000  
E10  26191808.958 1 137638910.938 1      3372.763          40.000  
E33  25255291.876 2 132717444.952 1       178.690          35.000  
> 2023 11 17 17 54 07.9960000  0 18                     
G06  22383170.234 1 117624365.242 1      -316.604          39.000  
G11  22290262.500 1 117136100.501 1      1808.130          41.000  
G12  19711298.258 1 103583563.038 1     -1524.719          46.000  
G24  22636409.556 1 118955133.774 1     -3296.936          44.000  
G25  18741657.836 1  98488080.813 1       902.570          48.000  
G28  21703669.574 1 114053568.662 1      3401.834          41.000  
G32  20962661.295 1 110159524.140 1      -555.045          44.000  
G29  21388765.056 1 112398699.838 1      3576.769          42.000  
E05  22858032.441 1 120119768.944 1     -2108.382          40.000  
E03  24150121.232 1 126909765.406 1       442.842          39.000  
G31  23735795.819 2 124732456.355 1      3904.707          35.000  
G03  24263044.743 2 127503166.619 1        97.632          36.000  
E12  25342213.784 1 133174246.187 1      2740.029          39.000  
E25  23647710.408 1 124269568.775 1      2071.521          43.000  
E24  22366894.248 1 117538836.048 1      -269.409          46.000  
E31  25184439.891 1 132345121.750 1     -1980.752          37.000  
E10  26191167.086 1 137635538.093 1      3373.192          40.000  
E33  25255258.040 2 132717266.303 1       178.395          35.000  
> 2023 11 17 17 54 08.9960000  0 18                     
G06  22383230.472 1 117624681.972 1      -316.982          38.000  
G11  22289918.469 1 117134292.709 1      1807.412          41.000  
G12  19711588.246 1 103585087.951 1     -1525.006          46.000  
G24  22637036.892 1 118958430.749 1     -3297.192          44.000  
G25  18741486.161 1  98487178.497 1       902.012          48.000  
G28  21703021.997 1 114050166.770 1      3401.688          41.000  
G32  20962767.165 1 110160079.380 1      -555.608          44.000  
G29  21388084.358 1 112395123.157 1      3576.442          42.000  
E05  22858433.430 1 120121877.312 1     -2108.378          40.000  
E03  24150036.686 1 126909322.855 1       442.296          39.000  
G31  23735052.911 2 124728551.296 2      3905.029          35.000  
G03  24263026.054 2 127503069.104 1        96.938          36.000  
E12  25341692.755 1 133171506.661 1      2739.391          39.000  
E25  23647316.172 1 124267497.208 1      2071.581          43.000  
E24  22366945.273 1 117539105.535 1      -269.618          46.000  
E31  25184817.270 1 132347102.466 1     -1980.534          37.000  
E10  26190525.267 1 137632165.115 1      3372.848          40.000  
E33  25255223.855 2 132717087.874 1       178.248          36.000  
> 2023 11 17 17 54 09.9960000  0 18                     
G06  22383290.885 1 117624999.191 1      -317.262          38.000  
G11  22289574.560 1 117132485.295 1      1806.890          41.000  
G12  19711878.216 1 103586613.072 1     -1525.476          46.000  
G24  22637663.860 1 118961727.714 1     -3297.137          44.000  
G25  18741314.521 1  98486276.457 1       901.783          48.000  
G28  21702374.437 1 114046764.946 1      3401.580          41.000  
G32  20962872.774 1 110160635.087 1      -555.875          44.000  
G29  21387403.241 1 112391546.638 1      3576.227          42.000  
E05  22858834.471 1 120123985.835 1     -2108.845          40.000  
E03  24149952.541 1 126908880.626 1       442.051          39.000  
G31  23734309.881 2 124724646.159 1      3905.319          35.000  
G03  24263007.522 2 127502972.049 1        96.390          36.000  
E12  25341171.552 1 133168767.246 1      2739.218          39.000  
E25  23646922.112 1 124265425.652 1      2071.223          43.000  
E24  22366996.280 1 117539375.066 1      -269.734          46.000  
E31  25185194.037 1 132349083.108 1     -1980.633          37.000  
E10  26189883.466 1 137628792.040 1      3372.873          40.000  
E33  25255190.072 2 132716909.841 1       177.608          35.000  
> 2023 11 17 17 54 10.9960000  0 18                     
G06  22383351.332 1 117625317.284 1      -317.926          38.000  
G11  22289230.564 1 117130678.635 1      1806.310          41.000  
G12  19712168.535 1 103588138.762 1     -1525.934          46.000  
G24  22638291.091 1 118965025.043 1     -3297.278          44.000  
G25  18741143.020 1  98485375.120 1       901.074          48.000  
G28  21701727.103 1 114043363.568 1      3401.352          41.000  
G32  20962978.749 1 110161191.673 1      -557.035          44.000  
G29  21386722.194 1 112387970.676 1      3575.828          41.000  
E05  22859235.738 1 120126094.847 1     -2109.201          40.000  
E03  24149868.501 1 126908439.118 1       441.290          39.000  
G31  23733566.764 4 124720741.331 2      3904.043          36.000  
G03  24262989.042 1 127502875.811 1        95.936          36.000  
E12  25340650.436 1 133166028.352 1      2738.511          39.000  
E25  23646527.684 1 124263354.463 1      2071.093          43.000  
E24  22367047.775 1 117539645.028 1      -270.151          46.000  
E31  25185570.962 1 132351064.032 1     -1981.143          37.000  
E10  26189241.176 1 137625419.300 1      3372.420          40.000  
E33  25255156.445 2 132716732.512 1       176.986          36.000  
> 2023 11 17 17 54 11.9960000  0 18                     
G06  22383412.251 1 117625636.172 1      -318.967          38.000  
G11  22288887.266 1 117128872.669 1      1805.720          41.000  
G12  19712458.959 1 103589664.958 1     -1526.477          46.000  
G24  22638918.898 1 118968322.694 1     -3297.900          44.000  
G25  18740971.537 1  98484474.376 1       900.548          48.000  
G28  21701079.927 1 114039962.578 1      3401.049          41.000  
G32  20963085.108 1 110161749.028 1      -557.614          44.000  
G29  21386041.688 1 112384395.195 1      3575.195          41.000  
E05  22859636.936 1 120128204.316 1     -2109.585          39.000  
E03  24149784.740 1 126907998.239 1       440.634          39.000  
G31  23732824.013 4 124716836.648 2      3904.556          36.000  
G03  24262971.051 2 127502780.366 1        95.035          36.000  
E12  25340129.059 1 133163289.893 1      2738.237          39.000  
E25  23646133.676 1 124261283.586 1      2070.894          43.000  
E24  22367099.079 1 117539915.356 1      -270.552          46.000  
E31  25185948.114 1 132353045.138 1     -1981.478          37.000  
E10  26188599.636 1 137622046.780 1      3372.386          40.000  
E33  25255122.574 2 132716555.862 1       176.264          35.000  
> 2023 11 17 17 54 12.9960000  0 18                     
G06  22383473.187 1 117625955.815 1      -320.008          38.000  
G11  22288543.828 1 117127067.335 1      1804.831          41.000  
G12  19712749.139 1 103591191.581 1     -1527.075          46.000  
G24  22639546.372 1 118971620.552 1     -3298.303          44.000  
G25  18740800.402 1  98483574.163 1       899.867          48.000  
G28  21700432.890 1 114036561.891 1      3400.410          41.000  
G32  20963191.240 1 110162307.122 1      -558.802          44.000  
G29  21385361.112 1 112380820.108 1      3574.843          41.000  
E05  22860038.588 1 120130314.160 1     -2110.216          39.000  
E03  24149700.717 1 126907557.910 1       440.115          39.000  
G31  23732081.227 2 124712932.163 1      3903.945          36.000  
G03  24262953.286 2 127502685.640 1        93.679          36.000  
E12  25339607.733 1 133160551.805 1      2737.645          39.000  
E25  23645739.563 1 124259212.944 1      2070.516          43.000  
E24  22367150.976 1 117540185.980 1      -270.959          46.000  
E31  25186325.126 1 132355026.377 1     -1981.646          37.000  
E10  26187957.991 1 137618674.440 1      3372.108          40.000  
E33  25255089.454 1 132716379.785 1       175.697          36.000  
> 2023 11 17 17 54 13.9960000  0 18                     
G06  22383533.862 1 117626276.160 1      -320.450          38.000  
G11  22288200.286 1 117125262.604 1      1804.524          41.000  
G12  19713039.563 1 103592718.630 1     -1527.356          46.000  
G24  22640174.196 1 118974918.634 1     -3298.126          44.000  
G25  18740628.971 1  98482674.490 1       899.312          48.000  
G28  21699785.575 1 114033161.501 1      3400.104          41.000  
G32  20963297.617 1 110162865.883 1      -558.933          44.000  
G29  21384680.519 1 112377245.432 1      3574.525          41.000  
E05  22860440.240 1 120132424.363 1     -2110.546          39.000  
E03  24149616.764 1 126907118.166 1       439.338          39.000  
G31  23731338.580 2 124709027.803 1      3903.459          36.000  
G03  24262935.731 2 127502591.539 1        93.648          36.000  
E12  25339086.495 1 133157814.060 1      2737.311          39.000  
E25  23645345.624 1 124257142.540 1      2070.311          43.000  
E24  22367202.593 1 117540456.870 1      -271.132          46.000  
E31  25186702.312 1 132357007.764 1     -1981.535          37.000  
E10  26187316.050 1 137615302.254 1      3372.110          40.000  
E33  25255056.385 1 132716204.297 1       174.888          36.000  
> 2023 11 17 17 54 14.9960000  0 18                     
G06  22383594.571 1 117626596.996 1      -321.294          38.000  
G11  22287857.040 1 117123458.254 1      1804.076          42.000  
G12  19713330.161 1 103594245.866 1     -1527.423          46.000  
G24  22640801.846 1 118978216.712 1     -3298.108          44.000  
G25  18740457.994 1  98481775.114 1       898.948          48.000  
G28  21699138.590 1 114029761.164 1      3400.063          41.000  
G32  20963404.115 1 110163425.138 1      -559.740          44.000  
G29  21383999.960 1 112373670.912 1      3574.396          41.000  
E05  22860841.438 1 120134534.680 1     -2110.657          39.000  
E03  24149532.706 1 126906678.731 1       438.892          39.000  
G31  23730595.881 2 124705123.249 2      3904.791          36.000  
G03  24262917.984 2 127502497.952 1        92.844          36.000  
E12  25338565.676 1 133155076.437 1      2737.381          39.000  
E25  23644951.965 1 124255072.127 1      2070.092          43.000  
E24  22367254.194 1 117540727.823 1      -271.141          46.000  
E31  25187079.551 1 132358989.043 1     -1981.499          37.000  
E10  26186674.423 1 137611929.988 1      3372.380          40.000  
E33  25255022.933 1 132716029.143 1       174.485          36.000  
> 2023 11 17 17 54 15.9960000  0 18                     
G06  22383655.542 1 117626918.269 1      -321.494          38.000  
G11  22287513.881 1 117121654.235 1      1803.787          42.000  
G12  19713620.917 1 103595773.255 1     -1527.624          46.000  
G24  22641429.495 1 118981514.750 1     -3298.218          44.000  
G25  18740286.982 1  98480875.973 1       898.761          48.000  
G28  21698491.571 1 114026360.859 1      3400.014          41.000  
G32  20963510.876 1 110163984.817 1      -560.140          44.000  
G29  21383319.611 1 112370096.526 1      3574.144          41.000  
E05  22861243.107 1 120136645.097 1     -2110.814          39.000  
E03  24149449.259 1 126906239.555 1       438.908          39.000  
G31  23729852.781 2 124701218.620 1      3904.568          36.000  
G03  24262900.307 2 127502404.738 1        92.642          36.000  
E12  25338044.752 1 133152338.912 1      2737.194          38.000  
E25  23644557.817 1 124253001.660 1      2070.219          43.000  
E24  22367305.602 1 117540998.800 1      -271.317          46.000  
E31  25187456.737 1 132360970.157 1     -1981.291          38.000  
E10  26186032.971 1 137608557.627 1      3372.121          40.000  
E33  25254989.970 2 132715854.268 1       174.736          36.000  
> 2023 11 17 17 54 16.9960000  0 18                     
G06  22383716.757 1 117627240.429 1      -322.548          38.000  
G11  22287170.513 1 117119850.986 1      1803.147          42.000  
G12  19713911.603 1 103597301.213 1     -1528.021          46.000  
G24  22642057.214 1 118984813.131 1     -3298.297          44.000  
G25  18740115.987 1  98479977.504 1       898.381          48.000  
G28  21697844.866 1 114022960.976 1      3399.890          41.000  
G32  20963617.409 1 110164545.327 1      -560.660          44.000  
G29  21382639.506 1 112366522.677 1      3573.654          41.000  
E05  22861644.619 1 120138755.987 1     -2111.023          39.000  
E03  24149366.022 1 126905801.095 1       438.270          39.000  
G31  23729110.013 2 124697314.249 1      3904.358          36.000  
G03  24262882.299 2 127502312.365 1        92.188          36.000  
E12  25337523.776 1 133149601.863 1      2737.034          39.000  
E25  23644163.773 1 124250931.568 1      2069.842          43.000  
E24  22367357.342 1 117541270.180 1      -271.474          46.000  
E31  25187833.924 1 132362951.558 1     -1981.528          38.000  
E10  26185391.675 1 137605185.552 1      3372.170          40.000  
E33  25254957.198 2 132715680.128 1       173.974          36.000  
> 2023 11 17 17 54 17.9960000  0 18                     
G06  22383777.973 1 117627562.972 1      -322.852          38.000  
G11  22286827.704 1 117118048.013 1      1802.740          42.000  
G12  19714202.568 1 103598829.283 1     -1528.394          46.000  
G24  22642684.986 1 118988111.423 1     -3298.425          44.000  
G25  18739945.080 1  98479079.267 1       897.839          48.000  
G28  21697197.707 1 114019561.082 1      3399.662          41.000  
G32  20963723.768 1 110165106.242 1      -561.256          44.000  
G29  21381959.506 1 112362948.917 1      3573.473          41.000  
E05  22862046.323 1 120140866.941 1     -2111.131          39.000  
E03  24149282.697 1 126905362.863 1       437.891          39.000  
G31  23728367.192 2 124693409.674 1      3904.709          36.000  
G03  24262864.779 2 127502220.374 1        91.875          36.000  
E12  25337002.922 1 133146864.880 1      2736.695          39.000  
E25  23643770.079 1 124248861.369 1      2070.053          43.000  
E24  22367409.187 1 117541541.565 1      -271.657          46.000  
E31  25188210.709 1 132364932.769 1     -1981.422          38.000  
E10  26184749.786 1 137601813.344 1      3372.021          40.000  
E33  25254924.270 2 132715506.253 1       173.381          36.000  
> 2023 11 17 17 54 18.9960000  0 18                     
G06  22383839.397 1 117627886.327 1      -323.459          38.000  
G11  22286484.755 1 117116245.754 1      1801.976          42.000  
G12  19714493.253 1 103600357.843 1     -1528.638          46.000  
G24  22643312.827 1 118991410.039 1     -3298.761          44.000  
G25  18739774.033 1  98478181.629 1       897.217          48.000  
G28  21696550.828 1 114016161.581 1      3399.213          41.000  
G32  20963831.018 1 110165667.950 1      -562.010          44.000  
G29  21381279.611 1 112359375.614 1      3573.211          41.000  
E05  22862448.184 1 120142978.343 1     -2111.246          39.000  
E03  24149199.145 1 126904925.285 1       437.210          39.000  
G31  23727624.581 2 124689505.312 1      3904.493          36.000  
G03  24262847.154 2 127502129.176 1        90.600          36.000  
E12  25336482.347 1 133144128.325 1      2736.283          39.000  
E25  23643376.315 1 124246791.495 1      2069.944          43.000  
E24  22367460.822 1 117541813.289 1      -271.751          46.000  
E31  25188587.511 1 132366914.173 1     -1981.412          38.000  
E10  26184108.212 1 137598441.360 1      3371.849          40.000  
E33  25254891.743 1 132715333.039 1       173.132          36.000  
> 2023 11 17 17 54 19.9960000  0 18                     
G06  22383901.066 1 117628210.753 1      -324.585          38.000  
G11  22286141.998 1 117114444.449 1      1801.431          42.000  
G12  19714784.340 1 103601887.200 1     -1529.266          46.000  
G24  22643940.442 1 118994709.219 1     -3298.956          44.000  
G25  18739603.282 1  98477284.849 1       897.000          48.000  
G28  21695903.983 1 114012762.710 1      3399.156          41.000  
G32  20963938.075 1 110166230.705 1      -562.871          44.000  
G29  21380600.222 1 112355803.089 1      3572.574          41.000  
E05  22862850.132 1 120145090.464 1     -2111.993          39.000  
E03  24149116.292 1 126904488.609 1       436.591          39.000  
G31  23726881.672 4 124685601.449 2      3903.894          36.000  
G03  24262830.088 2 127502038.998 1        90.115          36.000  
E12  25335961.650 1 133141392.476 1      2736.016          39.000  
E25  23642982.428 1 124244722.202 1      2069.555          43.000  
E24  22367512.788 1 117542085.663 1      -272.243          46.000  
E31  25188964.331 1 132368896.070 1     -1981.503          38.000  
E10  26183466.410 1 137595069.887 1      3371.812          40.000  
E33  25254859.425 1 132715160.760 1       172.034          35.000  
> 2023 11 17 17 54 20.9960000  0 18                     
G06  22383962.526 1 117628535.582 1      -325.118          37.000  
G11  22285799.171 1 117112643.449 1      1800.767          42.000  
G12  19715075.532 1 103603416.667 1     -1529.645          46.000  
G24  22644568.406 1 118998008.312 1     -3299.292          44.000  
G25  18739432.951 1  98476388.302 1       896.428          48.000  
G28  21695257.051 1 114009363.823 1      3398.869          41.000  
G32  20964045.359 1 110166793.861 1      -563.503          44.000  
G29  21379920.588 1 112352230.644 1      3572.140          41.000  
E05  22863251.854 1 120147202.617 1     -2112.111          39.000  
E03  24149033.019 1 126904052.177 1       436.184          39.000  
G31  23726138.660 2 124681697.376 1      3903.814          36.000  
G03  24262812.707 2 127501949.186 1        89.573          36.000  
E12  25335441.128 1 133138656.703 1      2735.527          39.000  
E25  23642588.821 1 124242652.815 1      2069.412          43.000  
E24  22367564.511 1 117542357.994 1      -272.320          46.000  
E31  25189341.588 1 132370877.793 1     -1981.896          38.000  
E10  26182825.010 1 137591698.278 1      3371.566          40.000  
E33  25254826.584 1 132714988.727 1       171.913          35.000  
> 2023 11 17 17 54 21.9960000  0 18                     
G06  22384024.614 2 117628861.076 1      -325.764          37.000  
G11  22285456.780 1 117110843.017 1      1799.953          42.000  
G12  19715366.881 1 103604946.492 1     -1530.115          46.000  
G24  22645195.968 1 119001307.560 1     -3299.561          44.000  
G25  18739262.375 1  98475492.219 1       895.745          48.000  
G28  21694610.189 1 114005965.184 1      3398.524          41.000  
G32  20964152.573 1 110167357.653 1      -564.205          44.000  
G29  21379240.902 1 112348658.523 1      3571.773          41.000  
E05  22863653.575 1 120149315.073 1     -2112.596          39.000  
E03  24148950.532 1 126903616.233 1       435.573          39.000  
G31  23725395.874 2 124677793.372 1      3903.875          36.000  
G03  24262795.885 2 127501860.016 1        89.117          36.000  
E12  25334920.605 1 133135921.206 1      2735.348          39.000  
E25  23642195.232 1 124240583.612 1      2068.992          43.000  
E24  22367616.547 1 117542630.558 1      -272.826          46.000  
E31  25189718.844 1 132372859.596 1     -1982.217          37.000  
E10  26182183.662 1 137588326.746 1      3371.512          40.000  
E33  25254793.969 2 132714817.236 1       171.270          35.000  
> 2023 11 17 17 54 22.9960000  0 18                     
G06  22384086.807 2 117629187.253 1      -326.071          38.000  
G11  22285114.494 1 117109043.161 1      1799.603          42.000  
G12  19715658.230 1 103606476.717 1     -1530.334          46.000  
G24  22645823.844 1 119004606.999 1     -3299.408          44.000  
G25  18739091.886 1  98474596.636 1       895.464          48.000  
G28  21693963.746 1 114002566.813 1      3398.385          41.000  
G32  20964260.171 1 110167922.123 1      -564.672          44.000  
G29  21378561.408 1 112345086.789 1      3571.732          42.000  
E05  22864055.750 1 120151427.860 1     -2112.686          39.000  
E03  24148867.696 1 126903180.829 1       435.208          39.000  
G31  23724652.808 4 124673889.490 2      3904.187          36.000  
G03  24262779.081 2 127501771.534 1        88.347          35.000  
E12  25334399.908 1 133133186.045 1      2735.044          39.000  
E25  23641802.043 1 124238514.601 1      2068.966          43.000  
E24  22367668.741 1 117542903.384 1      -272.917          46.000  
E31  25190095.769 1 132374841.476 1     -1981.858          37.000  
E10  26181542.192 1 137584955.378 1      3371.283          41.000  
E33  25254761.459 1 132714646.282 1       170.906          35.000  
> 2023 11 17 17 54 23.9960000  0 18                     
G06  22384148.999 1 117629513.861 1      -326.500          38.000  
G11  22284772.086 1 117107243.604 1      1799.401          42.000  
G12  19715949.456 1 103608007.053 1     -1530.548          46.000  
G24  22646451.738 1 119007906.346 1     -3299.225          44.000  
G25  18738921.433 1  98473701.261 1       895.158          48.000  
G28  21693316.866 1 113999168.423 1      3398.543          41.000  
G32  20964367.559 1 110168486.979 1      -565.082          44.000  
G29  21377882.158 1 112341515.135 1      3571.823          42.000  
E05  22864458.013 1 120153540.695 1     -2112.690          39.000  
E03  24148784.772 1 126902745.653 1       435.175          39.000  
G31  23723909.848 4 124669985.363 2      3904.661          36.000  
G03  24262762.241 2 127501683.382 1        88.177          35.000  
E12  25333879.473 1 133130450.932 1      2734.939          39.000  
E25  23641408.279 1 124236445.498 1      2069.245          43.000  
E24  22367721.179 1 117543176.167 1      -272.600          46.000  
E31  25190473.182 1 132376823.169 1     -1981.581          37.000  
E10  26180900.704 1 137581583.841 1      3371.782          41.000  
E33  25254728.792 2 132714475.591 1       170.579          35.000  
> 2023 11 17 17 54 24.9960000  0 18                     
G06  22384211.384 1 117629840.996 1      -327.872          38.000  
G11  22284429.730 1 117105444.450 1      1798.439          42.000  
G12  19716240.788 1 103609537.603 1     -1530.963          46.000  
G24  22647079.980 1 119011205.708 1     -3299.573          44.000  
G25  18738751.241 1  98472806.210 1       894.454          48.000  
G28  21692670.336 1 113995770.126 1      3398.037          41.000  
G32  20964475.122 1 110169052.352 1      -566.185          44.000  
G29  21377202.315 1 112337943.690 1      3570.840          42.000  
E05  22864859.769 1 120155653.693 1     -2113.367          39.000  
E03  24148702.372 1 126902310.837 1       434.426          39.000  
G31  23723166.835 2 124666081.221 2      3904.062          35.000  
G03  24262745.646 2 127501595.752 1        87.128          35.000  
E12  25333359.037 1 133127715.981 1      2734.386          39.000  
E25  23641014.393 1 124234376.418 1      2068.891          43.000  
E24  22367773.128 1 117543449.035 1      -273.072          46.000  
E31  25190850.595 1 132378804.784 1     -1981.902          37.000  
E10  26180259.304 1 137578212.258 1      3371.389          41.000  
E33  25254695.969 2 132714305.283 1       169.443          35.000  
> 2023 11 17 17 54 25.9960000  0 18                     
G06  22384273.960 2 117630169.058 1      -328.326          38.000  
G11  22284087.688 1 117103646.149 1      1798.054          42.000  
G12  19716532.433 1 103611068.816 1     -1531.445          46.000  
G24  22647707.892 1 119014505.549 1     -3300.024          44.000  
G25  18738581.066 1  98471911.932 1       893.957          48.000  
G28  21692023.718 1 113992372.368 1      3397.708          41.000  
G32  20964582.825 1 110169618.652 1      -566.706          44.000  
G29  21376523.223 1 112334372.870 1      3570.663          42.000  
E05  22865262.468 1 120157767.289 1     -2113.722          40.000  
E03  24148619.815 1 126901876.820 1       433.667          39.000  
G31  23722423.840 4 124662177.406 2      3903.909          36.000  
G03  24262729.173 2 127501509.048 1        86.591          35.000  
E12  25332838.620 1 133124981.605 1      2734.222          39.000  
E25  23640620.821 1 124232307.820 1      2068.389          43.000  
E24  22367825.060 1 117543722.443 1      -273.632          46.000  
E31  25191228.009 1 132380786.777 1     -1982.249          37.000  
E10  26179618.148 1 137574841.099 1      3371.011          41.000  
E33  25254663.459 2 132714135.787 1       168.890          35.000  
> 2023 11 17 17 54 26.9960000  0 18                     
G06  22384336.711 1 117630497.812 1      -329.016          38.000  
G11  22283745.524 1 117101848.431 1      1797.287          42.000  
G12  19716823.625 1 103612600.422 1     -1531.842          46.000  
G24  22648336.065 1 119017805.564 1     -3300.165          44.000  
G25  18738411.084 1  98471018.126 1       893.512          48.000  
G28  21691377.048 1 113988974.873 1      3397.084          41.000  
G32  20964690.406 1 110170185.614 1      -567.160          44.000  
G29  21375843.798 1 112330802.445 1      3570.033          42.000  
E05  22865665.184 1 120159881.199 1     -2113.998          40.000  
E03  24148537.311 1 126901443.311 1       433.063          39.000  
G31  23721680.984 2 124658273.699 1      3903.856          35.000  
G03  24262712.805 2 127501422.982 1        85.733          35.000  
E12  25332318.062 1 133122247.557 1      2733.830          39.000  
E25  23640227.004 1 124230239.385 1      2068.394          43.000  
E24  22367877.219 1 117543996.074 1      -273.777          46.000  
E31  25191605.125 1 132382768.852 1     -1982.129          37.000  
E10  26178976.207 1 137571470.023 1      3371.047          41.000  
E33  25254631.159 2 132713966.819 1       168.016          35.000  
> 2023 11 17 17 54 27.9960000  0 18                     
G06  22384399.741 1 117630827.327 1      -329.984          38.000  
G11  22283403.448 1 117100051.323 1      1796.940          42.000  
G12  19717115.061 1 103614132.471 1     -1532.098          46.000  
G24  22648963.976 1 119021105.813 1     -3300.305          44.000  
G25  18738241.258 1  98470124.880 1       892.896          48.000  
G28  21690730.726 1 113985577.671 1      3397.125          41.000  
G32  20964798.370 1 110170753.323 1      -568.246          44.000  
G29  21375164.618 1 112327232.403 1      3569.914          42.000  
E05  22866067.568 1 120161995.491 1     -2114.278          40.000  
E03  24148455.399 1 126901010.385 1       432.770          39.000  
G31  23720938.215 2 124654370.138 1      3903.685          36.000  
G03  24262696.436 2 127501337.653 1        84.592          35.000  
E12  25331798.046 1 133119513.891 1      2733.651          39.000  
E25  23639833.118 1 124228171.202 1      2068.369          43.000  
E24  22367929.482 1 117544270.015 1      -273.905          46.000  
E31  25191982.451 1 132384751.087 1     -1982.243          37.000  
E10  26178334.981 1 137568099.159 1      3370.838          41.000  
E33  25254598.841 2 132713798.423 1       168.012          35.000  
> 2023 11 17 17 54 28.9960000  0 18                     
G06  22384462.510 2 117631157.613 1      -330.273          38.000  
G11  22283061.563 1 117098254.949 1      1796.400          42.000  
G12  19717406.916 1 103615665.039 1     -1532.489          46.000  
G24  22649591.957 1 119024406.386 1     -3300.464          45.000  
G25  18738071.415 1  98469232.238 1       892.675          48.000  
G28  21690084.562 1 113982180.879 1      3396.906          41.000  
G32  20964906.509 1 110171321.827 1      -568.748          44.000  
G29  21374485.072 1 112323662.871 1      3569.598          42.000  
E05  22866469.901 1 120164110.256 1     -2114.862          40.000  
E03  24148372.895 1 126900578.097 1       432.164          39.000  
G31  23720195.395 2 124650466.815 1      3903.198          35.000  
G03  24262680.522 2 127501253.053 1        84.428          35.000  
E12  25331278.047 1 133116780.675 1      2733.121          39.000  
E25  23639439.685 1 124226103.353 1      2068.069          43.000  
E24  22367981.484 1 117544544.338 1      -274.183          46.000  
E31  25192359.830 1 132386733.515 1     -1982.079          37.000  
E10  26177693.599 1 137564728.542 1      3370.708          41.000  
E33  25254566.837 2 132713630.724 1       167.414          35.000  
> 2023 11 17 17 54 29.9960000  0 18                     
G06  22384525.435 1 117631488.427 1      -331.202          38.000  
G11  22282719.382 1 117096458.959 1      1795.581          42.000  
G12  19717698.963 1 103617197.814 1     -1532.965          46.000  
G24  22650219.990 1 119027706.963 1     -3300.952          45.000  
G25  18737901.869 1  98468339.926 1       891.720          48.000  
G28  21689438.293 1 113978784.152 1      3396.565          42.000  
G32  20965014.491 1 110171890.801 1      -569.697          44.000  
G29  21373805.857 1 112320093.519 1      3568.876          42.000  
E05  22866872.582 1 120166225.131 1     -2115.241          40.000  
E03  24148290.739 1 126900146.160 1       431.543          39.000  
G31  23719452.521 2 124646563.394 1      3902.665          36.000  
G03  24262664.188 2 127501168.958 1        83.937          35.000  
E12  25330758.519 1 133114047.609 1      2732.628          39.000  
E25  23639046.427 1 124224035.514 1      2067.526          43.000  
E24  22368033.852 1 117544818.733 1      -274.828          46.000  
E31  25192736.824 1 132388715.888 1     -1982.914          37.000  
E10  26177051.989 1 137561357.855 1      3370.525          41.000  
E33  25254535.182 2 132713463.368 1       166.969          35.000  
> 2023 11 17 17 54 30.9960000  0 18                     
G06  22384588.797 1 117631819.931 1      -331.877          38.000  
G11  22282377.375 1 117094663.541 1      1795.572          41.000  
G12  19717990.451 1 103618730.991 1     -1533.026          46.000  
G24  22650848.058 1 119031007.714 1     -3300.494          45.000  
G25  18737732.218 1  98467448.101 1       891.862          48.000  
G28  21688792.025 1 113975387.709 1      3396.572          42.000  
G32  20965122.665 1 110172460.460 1      -569.814          44.000  
G29  21373126.573 1 112316524.539 1      3569.125          42.000  
E05  22867275.281 1 120168340.350 1     -2115.169          40.000  
E03  24148208.357 1 126899714.730 1       431.520          39.000  
G31  23718709.526 2 124642660.028 1      3903.663          35.000  
G03  24262648.291 2 127501085.533 1        83.263          35.000  
E12  25330238.642 1 133111314.854 1      2732.746          39.000  
E25  23638652.837 1 124221967.861 1      2067.838          43.000  
E24  22368086.133 1 117545093.373 1      -274.500          46.000  
E31  25193114.028 1 132390698.344 1     -1982.576          38.000  
E10  26176410.537 1 137557987.307 1      3370.839          41.000  
E33  25254503.318 2 132713296.572 1       166.743          35.000  
> 2023 11 17 17 54 31.9960000  0 18                     
G06  22384652.071 2 117632151.821 1      -332.057          38.000  
G11  22282035.577 1 117092868.430 1      1795.074          41.000  
G12  19718282.062 1 103620264.249 1     -1533.270          46.000  
G24  22651476.231 1 119034308.370 1     -3300.665          45.000  
G25  18737562.584 1  98466556.469 1       891.493          48.000  
G28  21688145.791 1 113971991.230 1      3396.575          42.000  
G32  20965230.996 1 110173030.482 1      -570.205          44.000  
G29  21372447.550 1 112312955.614 1      3569.089          42.000  
E05  22867677.770 1 120170455.591 1     -2115.144          40.000  
E03  24148126.498 1 126899283.539 1       430.999          39.000  
G31  23717966.949 2 124638756.469 1      3904.036          35.000  
G03  24262632.377 2 127501002.464 1        82.719          35.000  
E12  25329718.678 1 133108582.116 1      2732.971          39.000  
E25  23638258.864 1 124219900.107 1      2067.955          43.000  
E24  22368138.780 1 117545367.962 1      -274.381          46.000  
E31  25193491.232 1 132392680.576 1     -1982.048          37.000  
E10  26175769.067 1 137554616.597 1      3370.836          41.000  
E33  25254471.908 2 132713130.025 1       166.838          35.000  
> 2023 11 17 17 54 32.9960000  0 18                     
G06  22384715.486 1 117632484.330 1      -333.397          38.000  
G11  22281694.129 1 117091073.820 1      1793.756          41.000  
G12  19718573.917 1 103621797.845 1     -1534.314          46.000  
G24  22652104.265 1 119037609.150 1     -3301.379          45.000  
G25  18737392.968 1  98465665.276 1       890.387          48.000  
G28  21687499.696 1 113968594.951 1      3395.542          42.000  
G32  20965339.589 1 110173601.114 1      -571.545          44.000  
G29  21371768.684 1 112309387.021 1      3567.489          42.000  
E05  22868080.626 1 120172571.096 1     -2116.201          40.000  
E03  24148044.220 1 126898852.803 1       429.992          39.000  
G31  23717224.408 2 124634852.977 1      3902.808          36.000  
G03  24262616.357 2 127500919.963 1        81.880          35.000  
E12  25329198.679 1 133105849.687 1      2731.544          39.000  
E25  23637865.361 1 124217832.477 1      2067.091          43.000  
E24  22368190.991 1 117545642.747 1      -275.423          46.000  
E31  25193868.314 1 132394662.873 1     -1982.974          37.000  
E10  26175127.649 1 137551245.959 1      3370.023          41.000  
E33  25254440.480 2 132712963.951 1       165.326          35.000  
> 2023 11 17 17 54 33.9960000  0 18                     
G06  22384778.935 2 117632817.798 1      -334.098          38.000  
G11  22281352.663 1 117089280.054 1      1793.499          41.000  
G12  19718865.737 1 103623332.094 1     -1534.644          46.000  
G24  22652732.507 1 119040910.374 1     -3301.349          45.000  
G25  18737223.526 1  98464774.834 1       890.114          48.000  
G28  21686853.777 1 113965199.214 1      3395.083          42.000  
G32  20965448.565 1 110174172.677 1      -572.224          44.000  
G29  21371089.696 1 112305819.020 1      3567.662          42.000  
E05  22868483.673 1 120174687.201 1     -2116.444          40.000  
E03  24147962.623 1 126898422.862 1       429.328          39.000  
G31  23716481.744 2 124630949.825 1      3902.642          35.000  
G03  24262600.687 2 127500838.419 1        80.685          34.000  
E12  25328678.523 1 133103117.789 1      2731.789          39.000  
E25  23637471.876 1 124215765.316 1      2067.061          43.000  
E24  22368243.220 1 117545918.049 1      -275.527          46.000  
E31  25194245.151 1 132396645.500 1     -1982.633          37.000  
E10  26174486.388 1 137547875.695 1      3370.127          41.000  
E33  25254408.755 1 132712798.708 1       164.803          35.000  
> 2023 11 17 17 54 34.9960000  0 18                     
G06  22384842.244 2 117633151.984 1      -334.764          38.000  
G11  22281011.319 1 117087486.923 1      1792.680          41.000  
G12  19719157.592 1 103624866.775 1     -1535.138          46.000  
G24  22653360.663 1 119044211.825 1     -3301.453          45.000  
G25  18737054.312 1  98463884.933 1       889.566          48.000  
G28  21686207.333 1 113961803.753 1      3395.160          42.000  
G32  20965557.717 1 110174744.958 1      -572.729          44.000  
G29  21370410.638 1 112302251.457 1      3567.086          42.000  
E05  22868886.197 1 120176803.673 1     -2116.729          39.000  
E03  24147881.148 1 126897993.479 1       428.925          39.000  
G31  23715738.574 4 124627046.806 2      3902.925          35.000  
G03  24262585.191 2 127500757.524 1        80.703          34.000  
E12  25328158.768 1 133100386.305 1      2731.186          39.000  
E25  23637078.688 1 124213698.382 1      2066.931          43.000  
E24  22368295.431 1 117546193.645 1      -275.896          46.000  
E31  25194622.634 1 132398628.268 1     -1982.849          37.000  
E10  26173845.128 1 137544505.619 1      3369.839          41.000  
E33  25254377.240 1 132712634.012 1       164.764          35.000  
> 2023 11 17 17 54 35.9960000  0 18                     
G06  22384905.606 2 117633486.840 1      -335.273          38.000  
G11  22280670.272 1 117085694.339 1      1792.086          41.000  
G12  19719449.796 1 103626401.806 1     -1535.150          46.000  
G24  22653988.783 1 119047513.450 1     -3301.648          45.000  
G25  18736885.167 1  98462995.486 1       889.193          48.000  
G28  21685561.239 1 113958408.544 1      3395.041          42.000  
G32  20965667.007 1 110175317.874 1      -573.253          44.000  
G29  21369732.331 1 112298684.205 1      3567.203          42.000  
E05  22869289.071 1 120178920.433 1     -2116.974          40.000  
E03  24147799.620 1 126897564.580 1       428.499          39.000  
G31  23714995.910 4 124623143.812 2      3903.639          35.000  
G03  24262570.079 2 127500677.293 1        79.793          35.000  
E12  25327639.257 1 133097655.090 1      2730.942          39.000  
E25  23636685.936 1 124211631.626 1      2066.633          43.000  
E24  22368347.991 1 117546469.443 1      -275.972          46.000  
E31  25194999.454 1 132400611.129 1     -1983.044          37.000  
E10  26173203.815 1 137541135.624 1      3370.166          41.000  
E33  25254345.900 2 132712469.855 1       163.616          35.000  
> 2023 11 17 17 54 36.9960000  0 18                     
G06  22384969.456 2 117633822.255 1      -335.563          38.000  
G11  22280328.650 1 117083902.194 1      1791.838          41.000  
G12  19719742.087 1 103627937.117 1     -1535.528          46.000  
G24  22654617.148 1 119050815.130 1     -3301.807          45.000  
G25  18736715.777 1  98462106.423 1       888.665          48.000  
G28  21684915.337 1 113955013.472 1      3394.783          42.000  
G32  20965776.246 1 110175891.370 1      -574.131          44.000  
G29  21369053.395 1 112295117.210 1      3566.905          42.000  
E05  22869692.397 1 120181037.395 1     -2117.100          39.000  
E03  24147717.936 1 126897136.083 1       427.972          39.000  
G31  23714253.177 2 124619240.861 1      3903.004          35.000  
G03  24262555.142 2 127500597.592 1        79.072          35.000  
E12  25327119.695 1 133094924.089 1      2730.635          39.000  
E25  23636292.172 1 124209564.936 1      2066.492          43.000  
E24  22368400.429 1 117546745.385 1      -276.052          46.000  
E31  25195376.972 1 132402593.960 1     -1983.255          37.000  
E10  26172562.432 1 137537765.649 1      3369.851          41.000  
E33  25254314.734 2 132712306.116 1       163.669          35.000  
> 2023 11 17 17 54 37.9960000  0 18                     
G06  22385033.167 1 117634158.201 1      -335.990          38.000  
G11  22279987.672 1 117082110.502 1      1791.478          41.000  
G12  19720034.134 1 103629472.643 1     -1535.400          46.000  
G24  22655245.653 1 119054116.831 1     -3301.355          45.000  
G25  18736546.790 1  98461217.683 1       888.772          48.000  
G28  21684269.382 1 113951618.503 1      3395.114          42.000  
G32  20965885.379 1 110176465.324 1      -574.096          44.000  
G29  21368374.268 1 112291550.419 1      3566.820          41.000  
E05  22870095.585 1 120183154.534 1     -2116.980          39.000  
E03  24147636.688 1 126896707.961 1       428.015          39.000  
G31  23713510.112 2 124615337.824 1      3902.973          35.000  
G03  24262540.048 2 127500518.357 1        79.564          35.000  
E12  25326599.940 1 133092193.252 1      2730.905          39.000  
E25  23635898.984 1 124207498.275 1      2066.799          43.000  
E24  22368453.216 1 117547021.400 1      -275.783          46.000  
E31  25195753.949 1 132404576.668 1     -1982.348          37.000  
E10  26171921.398 1 137534395.624 1      3370.563          41.000  
E33  25254283.899 2 132712142.762 1       163.198          35.000  
> 2023 11 17 17 54 38.9960000  0 18                     
G06  22385097.104 1 117634494.524 1      -336.810          37.000  
G11  22279646.852 1 117080319.053 1      1791.306          41.000  
G12  19720326.355 1 103631008.254 1     -1535.681          46.000  
G24  22655873.808 1 119057418.432 1     -3301.471          45.000  
G25  18736377.610 1  98460329.130 1       888.385          48.000  
G28  21683623.689 1 113948223.494 1      3394.943          42.000  
G32  20965994.373 1 110177039.680 1      -574.713          44.000  
G29  21367695.367 1 112287983.703 1      3566.703          42.000  
E05  22870498.057 1 120185271.686 1     -2117.397          39.000  
E03  24147555.178 1 126896280.018 1       428.160          39.000  
G31  23712767.203 2 124611434.529 1      3903.581          35.000  
G03  24262525.128 2 127500439.501 1        78.724          35.000  
E12  25326080.272 1 133089462.426 1      2730.678          39.000  
E25  23635505.708 1 124205431.488 1      2066.838          43.000  
E24  22368505.182 1 117547297.380 1      -275.877          46.000  
E31  25196130.892 1 132406559.215 1     -1982.313          37.000  
E10  26171279.701 1 137531025.447 1      3370.467          41.000  
E33  25254252.838 2 132711979.631 1       163.239          35.000  
> 2023 11 17 17 54 39.9960000  0 18                     
G06  22385161.304 2 117634831.405 1      -337.459          37.000  
G11  22279306.154 1 117078528.079 1      1790.602          41.000  
G12  19720618.699 1 103632544.130 1     -1536.060          46.000  
G24  22656501.981 1 119060720.089 1     -3301.898          45.000  
G25  18736208.692 1  98459440.936 1       887.704          48.000  
G28  21682977.891 1 113944828.637 1      3394.366          42.000  
G32  20966103.943 1 110177614.574 1      -575.455          44.000  
G29  21367017.007 1 112284417.230 1      3566.175          42.000  
E05  22870900.651 1 120187389.042 1     -2117.807          39.000  
E03  24147473.772 1 126895852.523 1       426.822          39.000  
G31  23712024.592 4 124607531.245 2      3902.886          35.000  
G03  24262510.417 2 127500361.202 1        77.408          35.000  
E12  25325560.518 1 133086731.825 1      2729.956          39.000  
E25  23635112.241 1 124203364.792 1      2066.380          43.000  
E24  22368557.830 1 117547573.496 1      -276.538          46.000  
E31  25196508.165 1 132408541.738 1     -1982.973          37.000  
E10  26170638.458 1 137527655.265 1      3370.043          41.000  
E33  25254221.829 2 132711816.940 1       162.153          35.000  
> 2023 11 17 17 54 40.9960000  0 18                     
G06  22385225.590 1 117635169.432 1      -338.029          38.000  
G11  22278965.526 1 117076738.134 1      1789.818          41.000  
G12  19720911.321 1 103634080.854 1     -1536.639          46.000  
G24  22657130.119 1 119064022.383 1     -3302.020          45.000  
G25  18736039.808 1  98458553.692 1       887.351          48.000  
G28  21682332.059 1 113941434.485 1      3394.069          42.000  
G32  20966213.408 1 110178190.575 1      -575.853          44.000  
G29  21366338.333 1 112280851.571 1      3565.741          42.000  
E05  22871303.384 1 120189507.170 1     -2118.019          39.000  
E03  24147392.315 1 126895425.984 1       426.570          39.000  
G31  23711282.207 2 124603628.496 1      3902.839          35.000  
G03  24262495.864 2 127500283.976 1        76.855          35.000  
E12  25325041.007 1 133084001.973 1      2730.118          39.000  
E25  23634719.331 1 124201298.734 1      2066.340          43.000  
E24  22368610.477 1 117547850.310 1      -276.736          46.000  
E31  25196885.142 1 132410524.768 1     -1982.536          37.000  
E10  26169997.512 1 137524285.670 1      3369.798          41.000  
E33  25254190.610 2 132711655.228 1       161.870          35.000  
> 2023 11 17 17 54 41.9960000  0 18                     
G06  22385289.842 1 117635507.873 1      -338.920          38.000  
G11  22278624.897 1 117074948.500 1      1789.458          41.000  
G12  19721203.595 1 103635617.680 1     -1536.810          46.000  
G24  22657758.379 1 119067324.590 1     -3302.069          45.000  
G25  18735870.890 1  98457666.685 1       886.835          48.000  
G28  21681686.121 1 113938040.312 1      3394.293          42.000  
G32  20966323.031 1 110178767.009 1      -576.871          44.000  
G29  21365659.747 1 112277286.020 1      3565.411          41.000  
E05  22871706.379 1 120191625.341 1     -2117.837          39.000  
E03  24147311.189 1 126894999.673 1       426.220          39.000  
G31  23710539.474 2 124599725.584 1      3902.747          35.000  
G03  24262481.520 2 127500207.110 1        76.949          35.000  
E12  25324521.811 1 133081272.197 1      2729.685          39.000  
E25  23634326.038 1 124199232.600 1      2066.223          43.000  
E24  22368663.526 1 117548127.073 1      -276.666          46.000  
E31  25197262.224 1 132412507.640 1     -1982.644          37.000  
E10  26169356.321 1 137520915.923 1      3370.003          41.000  
E33  25254159.758 2 132711493.781 1       161.584          35.000  
> 2023 11 17 17 54 42.9960000  0 18                     
G06  22385354.338 1 117635846.884 1      -339.994          38.000  
G11  22278284.479 1 117073159.336 1      1788.332          41.000  
G12  19721495.886 1 103637154.800 1     -1537.671          46.000  
G24  22658386.901 1 119070626.878 1     -3302.905          45.000  
G25  18735702.216 1  98456780.046 1       885.869          48.000  
G28  21681040.341 1 113934646.319 1      3393.420          42.000  
G32  20966432.566 1 110179343.983 1      -578.048          44.000  
G29  21364981.247 1 112273720.703 1      3564.883          41.000  
E05  22872109.479 1 120193743.751 1     -2119.273          39.000  
E03  24147230.429 1 126894573.805 1       424.908          39.000  
G31  23709796.600 2 124595822.648 1      3902.209          35.000  
G03  24262467.123 2 127500130.834 1        75.674          35.000  
E12  25324002.440 1 133078542.609 1      2728.847          39.000  
E25  23633932.972 1 124197166.555 1      2065.311          43.000  
E24  22368715.911 1 117548403.995 1      -277.646          46.000  
E31  25197639.759 1 132414490.533 1     -1984.083          37.000  
E10  26168715.060 1 137517546.196 1      3369.109          41.000  
E33  25254129.325 2 132711332.780 1       160.286          35.000  
> 2023 11 17 17 54 43.9960000  0 18                     
G06  22385419.358 1 117636187.194 1      -340.712          38.000  
G11  22277944.130 1 117071371.358 1      1787.792          41.000  
G12  19721788.805 1 103638692.911 1     -1538.086          46.000  
G24  22659015.598 1 119073929.945 1     -3302.863          45.000  
G25  18735533.473 1  98455894.500 1       885.605          48.000  
G28  21680394.648 1 113931253.182 1      3393.426          42.000  
G32  20966542.746 1 110179922.212 1      -578.240          44.000  
G29  21364303.010 1 112270156.358 1      3564.460          41.000  
E05  22872512.405 1 120195863.082 1     -2119.201          39.000  
E03  24147149.652 1 126894149.045 1       424.849          39.000  
G31  23709053.954 2 124591920.388 1      3902.356          35.000  
G03  24262452.988 2 127500055.811 1        74.545          35.000  
E12  25323483.244 1 133075813.958 1      2728.670          39.000  
E25  23633539.958 1 124195101.300 1      2065.311          43.000  
E24  22368768.524 1 117548681.777 1      -277.729          46.000  
E31  25198017.400 1 132416474.053 1     -1983.257          37.000  
E10  26168073.782 1 137514177.216 1      3369.046          41.000  
E33  25254099.049 2 132711172.940 1       159.541          35.000  
> 2023 11 17 17 54 44.9960000  0 18                     
G06  22385484.325 1 117636528.047 1      -341.019          38.000  
G11  22277603.955 1 117069583.825 1      1787.445          41.000  
G12  19722081.533 1 103640231.275 1     -1538.391          46.000  
G24  22659644.067 1 119077233.085 1     -3303.174          45.000  
G25  18735365.061 1  98455009.325 1       885.053          48.000  
G28  21679748.868 1 113927860.194 1      3392.813          42.000  
G32  20966652.997 1 110180500.999 1      -578.911          44.000  
G29  21363624.283 1 112266592.284 1      3563.854          41.000  
E05  22872915.610 1 120197982.593 1     -2119.609          39.000  
E03  24147069.032 1 126893724.694 1       424.054          39.000  
G31  23708311.238 2 124588018.084 1      3902.556          35.000  
G03  24262438.575 2 127499981.310 1        74.561          34.000  
E12  25322963.716 1 133073085.525 1      2728.226          39.000  
E25  23633147.259 1 124193036.103 1      2065.175          43.000  
E24  22368821.345 1 117548959.675 1      -278.006          46.000  
E31  25198395.145 1 132418457.598 1     -1983.674          37.000  
E10  26167432.958 1 137510808.225 1      3368.973          41.000  
E33  25254069.279 2 132711013.514 1       158.735          36.000  
> 2023 11 17 17 54 45.9960000  0 18                     
G06  22385549.240 1 117636869.488 1      -341.658          38.000  
G11  22277264.321 1 117067796.783 1      1786.796          42.000  
G12  19722374.627 1 103641769.939 1     -1538.824          46.000  
G24  22660272.485 1 119080536.304 1     -3303.223          45.000  
G25  18735196.806 1  98454124.555 1       884.605          48.000  
G28  21679103.088 1 113924467.373 1      3392.259          42.000  
G32  20966763.178 1 110181080.365 1      -579.723          44.000  
G29  21362945.924 1 112263028.452 1      3563.499          41.000  
E05  22873318.588 1 120200102.354 1     -2119.776          39.000  
E03  24146988.778 1 126893300.735 1       423.997          39.000  
G31  23707568.818 2 124584115.838 1      3901.733          35.000  
G03  24262424.789 4 127499907.389 2        73.380          35.000  
E12  25322444.519 1 133070357.285 1      2728.436          39.000  
E25  23632754.576 1 124190971.013 1      2065.149          43.000  
E24  22368874.324 1 117549237.722 1      -278.001          46.000  
E31  25198772.785 1 132420441.085 1     -1983.362          37.000  
E10  26166791.819 1 137507439.256 1      3368.901          41.000  
E33  25254038.985 1 132710854.482 1       159.073          36.000  
> 2023 11 17 17 54 46.9960000  0 18                     
G06  22385614.189 2 117637211.640 1      -342.415          38.000  
G11  22276924.374 1 117066010.336 1      1786.014          42.000  
G12  19722667.616 1 103643308.998 1     -1539.423          46.000  
G24  22660900.867 1 119083839.715 1     -3303.503          45.000  
G25  18735028.568 1  98453240.276 1       884.004          48.000  
G28  21678457.360 1 113921074.802 1      3392.404          42.000  
G32  20966873.812 1 110181660.393 1      -580.269          44.000  
G29  21362267.843 1 112259464.995 1      3563.229          41.000  
E05  22873722.159 1 120202222.426 1     -2120.053          39.000  
E03  24146908.071 1 126892877.349 1       422.933          39.000  
G31  23706826.451 4 124580213.628 2      3902.524          35.000  
G03  24262410.759 2 127499834.089 1        73.083          34.000  
E12  25321925.620 1 133067629.402 1      2727.724          39.000  
E25  23632361.475 1 124188906.118 1      2064.848          43.000  
E24  22368927.355 1 117549516.030 1      -278.627          46.000  
E31  25199150.582 1 132422424.721 1     -1983.809          37.000  
E10  26166150.960 1 137504070.433 1      3368.607          41.000  
E33  25254008.779 2 132710696.052 1       158.018          36.000  
> 2023 11 17 17 54 47.9960000  0 18                     
G06  22385679.767 1 117637554.167 1      -342.264          38.000  
G11  22276584.286 1 117064224.166 1      1786.065          42.000  
G12  19722960.378 1 103644848.141 1     -1539.124          46.000  
G24  22661529.598 1 119087143.038 1     -3303.235          45.000  
G25  18734860.348 1  98452356.191 1       884.139          48.000  
G28  21677811.493 1 113917682.220 1      3392.543          42.000  
G32  20966984.237 1 110182240.803 1      -580.311          44.000  
G29  21361589.850 1 112255901.615 1      3563.261          41.000  
E05  22874126.027 1 120204342.543 1     -2119.717          39.000  
E03  24146827.504 1 126892454.145 1       423.250          39.000  
G31  23706083.997 2 124576311.274 1      3902.306          35.000  
G03  24262396.781 2 127499761.165 1        72.774          34.000  
E12  25321406.406 1 133064901.572 1      2727.764          39.000  
E25  23631968.427 1 124186841.130 1      2065.203          43.000  
E24  22368980.491 1 117549794.293 1      -278.121          46.000  
E31  25199528.222 1 132424408.140 1     -1983.351          38.000  
E10  26165510.101 1 137500701.453 1      3368.928          41.000  
E33  25253978.643 1 132710537.845 1       158.046          36.000  
> 2023 11 17 17 54 48.9960000  0 18                     
G06  22385745.240 1 117637897.092 1      -343.755          38.000  
G11  22276244.374 1 117062438.256 1      1785.163          41.000  
G12  19723253.437 1 103646387.348 1     -1539.746          46.000  
G24  22662158.120 1 119090446.199 1     -3303.607          45.000  
G25  18734692.215 1  98451472.273 1       883.396          48.000  
G28  21677165.712 1 113914289.557 1      3392.253          42.000  
G32  20967094.644 1 110182821.558 1      -581.401          44.000  
G29  21360911.752 1 112252338.259 1      3562.814          41.000  
E05  22874529.162 1 120206462.669 1     -2120.788          39.000  
E03  24146746.692 1 126892031.167 1       422.285          40.000  
G31  23705341.804 4 124572408.631 2      3902.862          35.000  
G03  24262383.188 2 127499688.585 1        71.657          34.000  
E12  25320887.681 1 133062173.711 1      2727.478          39.000  
E25  23631575.395 1 124184776.001 1      2064.760          43.000  
E24  22369033.191 1 117550072.488 1      -278.672          46.000  
E31  25199905.635 1 132426391.320 1     -1983.671          38.000  
E10  26164869.102 1 137497332.262 1      3368.815          41.000  
E33  25253948.366 1 132710379.865 1       157.303          36.000  
> 2023 11 17 17 54 49.9960000  0 18                     
G06  22385810.609 1 117638240.945 1      -344.061          39.000  
G11  22275904.513 1 117060653.207 1      1784.580          41.000  
G12  19723546.548 1 103647927.228 1     -1540.009          46.000  
G24  22662786.834 1 119093749.842 1     -3303.894          45.000  
G25  18734524.187 1  98450589.146 1       882.688          48.000  
G28  21676520.019 1 113910897.462 1      3391.858          42.000  
G32  20967205.261 1 110183403.270 1      -582.172          44.000  
G29  21360233.671 1 112248775.581 1      3562.177          41.000  
E05  22874933.117 1 120208583.392 1     -2120.994          39.000  
E03  24146666.264 1 126891608.977 1       422.043          40.000  
G31  23704599.228 2 124568506.433 1      3901.453          35.000  
G03  24262369.489 2 127499616.925 1        71.359          34.000  
E12  25320368.554 1 133059446.479 1      2727.071          39.000  
E25  23631182.364 1 124182711.358 1      2064.501          43.000  
E24  22369086.083 1 117550351.216 1      -278.976          46.000  
E31  25200283.485 1 132428374.880 1     -1983.684          38.000  
E10  26164228.103 1 137493963.480 1      3368.655          41.000  
E33  25253918.195 1 132710222.707 1       156.858          36.000  
> 2023 11 17 17 54 50.9960000  0 18                     
G06  22385876.536 1 117638585.399 1      -344.697          39.000  
G11  22275564.758 1 117058868.608 1      1784.410          41.000  
G12  19723839.485 1 103649467.374 1     -1540.253          46.000  
G24  22663415.635 1 119097053.537 1     -3303.625          45.000  
G25  18734356.142 1  98449706.377 1       882.584          48.000  
G28  21675874.309 1 113907505.513 1      3391.552          42.000  
G32  20967315.826 1 110183985.516 1      -582.641          44.000  
G29  21359555.852 1 112245213.116 1      3562.447          41.000  
E05  22875336.932 1 120210704.301 1     -2120.722          39.000  
E03  24146585.992 1 126891187.187 1       421.815          40.000  
G31  23703856.878 4 124564604.169 2      3902.364          35.000  
G03  24262355.581 4 127499545.816 2        71.138          34.000  
E12  25319849.742 1 133056719.444 1      2726.809          39.000  
E25  23630789.891 1 124180646.785 1      2064.533          43.000  
E24  22369139.498 1 117550630.058 1      -279.092          46.000  
E31  25200661.038 1 132430358.413 1     -1983.448          38.000  
E10  26163587.070 1 137490594.716 1      3368.855          41.000  
E33  25253888.652 1 132710065.992 1       156.233          36.000  
> 2023 11 17 17 54 51.9960000  0 18                     
G06  22385942.533 1 117638930.254 1      -345.082          39.000  
G11  22275225.246 1 117057084.329 1      1784.248          41.000  
G12  19724132.544 1 103651007.633 1     -1540.155          46.000  
G24  22664044.384 1 119100357.150 1     -3303.381          45.000  
G25  18734188.271 1  98448823.815 1       882.645          48.000  
G28  21675229.017 1 113904113.530 1      3392.238          42.000  
G32  20967426.966 1 110184568.158 1      -582.634          44.000  
G29  21358877.719 1 112241650.763 1      3562.504          41.000  
E05  22875740.381 1 120212825.288 1     -2121.059          39.000  
E03  24146505.983 1 126890765.658 1       421.528          40.000  
G31  23703114.249 4 124560701.715 2      3902.619          35.000  
G03  24262342.057 2 127499475.060 1        70.688          34.000  
E12  25319330.633 1 133053992.465 1      2727.021          39.000  
E25  23630397.122 1 124178582.112 1      2064.938          43.000  
E24  22369192.791 1 117550908.887 1      -278.672          46.000  
E31  25201038.538 1 132432341.772 1     -1983.277          38.000  
E10  26162945.931 1 137487225.807 1      3369.078          41.000  
E33  25253858.882 1 132709909.514 1       156.594          36.000  
> 2023 11 17 17 54 52.9960000  0 18                     
G06  22386008.582 1 117639275.709 1      -345.815          39.000  
G11  22274885.857 1 117055300.571 1      1783.046          41.000  
G12  19724425.655 1 103652548.220 1     -1541.046          46.000  
G24  22664672.993 1 119103660.886 1     -3304.065          45.000  
G25  18734020.260 1  98447941.701 1       881.614          48.000  
G28  21674583.778 1 113900721.758 1      3391.484          42.000  
G32  20967537.775 1 110185151.415 1      -583.693          44.000  
G29  21358200.023 1 112238088.712 1      3561.721          41.000  
E05  22876144.563 1 120214946.520 1     -2121.754          40.000  
E03  24146426.201 1 126890344.589 1       420.397          40.000  
G31  23702371.655 2 124556799.295 1      3901.869          35.000  
G03  24262328.603 2 127499404.919 1        69.321          35.000  
E12  25318811.594 1 133051265.727 1      2726.344          39.000  
E25  23630004.091 1 124176517.596 1      2064.082          43.000  
E24  22369245.909 1 117551187.879 1      -279.344          46.000  
E31  25201416.074 1 132434325.154 1     -1983.887          38.000  
E10  26162304.688 1 137483856.950 1      3368.543          41.000  
E33  25253829.530 2 132709753.546 1       155.263          36.000  
> 2023 11 17 17 54 53.9960000  0 18                     
G06  22386074.875 1 117639622.109 1      -346.636          38.000  
G11  22274546.153 1 117053517.592 1      1782.830          41.000  
G12  19724718.959 1 103654089.420 1     -1541.528          46.000  
G24  22665301.463 1 119106965.037 1     -3304.309          45.000  
G25  18733852.877 1  98447060.301 1       881.214          48.000  
G28  21673938.556 1 113897330.493 1      3391.024          42.000  
G32  20967648.706 1 110185735.573 1      -584.314          44.000  
G29  21357522.378 1 112234527.265 1      3561.210          41.000  
E05  22876548.012 1 120217068.315 1     -2122.242          40.000  
E03  24146346.331 1 126889924.245 1       420.447          39.000  
G31  23701629.148 2 124552897.218 1      3901.876          35.000  
G03  24262315.184 2 127499335.651 1        68.972          35.000  
E12  25318292.921 1 133048539.554 1      2726.034          39.000  
E25  23629610.902 1 124174453.481 1      2064.005          43.000  
E24  22369298.871 1 117551467.389 1      -279.712          46.000  
E31  25201793.784 1 132436308.858 1     -1983.883          38.000  
E10  26161663.794 1 137480488.479 1      3368.368          41.000  
E33  25253800.214 2 132709598.342 1       154.340          36.000  
> 2023 11 17 17 54 54.9960000  0 18                     
G06  22386141.099 1 117639969.229 1      -347.682          38.000  
G11  22274206.974 1 117051735.264 1      1781.918          41.000  
G12  19725012.541 1 103655631.055 1     -1541.986          46.000  
G24  22665930.404 1 119110269.405 1     -3304.584          45.000  
G25  18733685.512 1  98446179.442 1       880.534          48.000  
G28  21673293.195 1 113893939.522 1      3390.694          42.000  
G32  20967759.829 1 110186320.437 1      -585.379          44.000  
G29  21356845.101 1 112230966.212 1      3560.825          41.000  
E05  22876951.653 1 120219190.440 1     -2122.139          40.000  
E03  24146266.863 1 126889504.498 1       419.374          39.000  
G31  23700886.956 2 124548995.265 1      3901.882          35.000  
G03  24262301.939 2 127499267.095 1        67.860          35.000  
E12  25317774.300 1 133045813.755 1      2725.597          39.000  
E25  23629218.203 1 124172389.614 1      2063.498          43.000  
E24  22369352.268 1 117551747.175 1      -280.066          46.000  
E31  25202170.900 1 132438292.693 1     -1984.293          38.000  
E10  26161023.022 1 137477120.163 1      3368.042          41.000  
E33  25253770.793 1 132709443.684 1       154.292          36.000  
> 2023 11 17 17 54 55.9960000  0 18                     
G06  22386207.287 1 117640316.940 1      -348.219          38.000  
G11  22273867.706 1 117049953.430 1      1781.357          41.000  
G12  19725305.757 1 103657172.982 1     -1542.169          46.000  
G24  22666559.030 1 119113573.876 1     -3304.608          45.000  
G25  18733518.008 1  98445298.980 1       880.237          48.000  
G28  21672648.043 1 113890548.734 1      3390.833          42.000  
G32  20967871.074 1 110186905.880 1      -585.801          44.000  
G29  21356167.701 1 112227405.450 1      3560.507          42.000  
E05  22877355.608 1 120221312.842 1     -2122.510          40.000  
E03  24146186.819 1 126889085.166 1       419.232          40.000  
G31  23700144.693 2 124545093.324 1      3902.127          35.000  
G03  24262288.799 2 127499199.093 1        67.585          35.000  
E12  25317255.383 1 133043088.199 1      2725.313          39.000  
E25  23628825.276 1 124170325.827 1      2063.875          43.000  
E24  22369405.683 1 117552027.110 1      -280.085          46.000  
E31  25202548.366 1 132440276.518 1     -1983.823          38.000  
E10  26160381.761 1 137473751.880 1      3368.222          41.000  
E33  25253741.197 1 132709289.528 1       153.526          36.000  
