     2.11           OBSERVATION DATA    M (MIXED)           RINEX VERSION / TYPE
RTKCONV 2.4.2                           20230828 192939 UTC PGM / RUN BY / DATE 
log: C:\Users\oo\Desktop\divers\verniquet\Reseau\verniquet  COMMENT             
format: u-blox                                              COMMENT             
                                                            MARKER NAME         
                                                            MARKER NUMBER       
                                                            OBSERVER / AGENCY   
                                                            REC # / TYPE / VERS 
                                                            ANT # / TYPE        
  4200735.9017   179776.7013  4780195.9426                  APPROX POSITION XYZ 
        0.0000        0.0000        0.0000                  ANTENNA: DELTA H/E/N
     1     1                                                WAVELENGTH FACT L1/2
     4    C1    L1    D1    S1                              # / TYPES OF OBSERV 
  2023     8    28    15     7   13.9950000     GPS         TIME OF FIRST OBS   
  2023     8    28    16    45    2.9960000     GPS         TIME OF LAST OBS    
                                                            END OF HEADER       
 23  8 28 15  7 13.9950000  0  9G 6G 7G 9G11G20G30G 5G29G13
  21506767.512   113018813.057       -3600.005          31.000  
  19584100.934   102915148.898         160.183          45.000  
  20542296.595   107950494.584       -2696.702          36.000  
  20167162.092   105979157.897       -1479.323          47.000  
  19442388.745   102170440.913        1670.300          45.000  
  20145278.010   105864150.546        2135.598          44.000  
  21558437.197   113290356.282        3082.875          45.000  
  23785529.516   124993808.8492       -914.358          35.000  
  22862822.100   120144949.630        3265.490          37.000  
 23  8 28 15  7 14.9950000  0  9G 6G 7G 9G11G20G30G 5G29G13
  21507452.573   113022413.947       -3601.923          32.000  
  19584070.876   102914989.648         158.438          45.000  
  20542809.858   107953192.084       -2698.416          36.000  
  20167444.001   105980638.201       -1481.133          47.000  
  19442071.133   102168771.578        1668.640          44.000  
  20144871.682   105862015.753        2133.943          44.000  
  21557850.861   113287274.116        3081.592          44.000  
  23785703.399   124994723.9412       -915.895          35.000  
  22862201.073   120141684.949        3264.333          38.000  
 23  8 28 15  7 15.9950000  0  9G 6G 7G 9G11G20G30G 5G29G13
  21508137.564   113026015.808       -3601.448          32.000  
  19584040.687   102914831.779         157.449          45.000  
  20543323.767   107955890.613       -2698.936          37.000  
  20167726.092   105982119.972       -1482.267          47.000  
  19441753.915   102167103.546        1667.657          44.000  
  20144465.624   105859882.278        2132.861          44.000  
  21557264.743   113284192.990        3080.841          44.000  
  23785877.491   124995640.4442       -916.917          34.000  
  22861580.212   120138421.209        3263.576          39.000  
 23  8 28 15  7 16.9950000  0  9G 6G 7G 9G11G20G30G 5G29G13
  21508823.191   113029618.476       -3603.956          32.000  
  19584011.039   102914674.892         156.531          45.000  
  20543837.746   107958589.854       -2699.745          37.000  
  20168008.428   105983602.820       -1483.220          47.000  
  19441436.661   102165436.415        1666.949          44.000  
  20144059.784   105857749.678        2132.231          44.000  
  21556678.538   113281112.524        3080.286          45.000  
  23786051.845   124996557.9452       -917.763          33.000  
  22860959.560   120135158.003        3263.382          39.000  
 23  8 28 15  7 17.9950000  0  9G 6G 7G 9G11G20G30G 5G29G13
  21509509.168   113033221.488       -3602.785          32.000  
  19583981.243   102914518.770         156.038          45.000  
  20544351.603   107961289.499       -2699.745          37.000  
  20168290.755   105985086.516       -1483.782          48.000  
  19441119.617   102163769.961        1666.486          45.000  
  20143653.997   105855617.767        2131.683          44.000  
  21556092.481   113278032.473        3080.004          45.000  
  23786226.486   124997476.2712       -918.360          33.000  
  22860338.507   120131895.116        3263.486          39.000  
 23  8 28 15  7 18.9950000  0  9G 6G 7G 9G11G20G30G 5G29G13
  21510194.944   113036824.855       -3603.366          31.000  
  19583951.551   102914363.202         154.955          45.000  
  20544865.346   107963989.397       -2700.265          36.000  
  20168573.318   105986570.872       -1485.096          47.000  
  19440802.860   102162103.996        1665.417          45.000  
  20143248.209   105853486.318        2130.871          44.000  
  21555506.485   113274952.638        3079.372          45.000  
  23786401.015   124998395.2482       -920.061          34.000  
  22859718.064   120128632.409        3262.175          39.000  
 23  8 28 15  7 19.9950000  0  9G 6G 7G 9G11G20G30G 5G29G13
  21510880.869   113040429.094       -3604.552          30.000  
  19583922.200   102914208.850         153.122          45.000  
  20545379.089   107966690.189       -2701.536          37.000  
  20168856.090   105988056.529       -1486.800          47.000  
  19440486.174   102160439.157        1663.824          45.000  
  20142842.579   105851356.002        2129.142          44.000  
  21554920.699   113271873.690        3078.133          45.000  
  23786576.163   124999315.4042       -921.305          34.000  
  22859097.796   120125370.448        3261.086          39.000  
 23  8 28 15 10 20.9950000  0  9G 6G 7G 9G11G20G30G 5G29G13
  21636211.264   113699054.9163      -3665.549          41.000  
  19580740.057   102897475.1613         38.444          44.000  
  20639545.882   108461540.2293      -2759.114          38.000  
  20222438.999   106269647.0413      -1617.367          46.000  
  19385044.625   101869097.9973       1562.128          46.000  
  20071351.000   105475660.9623       2028.762          46.000  
  21449972.899   112720358.7253       3022.505          46.000  
  23820535.185   125177754.7563      -1043.002          43.000  
  22747539.043   119539130.2363       3223.282          40.000  
 23  8 28 15 10 21.9950000  0  9G 6G 7G 9G11G20G30G 5G29G13
  21636908.147   113702719.6892      -3664.100          41.000  
  19580733.329   102897436.3542         39.038          45.000  
  20640069.816   108464298.6462      -2757.994          38.000  
  20222745.939   106271263.9272      -1616.534          46.000  
  19384748.294   101867535.5042       1562.927          47.000  
  20070965.472   105473631.8962       2029.504          45.000  
  21449396.894   112717335.8372       3023.170          46.000  
  23820731.875   125178797.6232      -1042.536          43.000  
  22746928.521   119535906.4292       3224.795          41.000  
 23  8 28 15 10 22.9950000  0  9G 6G 7G 9G11G20G30G 5G29G13
  21637606.950   113706391.2293      -3664.630          41.000  
  19580726.027   102897409.6173         38.516          45.000  
  20640596.385   108467065.8743      -2758.292          39.000  
  20223054.616   106272868.9733      -1617.345          46.000  
  19384452.390   101865984.0373       1562.274          47.000  
  20070579.290   105471605.8343       2028.829          46.000  
  21448821.743   112714318.6493       3023.244          46.000  
  23820928.338   125179822.5733      -1042.729          42.000  
  22746315.992   119532697.3173       3224.363          41.000  
 23  8 28 15 10 23.9950000  0  9G 6G 7G 9G11G20G30G 5G29G13
  21638305.421   113710055.7522      -3664.417          42.000  
  19580717.834   102897371.1572         38.746          45.000  
  20641121.262   108469824.0082      -2757.474          39.000  
  20223363.110   106274486.3812      -1617.156          46.000  
  19384153.896   101864421.7682       1562.445          47.000  
  20070193.178   105469576.9572       2029.156          46.000  
  21448246.418   112711295.4372       3023.426          45.000  
  23821128.335   125180865.8512      -1043.110          43.000  
  22745700.811   119529473.0512       3224.963          41.000  
 23  8 28 15 10 24.9950000  0  9G 6G 7G 9G11G20G30G 5G29G13
  21639000.027                       -3662.115          43.000  
  19580711.220                          40.187          46.000  
  20641645.545                       -2756.163          40.000  
  20223667.005                       -1615.895          46.000  
  19383856.858   101862854.4863       1564.374          47.000  
  20069805.382                        2030.602          46.000  
  21447667.568                        3026.856          45.000  
  23821324.214                       -1041.527          43.000  
  22745084.792                        3226.675          41.000  
 23  8 28 15 10 25.9950000  0  9G 6G 7G 9G11G20G30G 5G29G13
  21639698.821   113717375.2303      -3663.901          42.000  
  19580702.443   102897291.6333         38.384          46.000  
  20642171.337   108475335.7433      -2757.474          39.000  
  20223975.490   106277702.8603      -1617.834          46.000  
  19383559.498   101861290.9472       1562.341          47.000  
  20069417.062   105465508.4283       2028.921          46.000  
  21447090.324   112705227.9713       3024.043          45.000  
  23821526.148   125182945.4043      -1043.461          43.000  
  22744471.408   119523000.1123       3225.521          41.000  
 23  8 28 15 10 26.9950000  0  9G 6G 7G 9G11G20G30G 5G29G13
  21640398.749   113721039.8612      -3665.488          42.000  
  19580697.670   102897254.2192         36.349          46.000  
  20642694.172   108478093.9852      -2759.126          39.000  
  20224283.792   106279321.5602      -1619.804          46.000  
  19383261.308   101859729.5482       1560.297          47.000  
  20069032.599   105463480.4092       2026.938          46.000  
  21446517.276   112702204.8622       3022.130          45.000  
  23821723.772   125183989.8362      -1045.588          43.000  
  22743857.518   119519775.6312       3223.772          41.000  
 23  8 28 15 10 27.9950000  0  9G 6G 7G 9G11G20G30G 5G29G13
  21641094.350   113724705.5342      -3665.475          42.000  
  19580690.306   102897218.1662         35.844          46.000  
  20643219.537   108480853.2312      -2759.062          39.000  
  20224592.469   106280941.6992      -1620.350          46.000  
  19382964.698   101858169.4272       1560.052          47.000  
  20068647.953   105461453.6492       2026.758          46.000  
  21445944.604   112699182.7942       3022.190          45.000  
  23821923.062   125185035.6482      -1046.063          43.000  
  22743243.986   119516552.0822       3223.704          41.000  
 23  8 28 15 10 28.9950000  0  9G 6G 7G 9G11G20G30G 5G29G13
  21641790.718   113728371.0132      -3664.880          42.000  
  19580683.954   102897182.2192         36.363          46.000  
  20643744.186   108483612.2862      -2758.442          39.000  
  20224901.765   106282562.0442      -1620.180          46.000  
  19382665.837   101856609.3732       1560.199          47.000  
  20068260.802   105459426.9622       2026.808          45.000  
  21445369.226   112696160.5452       3022.550          45.000  
  23822123.321   125186081.6182      -1045.947          43.000  
  22742632.495   119513328.2082       3224.541          41.000  
 23  8 28 15 10 29.9950000  0  9G 6G 7G 9G11G20G30G 5G29G13
  21642488.596   113732035.5952      -3664.537          42.000  
  19580678.038   102897145.6882         36.418          46.000  
  20644270.197   108486370.4502      -2758.257          39.000  
  20225208.968   106284181.8582      -1619.679          46.000  
  19382371.426   101855048.6422       1560.791          47.000  
  20067874.917   105457399.5732       2027.527          45.000  
  21444794.085   112693137.3372       3023.500          45.000  
  23822321.223   125187127.0252      -1045.255          43.000  
  22742019.548   119510103.3642       3225.006          41.000  
 23  8 28 15 10 30.9950000  0  9G 6G 7G 9G11G20G30G 5G29G13
  21643186.186   113735701.2652      -3665.853          42.000  
  19580671.678   102897110.5672         34.547          46.000  
  20644795.466   108489129.6832      -2759.535          39.000  
  20225518.046   106285803.1912      -1621.946          46.000  
  19382074.371   101853489.2702       1558.917          47.000  
  20067488.918   105455373.5552       2025.519          46.000  
  21444217.870   112690115.2672       3021.477          46.000  
  23822520.461   125188173.8882      -1047.377          44.000  
  22741404.567   119506879.4632       3223.664          41.000  
 23  8 28 15 10 31.9950000  0  9G 6G 7G 9G11G20G30G 5G29G13
  21643884.125   113739368.3662      -3667.004          42.000  
  19580664.392   102897077.1922         33.144          46.000  
  20645321.389   108491890.3412      -2760.535          39.000  
  20225826.653   106287426.3332      -1623.136          46.000  
  19381776.984   101851931.5662       1557.690          47.000  
  20067103.739   105453349.1792       2024.613          45.000  
  21443644.648   112687094.5862       3020.870          46.000  
  23822719.577   125189222.5232      -1048.696          44.000  
  22740792.152   119503656.9002       3222.633          41.000  
 23  8 28 15 10 32.9950000  0  9G 6G 7G 9G11G20G30G 5G29G13
  21644583.111   113743038.2672      -3662.838          43.000  
  19580658.721   102897046.9512         36.432          47.000  
  20645845.760   108494653.7972      -2756.640          39.000  
  20226135.697   106289052.7022      -1619.923          46.000  
  19381480.889   101850376.9152       1561.877          47.000  
  20066719.259   105451327.9082       2027.573          45.000  
  21443069.916   112684076.6832       3025.137          45.000  
  23822919.626   125190274.3112      -1045.118          44.000  
  22740179.806   119500437.0822       3226.205          41.000  
 23  8 28 15 10 33.9950000  0  9G 6G 7G 9G11G20G30G 5G29G13
  21645277.342   113746687.3542      -3646.343          43.000  
  19580648.487   102896996.1312         53.855          46.000  
  20646367.635   108497396.3632      -2739.515          39.000  
  20226441.669   106290658.5882      -1603.218          46.000  
  19381181.207   101848801.7112       1577.807          47.000  
  20066331.148   105449285.9662       2044.890          46.000  
  21442491.110   112681037.9852       3041.612          45.000  
  23823115.959   125191305.5962      -1028.471          43.000  
  22739563.063   119497196.2262       3244.199          41.000  
 23  8 28 15 10 34.9950000  0  9G 6G 7G 9G11G20G30G 5G29G13
  21645973.160   113750343.7972      -3665.509          42.000  
  19580640.407   102896953.0732         33.507          46.000  
  20646891.098   108500146.3812      -2759.555          39.000  
  20226749.456   106292272.2752      -1623.179          46.000  
  19380883.027   101847234.1032       1558.484          46.000  
  20065944.041   105447251.7332       2024.404          45.000  
  21441914.424   112678006.6642       3022.200          45.000  
  23823313.556   125192344.6312      -1048.430          43.000  
  22738947.132   119493962.6992       3224.526          40.000  
 23  8 28 15 10 35.9950000  0  9G 6G 7G 9G11G20G30G 5G29G13
  21646670.462   113754008.4162      -3661.234          42.000  
  19580633.985   102896918.4462         38.123          46.000  
  20647416.279   108502904.5072      -2754.483          40.000  
  20227058.211   106293894.4972      -1618.763          46.000  
  19380585.841   101845674.9392       1562.463          46.000  
  20065558.793   105445225.8432       2029.082          44.000  
  21441338.898   112674983.4802       3026.485          45.000  
  23823513.030   125193392.1682      -1044.252          43.000  
  22738333.207   119490737.2382       3229.243          40.000  
 23  8 28 15 10 36.9950000  0  9G 6G 7G 9G11G20G30G 5G29G13
  21647367.913   113757673.3991      -3668.050          42.000  
  19580627.843   102896885.010          30.742          46.000  
  20647942.002   108505662.9591      -2761.452          40.000  
  20227367.411   106295517.979       -1626.233          46.000  
  19380289.004   101844116.3491       1555.371          46.000  
  20065173.614   105443200.5391       2022.145          44.000  
  21440763.843   112671961.1122       3019.976          45.000  
  23823712.407   125194440.3951      -1051.441          43.000  
  22737719.282   119487512.502        3222.530          40.000  
 23  8 28 15 10 37.9950000  0  9G 6G 7G 9G11G20G30G 5G29G13
  21648065.703   113761342.873       -3666.122          42.000  
  19580622.381   102896855.900          32.349          46.000  
  20648468.161   108508425.986       -2759.764          40.000  
  20227676.900   106297145.887       -1624.795          46.000  
  19379993.170   101842562.552        1556.952          46.000  
  20064789.055   105441180.023        2023.802          44.000  
  21440189.094   112668942.8142       3021.479          45.000  
  23823912.596   125195493.505       -1049.842          42.000  
  22737105.942   119484291.713        3224.152          40.000  
 23  8 28 15 10 38.9950000  0  9G 6G 7G 9G11G20G30G 5G29G13
  21648763.345   113765009.007       -3666.219          42.000  
  19580616.204   102896823.762          31.543          46.000  
  20648993.657   108511185.590       -2759.495          40.000  
  20227986.432   106298770.819       -1625.342          46.000  
  19379696.770   101841005.623        1556.677          46.000  
  20064404.208   105439156.400        2023.287          45.000  
  21439613.996   112665921.1192       3021.514          45.000  
  23824112.584   125196543.599       -1050.325          43.000  
  22736492.715   119481067.443        3223.752          40.000  
 23  8 28 15 10 39.9950000  0  9G 6G 7G 9G11G20G30G 5G29G13
  21649460.918   113768674.947       -3673.564          42.000  
  19580610.026   102896791.760          23.256          46.000  
  20649519.292   108513945.015       -2767.491          41.000  
  20228295.964   106300395.994       -1633.950          45.000  
  19379400.640   101839448.774        1549.127          46.000  
  20064019.527   105437132.828        2014.620          45.000  
  21439039.308   112662899.2462       3014.180          46.000  
  23824312.616   125197593.890       -1058.777          42.000  
  22735879.680   119477842.903        3216.148          41.000  
 23  8 28 15 10 40.9950000  0  9G 6G 7G 9G11G20G30G 5G29G13
  21650158.927   113772341.701       -3664.592          42.000  
  19580603.936   102896760.819          32.635          46.000  
  20650044.422   108516705.245       -2757.943          39.000  
  20228605.269   106302022.288       -1624.561          45.000  
  19379104.160   101837892.960        1557.910          46.000  
  20063634.776   105435110.280        2024.323          46.000  
  21438464.315   112659878.1412       3023.296          45.000  
  23824512.979   125198645.291       -1049.680          42.000  
  22735266.069   119474619.008        3225.646          40.000  
 23  8 28 15 10 41.9950000  0  9G 6G 7G 9G11G20G30G 5G29G13
  21650858.584   113776016.201       -3677.273          42.000  
  19580599.966   102896737.977          19.860          46.000  
  20650571.043   108519473.215       -2770.781          39.000  
  20228916.598   106303656.785       -1637.648          46.000  
  19378809.391   101836345.175        1544.922          46.000  
  20063251.543   105433095.761        2011.429          45.000  
  21437890.874   112656864.8382       3010.306          44.000  
  23824714.800   125199704.817       -1062.775          43.000  
  22734653.689   119471402.742        3213.618          40.000  
 23  8 28 15 10 42.9950000  0  9G 6G 7G 9G11G20G30G 5G29G13
  21651557.919   113779688.985       -3672.363          43.000  
  19580595.473   102896713.749          23.916          46.000  
  20651097.411   108522239.492       -2766.454          39.000  
  20229227.430   106305289.947       -1633.330          46.000  
  19378514.614   101834795.916        1549.487          45.000  
  20062867.838   105431079.756        2015.674          45.000  
  21437317.120   112653849.7922       3015.488          45.000  
  23824915.975   125200762.963       -1058.467          42.000  
  22734041.509   119468184.718        3217.870          40.000  
 23  8 28 15 10 43.9950000  0  9G 6G 7G 9G11G20G30G 5G29G13
  21652256.914   113783360.493       -3672.980          43.000  
  19580590.892   102896688.518          23.661          46.000  
  20651623.815   108525004.407       -2766.262          40.000  
  20229538.175   106306922.193       -1633.577          46.000  
  19378219.365   101833245.593        1549.213          45.000  
  20062483.497   105429062.678        2015.471          45.000  
  21436743.226   112650833.4642       3015.237          45.000  
  23825117.254   125201820.142       -1058.419          42.000  
  22733428.954   119464965.225        3218.175          40.000  
 23  8 28 15 10 44.9950000  0  9G 6G 7G 9G11G20G30G 5G29G13
  21652955.952   113787030.270       -3668.270          43.000  
  19580585.823   102896661.909          27.708          46.000  
  20652150.078   108527767.659       -2761.806          41.000  
  20229848.876   106308553.151       -1629.604          46.000  
  19377923.662   101831693.832        1552.984          46.000  
  20062099.209   105427044.137        2020.120          45.000  
  21436168.992   112647815.3802       3019.678          45.000  
  23825318.333   125202875.973       -1054.501          42.000  
  22732815.893   119461743.980        3222.758          39.000  
 23  8 28 15 10 45.9950000  0  9G 6G 7G 9G11G20G30G 5G29G13
  21653653.900   113790697.731       -3665.458          43.000  
  19580580.300   102896633.246          30.537          46.000  
  20652675.862   108530528.538       -2759.026          41.000  
  20230158.626   106310182.170       -1627.430          46.000  
  19377627.654   101830139.976        1555.914          45.000  
  20061714.396   105425023.522        2022.439          45.000  
  21435594.033   112644794.9962       3022.421          44.000  
  23825518.653   125203929.798       -1051.808          42.000  
  22732202.727   119458520.268        3225.451          40.000  
 23  8 28 15 10 46.9950000  0  9G 6G 7G 9G11G20G30G 5G29G13
  21654351.839   113794363.016       -3666.595          43.000  
  19580574.053   102896602.790          28.690          46.000  
  20653200.983   108533287.224       -2759.774          40.000  
  20230468.053   106311809.396       -1628.625          46.000  
  19377331.689   101828584.242        1554.236          46.000  
  20061329.637   105423000.980        2021.132          45.000  
  21435019.022   112641772.4652       3021.273          45.000  
  23825718.676   125204981.868       -1053.700          41.000  
  22731588.846   119455294.265        3224.501          39.000  
 23  8 28 15 10 47.9950000  0  9G 6G 7G 9G11G20G30G 5G29G13
  21655049.481   113798028.391       -3666.438          43.000  
  19580568.599   102896572.681          28.762          46.000  
  20653725.859   108536046.018       -2759.734          39.000  
  20230777.690   106313437.112       -1629.155          46.000  
  19377036.039   101827028.808        1554.047          46.000  
  20060944.763   105420978.770        2020.642          45.000  
  21434443.628   112638749.9762       3021.212          44.000  
  23825918.978   125206034.306       -1053.417          41.000  
  22730974.755   119452068.280        3224.987          39.000  
 23  8 28 15 10 48.9950000  0  9G 6G 7G 9G11G20G30G 5G29G13
  21655747.812   113801696.652       -3668.642          43.000  
  19580563.644   102896545.797          26.243          46.000  
  20654251.172   108538807.695       -2761.854          39.000  
  20231087.929   106315068.112       -1631.501          46.000  
  19376740.467   101825476.536        1551.599          46.000  
  20060560.972   105418959.658        2018.769          45.000  
  21433868.652   112635729.8771       3019.363          44.000  
  23826120.275   125207090.024       -1056.573          41.000  
  22730361.773   119448845.052        3222.944          39.000  
 23  8 28 15 10 49.9950000  0  9G 6G 7G 9G11G20G30G 5G29G13
  21656445.856   113805364.794       -3667.722          43.000  
  19580558.618   102896519.083          27.120          46.000  
  20654776.502   108541569.231       -2761.149          39.000  
  20231398.307   106316699.381       -1630.938          46.000  
  19376445.227   101823924.359        1552.557          46.000  
  20060176.518   105416940.703        2019.426          45.000  
  21433294.374   112632710.142        3020.327          45.000  
  23826321.319   125208145.924       -1055.379          42.000  
  22729748.555   119445621.614        3223.749          39.000  
 23  8 28 15 10 50.9950000  0  9G 6G 7G 9G11G20G30G 5G29G13
  21657144.004   113809032.535       -3668.010          43.000  
  19580553.828   102896492.325          26.326          46.000  
  20655301.579   108544330.383       -2761.393          40.000  
  20231708.886   106318330.670       -1631.721          46.000  
  19376149.917   101822372.091        1551.868          46.000  
  20059791.985   105414921.614        2018.473          45.000  
  21432719.564   112629690.051        3019.768          45.000  
  23826522.468   125209201.836       -1056.061          42.000  
  22729135.406   119442397.686        3223.769          39.000  
 23  8 28 15 10 51.9950000  0  9G 6G 7G 9G11G20G30G 5G29G13
  21657841.873   113812700.641       -3668.052          43.000  
  19580548.671   102896466.218          25.824          46.000  
  20655827.180   108547091.855       -2761.509          40.000  
  20232019.133   106319962.693       -1632.177          46.000  
  19375854.319   101820820.397        1551.697          46.000  
  20059407.312   105412903.091        2018.309          44.000  
  21432144.902   112626670.281        3019.916          44.000  
  23826723.041   125210258.403       -1056.522          41.000  
  22728521.770   119439173.969        3224.155          39.000  
 23  8 28 15 10 52.9950000  0  9G 6G 7G 9G11G20G30G 5G29G13
  21658539.830   113816368.783       -3668.318          43.000  
  19580543.820   102896440.482          25.111          46.000  
  20656352.501   108549853.400       -2761.892          41.000  
  20232329.302   106321595.166       -1632.737          46.000  
  19375558.756   101819269.019        1551.178          45.000  
  20059023.276   105410884.880        2017.972          45.000  
  21431570.135   112623650.565        3019.729          44.000  
  23826924.041   125211315.402       -1057.389          41.000  
  22727908.045   119435950.231        3223.724          39.000  
 23  8 28 15 10 53.9950000  0  9G 6G 7G 9G11G20G30G 5G29G13
  21659237.865   113820036.660       -3667.586          43.000  
  19580538.602   102896414.790          25.416          46.000  
  20656878.023   108552614.631       -2760.946          40.000  
  20232639.977   106323227.765       -1632.651          46.000  
  19375263.533   101817717.628        1551.160          45.000  
  20058639.686   105408866.642        2018.108          45.000  
  21430995.517   112620630.572        3020.205          44.000  
  23827125.155   125212372.468       -1057.367          41.000  
  22727294.304   119432726.115        3224.252          38.000  
 23  8 28 15 10 54.9950000  0  9G 6G 7G 9G11G20G30G 5G29G13
  21659935.620   113823704.151       -3667.681          43.000  
  19580533.472   102896389.016          25.398          46.000  
  20657403.458   108555375.500       -2761.140          40.000  
  20232950.251   106324860.360       -1632.960          45.000  
  19374968.328   101816166.070        1551.276          45.000  
  20058255.283   105406848.246        2018.252          45.000  
  21430420.899   112617610.189        3020.321          44.000  
  23827326.408   125213429.478       -1057.389          41.000  
  22726680.597   119429501.487        3224.562          39.000  
 23  8 28 15 10 55.9950000  0  9G 6G 7G 9G11G20G30G 5G29G13
  21660633.612   113827372.102       -3668.417          43.000  
  19580528.630   102896364.009          24.702          46.000  
  20657928.988   108558136.793       -2761.686          40.000  
  20233261.266   106326493.811       -1633.853          46.000  
  19374673.332   101814615.231        1550.562          45.000  
  20057871.082   105404830.552        2017.175          45.000  
  21429846.036   112614590.263        3019.508          45.000  
  23827527.784   125214487.304       -1058.189          41.000  
  22726066.768   119426277.220        3224.321          38.000  
 23  8 28 15 10 56.9950000  0  9G 6G 7G 9G11G20G30G 5G29G13
  21661331.184   113831040.399       -3668.304          43.000  
  19580523.918   102896339.683          24.060          46.000  
  20658454.633   108560898.448       -2761.885          40.000  
  20233572.438   106328128.010       -1634.531          45.000  
  19374378.545   101813065.022        1549.957          46.000  
  20057487.177   105402813.484        2016.354          45.000  
  21429271.549   112611570.714        3019.248          44.000  
  23827729.630   125215545.841       -1058.843          41.000  
  22725452.948   119423053.210        3223.982          38.000  
 23  8 28 15 10 57.9950000  0  9G 6G 7G 9G11G20G30G 5G29G13
  21662028.975   113834708.765       -3667.589          42.000  
  19580519.460   102896315.746          24.610          46.000  
  20658979.980   108563660.136       -2761.234          40.000  
  20233883.410   106329762.671       -1634.362          46.000  
  19374083.925   101811515.110        1550.397          46.000  
  20057103.621   105400796.687        2017.351          45.000  
  21428696.992   112608551.188        3020.135          45.000  
  23827931.338   125216604.794       -1058.461          42.000  
  22724839.163   119419829.155        3224.761          39.000  
 23  8 28 15 10 58.9950000  0  9G 6G 7G 9G11G20G30G 5G29G13
  21662726.905   113838376.895       -3668.787          43.000  
  19580515.001   102896291.843          23.300          46.000  
  20659505.336   108566421.583       -2761.928          41.000  
  20234194.591   106331397.482       -1635.525          45.000  
  19373789.470   101809965.202        1549.444          46.000  
  20056719.507   105398779.916        2015.989          44.000  
  21428122.592   112605531.433        3019.461          45.000  
  23828133.071   125217663.837       -1059.864          42.000  
  22724225.404   119416604.767        3224.178          39.000  
 23  8 28 15 10 59.9950000  0  9G 6G 7G 9G11G20G30G 5G29G13
  21663425.245   113842045.698       -3668.896          43.000  
  19580510.621   102896268.964          22.562          46.000  
  20660031.068   108569183.694       -2762.043          41.000  
  20234505.912   106333033.359       -1636.090          45.000  
  19373495.023   101808416.250        1548.694          46.000  
  20056335.760   105396764.043        2015.687          44.000  
  21427548.174   112602512.361        3018.823          45.000  
  23828334.996   125218723.921       -1060.461          41.000  
  22723611.461   119413380.931        3224.086          39.000  
 23  8 28 15 11  0.9950000  0  9G 6G 7G 9G11G20G30G 5G29G13
  21664123.341   113845714.868       -3669.078          43.000  
  19580506.259   102896246.777          22.052          47.000  
  20660556.869   108571946.198       -2762.685          41.000  
  20234817.241   106334670.030       -1636.815          46.000  
  19373200.237   101806867.911        1548.322          46.000  
  20055951.986   105394748.818        2015.177          44.000  
  21426974.027   112599493.643        3018.976          45.000  
  23828536.677   125219784.729       -1060.835          41.000  
  22722998.104   119410157.412        3223.467          39.000  
 23  8 28 15 11  1.9950000  0  9G 6G 7G 9G11G20G30G 5G29G13
  21664821.865   113849384.291       -3669.510          43.000  
  19580501.870   102896225.115          21.485          46.000  
  20661082.644   108574708.911       -2762.657          41.000  
  20235128.553   106336307.313       -1637.682          45.000  
  19372905.250   101805320.080        1547.723          46.000  
  20055568.892   105392734.063        2014.236          45.000  
  21426399.749   112596475.182        3018.705          45.000  
  23828738.742   125220846.118       -1061.434          41.000  
  22722384.790   119406933.985        3223.643          39.000  
 23  8 28 15 11  2.9950000  0  9G 6G 7G 9G11G20G30G 5G29G13
  21665520.118   113853053.768       -3669.919          43.000  
  19580497.525   102896203.835          20.730          46.000  
  20661609.117   108577471.692       -2763.238          42.000  
  20235440.231   106337945.046       -1638.412          45.000  
  19372611.318   101803772.534        1547.083          46.000  
  20055185.685   105390719.573        2014.198          45.000  
  21425825.550   112593456.773        3017.826          45.000  
  23828941.260   125221907.906       -1062.351          42.000  
  22721771.955   119403710.484        3223.325          39.000  
 23  8 28 15 11  3.9950000  0  9G 6G 7G 9G11G20G30G 5G29G13
  21666218.275   113856723.733       -3670.275          43.000  
  19580493.476   102896183.394          19.886          46.000  
  20662135.320   108580234.946       -2763.625          42.000  
  20235751.901   106339583.684       -1639.276          45.000  
  19372317.430   101802225.753        1546.319          46.000  
  20054802.496   105388705.894        2013.132          45.000  
  21425251.376   112590438.830        3017.589          45.000  
  23829143.395   125222970.560       -1063.530          41.000  
  22721159.025   119400487.423        3222.951          39.000  
 23  8 28 15 11  4.9950000  0  9G 6G 7G 9G11G20G30G 5G29G13
  21666916.720   113860394.384       -3670.899          43.000  
  19580489.916   102896163.941          18.767          47.000  
  20662661.252   108582998.869       -2764.112          42.000  
  20236064.155   106341223.391       -1640.340          45.000  
  19372023.359   101800679.913        1545.428          46.000  
  20054419.316   105386693.103        2012.726          45.000  
  21424677.046   112587421.608        3016.583          45.000  
  23829345.599   125224034.218       -1064.066          41.000  
  22720545.851   119397264.943        3222.142          39.000  
 23  8 28 15 11  5.9950000  0  9G 6G 7G 9G11G20G30G 5G29G13
  21667615.330   113864065.433       -3670.923          43.000  
  19580486.775   102896145.200          18.584          46.000  
  20663187.385   108585763.210       -2764.352          42.000  
  20236376.392   106342863.892       -1640.750          46.000  
  19371729.123   101799134.716        1545.270          46.000  
  20054036.528   105384680.978        2012.401          44.000  
  21424103.143   112584404.769        3016.735          45.000  
  23829548.022   125225098.645       -1064.625          41.000  
  22719933.235   119394042.733        3222.158          40.000  
 23  8 28 15 11  6.9950000  0  9G 6G 7G 9G11G20G30G 5G29G13
  21668313.950   113867736.207       -3671.204          43.000  
  19580483.434   102896126.537          17.864          46.000  
  20663713.631   108588527.273       -2764.593          42.000  
  20236688.393   106344504.529       -1641.310          45.000  
  19371435.270   101797589.529        1544.507          47.000  
  20053653.801   105382668.834        2011.602          45.000  
  21423529.022   112581387.683        3016.416          45.000  
  23829750.863   125226163.131       -1065.109          41.000  
  22719320.191   119390820.177        3221.927          39.000  
 23  8 28 15 11  7.9950000  0  9G 6G 7G 9G11G20G30G 5G29G13
  21669012.892   113871407.723       -3671.859          43.000  
  19580480.188   102896108.886          17.133          46.000  
  20664239.738   108591292.039       -2765.416          41.000  
  20237000.900   106346146.279       -1642.312          45.000  
  19371141.356   101796045.307        1543.634          46.000  
  20053271.065   105380657.662        2010.448          45.000  
  21422955.233   112578371.294        3015.852          46.000  
  23829953.870   125227228.715       -1066.121          41.000  
  22718706.956   119387598.225        3221.693          39.000  
 23  8 28 15 11  8.9950000  0  9G 6G 7G 9G11G20G30G 5G29G13
  21669712.253   113875079.656       -3671.882          44.000  
  19580477.073   102896091.974          16.816          46.000  
  20664766.289   108594057.209       -2765.145          41.000  
  20237313.477   106347788.842       -1642.742          46.000  
  19370847.817   101794501.757        1543.457          47.000  
  20052888.303   105378647.138        2010.521          45.000  
  21422381.287   112575355.331        3016.033          44.000  
  23830156.816   125228295.068       -1066.542          41.000  
  22718094.008   119384376.591        3221.942          39.000  
 23  8 28 15 11  9.9950000  0  9G 6G 7G 9G11G20G30G 5G29G13
  21670411.169   113878751.890       -3672.021          43.000  
  19580473.714   102896075.673          16.333          46.000  
  20665292.841   108596822.686       -2765.018          42.000  
  20237626.499   106349432.095       -1643.064          46.000  
  19370554.121   101792958.758        1543.207          47.000  
  20052506.266   105376637.169        2009.972          45.000  
  21421807.201   112572339.658        3016.010          45.000  
  23830359.500   125229362.055       -1066.927          41.000  
  22717481.113   119381155.155        3221.592          39.000  
 23  8 28 15 11 10.9950000  0  9G 6G 7G 9G11G20G30G 5G29G13
  21671110.094   113882424.158       -3672.694          44.000  
  19580470.974   102896059.730          15.419          47.000  
  20665819.235   108599588.193       -2765.963          41.000  
  20237938.884   106351075.806       -1644.416          46.000  
  19370260.617   101791416.062        1542.059          47.000  
  20052124.184   105374627.485        2008.739          45.000  
  21421233.830   112569324.068        3015.191          46.000  
  23830562.036   125230429.436       -1068.129          40.000  
  22716867.423   119377933.651        3220.926          39.000  
 23  8 28 15 11 11.9950000  0  9G 6G 7G 9G11G20G30G 5G29G13
  21671808.845   113886097.170       -3673.136          43.000  
  19580467.737   102896044.868          14.235          47.000  
  20666345.988   108602354.466       -2766.523          41.000  
  20238252.028   106352720.641       -1645.306          46.000  
  19369967.322   101789874.376        1541.223          47.000  
  20051742.199   105372618.788        2008.307          45.000  
  21420660.381   112566309.225        3014.639          45.000  
  23830765.358   125231497.922       -1068.961          40.000  
  22716254.240   119374712.795        3220.359          39.000  
 23  8 28 15 11 12.9950000  0  9G 6G 7G 9G11G20G30G 5G29G13
  21672507.769   113889770.780       -3674.028          43.000  
  19580464.840   102896030.896          13.582          46.000  
  20666872.443   108605121.302       -2767.273          40.000  
  20238565.583   106354366.474       -1646.414          46.000  
  19369673.967   101788333.532        1540.277          47.000  
  20051360.109   105370610.950        2007.050          45.000  
  21420086.897   112563294.977        3013.820          45.000  
  23830968.478   125232567.349       -1069.958          40.000  
  22715641.546   119371492.387        3220.243          39.000  
 23  8 28 15 11 13.9950000  0  9G 6G 7G 9G11G20G30G 5G29G13
  21673206.555   113893444.862       -3674.155          43.000  
  19580462.537   102896017.702          13.148          46.000  
  20667398.855   108607888.607       -2767.438          39.000  
  20238879.538   106356013.164       -1646.993          46.000  
  19369380.978   101786793.400        1540.033          47.000  
  20050978.063   105368603.793        2007.030          45.000  
  21419512.323   112560281.170        3013.848          45.000  
  23831172.061   125233637.576       -1070.484          41.000  
  22715029.331   119368272.387        3220.209          39.000  
 23  8 28 15 11 14.9950000  0  9G 6G 7G 9G11G20G30G 5G29G13
  21673905.357   113897118.796       -3673.975          43.000  
  19580459.902   102896004.725          12.734          46.000  
  20667925.189   108610655.758       -2767.264          40.000  
  20239193.049   106357660.116       -1647.091          46.000  
  19369087.936   101785253.407        1539.868          47.000  
  20050595.973   105366596.778        2006.946          45.000  
  21418938.463   112557267.263        3013.784          45.000  
  23831375.801   125234708.042       -1070.426          41.000  
  22714416.174   119365052.182        3219.983          39.000  
 23  8 28 15 11 15.9950000  0  9G 6G 7G 9G11G20G30G 5G29G13
  21674604.317   113900793.578       -3675.239          43.000  
  19580457.415   102895992.888          11.011          46.000  
  20668451.679   108613423.771       -2768.477          40.000  
  20239506.778   106359308.315       -1649.034          46.000  
  19368795.436   101783714.512        1538.177          47.000  
  20050214.624   105364590.858        2005.345          45.000  
  21418364.980   112554254.200        3012.558          44.000  
  23831579.855   125235779.700       -1072.253          41.000  
  22713803.401   119361832.680        3219.093          39.000  
 23  8 28 15 11 16.9950000  0  9G 6G 7G 9G11G20G30G 5G29G13
  21675303.626   113904469.104       -3675.652          42.000  
  19580455.409   102895982.100          10.451          46.000  
  20668978.327   108616192.509       -2769.007          40.000  
  20239820.707   106360957.630       -1649.641          46.000  
  19368502.996   101782176.605        1537.610          47.000  
  20049833.302   105362585.922        2004.749          45.000  
  21417791.871   112551241.889        3011.815          45.000  
  23831784.154   125236852.438       -1073.141          41.000  
  22713190.933   119358613.831        3218.680          39.000  
 23  8 28 15 11 17.9950000  0  9G 6G 7G 9G11G20G30G 5G29G13
  21676003.223   113908145.006       -3675.490          43.000  
  19580453.576   102895972.026          10.188          46.000  
  20669504.826   108618961.609       -2768.813          41.000  
  20240134.453   106362607.747       -1650.057          46.000  
  19368210.286   101780639.351        1537.305          47.000  
  20049451.954   105360581.609        2004.330          45.000  
  21417218.317   112548229.967        3012.113          44.000  
  23831988.723   125237925.930       -1073.438          41.000  
  22712578.762   119355395.249        3218.897          39.000  
 23  8 28 15 11 18.9950000  0  9G 6G 7G 9G11G20G30G 5G29G13
  21676702.706   113911820.823       -3675.649          43.000  
  19580451.753   102895962.157           9.664          47.000  
  20670031.404   108621730.628       -2769.123          40.000  
  20240448.077   106364258.157       -1650.598          46.000  
  19367917.855   101779102.262        1536.957          47.000  
  20049070.771   105358577.452        2004.240          45.000  
  21416645.051   112545217.943        3011.956          44.000  
  23832193.257   125238999.653       -1073.640          41.000  
  22711965.902   119352176.481        3218.902          39.000  
 23  8 28 15 11 19.9950000  0  9G 6G 7G 9G11G20G30G 5G29G13
  21677402.006   113915497.216       -3676.648          43.000  
  19580450.392   102895953.191           8.470          46.000  
  20670558.296   108624500.174       -2769.856          40.000  
  20240762.452   106365909.535       -1651.887          46.000  
  19367625.704   101777565.989        1535.950          47.000  
  20048689.990   105356574.132        2002.885          45.000  
  21416072.030   112542206.483        3011.134          44.000  
  23832397.677   125240074.315       -1075.109          41.000  
  22711353.600   119348958.162        3218.232          39.000  
 23  8 28 15 11 20.9950000  0  9G 6G 7G 9G11G20G30G 5G29G13
  21678101.760   113919174.203       -3677.619          43.000  
  19580449.013   102895945.147           7.291          46.000  
  20671085.057   108627270.338       -2770.759          40.000  
  20241076.905   106367561.907       -1653.242          46.000  
  19367333.526   101776030.580        1534.613          47.000  
  20048309.078   105354571.636        2001.857          45.000  
  21415499.305   112539195.595        3010.050          44.000  
  23832602.403   125241149.906       -1076.404          42.000  
  22710741.586   119345740.398        3217.081          40.000  
 23  8 28 15 11 21.9950000  0  9G 6G 7G 9G11G20G30G 5G29G13
  21678801.260   113922851.799       -3677.476          43.000  
  19580447.774   102895938.032           6.800          46.000  
  20671612.158   108630041.119       -2770.930          41.000  
  20241391.261   106369215.285       -1653.513          46.000  
  19367041.636   101774496.034        1534.418          47.000  
  20047927.957   105352570.015        2001.235          45.000  
  21414926.344   112536185.349        3010.407          44.000  
  23832806.893   125242226.462       -1076.756          41.000  
  22710129.188   119342523.091        3217.534          39.000  
 23  8 28 15 11 22.9950000  0  9G 6G 7G 9G11G20G30G 5G29G13
  21679500.761   113926529.266       -3677.411          42.000  
  19580446.675   102895931.085           6.605          46.000  
  20672139.495   108632811.745       -2770.656          41.000  
  20241705.933   106370868.935       -1653.971          46.000  
  19366749.860   101772961.622        1534.180          47.000  
  20047547.289   105350568.499        2001.512          46.000  
  21414353.724   112533174.997        3010.043          45.000  
  23833012.064   125243303.250       -1077.101          42.000  
  22709516.702   119339305.558        3217.226          39.000  
 23  8 28 15 11 23.9950000  0  9G 6G 7G 9G11G20G30G 5G29G13
  21680200.837   113930207.392       -3678.576          43.000  
  19580445.418   102895925.098           5.421          46.000  
  20672667.015   108635583.021       -2771.994          41.000  
  20242020.708   106372523.609       -1655.271          46.000  
  19366458.110   101771428.103        1532.990          47.000  
  20047166.944   105348567.893        2000.071          46.000  
  21413781.217   112530165.272        3009.209          45.000  
  23833217.035   125244381.015       -1078.555          41.000  
  22708904.418   119336088.589        3216.300          39.000  
 23  8 28 15 11 24.9950000  0  9G 6G 7G 9G11G20G30G 5G29G13
  21680901.202   113933886.101       -3678.665          42.000  
  19580444.520   102895920.048           4.960          46.000  
  20673194.413   108638354.898       -2772.135          41.000  
  20242335.510   106374179.309       -1656.077          45.000  
  19366166.569   101769895.462        1532.361          47.000  
  20046786.564   105346568.141        1999.540          46.000  
  21413208.266   112527156.161        3008.883          44.000  
  23833422.520   125245459.744       -1078.790          42.000  
  22708291.837   119332872.113        3216.563          38.000  
 23  8 28 15 11 25.9950000  0  9G 6G 7G 9G11G20G30G 5G29G13
  21681601.200   113937565.183       -3679.188          42.000  
  19580443.935   102895915.682           3.842          46.000  
  20673722.369   108641127.104       -2772.185          41.000  
  20242650.617   106375835.757       -1657.029          46.000  
  19365875.229   101768363.411        1531.689          47.000  
  20046406.577   105344568.985        1998.691          46.000  
  21412635.349   112524147.376        3008.696          44.000  
  23833628.040   125246539.188       -1079.904          41.000  
  22707679.404   119329655.891        3216.117          38.000  
 23  8 28 15 11 26.9950000  0  9G 6G 7G 9G11G20G30G 5G29G13
  21682301.198   113941244.281       -3679.415          42.000  
  19580443.193   102895911.649           3.642          46.000  
  20674249.723   108643899.352       -2772.573          41.000  
  20242965.734   106377492.614       -1657.285          45.000  
  19365583.897   101766831.666        1531.372          47.000  
  20046026.607   105342570.115        1998.319          46.000  
  21412062.554   112521138.658        3008.558          44.000  
  23833833.690   125247619.006       -1080.108          42.000  
  22707067.495   119326439.621        3215.876          38.000  
 23  8 28 15 11 27.9950000  0  9G 6G 7G 9G11G20G30G 5G29G13
  21683001.074   113944923.973       -3679.695          42.000  
  19580442.356   102895908.520           3.048          46.000  
  20674777.243   108646672.161       -2772.714          41.000  
  20243281.042   106379150.450       -1657.841          45.000  
  19365292.313   101765300.750        1530.835          47.000  
  20045646.594   105340572.055        1998.075          46.000  
  21411490.117   112518130.494        3008.560          44.000  
  23834039.053   125248699.767       -1080.918          41.000  
  22706455.271   119323223.808        3215.835          38.000  
 23  8 28 15 11 28.9950000  0  9G 6G 7G 9G11G20G30G 5G29G13
  21683701.072   113948604.182       -3680.542          42.000  
  19580442.129   102895906.212           2.243          46.000  
  20675304.746   108649445.494       -2773.431          40.000  
  20243596.960   106380809.203       -1659.083          46.000  
  19365001.174   101763770.604        1529.907          47.000  
  20045266.572   105338574.777        1996.993          46.000  
  21410918.160   112515122.893        3007.372          44.000  
  23834244.373   125249781.381       -1082.030          41.000  
  22705842.934   119320008.425        3214.832          38.000  
 23  8 28 15 11 29.9950000  0  9G 6G 7G 9G11G20G30G 5G29G13
  21684401.384   113952284.896       -3680.985          42.000  
  19580441.832   102895904.758           1.171          46.000  
  20675832.135   108652219.357       -2774.197          40.000  
  20243912.870   106382468.883       -1660.207          46.000  
  19364710.174   101762241.246        1528.918          47.000  
  20044886.645   105336578.299        1995.751          46.000  
  21410346.194   112512115.799        3006.725          44.000  
  23834450.425   125250863.861       -1083.038          42.000  
  22705230.720   119316793.433        3214.998          38.000  
 23  8 28 15 11 30.9950000  0  9G 6G 7G 9G11G20G30G 5G29G13
  21685102.106   113955965.617       -3680.792          42.000  
  19580441.597   102895903.618           1.177          47.000  
  20676359.664   108654993.213       -2773.993          40.000  
  20244228.833   106384128.954       -1660.371          46.000  
  19364418.738   101760712.155        1528.906          47.000  
  20044506.972   105334582.015        1995.853          46.000  
  21409774.124   112509108.713        3006.994          44.000  
  23834656.660   125251946.706       -1083.182          42.000  
  22704618.845   119313578.370        3214.906          38.000  
 23  8 28 15 11 31.9950000  0  9G 6G 7G 9G11G20G30G 5G29G13
  21685803.012   113959646.845       -3681.872          42.000  
  19580441.815   102895903.288          -0.599          47.000  
  20676887.795   108657767.537       -2775.138          40.000  
  20244544.647   106385789.901       -1661.720          46.000  
  19364128.000   101759183.798        1527.612          47.000  
  20044127.107   105332586.489        1994.803          46.000  
  21409201.669   112506102.099        3006.098          44.000  
  23834863.140   125253030.373       -1084.571          42.000  
  22704006.962   119310363.706        3214.010          38.000  
 23  8 28 15 11 32.9950000  0  9G 6G 7G 9G11G20G30G 5G29G13
  21686503.978   113963328.912       -3682.549          43.000  
  19580442.059   102895904.128          -1.424          47.000  
  20677415.620   108660542.717       -2775.688          40.000  
  20244861.106   106387452.107       -1662.821          46.000  
  19363837.305   101757656.560        1526.880          47.000  
  20043747.312   105330592.071        1993.943          46.000  
  21408629.808   112503096.353        3005.408          44.000  
  23835069.803   125254115.248       -1085.439          42.000  
  22703395.332   119307149.758        3213.781          38.000  
 23  8 28 15 11 33.9950000  0  9G 6G 7G 9G11G20G30G 5G29G13
  21687204.849   113967011.330       -3682.691          43.000  
  19580442.190   102895905.634          -1.996          46.000  
  20677943.908   108663318.237       -2775.573          40.000  
  20245177.714   106389115.069       -1663.365          46.000  
  19363546.654   101756129.943        1526.343          47.000  
  20043367.796   105328598.280        1993.473          46.000  
  21408057.764   112500090.973        3005.385          44.000  
  23835276.632   125255200.831       -1085.827          42.000  
  22702783.955   119303936.120        3213.177          39.000  
 23  8 28 15 11 34.9950000  0  9G 6G 7G 9G11G20G30G 5G29G13
  21687905.571   113970693.705       -3682.736          42.000  
  19580442.565   102895907.413          -2.068          46.000  
  20678471.961   108666093.720       -2775.712          40.000  
  20245494.584   106390778.372       -1663.697          46.000  
  19363256.230   101754603.532        1526.111          47.000  
  20042988.603   105326604.668        1993.334          46.000  
  21407485.606   112497085.578        3005.109          44.000  
  23835483.844   125256286.720       -1086.253          43.000  
  22702172.752   119300722.289        3213.600          39.000  
 23  8 28 15 11 35.9950000  0  9G 6G 7G 9G11G20G30G 5G29G13
  21688606.407   113974376.702       -3683.374          42.000  
  19580442.967   102895910.147          -3.119          46.000  
  20679000.170   108668869.821       -2776.563          40.000  
  20245811.157   106392442.695       -1664.873          46.000  
  19362965.998   101753078.016        1524.976          47.000  
  20042609.270   105324611.950        1992.120          46.000  
  21406914.164   112494080.784        3004.373          44.000  
  23835690.830   125257373.585       -1087.334          43.000  
  22701561.227   119297508.983        3213.397          39.000  
 23  8 28 15 11 36.9950000  0  9G 6G 7G 9G11G20G30G 5G29G13
  21689307.469   113978060.150       -3683.323          42.000  
  19580443.464   102895913.661          -3.531          46.000  
  20679527.873   108671646.359       -2776.560          39.000  
  20246127.818   106394107.884       -1665.457          46.000  
  19362675.557   101751553.202        1524.591          47.000  
  20042230.312   105322619.932        1991.697          46.000  
  21406342.495   112491076.486        3004.310          44.000  
  23835897.493   125258461.262       -1087.804          43.000  
  22700949.980   119294296.080        3212.598          39.000  
 23  8 28 15 11 37.9950000  0  9G 6G 7G 9G11G20G30G 5G29G13
  21690008.811   113981744.040       -3684.283          42.000  
  19580444.171   102895917.934          -4.833          46.000  
  20680056.057   108674423.334       -2777.550          39.000  
  20246445.167   106395773.888       -1666.597          46.000  
  19362384.976   101750029.085        1523.535          47.000  
  20041851.695   105320628.592        1990.609          46.000  
  21405770.503   112488072.604        3003.256          44.000  
  23836104.618   125259549.716       -1089.243          42.000  
  22700338.804   119291083.478        3211.855          39.000  
 23  8 28 15 11 38.9950000  0  9G 6G 7G 9G11G20G30G 5G29G13
  21690709.900   113985428.139       -3684.429          43.000  
  19580445.157   102895922.711          -5.000          46.000  
  20680584.510   108677200.485       -2777.018          39.000  
  20246762.438   106397440.504       -1667.101          46.000  
  19362094.639   101748505.443        1523.291          47.000  
  20041472.763   105318637.707        1990.608          46.000  
  21405199.017   112485068.931        3003.410          44.000  
  23836311.386   125260638.720       -1089.321          42.000  
  22699727.785   119287870.998        3212.132          39.000  
 23  8 28 15 11 39.9950000  0  9G 6G 7G 9G11G20G30G 5G29G13
  21691411.137   113989112.727       -3685.280          43.000  
  19580446.151   102895928.310          -6.352          46.000  
  20681113.069   108679978.187       -2778.218          40.000  
  20247079.649   106399108.010       -1668.316          46.000  
  19361804.686   101746982.549        1522.192          46.000  
  20041093.972   105316647.578        1989.575          46.000  
  21404627.898   112482065.769        3002.566          44.000  
  23836518.747   125261728.577       -1090.518          42.000  
  22699116.966   119284658.910        3211.344          40.000  
 23  8 28 15 11 40.9950000  0  9G 6G 7G 9G11G20G30G 5G29G13
  21692112.792   113992797.916       -3685.295          43.000  
  19580447.242   102895934.828          -6.872          46.000  
  20681641.749   108682756.446       -2778.332          40.000  
  20247397.112   106400776.502       -1668.708          46.000  
  19361514.830   101745460.513        1521.777          46.000  
  20040715.197   105314658.295        1989.194          46.000  
  21404056.656   112479063.234        3002.429          44.000  
  23836725.924   125262819.398       -1091.114          42.000  
  22698505.982   119281447.305        3211.733          39.000  
 23  8 28 15 11 41.9950000  0  9G 6G 7G 9G11G20G30G 5G29G13
  21692813.724   113996483.509       -3685.785          42.000  
  19580448.385   102895942.074          -7.593          46.000  
  20682170.447   108685535.099       -2778.848          40.000  
  20247715.055   106402445.805       -1669.539          46.000  
  19361225.365   101743939.147        1521.081          46.000  
  20040336.780   105312669.685        1988.342          46.000  
  21403485.606   112476061.090        3001.808          44.000  
  23836933.425   125263910.985       -1091.906          42.000  
  22697894.823   119278236.015        3211.377          39.000  
 23  8 28 15 11 42.9950000  0  9G 6G 7G 9G11G20G30G 5G29G13
  21693515.022   114000168.989       -3685.628          42.000  
  19580449.903   102895949.516          -7.840          46.000  
  20682699.215   108688313.639       -2778.910          40.000  
  20248032.841   106404115.387       -1669.762          46.000  
  19360935.953   101742417.922        1520.911          46.000  
  20039957.945   105310681.204        1988.119          46.000  
  21402913.806   112473058.826        3002.235          44.000  
  23837140.934   125265002.766       -1091.963          42.000  
  22697283.829   119275024.521        3211.756          40.000  
 23  8 28 15 11 43.9950000  0  9G 6G 7G 9G11G20G30G 5G29G13
  21694216.076   114003855.094       -3687.077          42.000  
  19580451.570   102895957.882          -9.002          46.000  
  20683227.991   108691092.787       -2779.802          40.000  
  20248350.653   106405785.981       -1671.390          46.000  
  19360646.254   101740897.566        1519.586          46.000  
  20039579.720   105308693.573        1986.953          46.000  
  21402342.870   112470057.199        3001.064          44.000  
  23837348.819   125266095.537       -1093.363          42.000  
  22696672.644   119271813.546        3210.472          39.000  
 23  8 28 15 11 44.9950000  0  9G 6G 7G 9G11G20G30G 5G29G13
  21694917.479   114007541.838       -3687.325          42.000  
  19580453.498   102895967.237          -9.638          47.000  
  20683756.829   108693872.594       -2779.966          40.000  
  20248668.962   106407457.631       -1672.127          46.000  
  19360356.981   101739378.130        1519.006          46.000  
  20039201.434   105306706.865        1986.356          46.000  
  21401771.454   112467056.250        3000.663          44.000  
  23837556.965   125267189.326       -1094.121          42.000  
  22696061.450   119268603.123        3210.011          39.000  
 23  8 28 15 11 45.9950000  0  9G 6G 7G 9G11G20G30G 5G29G13
  21695619.091   114011229.041       -3687.052          42.000  
  19580455.173   102895977.395         -10.505          46.000  
  20684285.710   108696652.857       -2780.137          40.000  
  20248986.861   106409130.160       -1672.790          46.000  
  19360067.910   101737859.438        1518.481          46.000  
  20038823.306   105304720.898        1985.723          46.000  
  21401200.535   112464055.765        3000.627          44.000  
  23837765.434   125268283.947       -1094.840          42.000  
  22695450.352   119265393.102        3209.777          39.000  
 23  8 28 15 11 46.9950000  0  9G 6G 7G 9G11G20G30G 5G29G13
  21696320.816   114014916.334       -3687.762          42.000  
  19580456.901   102895987.909         -11.266          46.000  
  20684814.809   108699433.164       -2780.336          39.000  
  20249305.057   106410803.111       -1673.445          46.000  
  19359779.004   101736341.043        1517.975          46.000  
  20038445.578   105302735.178        1985.662          46.000  
  21400629.137   112461055.342        3000.207          44.000  
  23837973.798   125269378.945       -1095.448          42.000  
  22694839.446   119262182.977        3210.055          39.000  
 23  8 28 15 11 47.9950000  0  9G 6G 7G 9G11G20G30G 5G29G13
  21697022.481   114018603.997       -3688.193          42.000  
  19580458.925   102895999.134         -11.875          47.000  
  20685344.144   108702213.900       -2781.268          40.000  
  20249623.890   106412476.874       -1674.368          46.000  
  19359490.395   101734823.310        1517.291          46.000  
  20038067.947   105300750.185        1984.288          46.000  
  21400057.869   112458055.330        2999.815          44.000  
  23838182.398   125270474.706       -1096.190          43.000  
  22694228.514   119258973.183        3209.416          39.000  
 23  8 28 15 11 48.9950000  0  9G 6G 7G 9G11G20G30G 5G29G13
  21697724.451   114022292.324       -3688.735          42.000  
  19580461.150   102896011.320         -12.402          46.000  
  20685873.497   108704995.274       -2782.140          39.000  
  20249942.427   106414151.676       -1675.309          46.000  
  19359201.943   101733306.498        1516.278          46.000  
  20037690.280   105298766.059        1983.489          46.000  
  21399487.159   112455055.972        2999.145          44.000  
  23838391.426   125271571.463       -1097.031          43.000  
  22693617.338   119255763.936        3209.090          39.000  
 23  8 28 15 11 49.9950000  0  9G 6G 7G 9G11G20G30G 5G29G13
  21698426.421   114025981.039       -3688.758          42.000  
  19580463.689   102896024.257         -13.413          46.000  
  20686402.666   108707777.009       -2782.000          39.000  
  20250261.286   106415827.284       -1676.143          46.000  
  19358913.421   101731790.336        1515.784          46.000  
  20037312.195   105296782.577        1983.169          45.000  
  21398916.459   112452057.033        2998.773          44.000  
  23838600.470   125272668.971       -1097.862          43.000  
  22693006.528   119252554.989        3208.952          39.000  
 23  8 28 15 11 50.9950000  0  9G 6G 7G 9G11G20G30G 5G29G13
  21699128.199   114029669.602       -3688.568          42.000  
  19580466.463   102896037.332         -13.359          46.000  
  20686932.105   108710558.595       -2781.734          39.000  
  20250580.494   106417503.128       -1676.229          46.000  
  19358625.292   101730274.280        1515.668          47.000  
  20036934.520   105294799.194        1983.029          45.000  
  21398345.496   112449057.918        2998.960          44.000  
  23838809.315   125273766.667       -1098.025          43.000  
  22692395.762   119249345.799        3209.012          39.000  
 23  8 28 15 11 51.9950000  0  9G 6G 7G 9G11G20G30G 5G29G13
  21699830.238   114033358.770       -3689.798          42.000  
  19580469.421   102896051.326         -14.506          46.000  
  20687461.589   108713340.770       -2782.518          39.000  
  20250899.335   106419179.967       -1677.526          46.000  
  19358337.346   101728759.079        1514.648          47.000  
  20036556.959   105292816.669        1981.595          45.000  
  21397775.249   112446059.432        2997.956          44.000  
  23839018.089   125274865.313       -1099.368          42.000  
  22691785.109   119246137.070        3208.564          39.000  
 23  8 28 15 11 52.9950000  0  9G 6G 7G 9G11G20G30G 5G29G13
  21700532.627   114037048.715       -3690.240          42.000  
  19580472.597   102896066.451         -15.638          46.000  
  20687991.020   108716123.769       -2783.375          39.000  
  20251218.893   106420857.984       -1678.394          46.000  
  19358048.867   101727244.951        1513.733          47.000  
  20036179.746   105290835.193        1980.874          45.000  
  21397205.020   112443061.765        2997.367          44.000  
  23839227.134   125275965.102       -1100.213          42.000  
  22691174.674   119242929.070        3207.793          39.000  
 23  8 28 15 11 53.9950000  0  9G 6G 7G 9G11G20G30G 5G29G13
  21701234.667   114040738.892       -3690.181          42.000  
  19580475.616   102896082.113         -15.761          46.000  
  20688520.372   108718906.960       -2783.342          39.000  
  20251538.327   106422536.652       -1679.056          46.000  
  19357760.677   101725731.310        1513.336          47.000  
  20035802.385   105288854.196        1980.505          45.000  
  21396634.642   112440064.336        2997.291          44.000  
  23839436.397   125277065.483       -1100.658          42.000  
  22690564.257   119239721.189        3208.038          38.000  
 23  8 28 15 11 54.9950000  0  9G 6G 7G 9G11G20G30G 5G29G13
  21701936.768   114044429.143       -3690.537          42.000  
  19580478.722   102896098.175         -16.573          46.000  
  20689050.527   108721690.234       -2783.685          40.000  
  20251857.981   106424215.777       -1679.785          46.000  
  19357473.010   101724218.009        1512.592          47.000  
  20035425.547   105286873.528        1980.103          45.000  
  21396064.352   112437066.973        2997.048          44.000  
  23839646.000   125278166.283       -1101.435          42.000  
  22689953.386   119236513.302        3207.748          38.000  
 23  8 28 15 11 55.9950000  0  9G 6G 7G 9G11G20G30G 5G29G13
  21702639.069   114048120.117       -3691.013          42.000  
  19580481.915   102896115.278         -17.463          46.000  
  20689580.560   108724474.199       -2783.946          40.000  
  20252177.669   106425896.011       -1680.646          46.000  
  19357185.588   101722705.675        1511.914          47.000  
  20035048.876   105284893.817        1979.375          46.000  
  21395493.764   112434070.336        2996.616          44.000  
  23839856.171   125279268.127       -1102.124          43.000  
  22689342.750   119233306.041        3207.290          38.000  
 23  8 28 15 11 56.9950000  0  9G 6G 7G 9G11G20G30G 5G29G13
  21703341.493   114051811.427       -3691.729          42.000  
  19580484.943   102896133.038         -18.264          46.000  
  20690110.244   108727258.525       -2784.637          40.000  
  20252498.334   106427576.989       -1681.537          47.000  
  19356897.764   101721193.950        1511.163          47.000  
  20034672.414   105282914.718        1978.672          46.000  
  21394923.683   112431074.047        2995.891          44.000  
  23840066.428   125280370.689       -1103.243          43.000  
  22688732.324   119230099.018        3207.020          38.000  
 23  8 28 15 11 57.9950000  0  9G 6G 7G 9G11G20G30G 5G29G13
  21704043.759   114055503.248       -3691.947          42.000  
  19580488.372   102896151.615         -19.070          46.000  
  20690640.155   108730043.350       -2785.105          40.000  
  20252818.633   106429258.874       -1682.284          47.000  
  19356610.062   101719682.999        1510.535          47.000  
  20034295.986   105280936.373        1978.087          45.000  
  21394353.951   112428078.289        2995.465          45.000  
  23840276.721   125281474.118       -1103.886          43.000  
  22688122.718   119226892.424        3206.207          39.000  
 23  8 28 15 11 58.9950000  0  9G 6G 7G 9G11G20G30G 5G29G13
  21704746.314   114059194.941       -3691.421          42.000  
  19580491.749   102896170.392         -18.806          46.000  
  20691170.397   108732828.026       -2784.467          40.000  
  20253138.739   106430941.012       -1681.958          47.000  
  19356322.526   101718172.175        1510.846          47.000  
  20033919.637   105278958.149        1978.274          46.000  
  21393784.228   112425082.391        2995.953          45.000  
  23840486.673   125282577.747       -1103.872          43.000  
  22687512.833   119223685.573        3207.438          39.000  
 23  8 28 15 11 59.9950000  0  9G 6G 7G 9G11G20G30G 5G29G13
  21705448.894   114062887.304       -3693.008          42.000  
  19580495.064   102896190.142         -20.476          46.000  
  20691700.648   108735613.355       -2785.648          40.000  
  20253459.492   106432624.231       -1684.161          47.000  
  19356035.339   101716662.258        1509.454          47.000  
  20033543.576   105276980.836        1976.569          46.000  
  21393214.103   112422087.142        2995.156          45.000  
  23840697.053   125283682.375       -1105.028          43.000  
  22686902.756   119220479.324        3205.255          39.000  
 23  8 28 15 12  0.9950000  0  9G 6G 7G 9G11G20G30G 5G29G13
  21706151.658   114066580.137       -3692.763          42.000  
  19580498.755   102896210.733         -20.655          46.000  
  20692230.820   108738399.225       -2785.587          39.000  
  20253779.930   106434308.352       -1684.110          47.000  
  19355748.012   101715153.152        1509.045          47.000  
  20033167.428   105275004.293        1976.698          46.000  
  21392643.821   112419092.474        2994.848          44.000  
  23840907.485   125284787.926       -1105.560          43.000  
  22686292.836   119217273.421        3206.179          39.000  
 23  8 28 15 12  1.9950000  0  9G 6G 7G 9G11G20G30G 5G29G13
  21706854.597   114070273.213       -3693.490          42.000  
  19580502.864   102896231.864         -22.020          46.000  
  20692760.827   108741185.275       -2786.336          39.000  
  20254100.709   106435993.062       -1685.385          48.000  
  19355460.983   101713644.507        1508.124          46.000  
  20032791.498   105273028.193        1975.627          46.000  
  21392073.530   112416097.987        2994.164          43.000  
  23841118.092   125285893.972       -1106.632          43.000  
  22685682.768   119214067.688        3205.141          39.000  
 23  8 28 15 12  2.9950000  0  9G 6G 7G 9G11G20G30G 5G29G13
  21707557.038   114073966.567       -3693.755          42.000  
  19580507.210   102896253.561         -22.149          46.000  
  20693290.965   108743971.626       -2786.519          39.000  
  20254421.557   106437678.455       -1685.692          47.000  
  19355174.302   101712136.424        1507.715          46.000  
  20032415.874   105271052.677        1975.247          46.000  
  21391503.615   112413103.797        2994.073          43.000  
  23841328.969   125287000.667       -1107.064          43.000  
  22685073.005   119210862.110        3205.462          39.000  
 23  8 28 15 12  3.9950000  0  9G 6G 7G 9G11G20G30G 5G29G13
  21708259.374   114077660.266       -3694.062          42.000  
  19580511.912   102896275.963         -23.109          46.000  
  20693821.137   108746758.329       -2786.956          39.000  
  20254742.694   106439364.615       -1686.858          46.000  
  19354887.246   101710628.951        1506.836          47.000  
  20032040.275   105269077.741        1974.430          47.000  
  21390933.874   112410109.965        2993.560          44.000  
  23841539.515   125288108.097       -1108.129          43.000  
  22684463.311   119207656.825        3204.854          39.000  
 23  8 28 15 12  4.9950000  0  9G 6G 7G 9G11G20G30G 5G29G13
  21708962.234   114081354.340       -3694.164          42.000  
  19580516.484   102896299.070         -23.855          46.000  
  20694351.432   108749545.403       -2787.457          39.000  
  20255063.673   106441051.540       -1687.469          47.000  
  19354600.757   101709122.128        1506.293          47.000  
  20031664.677   105267103.464        1973.623          47.000  
  21390364.561   112407116.522        2993.044          44.000  
  23841750.165   125289216.232       -1108.586          42.000  
  22683853.531   119204451.836        3204.396          38.000  
 23  8 28 15 12  5.9950000  0  9G 6G 7G 9G11G20G30G 5G29G13
  21709665.024   114085048.898       -3694.673          41.000  
  19580521.135   102896322.951         -24.232          46.000  
  20694881.988   108752332.896       -2787.571          39.000  
  20255384.992   106442739.338       -1688.228          47.000  
  19354314.364   101707616.036        1505.750          47.000  
  20031289.340   105265129.876        1973.416          47.000  
  21389795.343   112404123.578        2992.830          44.000  
  23841960.597   125290325.193       -1108.999          42.000  
  22683243.393   119201247.206        3204.188          37.000  
 23  8 28 15 12  6.9950000  0  9G 6G 7G 9G11G20G30G 5G29G13
  21710368.172   114088743.789       -3695.521          41.000  
  19580525.750   102896347.485         -25.092          46.000  
  20695412.109   108755120.778       -2788.345          38.000  
  20255706.591   106444427.854       -1689.096          47.000  
  19354028.058   101706110.535        1504.822          47.000  
  20030914.256   105263156.914        1972.359          47.000  
  21389225.733   112401130.984        2992.156          44.000  
  23842171.928   125291434.857       -1110.359          42.000  
  22682633.237   119198042.766        3204.000          36.000  
 23  8 28 15 12  7.9950000  0  9G 6G 7G 9G11G20G30G 5G29G13
  21711071.485   114092438.904       -3695.173          41.000  
  19580530.052   102896372.586         -25.605          46.000  
  20695942.569   108757908.875       -2788.072          39.000  
  20256027.815   106446117.031       -1689.666          46.000  
  19353741.805   101704605.548        1504.663          47.000  
  20030539.042   105261184.432        1972.213          47.000  
  21388655.870   112398138.634        2992.283          44.000  
  23842383.032   125292545.094       -1110.657          42.000  
  22682023.204   119194838.499        3204.020          37.000  
 23  8 28 15 12  8.9950000  0  9G 6G 7G 9G11G20G30G 5G29G13
  21711774.834   114096134.215       -3695.648          42.000  
  19580534.763   102896398.202         -26.166          46.000  
  20696473.431   108760697.145       -2788.646          38.000  
  20256349.152   106447806.765       -1690.129          46.000  
  19353455.446   101703101.003        1504.034          47.000  
  20030164.106   105259212.380        1971.615          47.000  
  21388086.356   112395146.467        2991.810          44.000  
  23842594.485   125293655.864       -1111.408          42.000  
  22681413.519   119191634.320        3204.202          37.000  
 23  8 28 15 12  9.9950000  0  9G 6G 7G 9G11G20G30G 5G29G13
  21712478.226   114099830.144       -3696.064          41.000  
  19580539.405   102896424.717         -26.849          46.000  
  20697004.170   108763485.989       -2788.969          39.000  
  20256670.070   106449497.506       -1691.130          45.000  
  19353169.341   101701597.312        1503.326          47.000  
  20029789.101   105257241.194        1970.914          47.000  
  21387517.453   112392154.903        2991.536          44.000  
  23842806.086   125294767.582       -1112.231          42.000  
  22680803.844   119188430.646        3203.602          37.000  
 23  8 28 15 12 10.9950000  0  9G 6G 7G 9G11G20G30G 5G29G13
  21713181.513   114103526.570       -3696.810          41.000  
  19580544.789   102896452.107         -27.898          46.000  
  20697534.962   108766275.382       -2789.665          39.000  
  20256991.459   106451189.178       -1692.181          45.000  
  19352883.472   101700094.441        1502.478          47.000  
  20029414.253   105255270.795        1970.032          47.000  
  21386948.262   112389163.912        2990.777          45.000  
  23843017.758   125295880.200       -1113.138          42.000  
  22680193.758   119185227.430        3202.671          37.000  
 23  8 28 15 12 11.9950000  0  9G 6G 7G 9G11G20G30G 5G29G13
  21713884.766   114107223.639       -3697.014          41.000  
  19580550.277   102896480.428         -28.303          46.000  
  20698065.999   108769065.455       -2790.156          39.000  
  20257313.582   106452881.887       -1692.973          45.000  
  19352597.716   101698592.469        1501.770          47.000  
  20029039.588   105253301.302        1969.261          47.000  
  21386379.489   112386173.602        2990.381          45.000  
  23843229.315   125296993.777       -1113.828          41.000  
  22679584.353   119182024.744        3202.582          38.000  
 23  8 28 15 12 12.9950000  0  9G 6G 7G 9G11G20G30G 5G29G13
  21714588.769   114110921.046       -3698.179          42.000  
  19580556.018   102896509.433         -29.697          46.000  
  20698596.956   108771855.839       -2790.916          38.000  
  20257635.416   106454575.328       -1693.758          45.000  
  19352312.056   101697091.088        1500.934          47.000  
  20028665.098   105251332.379        1968.312          47.000  
  21385810.673   112383183.612        2989.510          45.000  
  23843441.205   125298108.077       -1114.839          42.000  
  22678974.921   119178822.275        3202.218          38.000  
 23  8 28 15 12 13.9950000  0  9G 6G 7G 9G11G20G30G 5G29G13
  21715291.882   114114618.827       -3697.985          41.000  
  19580561.811   102896539.119         -29.952          46.000  
  20699128.002   108774646.571       -2791.112          38.000  
  20257957.800   106456269.548       -1694.643          45.000  
  19352026.134   101695590.356        1500.562          46.000  
  20028290.686   105249364.084        1968.061          47.000  
  21385241.770   112380193.983        2989.420          44.000  
  23843653.146   125299223.074       -1115.292          41.000  
  22678366.328   119175620.123        3202.310          39.000  
 23  8 28 15 12 14.9950000  0  9G 6G 7G 9G11G20G30G 5G29G13
  21715995.588   114118316.968       -3698.108          41.000  
  19580567.596   102896569.479         -30.540          46.000  
  20699659.369   108777437.628       -2790.868          38.000  
  20258280.158   106457964.500       -1695.272          45.000  
  19351740.779   101694090.236        1500.043          47.000  
  20027916.221   105247396.401        1967.671          48.000  
  21384672.893   112377204.755        2989.404          44.000  
  23843864.905   125300338.781       -1115.793          41.000  
  22677757.751   119172418.233        3201.719          39.000  
 23  8 28 15 12 15.9950000  0  9G 6G 7G 9G11G20G30G 5G29G13
  21716699.102   114122015.274       -3697.998          41.000  
  19580573.084   102896600.333         -30.754          46.000  
  20700190.589   108780228.943       -2791.277          38.000  
  20258602.717   106459660.044       -1695.437          45.000  
  19351455.451   101692590.568        1499.750          46.000  
  20027541.871   105245429.168        1967.516          48.000  
  21384103.789   112374215.731        2989.220          44.000  
  23844076.881   125301455.038       -1116.370          41.000  
  22677148.948   119169216.393        3202.273          39.000  
 23  8 28 15 12 16.9950000  0  9G 6G 7G 9G11G20G30G 5G29G13
  21717402.747   114125713.909       -3698.748          41.000  
  19580579.166   102896631.862         -31.977          46.000  
  20700721.878   108783020.487       -2791.818          38.000  
  20258925.301   106461356.298       -1696.722          45.000  
  19351170.375   101691091.492        1498.590          47.000  
  20027167.502   105243462.527        1966.156          47.000  
  21383534.991   112371227.019        2988.610          44.000  
  23844289.041   125302571.968       -1117.339          41.000  
  22676539.874   119166014.807        3201.227          39.000  
 23  8 28 15 12 17.9950000  0  9G 6G 7G 9G11G20G30G 5G29G13
  21718106.907   114129412.826       -3698.726          41.000  
  19580584.915   102896663.969         -31.986          46.000  
  20701252.853   108785812.332       -2791.449          38.000  
  20259248.322   106463053.241       -1696.985          45.000  
  19350885.125   101689592.951        1498.608          47.000  
  20026793.335   105241496.394        1966.318          47.000  
  21382966.375   112368238.601        2988.666          44.000  
  23844501.698   125303689.539       -1117.477          41.000  
  22675930.836   119162813.386        3201.789          38.000  
 23  8 28 15 12 18.9950000  0  9G 6G 7G 9G11G20G30G 5G29G13
  21718810.980   114133111.904       -3699.395          41.000  
  19580591.520   102896696.559         -32.931          46.000  
  20701783.785   108788604.355       -2792.573          38.000  
  20259571.099   106464750.735       -1698.065          45.000  
  19350599.840   101688094.838        1497.559          46.000  
  20026419.115   105239530.677        1965.312          47.000  
  21382397.777   112365250.341        2987.987          44.000  
  23844714.573   125304807.593       -1118.423          41.000  
  22675321.805   119159612.031        3200.976          38.000  
 23  8 28 15 12 19.9950000  0  9G 6G 7G 9G11G20G30G 5G29G13
  21719514.878   114136811.463       -3700.334          41.000  
  19580597.881   102896729.965         -34.031          46.000  
  20702314.961   108791396.859       -2793.130          38.000  
  20259894.303   106466449.107       -1699.095          45.000  
  19350314.966   101686597.485        1496.735          46.000  
  20026044.851   105237565.725        1964.375          47.000  
  21381829.136   112362262.601        2987.225          44.000  
  23844926.942   125305926.520       -1119.652          40.000  
  22674712.566   119156411.054        3200.719          38.000  
 23  8 28 15 12 20.9950000  0  9G 6G 7G 9G11G20G30G 5G29G13
  21720218.584   114140511.646       -3700.284          41.000  
  19580604.590   102896764.320         -34.647          46.000  
  20702846.233   108794189.984       -2793.499          38.000  
  20260217.821   106468148.530       -1700.113          45.000  
  19350029.977   101685101.035        1495.886          46.000  
  20025670.562   105235601.664        1963.431          47.000  
  21381260.564   112359275.500        2986.686          44.000  
  23845139.687   125307046.409       -1120.357          40.000  
  22674103.833   119153210.670        3199.840          39.000  
 23  8 28 15 12 21.9950000  0  9G 6G 7G 9G11G20G30G 5G29G13
  21720923.006   114144212.148       -3700.767          41.000  
  19580610.899   102896799.308         -35.436          46.000  
  20703377.356   108796983.389       -2793.648          38.000  
  20260541.113   106469848.626       -1700.630          45.000  
  19349745.085   101683605.140        1495.563          46.000  
  20025297.075   105233638.135        1963.346          47.000  
  21380692.429   112356288.714        2986.599          44.000  
  23845353.103   125308166.945       -1121.037          40.000  
  22673495.117   119150010.442        3200.153          39.000  
 23  8 28 15 12 22.9950000  0  9G 6G 7G 9G11G20G30G 5G29G13
  21721627.506   114147912.998       -3700.973          41.000  
  19580617.443   102896834.989         -36.056          46.000  
  20703908.890   108799777.190       -2793.741          38.000  
  20260864.797   106471549.496       -1701.254          45.000  
  19349460.420   101682109.892        1494.867          46.000  
  20024923.579   105231675.254        1962.731          47.000  
  21380124.101   112353302.323        2986.124          44.000  
  23845566.510   125309288.222       -1121.603          40.000  
  22672885.982   119146810.526        3199.828          39.000  
 23  8 28 15 12 23.9950000  0  9G 6G 7G 9G11G20G30G 5G29G13
  21722331.954   114151614.122       -3701.553          41.000  
  19580624.615   102896871.249         -36.689          46.000  
  20704440.869   108802571.237       -2794.310          38.000  
  20261188.978   106473251.031       -1702.120          45.000  
  19349176.112   101680615.178        1494.171          46.000  
  20024550.074   105229712.908        1961.888          46.000  
  21379555.948   112350316.221        2985.645          44.000  
  23845779.857   125310410.104       -1122.441          40.000  
  22672277.545   119143610.768        3199.594          39.000  
 23  8 28 15 12 24.9950000  0  9G 6G 7G 9G11G20G30G 5G29G13
  21723036.410   114155315.625       -3701.299          41.000  
  19580631.726   102896908.200         -37.238          46.000  
  20704972.638   108805365.655       -2794.298          38.000  
  20261513.204   106474953.352       -1702.795          45.000  
  19348891.569   101679121.097        1493.957          46.000  
  20024176.779   105227751.176        1961.522          47.000  
  21378988.249   112347330.503        2985.610          44.000  
  23845993.604   125311532.687       -1122.516          41.000  
  22671668.672   119140411.294        3199.625          39.000  
 23  8 28 15 12 25.9950000  0  9G 6G 7G 9G11G20G30G 5G29G13
  21723740.623   114159017.537       -3701.382          41.000  
  19580639.264   102896945.921         -37.756          46.000  
  20705504.075   108808160.481       -2794.559          38.000  
  20261837.525   106476656.465       -1703.042          46.000  
  19348607.261   101677627.701        1493.384          46.000  
  20023803.371   105225790.128        1961.024          46.000  
  21378419.991   112344345.198        2985.323          44.000  
  23846207.099   125312656.098       -1123.702          41.000  
  22671059.939   119137212.131        3199.447          39.000  
 23  8 28 15 12 26.9950000  0  9G 6G 7G 9G11G20G30G 5G29G13
  21724445.315   114162719.681       -3702.608          41.000  
  19580646.323   102896984.176         -38.621          46.000  
  20706035.888   108810955.572       -2795.399          39.000  
  20262161.409   106478360.222       -1704.344          46.000  
  19348322.718   101676134.804        1492.334          46.000  
  20023430.233   105223829.549        1959.922          46.000  
  21377852.109   112341360.131        2984.818          44.000  
  23846420.899   125313780.041       -1124.171          41.000  
  22670451.040   119134013.125        3198.401          39.000  
 23  8 28 15 12 27.9950000  0  9G 6G 7G 9G11G20G30G 5G29G13
  21725150.051   114166422.267       -3703.043          41.000  
  19580653.521   102897023.184         -39.569          46.000  
  20706567.858   108813751.072       -2795.975          39.000  
  20262485.774   106480064.802       -1705.117          46.000  
  19348038.201   101674642.602        1491.797          46.000  
  20023057.095   105221869.676        1959.276          46.000  
  21377284.523   112338375.515        2984.179          44.000  
  23846635.013   125314904.803       -1125.179          41.000  
  22669842.289   119130814.445        3198.245          39.000  
 23  8 28 15 12 28.9950000  0  9G 6G 7G 9G11G20G30G 5G29G13
  21725854.813   114170124.942       -3702.531          41.000  
  19580661.208   102897062.605         -39.347          46.000  
  20707099.619   108816546.662       -2795.632          39.000  
  20262809.982   106481769.879       -1705.211          46.000  
  19347754.408   101673150.780        1491.907          46.000  
  20022684.140   105219910.157        1959.403          46.000  
  21376716.344   112335391.007        2984.761          44.000  
  23846849.154   125316029.996       -1125.117          41.000  
  22669233.782   119127615.764        3198.900          39.000  
 23  8 28 15 12 29.9950000  0  9G 6G 7G 9G11G20G30G 5G29G13
  21726559.016   114173827.996       -3703.805          41.000  
  19580669.078   102897102.724         -40.815          46.000  
  20707630.908   108819342.607       -2796.598          39.000  
  20263134.669   106483475.711       -1706.574          46.000  
  19347470.580   101671659.601        1490.369          46.000  
  20022311.395   105217951.254        1958.280          46.000  
  21376148.348   112332406.902        2983.442          44.000  
  23847063.416   125317155.928       -1126.674          41.000  
  22668625.372   119124417.370        3197.737          39.000  
 23  8 28 15 12 30.9950000  0  9G 6G 7G 9G11G20G30G 5G29G13
  21727263.926   114177531.887       -3704.254          42.000  
  19580677.201   102897144.027         -41.916          46.000  
  20708163.323   108822139.424       -2797.211          39.000  
  20263459.322   106485182.805       -1707.754          46.000  
  19347187.189   101670169.531        1489.520          46.000  
  20021938.553   105215993.472        1957.142          46.000  
  21375580.518   112329423.645        2982.752          44.000  
  23847277.740   125318283.068       -1127.590          41.000  
  22668016.839   119121219.708        3197.480          39.000  
 23  8 28 15 12 31.9950000  0  9G 6G 7G 9G11G20G30G 5G29G13
  21727968.688   114181236.076       -3704.858          42.000  
  19580684.809   102897185.976         -42.483          46.000  
  20708695.328   108824936.553       -2797.476          40.000  
  20263784.672   106486890.630       -1708.489          46.000  
  19346903.361   101668680.071        1488.934          46.000  
  20021566.140   105214036.260        1956.824          46.000  
  21375012.610   112326440.742        2982.566          43.000  
  23847492.395   125319410.879       -1128.561          41.000  
  22667408.306   119118022.316        3197.080          39.000  
 23  8 28 15 12 32.9950000  0  9G 6G 7G 9G11G20G30G 5G29G13
  21728673.380   114184940.690       -3704.454          41.000  
  19580692.531   102897228.663         -43.171          46.000  
  20709227.804   108827734.107       -2797.688          39.000  
  20264110.093   106488599.277       -1709.118          46.000  
  19346619.812   101667191.294        1488.537          46.000  
  20021193.621   105212079.764        1956.110          45.000  
  21374444.797   112323458.281        2982.225          43.000  
  23847706.954   125320539.455       -1128.838          41.000  
  22666799.817   119114825.260        3196.580          39.000  
 23  8 28 15 12 33.9950000  0  9G 6G 7G 9G11G20G30G 5G29G13
  21729378.142   114188645.587       -3704.277          41.000  
  19580701.186   102897271.953         -43.467          46.000  
  20709760.227   108830531.943       -2798.118          39.000  
  20264435.565   106490308.584       -1709.564          46.000  
  19346336.613   101665703.068        1488.202          46.000  
  20020821.443   105210123.774        1955.804          46.000  
  21373877.429   112320476.063        2982.266          44.000  
  23847921.670   125321668.644       -1129.271          41.000  
  22666191.529   119111628.366        3196.814          40.000  
 23  8 28 15 12 34.9950000  0  9G 6G 7G 9G11G20G30G 5G29G13
  21730083.009   114192350.654       -3704.851          41.000  
  19580709.492   102897315.706         -44.139          46.000  
  20710292.537   108833329.908       -2798.380          39.000  
  20264760.890   106492018.445       -1710.233          46.000  
  19346053.308   101664215.260        1487.421          46.000  
  20020449.169   105208168.204        1955.340          46.000  
  21373310.323   112317494.058        2981.769          44.000  
  23848136.875   125322798.350       -1129.956          41.000  
  22665583.301   119108431.548        3196.417          39.000  
 23  8 28 15 12 35.9950000  0  9G 6G 7G 9G11G20G30G 5G29G13
  21730788.103   114196055.999       -3705.739          41.000  
  19580717.991   102897360.059         -44.774          46.000  
  20710824.909   108836128.131       -2798.542          39.000  
  20265086.310   106493728.972       -1710.939          46.000  
  19345770.275   101662727.988        1487.000          45.000  
  20020077.130   105206213.141        1954.849          46.000  
  21372743.008   112314512.322        2981.671          44.000  
  23848351.931   125323928.684       -1130.604          41.000  
  22664974.891   119105234.886        3196.390          39.000  
 23  8 28 15 12 36.9950000  0  9G 6G 7G 9G11G20G30G 5G29G13
  21731493.170   114199761.717       -3705.354          41.000  
  19580726.262   102897405.142         -45.439          46.000  
  20711357.437   108838926.809       -2799.126          39.000  
  20265411.643   106495440.321       -1711.825          46.000  
  19345487.363   101661241.406        1486.328          45.000  
  20019705.100   105204258.800        1954.025          46.000  
  21372175.850   112311531.079        2980.972          44.000  
  23848566.883   125325059.770       -1131.203          41.000  
  22664366.576   119102038.576        3195.809          40.000  
 23  8 28 15 12 37.9950000  0  9G 6G 7G 9G11G20G30G 5G29G13
  21732198.185   114203467.692       -3706.313          41.000  
  19580735.022   102897450.774         -46.019          46.000  
  20711890.428   108841725.657       -2798.953          39.000  
  20265737.448   106497152.285       -1712.561          46.000  
  19345204.678   101659755.314        1485.828          46.000  
  20019333.114   105202304.917        1953.328          46.000  
  21371608.718   112308550.029        2980.773          44.000  
  23848782.062   125326191.455       -1132.160          41.000  
  22663758.680   119098842.383        3195.923          39.000  
 23  8 28 15 12 38.9950000  0  9G 6G 7G 9G11G20G30G 5G29G13
  21732903.540   114207173.883       -3706.328          41.000  
  19580744.306   102897496.983         -46.441          46.000  
  20712423.104   108844524.761       -2798.850          40.000  
  20266063.732   106498864.883       -1712.846          46.000  
  19344921.880   101658269.750        1485.321          46.000  
  20018961.407   105200351.535        1953.209          46.000  
  21371041.664   112305569.247        2980.577          44.000  
  23848997.982   125327323.740       -1132.536          41.000  
  22663150.575   119095646.365        3196.101          39.000  
 23  8 28 15 12 39.9950000  0  9G 6G 7G 9G11G20G30G 5G29G13
  21733609.183   114210880.406       -3706.373          42.000  
  19580753.354   102897543.813         -47.053          46.000  
  20712955.825   108847324.182       -2799.122          39.000  
  20266389.929   106500578.178       -1713.415          46.000  
  19344639.457   101656784.740        1484.814          46.000  
  20018589.900   105198398.713        1952.771          46.000  
  21370474.454   112302588.757        2980.749          44.000  
  23849213.562   125328456.681       -1133.124          41.000  
  22662542.601   119092450.550        3195.763          39.000  
 23  8 28 15 12 40.9950000  0  9G 6G 7G 9G11G20G30G 5G29G13
  21734314.818   114214587.478       -3707.656          42.000  
  19580762.358   102897591.515         -48.170          46.000  
  20713489.129   108850124.158       -2800.527          39.000  
  20266716.012   106502292.431       -1714.742          46.000  
  19344357.261   101655300.553        1483.655          46.000  
  20018218.708   105196446.715        1951.395          46.000  
  21369907.313   112299608.877        2979.644          44.000  
  23849429.360   125329590.513       -1134.591          41.000  
  22661934.452   119089255.204        3194.654          38.000  
 23  8 28 15 12 41.9950000  0  9G 6G 7G 9G11G20G30G 5G29G13
  21735020.801   114218295.008       -3708.209          42.000  
  19580771.685   102897640.034         -49.147          47.000  
  20714022.120   108852924.608       -2801.103          40.000  
  20267042.288   106504007.584       -1715.984          46.000  
  19344074.925   101653817.137        1482.721          46.000  
  20017847.524   105194495.463        1950.493          46.000  
  21369340.163   112296629.522        2978.716          44.000  
  23849645.472   125330725.191       -1135.574          42.000  
  22661325.832   119086060.224        3194.333          38.000  
 23  8 28 15 12 42.9950000  0  9G 6G 7G 9G11G20G30G 5G29G13
  21735725.965   114222002.777       -3707.761          41.000  
  19580781.710   102897689.093         -48.919          47.000  
  20714555.329   108855725.297       -2800.547          40.000  
  20267368.799   106505723.342       -1715.869          46.000  
  19343792.650   101652334.216        1482.843          45.000  
  20017476.262   105192544.702        1950.701          46.000  
  21368773.267   112293650.390        2979.159          44.000  
  23849861.462   125331860.428       -1135.089          42.000  
  22660717.369   119082865.427        3194.475          38.000  
 23  8 28 15 12 43.9950000  0  9G 6G 7G 9G11G20G30G 5G29G13
  21736431.084   114225710.782       -3708.106          41.000  
  19580791.351   102897738.735         -49.889          47.000  
  20715088.311   108858526.208       -2801.105          40.000  
  20267695.214   106507439.745       -1716.619          46.000  
  19343510.777   101650851.788        1482.129          46.000  
  20017105.384   105190594.426        1950.105          46.000  
  21368206.013   112290671.498        2978.805          43.000  
  23850077.915   125332996.280       -1136.047          42.000  
  22660109.247   119079670.725        3194.769          38.000  
 23  8 28 15 12 44.9950000  0  9G 6G 7G 9G11G20G30G 5G29G13
  21737136.858   114229419.166       -3708.439          41.000  
  19580801.054   102897789.070         -50.661          47.000  
  20715621.398   108861327.494       -2801.534          40.000  
  20268021.812   106509156.945       -1717.719          46.000  
  19343228.799   101649370.041        1481.378          45.000  
  20016734.209   105188644.809        1949.126          46.000  
  21367639.134   112287693.023        2978.037          44.000  
  23850294.333   125334132.862       -1137.010          42.000  
  22659501.604   119076476.357        3194.128          38.000  
 23  8 28 15 12 45.9950000  0  9G 6G 7G 9G11G20G30G 5G29G13
  21737842.484   114233127.910       -3709.261          41.000  
  19580811.088   102897840.079         -51.390          47.000  
  20716154.519   108864129.115       -2801.545          40.000  
  20268348.314   106510874.873       -1718.413          46.000  
  19342947.021   101647888.883        1480.725          45.000  
  20016363.357   105186695.790        1948.589          46.000  
  21367072.979   112284714.881        2977.902          44.000  
  23850510.358   125335270.129       -1137.715          42.000  
  22658893.464   119073282.217        3193.865          39.000  
 23  8 28 15 12 46.9950000  0  9G 6G 7G 9G11G20G30G 5G29G13
  21738548.127   114236836.898       -3709.262          41.000  
  19580821.122   102897891.683         -51.836          47.000  
  20716687.929   108866931.049       -2802.329          40.000  
  20268675.610   106512593.471       -1718.853          46.000  
  19342665.575   101646408.277        1480.237          46.000  
  20015992.540   105184747.313        1948.281          46.000  
  21366505.986   112281737.067        2977.734          44.000  
  23850727.464   125336408.032       -1138.303          42.000  
  22658285.175   119070088.257        3193.630          38.000  
 23  8 28 15 12 47.9950000  0  9G 6G 7G 9G11G20G30G 5G29G13
  21739253.840   114240546.224       -3709.478          40.000  
  19580830.963   102897943.949         -52.851          47.000  
  20717221.225   108869733.291       -2802.604          39.000  
  20269002.401   106514312.805       -1719.943          46.000  
  19342384.191   101644928.277        1479.437          46.000  
  20015621.723   105182799.429        1947.396          46.000  
  21365938.959   112278759.575        2977.178          43.000  
  23850944.379   125337546.617       -1138.929          42.000  
  22657676.983   119066894.522        3193.777          38.000  
 23  8 28 15 12 48.9950000  0  9G 6G 7G 9G11G20G30G 5G29G13
  21739960.050   114244255.687       -3709.282          41.000  
  19580840.849   102897996.665         -52.806          46.000  
  20717754.408   108872535.642       -2801.999          39.000  
  20269329.758   106516032.656       -1720.047          46.000  
  19342102.649   101643448.656        1479.688          46.000  
  20015251.150   105180851.922        1947.405          46.000  
  21365372.289   112275782.225        2977.445          44.000  
  23851161.390   125338685.679       -1138.972          43.000  
  22657068.895   119063700.874        3193.628          38.000  
 23  8 28 15 12 49.9950000  0  9G 6G 7G 9G11G20G30G 5G29G13
  21740666.025   114247965.411       -3710.286          41.000  
  19580851.389   102898049.967         -54.077          47.000  
  20718287.294   108875338.289       -2803.370          39.000  
  20269656.819   106517753.166       -1721.136          46.000  
  19341821.151   101641969.590        1478.522          46.000  
  20014880.542   105178904.948        1946.431          46.000  
  21364805.593   112272805.199        2976.486          43.000  
  23851378.506   125339825.382       -1140.433          43.000  
  22656461.060   119060507.370        3193.033          38.000  
 23  8 28 15 12 50.9950000  0  9G 6G 7G 9G11G20G30G 5G29G13
  21741372.314   114251675.928       -3710.862          41.000  
  19580861.449   102898104.378         -54.787          47.000  
  20718820.939   108878141.685       -2803.680          39.000  
  20269984.220   106519474.883       -1722.201          45.000  
  19341539.862   101640491.597        1477.606          46.000  
  20014510.493   105176959.022        1945.469          46.000  
  21364239.299   112269828.951        2975.889          44.000  
  23851596.285   125340966.201       -1141.224          43.000  
  22655853.008   119057314.565        3192.702          38.000  
 23  8 28 15 12 51.9950000  0  9G 6G 7G 9G11G20G30G 5G29G13
  21742078.612   114255386.899       -3711.276          41.000  
  19580871.910   102898159.593         -55.738          47.000  
  20719354.348   108880945.567       -2804.005          39.000  
  20270312.101   106521197.457       -1723.279          45.000  
  19341258.695   101639014.336        1476.721          46.000  
  20014140.287   105175013.837        1944.798          46.000  
  21363673.388   112266853.219        2975.427          44.000  
  23851813.775   125342107.845       -1142.259          43.000  
  22655245.487   119054122.174        3191.674          37.000  
 23  8 28 15 12 52.9950000  0  9G 6G 7G 9G11G20G30G 5G29G13
  21742784.831   114259098.196       -3711.400          41.000  
  19580882.555   102898215.449         -56.216          47.000  
  20719887.871   108883749.773       -2804.162          39.000  
  20270640.025   106522920.736       -1723.499          45.000  
  19340977.729   101637537.654        1476.410          46.000  
  20013770.133   105173069.218        1944.445          46.000  
  21363106.954   112263877.804        2975.433          44.000  
  23852031.048   125343250.161       -1142.623          43.000  
  22654637.783   119050929.952        3192.345          37.000  
 23  8 28 15 12 53.9950000  0  9G 6G 7G 9G11G20G30G 5G29G13
  21743491.067   114262809.712       -3711.793          41.000  
  19580893.008   102898271.828         -56.571          47.000  
  20720421.595   108886554.222       -2804.588          39.000  
  20270967.775   106524644.629       -1723.878          45.000  
  19340697.034   101636061.469        1475.989          46.000  
  20013400.031   105171125.088        1943.996          46.000  
  21362540.747   112260902.619        2975.332          44.000  
  23852248.635   125344393.046       -1143.064          43.000  
  22654030.106   119047737.867        3192.027          37.000  
 23  8 28 15 12 54.9950000  0  9G 6G 7G 9G11G20G30G 5G29G13
  21744197.513   114266521.579       -3712.256          41.000  
  19580903.722   102898328.893         -57.390          47.000  
  20720955.292   108889358.957       -2804.595          39.000  
  20271296.092   106526369.300       -1725.175          45.000  
  19340416.277   101634585.908        1475.152          46.000  
  20013029.886   105169181.554        1943.163          46.000  
  21361974.444   112257927.829        2974.432          44.000  
  23852466.431   125345536.635       -1143.894          43.000  
  22653422.986   119044546.070        3191.499          38.000  
 23  8 28 15 12 55.9950000  0  9G 6G 7G 9G11G20G30G 5G29G13
  21744903.488   114270233.676       -3712.493          41.000  
  19580914.297   102898386.529         -58.017          47.000  
  20721488.902   108892163.979       -2805.195          39.000  
  20271624.811   106528094.591       -1725.851          46.000  
  19340135.599   101633110.859        1474.487          46.000  
  20012660.055   105167238.541        1942.346          46.000  
  21361408.298   112254953.300        2974.071          44.000  
  23852683.974   125346680.836       -1144.696          43.000  
  22652815.527   119041354.448        3191.247          38.000  
 23  8 28 15 12 56.9950000  0  9G 6G 7G 9G11G20G30G 5G29G13
  21745609.899   114273945.913       -3712.220          41.000  
  19580925.526   102898444.647         -58.476          47.000  
  20722022.556   108894969.130       -2805.135          39.000  
  20271953.451   106529820.454       -1726.406          46.000  
  19339854.773   101631636.232        1474.237          45.000  
  20012289.822   105165295.945        1942.137          46.000  
  21360842.099   112251978.930        2974.256          44.000  
  23852901.561   125347825.528       -1145.123          42.000  
  22652207.875   119038162.844        3191.224          38.000  
 23  8 28 15 12 57.9950000  0  9G 6G 7G 9G11G20G30G 5G29G13
  21746316.144   114277658.659       -3713.022          41.000  
  19580936.808   102898503.570         -59.561          47.000  
  20722557.013   108897774.771       -2806.136          40.000  
  20272281.995   106531547.162       -1727.229          45.000  
  19339574.505   101630162.358        1473.285          46.000  
  20011920.375   105163354.081        1941.445          46.000  
  21360276.101   112249005.061        2973.532          43.000  
  23853119.183   125348971.055       -1146.001          42.000  
  22651600.704   119034971.639        3191.084          38.000  
 23  8 28 15 12 58.9950000  0  9G 6G 7G 9G11G20G30G 5G29G13
  21747022.529   114281371.630       -3712.718          41.000  
  19580947.732   102898563.054         -59.265          47.000  
  20723091.304   108900580.653       -2805.220          40.000  
  20272610.626   106533274.534       -1727.124          46.000  
  19339294.193   101628688.994        1473.657          46.000  
  20011551.372   105161412.740        1941.673          46.000  
  21359710.173   112246031.454        2974.215          43.000  
  23853337.022   125350117.192       -1146.022          42.000  
  22650993.550   119031780.597        3191.423          38.000  
 23  8 28 15 12 59.9950000  0  9G 6G 7G 9G11G20G30G 5G29G13
  21747728.975   114285084.615       -3713.651          41.000  
  19580958.551   102898622.885         -60.738          47.000  
  20723625.376   108903386.553       -2806.480          40.000  
  20272939.091   106535002.324       -1728.639          45.000  
  19339013.489   101627215.925        1472.388          46.000  
  20011182.466   105159471.672        1940.223          47.000  
  21359144.071   112243057.893        2973.005          43.000  
  23853554.976   125351263.666       -1147.059          42.000  
  22650386.404   119028589.461        3190.782          39.000  
 23  8 28 15 13  0.9950000  0  9G 6G 7G 9G11G20G30G 5G29G13
  21748435.421   114288798.290       -3713.630          40.000  
  19580970.330   102898683.761         -61.234          47.000  
  20724159.728   108906193.145       -2806.766          40.000  
  20273268.063   106536731.209       -1729.080          45.000  
  19338733.326   101625743.829        1471.838          46.000  
  20010813.769   105157531.568        1939.902          46.000  
  21358578.457   112240085.036        2972.826          43.000  
  23853773.199   125352411.237       -1147.794          42.000  
  22649779.965   119025398.969        3190.534          39.000  
 23  8 28 15 13  1.9950000  0  9G 6G 7G 9G11G20G30G 5G29G13
  21749141.666   114292512.361       -3713.685          40.000  
  19580982.283   102898745.348         -62.000          47.000  
  20724693.853   108909000.119       -2806.866          41.000  
  20273597.139   106538460.881       -1729.916          45.000  
  19338453.494   101624272.398        1471.057          46.000  
  20010444.810   105155592.127        1939.051          46.000  
  21358012.922   112237112.611        2972.261          44.000  
  23853991.659   125353559.526       -1148.544          42.000  
  22649173.527   119022208.769        3189.906          40.000  
 23  8 28 15 13  2.9950000  0  9G 6G 7G 9G11G20G30G 5G29G13
  21749848.347   114296226.779       -3714.868          40.000  
  19580993.992   102898807.545         -62.427          47.000  
  20725227.908   108911807.418       -2807.464          41.000  
  20273926.311   106540191.260       -1730.655          45.000  
  19338173.540   101622801.546        1470.502          46.000  
  20010075.782   105153653.237        1938.527          46.000  
  21357447.491   112234140.501        2971.937          44.000  
  23854210.388   125354708.495       -1149.345          42.000  
  22648566.983   119019018.796        3189.508          39.000  
 23  8 28 15 13  3.9950000  0  9G 6G 7G 9G11G20G30G 5G29G13
  21750555.203   114299941.508       -3715.118          40.000  
  19581006.478   102898870.440         -63.224          47.000  
  20725762.304   108914615.053       -2807.675          41.000  
  20274255.614   106541922.384       -1731.287          45.000  
  19337894.319   101621331.317        1469.983          46.000  
  20009706.675   105151714.970        1938.138          46.000  
  21356882.086   112231168.759        2971.816          44.000  
  23854429.231   125355858.158       -1149.957          42.000  
  22647960.135   119015829.091        3189.676          40.000  
 23  8 28 15 13  4.9950000  0  9G 6G 7G 9G11G20G30G 5G29G13
  21751262.373   114303656.583       -3715.245          40.000  
  19581018.143   102898934.032         -63.823          47.000  
  20726296.699   108917423.057       -2808.062          40.000  
  20274585.074   106543654.292       -1732.207          45.000  
  19337614.697   101619861.730        1469.348          46.000  
  20009337.734   105149777.354        1937.137          46.000  
  21356316.246   112228197.406        2971.324          44.000  
  23854647.891   125357008.525       -1150.647          42.000  
  22647353.303   119012639.656        3189.357          40.000  
 23  8 28 15 13  5.9950000  0  9G 6G 7G 9G11G20G30G 5G29G13
  21751969.369   114307371.886       -3715.584          40.000  
  19581030.070   102898998.177         -64.559          47.000  
  20726831.295   108920231.260       -2808.241          41.000  
  20274914.613   106545386.795       -1732.817          45.000  
  19337335.145   101618392.647        1468.726          46.000  
  20008968.958   105147840.194        1936.879          46.000  
  21355750.728   112225226.301        2970.944          44.000  
  23854866.595   125358159.472       -1151.388          41.000  
  22646746.446   119009450.342        3189.181          39.000  
 23  8 28 15 13  6.9950000  0  9G 6G 7G 9G11G20G30G 5G29G13
  21752676.870   114311087.615       -3715.878          41.000  
  19581042.469   102899063.055         -65.133          46.000  
  20727366.049   108923039.913       -2808.459          40.000  
  20275244.762   106547120.122       -1733.427          45.000  
  19337055.898   101616924.249        1468.097          46.000  
  20008600.410   105145903.710        1936.229          46.000  
  21355185.777   112222255.635        2970.435          44.000  
  23855085.674   125359311.186       -1151.660          41.000  
  22646139.641   119006261.369        3188.572          40.000  
 23  8 28 15 13  7.9950000  0  9G 6G 7G 9G11G20G30G 5G29G13
  21753384.241   114314803.445       -3716.384          41.000  
  19581054.806   102899128.366         -65.783          46.000  
  20727900.697   108925848.660       -2808.818          41.000  
  20275574.694   106548853.960       -1734.320          45.000  
  19336776.825   101615456.220        1467.505          46.000  
  20008231.687   105143967.606        1935.627          46.000  
  21354620.521   112219285.062        2970.320          44.000  
  23855305.616   125360463.379       -1152.986          42.000  
  22645533.045   119003072.398        3188.524          40.000  
 23  8 28 15 13  8.9950000  0  9G 6G 7G 9G11G20G30G 5G29G13
  21754091.499   114318519.636       -3716.706          40.000  
  19581066.829   102899194.370         -66.451          46.000  
  20728435.485   108928657.780       -2809.282          41.000  
  20275904.939   106550588.548       -1734.923          46.000  
  19336497.717   101613988.852        1466.876          46.000  
  20007863.269   105142032.132        1934.999          46.000  
  21354055.587   112216314.910        2969.987          44.000  
  23855524.870   125361616.259       -1153.421          41.000  
  22644926.187   118999883.723        3188.243          40.000  
 23  8 28 15 13  9.9950000  0  9G 6G 7G 9G11G20G30G 5G29G13
  21754798.895   114322236.164       -3716.399          41.000  
  19581079.690   102899261.033         -66.669          46.000  
  20728970.142   108931467.240       -2809.472          42.000  
  20276235.376   106552323.884       -1735.364          46.000  
  19336218.793   101612522.086        1466.974          46.000  
  20007494.694   105140097.264        1934.875          46.000  
  21353490.584   112213345.122        2969.900          44.000  
  23855744.297   125362769.837       -1153.631          41.000  
  22644319.522   118996695.266        3188.831          40.000  
 23  8 28 15 13 10.9950000  0  9G 6G 7G 9G11G20G30G 5G29G13
  21755506.048   114325952.783       -3716.901          39.000  
  19581092.673   102899328.101         -67.348          46.000  
  20729504.599   108934276.751       -2809.557          41.000  
  20276565.988   106554059.704       -1736.202          46.000  
  19335939.424   101611055.694        1466.016          46.000  
  20007126.590   105138162.735        1934.021          46.000  
  21352925.398   112210375.406        2969.633          44.000  
  23855963.865   125363923.868       -1154.230          42.000  
  22643712.743   118993506.834        3188.736          39.000  
 23  8 28 15 13 11.9950000  0  9G 6G 7G 9G11G20G30G 5G29G13
  21756213.314   114329669.909       -3717.371          40.000  
  19581105.464   102899396.026         -68.301          47.000  
  20730039.239   108937086.822       -2810.421          41.000  
  20276896.862   106555796.419       -1737.069          46.000  
  19335660.412   101609590.087        1465.143          46.000  
  20006758.199   105136229.001        1933.147          45.000  
  21352360.255   112207406.268        2968.871          44.000  
  23856183.406   125365078.766       -1155.016          42.000  
  22643105.911   118990318.830        3188.036          39.000  
 23  8 28 15 13 12.9950000  0  9G 6G 7G 9G11G20G30G 5G29G13
  21756920.755   114333387.636       -3717.970          40.000  
  19581119.040   102899464.856         -69.007          46.000  
  20730573.826   108939897.463       -2811.098          41.000  
  20277227.901   106557534.162       -1738.175          46.000  
  19335381.645   101608125.358        1464.368          46.000  
  20006390.558   105134296.111        1932.421          45.000  
  21351794.755   112204437.747        2968.219          43.000  
  23856403.156   125366234.617       -1155.977          42.000  
  22642499.159   118987131.321        3187.592          39.000  
 23  8 28 15 13 13.9950000  0  9G 6G 7G 9G11G20G30G 5G29G13
  21757628.335   114337105.428       -3717.816          40.000  
  19581132.285   102899534.074         -69.320          47.000  
  20731108.859   108942708.165       -2810.860          41.000  
  20277558.487   106559272.333       -1738.409          46.000  
  19335102.965   101606660.962        1464.154          46.000  
  20006022.803   105132363.560        1932.215          46.000  
  21351229.865   112201469.284        2968.257          43.000  
  23856623.212   125367390.898       -1156.832          42.000  
  22641892.598   118983943.819        3187.184          39.000  
 23  8 28 15 13 14.9950000  0  9G 6G 7G 9G11G20G30G 5G29G13
  21758335.714   114340823.733       -3718.536          40.000  
  19581145.486   102899604.148         -70.324          47.000  
  20731643.865   108945519.365       -2811.441          41.000  
  20277889.701   106561011.438       -1739.540          46.000  
  19334824.460   101605197.364        1463.312          46.000  
  20005655.502   105130431.772        1931.562          46.000  
  21350665.115   112198501.370        2967.652          43.000  
  23856843.373   125368548.029       -1157.536          41.000  
  22641286.316   118980756.699        3187.060          39.000  
 23  8 28 15 13 15.9950000  0  9G 6G 7G 9G11G20G30G 5G29G13
  21759043.460   114344542.413       -3718.691          40.000  
  19581159.830   102899674.937         -71.201          47.000  
  20732178.949   108948330.963       -2811.736          41.000  
  20278221.054   106562751.327       -1740.100          46.000  
  19334545.719   101603734.420        1462.878          46.000  
  20005288.001   105128500.650        1931.135          46.000  
  21350100.548   112195533.835        2967.759          43.000  
  23857062.967   125369705.911       -1157.990          41.000  
  22640680.200   118977569.900        3186.923          39.000  
 23  8 28 15 13 16.9950000  0  9G 6G 7G 9G11G20G30G 5G29G13
  21759751.267   114348261.234       -3719.163          40.000  
  19581173.206   102899746.179         -71.647          47.000  
  20732713.729   108951142.704       -2811.681          40.000  
  20278552.181   106564491.746       -1740.791          46.000  
  19334267.039   101602271.900        1462.018          45.000  
  20004920.813   105126569.952        1930.400          46.000  
  21349535.780   112192566.483        2967.105          44.000  
  23857283.372   125370864.287       -1158.895          41.000  
  22640073.639   118974383.185        3186.407          38.000  
 23  8 28 15 13 17.9950000  0  9G 6G 7G 9G11G20G30G 5G29G13
  21760459.135   114351980.225       -3718.838          40.000  
  19581186.756   102899817.920         -71.496          47.000  
  20733248.875   108953954.631       -2811.557          39.000  
  20278883.150   106566232.749       -1740.923          46.000  
  19333988.350   101600809.832        1462.274          45.000  
  20004554.236   105124639.681        1930.353          46.000  
  21348971.309   112189599.356        2967.420          44.000  
  23857503.497   125372023.189       -1158.780          41.000  
  22639466.852   118971196.517        3186.979          38.000  
 23  8 28 15 13 18.9950000  0  9G 6G 7G 9G11G20G30G 5G29G13
  21761166.864   114355699.302       -3718.535          40.000  
  19581200.533   102899890.095         -71.915          47.000  
  20733783.663   108956766.668       -2811.883          39.000  
  20279214.469   106567974.261       -1741.368          46.000  
  19333709.818   101599348.140        1462.006          45.000  
  20004186.997   105122709.767        1930.096          46.000  
  21348406.760   112186632.321        2967.429          44.000  
  23857723.990   125373182.550       -1159.012          41.000  
  22638859.794   118968009.854        3187.009          38.000  
 23  8 28 15 13 19.9950000  0  9G 6G 7G 9G11G20G30G 5G29G13
  21761874.732   114359418.527       -3719.548          41.000  
  19581214.100   102899962.724         -73.225          47.000  
  20734318.730   108959578.769       -2812.108          39.000  
  20279546.189   106569716.284       -1742.686          46.000  
  19333431.418   101597886.847        1460.760          45.000  
  20003820.429   105120780.244        1929.077          46.000  
  21347842.027   112183665.423        2966.617          44.000  
  23857944.883   125374342.382       -1160.494          41.000  
  22638253.294   118964823.265        3186.220          38.000  
 23  8 28 15 13 20.9950000  0  9G 6G 7G 9G11G20G30G 5G29G13
  21762582.539   114363138.370       -3720.035          41.000  
  19581227.965   102900036.326         -73.983          47.000  
  20734854.024   108962391.604       -2813.143          40.000  
  20279877.760   106571459.354       -1743.461          46.000  
  19333153.558   101596426.497        1459.863          45.000  
  20003453.599   105118851.645        1927.902          46.000  
  21347277.722   112180699.258        2965.845          44.000  
  23858165.445   125375503.232       -1161.354          40.000  
  22637646.716   118961637.217        3185.823          39.000  
 23  8 28 15 13 21.9950000  0  9G 6G 7G 9G11G20G30G 5G29G13
  21763290.285   114366858.701       -3720.896          41.000  
  19581242.003   102900110.735         -74.890          46.000  
  20735389.667   108965204.868       -2813.592          40.000  
  20280209.384   106573203.296       -1744.564          45.000  
  19332876.178   101594966.875        1458.990          45.000  
  20003087.040   105116923.763        1927.438          47.000  
  21346714.028   112177733.561        2965.220          44.000  
  23858386.007   125376664.894       -1162.158          40.000  
  22637040.451   118958451.558        3185.099          39.000  
 23  8 28 15 13 22.9950000  0  9G 6G 7G 9G11G20G30G 5G29G13
  21763998.415   114370579.361       -3720.914          40.000  
  19581256.068   102900185.768         -75.608          46.000  
  20735924.709   108968018.442       -2814.306          41.000  
  20280541.820   106574947.953       -1745.325          46.000  
  19332598.868   101593507.862        1458.191          45.000  
  20002720.463   105114996.501        1926.424          47.000  
  21346149.984   112174768.208        2964.693          44.000  
  23858607.206   125377827.260       -1163.106          40.000  
  22636434.021   118955266.156        3184.693          38.000  
 23  8 28 15 13 23.9950000  0  9G 6G 7G 9G11G20G30G 5G29G13
  21764706.457   114374300.298       -3720.884          40.000  
  19581270.665   102900261.401         -75.573          47.000  
  20736459.959   108970832.286       -2813.467          41.000  
  20280873.487   106576693.294       -1745.215          45.000  
  19332321.409   101592049.373        1458.661          46.000  
  20002353.938   105113069.756        1927.065          47.000  
  21345586.473   112171803.146        2965.253          45.000  
  23858828.615   125378990.215       -1162.930          40.000  
  22635827.295   118952080.932        3185.670          37.000  
 23  8 28 15 13 24.9950000  0  9G 6G 7G 9G11G20G30G 5G29G13
  21765414.430   114378020.986       -3720.715          41.000  
  19581284.940   102900337.149         -76.086          46.000  
  20736995.122   108973645.950       -2813.762          40.000  
  20281204.989   106578438.797       -1745.666          45.000  
  19332044.134   101590590.968        1458.301          46.000  
  20001987.571   105111143.077        1926.630          47.000  
  21345022.613   112168837.896        2965.061          44.000  
  23859050.145   125380153.301       -1163.486          40.000  
  22635221.310   118948895.387        3185.318          38.000  
 23  8 28 15 13 25.9950000  0  9G 6G 7G 9G11G20G30G 5G29G13
  21766122.630   114381742.205       -3721.403          41.000  
  19581299.127   102900413.773         -76.999          46.000  
  20737530.382   108976460.110       -2814.214          40.000  
  20281536.979   106580185.247       -1746.819          45.000  
  19331766.981   101589133.356        1457.440          46.000  
  20001621.038   105109217.192        1925.330          47.000  
  21344458.317   112165873.206        2964.606          44.000  
  23859271.117   125381317.283       -1164.326          40.000  
  22634615.299   118945710.282        3184.510          39.000  
 23  8 28 15 13 26.9950000  0  9G 6G 7G 9G11G20G30G 5G29G13
  21766830.986   114385463.909       -3721.629          41.000  
  19581313.898   102900491.172         -77.253          46.000  
  20738066.243   108979274.769       -2814.740          40.000  
  20281869.615   106581932.569       -1747.500          45.000  
  19331489.863   101587676.514        1456.830          46.000  
  20001254.950   105107292.043        1924.983          47.000  
  21343894.343   112162909.007        2964.178          44.000  
  23859492.787   125382482.063       -1164.119          40.000  
  22634009.034   118942525.575        3184.944          38.000  
 23  8 28 15 13 27.9950000  0 10G 6G 7G 9G11G20G30G 5G29G13G 4
  21767538.872   114389185.887       -3721.920          41.000  
  19581328.748   102900569.180         -77.969          46.000  
  20738601.616   108982089.704       -2814.893          40.000  
  20282201.902   106583680.574       -1748.086          45.000  
  19331212.832   101586220.235        1456.256          46.000  
  20000888.818   105105367.451        1924.462          47.000  
  21343330.457   112159945.131        2963.812          45.000  
  23859714.676   125383647.530       -1165.532          40.000  
  22633402.875   118939341.076        3184.539          39.000  
  23243151.306                       -3409.647          11.000  
 23  8 28 15 13 28.9950000  0 10G 6G 7G 9G11G20G30G 5G29G13G 4
  21768246.914   114392907.882       -3722.287          41.000  
  19581343.790   102900647.573         -79.150          46.000  
  20739137.110   108984904.650       -2815.439          40.000  
  20282534.626   106585429.024       -1749.034          45.000  
  19330935.792   101584764.254        1455.353          46.000  
  20000522.625   105103443.141        1923.826          47.000  
  21342766.474   112156981.269        2963.372          44.000  
  23859936.948   125384813.376       -1166.808          40.000  
  22632797.134   118936156.528        3183.927          39.000  
  23243800.271                       -3409.647          10.000  
 23  8 28 15 13 29.9950000  0  9G 6G 7G 9G11G20G30G 5G29G13
  21768955.175   114396630.376       -3722.779          41.000  
  19581358.702   102900726.753         -79.809          46.000  
  20739672.832   108987720.084       -2815.771          40.000  
  20282867.253   106587178.339       -1750.005          45.000  
  19330658.622   101583309.020        1454.657          46.000  
  20000156.843   105101519.608        1922.977          47.000  
  21342202.745   112154017.945        2963.256          45.000  
  23860159.150   125385980.023       -1167.209          40.000  
  22632191.725   118932972.373        3183.643          40.000  
 23  8 28 15 13 30.9950000  0 10G 6G 7G 9G11G20G30G 5G29G13G 4
  21769663.305   114400353.111       -3722.936          41.000  
  19581373.587   102900806.504         -80.009          46.000  
  20740208.658   108990535.784       -2815.863          40.000  
  20283200.151   106588928.285       -1750.234          45.000  
  19330381.189   101581854.327        1454.486          45.000  
  19999790.388   105099596.551        1922.965          47.000  
  21341639.243   112151054.897        2962.807          44.000  
  23860381.553   125387147.290       -1167.651          40.000  
  22631585.845   118929788.356        3183.824          39.000  
  23245091.945                       -3409.647          10.000  
 23  8 28 15 13 31.9950000  0  9G 6G 7G 9G11G20G30G 5G29G13
  21770372.150   114404076.292       -3723.226          41.000  
  19581389.004   102900887.059         -80.777          46.000  
  20740744.825   108993351.925       -2816.081          41.000  
  20283533.180   106590679.113       -1750.982          45.000  
  19330104.307   101580400.391        1453.821          45.000  
  19999424.631   105097674.248        1922.175          47.000  
  21341075.470   112148092.341        2962.441          44.000  
  23860604.157   125388315.369       -1168.201          40.000  
  22630980.052   118926604.720        3183.667          39.000  
 23  8 28 15 13 32.9950000  0  9G 6G 7G 9G11G20G30G 5G29G13
  21771081.153   114407799.601       -3723.439          41.000  
  19581404.369   102900968.036         -81.546          46.000  
  20741280.652   108996168.213       -2816.844          41.000  
  20283866.767   106592430.464       -1752.042          45.000  
  19329827.162   101578946.839        1452.917          45.000  
  19999058.919   105095752.335        1921.384          47.000  
  21340511.749   112145129.923        2962.073          45.000  
  23860826.638   125389483.940       -1169.152          40.000  
  22630374.425   118923421.129        3183.142          40.000  
 23  8 28 15 13 33.9950000  0  9G 6G 7G 9G11G20G30G 5G29G13
  21771789.841   114411523.436       -3723.712          41.000  
  19581420.222   102901049.892         -82.123          47.000  
  20741817.062   108998984.996       -2816.911          41.000  
  20284200.258   106594182.712       -1752.444          45.000  
  19329550.384   101577494.083        1452.649          45.000  
  19998693.668   105093831.196        1921.006          47.000  
  21339948.578   112142168.059        2961.808          45.000  
  23861049.277   125390653.358       -1169.473          40.000  
  22629769.059   118920237.988        3183.095          40.000  
 23  8 28 15 13 34.9950000  0  9G 6G 7G 9G11G20G30G 5G29G13
  21772498.564   114415247.633       -3724.502          41.000  
  19581435.666   102901132.431         -83.003          46.000  
  20742353.334   109001802.174       -2817.501          41.000  
  20284533.304   106595935.756       -1753.686          45.000  
  19329273.746   101576041.990        1451.605          45.000  
  19998328.147   105091910.720        1919.957          47.000  
  21339384.910   112139206.593        2961.221          45.000  
  23861272.526   125391823.526       -1170.814          41.000  
  22629163.257   118917055.106        3182.505          39.000  
 23  8 28 15 13 35.9950000  0  9G 6G 7G 9G11G20G30G 5G29G13
  21773207.436   114418972.047       -3724.249          41.000  
  19581451.607   102901215.541         -83.230          46.000  
  20742889.326   109004619.536       -2817.202          41.000  
  20284866.908   106597689.414       -1753.796          45.000  
  19328997.710   101574590.401        1451.459          45.000  
  19997962.705   105089990.708        1920.115          47.000  
  21338821.320   112136245.388        2961.323          45.000  
  23861495.523   125392994.264       -1170.994          41.000  
  22628557.490   118913872.390        3182.683          39.000  
 23  8 28 15 13 36.9950000  0  9G 6G 7G 9G11G20G30G 5G29G13
  21773916.394   114422696.641       -3724.479          41.000  
  19581467.600   102901299.116         -83.469          47.000  
  20743425.528   109007437.086       -2817.428          41.000  
  20285200.801   106599443.617       -1754.156          45.000  
  19328721.508   101573139.238        1451.093          45.000  
  19997596.904   105088071.140        1919.536          47.000  
  21338257.931   112133284.352        2961.073          44.000  
  23861718.266   125394165.523       -1171.477          41.000  
  22627951.863   118910689.760        3182.212          39.000  
 23  8 28 15 13 37.9950000  0  9G 6G 7G 9G11G20G30G 5G29G13
  21774625.405   114426421.343       -3724.997          42.000  
  19581483.375   102901383.172         -84.452          47.000  
  20743961.459   109010254.789       -2817.942          41.000  
  20285534.632   106601198.380       -1755.142          45.000  
  19328445.489   101571688.506        1450.482          45.000  
  19997231.558   105086151.983        1918.586          47.000  
  21337694.211   112130323.508        2960.552          44.000  
  23861941.297   125395337.267       -1172.197          41.000  
  22627345.948   118907507.166        3182.425          39.000  
 23  8 28 15 13 38.9950000  0  9G 6G 7G 9G11G20G30G 5G29G13
  21775334.669   114430146.505       -3725.603          42.000  
  19581499.595   102901467.977         -85.139          46.000  
  20744497.451   109013072.908       -2818.486          41.000  
  20285868.900   106602953.965       -1756.066          45.000  
  19328169.653   101570238.485        1449.609          45.000  
  19996866.447   105084233.496        1918.140          47.000  
  21337130.499   112127363.100        2960.213          44.000  
  23862164.311   125396509.813       -1173.104          41.000  
  22626740.583   118904324.935        3181.654          39.000  
 23  8 28 15 13 39.9950000  0  9G 6G 7G 9G11G20G30G 5G29G13
  21776043.489   114433872.259       -3725.569          41.000  
  19581515.815   102901553.755         -85.992          47.000  
  20745033.853   109015891.669       -2818.687          42.000  
  20286203.333   106604710.581       -1756.779          45.000  
  19327894.080   101568789.370        1449.078          45.000  
  19996501.039   105082315.941        1917.538          46.000  
  21336566.936   112124403.358        2959.856          44.000  
  23862387.517   125397683.324       -1173.490          41.000  
  22626134.789   118901143.213        3181.867          39.000  
 23  8 28 15 13 40.9950000  0  9G 6G 7G 9G11G20G30G 5G29G13
  21776752.360   114437598.351       -3726.075          42.000  
  19581532.392   102901640.165         -86.714          47.000  
  20745570.369   109018710.710       -2818.974          42.000  
  20286537.714   106606467.913       -1757.551          45.000  
  19327618.724   101567340.846        1448.370          45.000  
  19996135.937   105080398.954        1916.932          46.000  
  21336003.695   112121443.978        2959.222          44.000  
  23862610.914   125398857.515       -1174.002          41.000  
  22625529.459   118897961.739        3181.533          39.000  
 23  8 28 15 13 41.9950000  0  9G 6G 7G 9G11G20G30G 5G29G13
  21777461.668   114441324.634       -3726.131          42.000  
  19581548.630   102901727.101         -87.237          47.000  
  20746107.024   109021529.993       -2818.942          42.000  
  20286872.279   106608225.844       -1758.213          45.000  
  19327342.923   101565892.804        1447.858          45.000  
  19995771.079   105078482.445        1916.459          46.000  
  21335440.794   112118484.790        2959.323          44.000  
  23862834.530   125400032.281       -1175.112          41.000  
  22624924.530   118894780.394        3181.411          40.000  
 23  8 28 15 13 42.9950000  0  9G 6G 7G 9G11G20G30G 5G29G13
  21778170.478   114445051.251       -3726.844          41.000  
  19581565.565   102901814.679         -87.771          47.000  
  20746643.557   109024349.597       -2819.555          42.000  
  20287207.105   106609984.491       -1758.876          45.000  
  19327067.349   101564445.361        1447.217          45.000  
  19995406.413   105076566.534        1915.613          46.000  
  21334877.510   112115525.980        2958.736          44.000  
  23863058.512   125401207.673       -1175.267          41.000  
  22624319.286   118891599.293        3181.124          40.000  
 23  8 28 15 13 43.9950000  0  9G 6G 7G 9G11G20G30G 5G29G13
  21778879.568   114448778.006       -3727.038          41.000  
  19581582.422   102901902.748         -88.271          47.000  
  20747179.637   109027169.346       -2820.090          42.000  
  20287542.018   106611743.695       -1759.450          45.000  
  19326792.011   101562998.356        1446.637          45.000  
  19995042.201   105074651.034        1915.173          46.000  
  21334314.060   112112567.336        2958.592          44.000  
  23863282.626   125402383.612       -1176.225          42.000  
  22623714.183   118888418.251        3181.019          40.000  
 23  8 28 15 13 44.9950000  0  9G 6G 7G 9G11G20G30G 5G29G13
  21779588.849   114452505.070       -3727.200          42.000  
  19581598.948   102901991.476         -88.964          46.000  
  20747716.658   109029989.409       -2820.114          42.000  
  20287877.141   106613503.621       -1760.145          45.000  
  19326516.524   101561551.957        1446.136          45.000  
  19994678.102   105072736.128        1914.730          46.000  
  21333750.680   112109609.043        2958.239          43.000  
  23863506.809   125403560.227       -1176.923          41.000  
  22623109.000   118885237.467        3180.625          39.000  
 23  8 28 15 13 45.9950000  0  9G 6G 7G 9G11G20G30G 5G29G13
  21780298.305   114456232.413       -3727.315          42.000  
  19581616.502   102902080.793         -89.333          46.000  
  20748253.340   109032809.758       -2820.212          42.000  
  20288212.150   106615264.208       -1760.563          45.000  
  19326241.431   101560106.096        1445.825          45.000  
  19994313.829   105070821.761        1914.174          46.000  
  21333187.570   112106651.019        2958.265          43.000  
  23863730.834   125404737.444       -1177.194          41.000  
  22622503.949   118882056.843        3180.571          40.000  
 23  8 28 15 13 46.9950000  0  9G 6G 7G 9G11G20G30G 5G29G13
  21781007.622   114459959.563       -3727.250          42.000  
  19581633.237   102902170.288         -89.760          47.000  
  20748790.021   109035629.942       -2820.121          42.000  
  20288547.229   106617025.049       -1761.344          45.000  
  19325966.380   101558660.363        1445.367          45.000  
  19993949.355   105068907.516        1913.781          46.000  
  21332624.591   112103692.909        2957.941          43.000  
  23863955.087   125405914.892       -1177.953          41.000  
  22621898.784   118878875.993        3180.689          40.000  
 23  8 28 15 13 47.9950000  0  9G 6G 7G 9G11G20G30G 5G29G13
  21781717.296   114463687.479       -3728.099          42.000  
  19581650.696   102902260.896         -91.258          47.000  
  20749326.816   109038450.864       -2820.969          42.000  
  20288882.788   106618787.034       -1762.596          45.000  
  19325691.574   101557215.656        1444.244          45.000  
  19993585.256   105066994.266        1912.677          46.000  
  21332061.979   112100735.552        2957.062          43.000  
  23864179.558   125407093.399       -1178.803          41.000  
  22621293.829   118875695.814        3179.850          40.000  
 23  8 28 15 13 48.9950000  0  9G 6G 7G 9G11G20G30G 5G29G13
  21782426.578   114467415.817       -3728.672          42.000  
  19581668.059   102902352.225         -92.073          46.000  
  20749863.794   109041272.220       -2821.811          42.000  
  20289218.522   106620549.832       -1763.482          45.000  
  19325417.039   101555771.638        1443.530          45.000  
  19993221.332   105065081.704        1912.192          46.000  
  21331498.816   112097778.659        2956.434          43.000  
  23864404.090   125408272.714       -1179.592          41.000  
  22620689.109   118872515.934        3179.535          40.000  
 23  8 28 15 13 49.9950000  0  9G 6G 7G 9G11G20G30G 5G29G13
  21783136.121   114471144.376       -3728.663          42.000  
  19581686.007   102902444.114         -92.415          47.000  
  20750400.685   109044093.789       -2821.529          42.000  
  20289554.150   106622313.231       -1763.512          45.000  
  19325142.206   101554328.132        1443.152          45.000  
  19992857.294   105063169.623        1912.296          46.000  
  21330935.820   112094822.016        2956.498          43.000  
  23864628.735   125409452.605       -1180.190          42.000  
  22620084.651   118869336.217        3179.491          40.000  
 23  8 28 15 13 50.9950000  0  9G 6G 7G 9G11G20G30G 5G29G13
  21783845.804   114474873.256       -3728.867          42.000  
  19581703.876   102902536.665         -93.194          47.000  
  20750937.846   109046915.712       -2822.082          41.000  
  20289889.980   106624077.407       -1764.660          45.000  
  19324867.706   101552885.253        1442.413          45.000  
  19992493.475   105061258.189        1911.313          46.000  
  21330373.077   112091865.716        2956.036          43.000  
  23864853.407   125410633.199       -1181.086          42.000  
  22619479.887   118866156.772        3179.102          40.000  
 23  8 28 15 13 51.9950000  0  9G 6G 7G 9G11G20G30G 5G29G13
  21784555.591   114478602.313       -3729.208          42.000  
  19581721.788   102902629.699         -93.172          47.000  
  20751474.947   109049737.789       -2822.020          42.000  
  20290225.713   106625842.125       -1764.956          45.000  
  19324593.519   101551442.804        1442.206          45.000  
  19992129.969   105059347.168        1910.801          46.000  
  21329810.499   112088909.634        2956.016          43.000  
  23865078.183   125411814.287       -1181.431          41.000  
  22618875.063   118862977.386        3179.172          40.000  
 23  8 28 15 13 52.9950000  0  9G 6G 7G 9G11G20G30G 5G29G13
  21785265.065   114482331.575       -3729.128          41.000  
  19581739.640   102902723.298         -94.136          47.000  
  20752012.108   109052560.080       -2822.346          42.000  
  20290561.255   106627607.460       -1765.538          45.000  
  19324319.132   101550000.862        1441.681          45.000  
  19991766.106   105057436.619        1910.625          46.000  
  21329247.834   112085953.793        2955.720          43.000  
  23865302.933   125412995.947       -1181.697          41.000  
  22618269.575   118859798.152        3179.154          40.000  
 23  8 28 15 13 53.9950000  0  9G 6G 7G 9G11G20G30G 5G29G13
  21785975.149   114486061.114       -3729.745          42.000  
  19581757.413   102902817.472         -94.452          47.000  
  20752549.260   109055382.639       -2822.695          42.000  
  20290896.962   106629373.471       -1766.516          45.000  
  19324044.631   101548559.465        1441.150          45.000  
  19991402.915   105055526.638        1909.438          46.000  
  21328685.536   112082998.280        2955.025          43.000  
  23865527.928   125414178.246       -1182.985          42.000  
  22617664.035   118856619.074        3178.931          39.000  
 23  8 28 15 13 54.9950000  0  9G 6G 7G 9G11G20G30G 5G29G13
  21786685.216   114489790.871       -3730.053          42.000  
  19581775.422   102902912.213         -95.175          47.000  
  20753086.474   109058205.441       -2823.308          42.000  
  20291232.870   106631140.102       -1767.256          45.000  
  19323770.279   101547118.597        1440.417          45.000  
  19991039.558   105053617.148        1908.765          47.000  
  21328122.679   112080043.006        2954.571          42.000  
  23865753.035   125415361.117       -1183.477          42.000  
  22617059.132   118853440.153        3178.768          39.000  
 23  8 28 15 13 55.9950000  0  9G 6G 7G 9G11G20G30G 5G29G13
  21787395.117   114493520.713       -3729.942          42.000  
  19581793.762   102903007.363         -95.296          47.000  
  20753623.505   109061028.320       -2823.086          42.000  
  20291568.857   106632907.216       -1767.400          45.000  
  19323496.337   101545678.092        1440.228          45.000  
  19990676.113   105051708.012        1908.772          46.000  
  21327560.494   112077087.827        2954.967          43.000  
  23865978.073   125416544.425       -1183.928          41.000  
  22616453.758   118850261.225        3178.809          39.000  
 23  8 28 15 13 56.9950000  0  9G 6G 7G 9G11G20G30G 5G29G13
  21788104.590   114497250.812       -3730.515          42.000  
  19581811.544   102903103.115         -96.194          47.000  
  20754160.867   109063851.458       -2823.322          42.000  
  20291905.052   106634675.018       -1768.245          45.000  
  19323222.613   101544238.126        1439.404          45.000  
  19990313.018   105049799.413        1908.346          46.000  
  21326998.013   112074132.934        2954.573          43.000  
  23866202.920   125417728.369       -1184.606          41.000  
  22615848.602   118847082.538        3178.231          39.000  
 23  8 28 15 13 57.9950000  0  9G 6G 7G 9G11G20G30G 5G29G13
  21788814.736   114500981.270       -3730.743          42.000  
  19581829.543   102903199.568         -96.852          47.000  
  20754697.862   109066674.983       -2823.693          41.000  
  20292241.414   106636443.598       -1769.126          44.000  
  19322949.089   101542798.811        1438.861          46.000  
  19989950.184   105047891.477        1907.312          47.000  
  21326436.220   112071178.478        2954.198          44.000  
  23866428.629   125418912.995       -1185.203          41.000  
  22615243.655   118843904.124        3178.060          39.000  
 23  8 28 15 13 58.9950000  0  9G 6G 7G 9G11G20G30G 5G29G13
  21789525.125   114504712.399       -3731.269          43.000  
  19581848.041   102903296.999         -97.711          46.000  
  20755235.564   109069499.156       -2824.283          41.000  
  20292578.064   106638213.208       -1770.133          44.000  
  19322675.679   101541360.433        1438.007          46.000  
  19989587.150   105045984.444        1906.820          47.000  
  21325874.262   112068224.693        2953.668          43.000  
  23866654.139   125420098.660       -1186.182          41.000  
  22614638.647   118840726.252        3177.655          39.000  
 23  8 28 15 13 59.9950000  0  9G 6G 7G 9G11G20G30G 5G29G13
  21790235.166   114508443.841       -3731.451          43.000  
  19581866.756   102903395.095         -98.268          46.000  
  20755772.735   109072323.671       -2824.526          41.000  
  20292915.115   106639983.548       -1770.465          44.000  
  19322402.260   101539922.664        1437.616          46.000  
  19989224.770   105044078.020        1906.323          47.000  
  21325312.391   112065271.292        2953.400          43.000  
  23866879.613   125421285.016       -1186.521          41.000  
  22614033.927   118837548.665        3177.682          39.000  
 23  8 28 15 14  0.9950000  0  9G 6G 7G 9G11G20G30G 5G29G13
  21790945.102   114512175.417       -3731.586          43.000  
  19581885.175   102903493.645         -98.589          46.000  
  20756309.913   109075148.305       -2824.702          41.000  
  20293252.323   106641754.395       -1770.998          44.000  
  19322128.912   101538485.300        1437.280          46.000  
  19988862.207   105042171.989        1905.657          47.000  
  21324750.625   112062318.003        2953.381          43.000  
  23867105.183   125422471.855       -1187.218          41.000  
  22613428.946   118834371.072        3177.766          38.000  
 23  8 28 15 14  1.9950000  0  9G 6G 7G 9G11G20G30G 5G29G13
  21791655.396   114515907.505       -3732.283          42.000  
  19581903.873   102903593.045         -99.729          46.000  
  20756847.834   109077973.489       -2825.063          41.000  
  20293589.740   106643526.213       -1772.040          45.000  
  19321855.851   101537048.772        1436.383          46.000  
  19988499.766   105040266.756        1905.093          47.000  
  21324188.667   112059365.304        2952.916          43.000  
  23867331.059   125423659.567       -1187.939          41.000  
  22612824.069   118831193.974        3176.975          39.000  
 23  8 28 15 14  2.9950000  0  9G 6G 7G 9G11G20G30G 5G29G13
  21792365.462   114519639.772       -3732.125          42.000  
  19581922.902   102903692.978        -100.119          46.000  
  20757385.361   109080798.840       -2825.432          41.000  
  20293927.166   106645298.568       -1772.360          45.000  
  19321582.641   101535612.693        1435.962          46.000  
  19988137.569   105038361.954        1904.857          47.000  
  21323626.901   112056412.820        2952.612          43.000  
  23867557.379   125424847.801       -1188.261          41.000  
  22612219.131   118828016.955        3176.932          39.000  
 23  8 28 15 14  3.9950000  0  9G 6G 7G 9G11G20G30G 5G29G13
  21793075.381   114523372.013       -3732.056          42.000  
  19581942.211   102903793.215        -100.542          46.000  
  20757923.177   109083624.148       -2825.121          42.000  
  20294264.470   106647071.335       -1773.063          45.000  
  19321309.493   101534176.869        1435.730          46.000  
  19987774.927   105036457.428        1904.674          46.000  
  21323065.074   112053460.321        2952.726          43.000  
  23867783.717   125426036.383       -1188.767          42.000  
  22611614.655   118824839.835        3177.526          39.000  
 23  8 28 15 14  4.9950000  0  9G 6G 7G 9G11G20G30G 5G29G13
  21793785.753   114527104.714       -3732.821          42.000  
  19581961.293   102903894.189        -101.128          46.000  
  20758461.281   109086449.921       -2825.549          42.000  
  20294602.114   106648844.930       -1773.971          45.000  
  19321036.484   101532741.785        1434.784          46.000  
  19987412.861   105034553.620        1903.713          47.000  
  21322503.098   112050508.312        2951.876          43.000  
  23868010.038   125427225.767       -1189.623          42.000  
  22611010.136   118821663.116        3176.687          39.000  
 23  8 28 15 14  5.9950000  0  9G 6G 7G 9G11G20G30G 5G29G13
  21794496.431   114530837.560       -3732.470          42.000  
  19581980.811   102903995.671        -101.249          46.000  
  20758999.009   109089275.871       -2825.594          41.000  
  20294939.846   106650619.082       -1773.980          45.000  
  19320763.449   101531307.137        1434.820          46.000  
  19987050.551   105032650.243        1903.567          46.000  
  21321941.559   112047556.481        2952.231          44.000  
  23868236.446   125428415.655       -1189.895          42.000  
  22610405.722   118818486.392        3177.170          39.000  
 23  8 28 15 14  6.9950000  0  9G 6G 7G 9G11G20G30G 5G29G13
  21795207.108   114534570.502       -3733.203          42.000  
  19582000.015   102904097.600        -102.142          46.000  
  20759536.528   109092101.907       -2825.999          41.000  
  20295277.577   106652393.750       -1774.915          45.000  
  19320490.397   101529872.890        1434.015          46.000  
  19986688.337   105030747.235        1902.751          46.000  
  21321380.360   112044604.786        2951.812          44.000  
  23868462.932   125429606.010       -1190.505          42.000  
  22609801.124   118815309.746        3176.503          39.000  
 23  8 28 15 14  7.9950000  0  9G 6G 7G 9G11G20G30G 5G29G13
  21795917.524   114538304.031       -3733.691          42.000  
  19582019.454   102904200.421        -103.122          46.000  
  20760074.501   109094928.535       -2826.806          41.000  
  20295615.571   106654169.384       -1775.811          45.000  
  19320217.476   101528439.503        1433.173          46.000  
  19986326.027   105028845.067        1902.112          46.000  
  21320819.004   112041653.705        2950.917          44.000  
  23868689.785   125430797.290       -1191.444          42.000  
  22609196.840   118812133.601        3176.183          40.000  
 23  8 28 15 14  8.9950000  0  9G 6G 7G 9G11G20G30G 5G29G13
  21796627.879   114542037.787       -3733.529          42.000  
  19582038.929   102904303.831        -103.401          46.000  
  20760612.613   109097755.412       -2826.650          42.000  
  20295953.451   106655945.685       -1776.484          45.000  
  19319944.677   101527006.673        1432.672          46.000  
  19985963.839   105026943.466        1901.621          46.000  
  21320257.412   112038702.925        2951.040          44.000  
  23868916.524   125431989.199       -1192.163          41.000  
  22608592.679   118808957.610        3176.170          40.000  
 23  8 28 15 14  9.9950000  0  9G 6G 7G 9G11G20G30G 5G29G13
  21797338.417   114545771.899       -3734.497          42.000  
  19582059.084   102904407.885        -104.612          46.000  
  20761150.787   109100582.604       -2827.581          42.000  
  20296291.679   106657722.682       -1777.432          45.000  
  19319672.305   101525574.413        1431.854          46.000  
  19985601.799   105025042.411        1900.647          46.000  
  21319696.362   112035752.513        2950.007          44.000  
  23869143.464   125433181.785       -1192.963          41.000  
  22607988.552   118805781.858        3175.848          40.000  
 23  8 28 15 14 10.9950000  0  9G 6G 7G 9G11G20G30G 5G29G13
  21798049.339   114549506.116       -3734.545          42.000  
  19582078.593   102904512.429        -104.924          46.000  
  20761688.934   109103409.956       -2827.409          42.000  
  20296629.795   106659500.244       -1777.792          45.000  
  19319399.916   101524142.594        1431.561          46.000  
  19985240.091   105023141.789        1900.526          46.000  
  21319135.067   112032802.250        2950.351          44.000  
  23869370.544   125434374.856       -1193.208          41.000  
  22607384.722   118802606.211        3175.482          40.000  
 23  8 28 15 14 11.9950000  0  9G 6G 7G 9G11G20G30G 5G29G13
  21798760.243   114553240.581       -3734.896          42.000  
  19582098.975   102904617.519        -105.703          46.000  
  20762227.343   109106237.530       -2828.115          42.000  
  20296967.980   106661278.457       -1778.989          45.000  
  19319127.448   101522711.302        1430.737          46.000  
  19984878.505   105021241.688        1899.532          46.000  
  21318573.868   112029852.263        2949.662          44.000  
  23869597.702   125435568.533       -1194.271          41.000  
  22606780.413   118799430.697        3175.124          40.000  
 23  8 28 15 14 12.9950000  0  9G 6G 7G 9G11G20G30G 5G29G13
  21799471.296   114556975.453       -3734.739          42.000  
  19582118.859   102904723.362        -106.076          46.000  
  20762765.743   109109065.546       -2827.904          42.000  
  20297306.279   106663057.466       -1779.156          45.000  
  19318855.190   101521280.710        1430.316          46.000  
  19984516.814   105019342.281        1899.158          46.000  
  21318012.861   112026902.748        2949.552          44.000  
  23869825.009   125436762.974       -1194.676          41.000  
  22606175.963   118796255.490        3175.297          39.000  
 23  8 28 15 14 13.9950000  0  9G 6G 7G 9G11G20G30G 5G29G13
  21800182.148   114560710.474       -3734.842          43.000  
  19582139.407   102904829.683        -106.417          46.000  
  20763303.716   109111893.681       -2827.931          41.000  
  20297645.153   106664837.021       -1779.663          45.000  
  19318582.687   101519850.532        1430.139          46.000  
  19984155.735   105017443.275        1898.938          46.000  
  21317451.382   112023953.400        2949.358          43.000  
  23870051.931   125437957.898       -1194.956          41.000  
  22605571.575   118793080.357        3175.479          39.000  
 23  8 28 15 14 14.9950000  0  9G 6G 7G 9G11G20G30G 5G29G13
  21800892.817   114564445.894       -3735.743          42.000  
  19582159.492   102904936.718        -107.276          46.000  
  20763841.733   109114722.232       -2828.584          41.000  
  20297983.923   106666617.377       -1780.710          45.000  
  19318310.848   101518421.040        1429.193          45.000  
  19983794.410   105015544.939        1898.168          46.000  
  21316889.869   112021004.478        2948.855          43.000  
  23870279.133   125439153.604       -1196.043          41.000  
  22604967.763   118789905.524        3174.978          39.000  
 23  8 28 15 14 15.9950000  0  9G 6G 7G 9G11G20G30G 5G29G13
  21801603.520   114568181.513       -3735.226          43.000  
  19582180.057   102905044.322        -107.320          46.000  
  20764379.950   109117550.987       -2828.304          41.000  
  20298322.798   106668398.356       -1780.826          45.000  
  19318038.868   101516992.057        1429.272          46.000  
  19983433.269   105013647.093        1898.218          46.000  
  21316328.766   112018055.816        2948.990          44.000  
  23870506.649   125440349.871       -1195.898          41.000  
  22604363.566   118786730.894        3175.427          39.000  
 23  8 28 15 14 16.9950000  0  9G 6G 7G 9G11G20G30G 5G29G13
  21802314.137   114571916.968       -3735.522          42.000  
  19582200.352   102905152.077        -107.956          46.000  
  20764918.271   109120379.610       -2828.842          42.000  
  20298662.004   106670179.541       -1781.451          45.000  
  19317767.107   101515563.197        1428.723          46.000  
  19983072.416   105011749.369        1897.574          46.000  
  21315767.445   112015106.994        2948.760          44.000  
  23870734.331   125441546.323       -1196.713          41.000  
  22603759.562   118783555.958        3175.324          39.000  
 23  8 28 15 14 17.9950000  0  9G 6G 7G 9G11G20G30G 5G29G13
  21803025.068   114575652.873       -3736.027          43.000  
  19582220.978   102905260.606        -108.640          46.000  
  20765456.707   109123208.635       -2828.828          42.000  
  20299001.402   106671961.587       -1782.329          45.000  
  19317495.163   101514135.064        1427.722          46.000  
  19982711.581   105009852.356        1896.698          46.000  
  21315206.726   112012158.676        2948.119          44.000  
  23870962.362   125442743.571       -1197.416          41.000  
  22603155.287   118780381.430        3174.177          39.000  
 23  8 28 15 14 18.9950000  0  9G 6G 7G 9G11G20G30G 5G29G13
  21803736.644   114579389.264       -3736.481          43.000  
  19582241.752   102905369.965        -109.591          46.000  
  20765995.133   109126038.197       -2829.707          42.000  
  20299340.939   106673744.525       -1783.108          45.000  
  19317223.716   101512707.711        1427.020          46.000  
  19982351.251   105007956.110        1895.793          47.000  
  21314646.129   112009210.886        2947.500          44.000  
  23871190.419   125443941.678       -1198.616          41.000  
  22602550.873   118777207.297        3173.910          38.000  
 23  8 28 15 14 19.9950000  0  9G 6G 7G 9G11G20G30G 5G29G13
  21804447.705   114583125.989       -3736.417          43.000  
  19582262.675   102905480.006        -110.142          46.000  
  20766533.865   109128868.095       -2829.734          42.000  
  20299680.616   106675528.233       -1783.874          45.000  
  19316951.763   101511280.998        1426.636          46.000  
  19981990.546   105006060.492        1895.477          47.000  
  21314085.497   112006263.461        2947.468          44.000  
  23871418.528   125445140.472       -1198.969          40.000  
  22601946.702   118774033.452        3173.997          38.000  
 23  8 28 15 14 20.9950000  0  9G 6G 7G 9G11G20G30G 5G29G13
  21805158.671   114586862.983       -3737.179          42.000  
  19582283.659   102905590.660        -111.263          46.000  
  20767072.606   109131698.281       -2830.636          42.000  
  20300020.285   106677312.609       -1784.919          45.000  
  19316680.125   101509854.852        1425.561          45.000  
  19981630.348   105004165.430        1894.272          47.000  
  21313525.206   112003316.326        2946.548          44.000  
  23871646.672   125446339.915       -1199.857          40.000  
  22601342.305   118770859.797        3173.232          38.000  
 23  8 28 15 14 21.9950000  0  9G 6G 7G 9G11G20G30G 5G29G13
  21805869.785   114590600.306       -3737.791          43.000  
  19582304.591   102905701.948        -111.903          46.000  
  20767611.163   109134528.760       -2830.969          42.000  
  20300359.692   106679097.682       -1785.441          45.000  
  19316408.442   101508429.284        1425.232          45.000  
  19981269.887   105002270.928        1894.233          47.000  
  21312964.356   112000369.543        2946.712          44.000  
  23871875.148   125447540.028       -1200.591          40.000  
  22600737.969   118767686.325        3173.727          38.000  
 23  8 28 15 14 22.9950000  0  9G 6G 7G 9G11G20G30G 5G29G13
  21806580.942   114594337.693       -3737.798          42.000  
  19582326.081   102905813.653        -112.548          46.000  
  20768149.790   109137359.315       -2830.948          42.000  
  20300699.299   106680883.235       -1786.036          45.000  
  19316137.309   101507004.092        1424.762          45.000  
  19980908.921   105000376.793        1893.855          46.000  
  21312404.038   111997422.905        2946.233          45.000  
  23872103.885   125448740.562       -1200.973          41.000  
  22600133.337   118764512.915        3172.880          37.000  
 23  8 28 15 14 23.9950000  0  9G 6G 7G 9G11G20G30G 5G29G13
  21807291.934   114598075.374       -3737.335          42.000  
  19582347.370   102905926.013        -112.815          45.000  
  20768688.408   109140190.190       -2830.750          42.000  
  20301039.238   106682669.508       -1786.402          45.000  
  19315866.098   101505579.511        1424.609          46.000  
  19980548.391   104998483.253        1893.634          46.000  
  21311843.563   111994476.609        2946.439          45.000  
  23872332.535   125449941.787       -1201.102          41.000  
  22599529.106   118761339.692        3173.228          37.000  
 23  8 28 15 14 24.9950000  0  9G 6G 7G 9G11G20G30G 5G29G13
  21808003.117   114601813.427       -3737.905          42.000  
  19582369.008   102906039.014        -112.961          46.000  
  20769227.009   109143021.440       -2831.279          42.000  
  20301379.273   106684456.532       -1787.193          45.000  
  19315595.437   101504155.563        1423.877          46.000  
  19980187.799   104996590.333        1892.991          46.000  
  21311283.097   111991530.693        2946.044          45.000  
  23872560.994   125451143.715       -1201.981          40.000  
  22598925.415   118758166.746        3173.187          37.000  
 23  8 28 15 14 25.9950000  0  9G 6G 7G 9G11G20G30G 5G29G13
  21808714.720   114605551.484       -3738.083          42.000  
  19582390.629   102906152.389        -113.338          46.000  
  20769765.846   109145852.707       -2831.246          42.000  
  20301719.613   106686243.964       -1787.467          45.000  
  19315324.714   101502731.909        1423.529          46.000  
  19979827.383   104994697.722        1892.338          46.000  
  21310722.413   111988584.834        2945.889          44.000  
  23872789.818   125452345.988       -1202.311          40.000  
  22598321.952   118754993.775        3172.947          38.000  
 23  8 28 15 14 26.9950000  0  9G 6G 7G 9G11G20G30G 5G29G13
  21809425.729   114609289.680       -3738.068          42.000  
  19582412.328   102906266.251        -114.105          46.000  
  20770304.717   109148684.127       -2831.601          42.000  
  20302059.997   106688031.965       -1788.298          46.000  
  19315053.808   101501308.698        1422.955          46.000  
  19979467.254   104992805.519        1891.998          46.000  
  21310161.563   111985639.141        2945.351          44.000  
  23873019.297   125453548.786       -1203.039          41.000  
  22597718.043   118751820.843        3172.835          38.000  
 23  8 28 15 14 27.9950000  0  9G 6G 7G 9G11G20G30G 5G29G13
  21810137.174   114613028.389       -3738.904          42.000  
  19582434.420   102906380.936        -114.987          46.000  
  20770843.266   109151516.029       -2832.069          42.000  
  20302400.713   106689820.852       -1789.108          46.000  
  19314783.207   101499886.263        1422.266          46.000  
  19979107.439   104990914.088        1891.318          46.000  
  21309601.289   111982693.994        2944.770          44.000  
  23873248.497   125454752.433       -1204.283          41.000  
  22597114.406   118748648.313        3172.895          38.000  
 23  8 28 15 14 28.9950000  0  9G 6G 7G 9G11G20G30G 5G29G13
  21810848.689   114616767.646       -3739.629          42.000  
  19582456.294   102906496.511        -116.055          46.000  
  20771382.225   109154348.501       -2832.795          42.000  
  20302741.158   106691610.699       -1790.242          45.000  
  19314512.712   101498464.674        1421.246          46.000  
  19978747.511   104989023.498        1890.181          46.000  
  21309041.189   111979749.439        2944.227          44.000  
  23873478.221   125455956.982       -1205.067          41.000  
  22596510.523   118745476.303        3171.869          38.000  
 23  8 28 15 14 29.9950000  0  9G 6G 7G 9G11G20G30G 5G29G13
  21811560.423   114620507.063       -3739.693          42.000  
  19582478.596   102906612.594        -116.454          46.000  
  20771921.000   109157181.127       -2832.735          42.000  
  20303081.777   106693401.120       -1790.591          45.000  
  19314242.425   101497043.540        1420.752          46.000  
  19978387.408   104987133.337        1889.802          46.000  
  21308481.037   111976805.083        2944.137          44.000  
  23873707.586   125457162.049       -1205.367          41.000  
  22595907.077   118742304.375        3172.051          38.000  
 23  8 28 15 14 30.9950000  0  9G 6G 7G 9G11G20G30G 5G29G13
  21812272.043   114624246.611       -3739.937          42.000  
  19582500.417   102906729.160        -117.034          46.000  
  20772459.732   109160013.916       -2832.906          42.000  
  20303422.467   106695192.083       -1791.356          46.000  
  19313972.043   101495622.840        1420.258          46.000  
  19978027.689   104985243.606        1889.467          46.000  
  21307920.719   111973860.918        2943.787          44.000  
  23873936.821   125458367.617       -1205.660          41.000  
  22595303.047   118739132.521        3171.723          37.000  
 23  8 28 15 14 31.9950000  0  9G 6G 7G 9G11G20G30G 5G29G13
  21812983.584   114627986.472       -3740.272          42.000  
  19582522.745   102906846.371        -118.174          46.000  
  20772998.830   109162847.015       -2833.361          42.000  
  20303763.226   106696983.754       -1792.354          45.000  
  19313701.573   101494202.742        1419.409          46.000  
  19977668.084   104983354.456        1888.574          46.000  
  21307360.454   111970917.102        2943.428          44.000  
  23874166.239   125459573.876       -1206.761          40.000  
  22594699.278   118735960.883        3171.378          37.000  
 23  8 28 15 14 32.9950000  0  9G 6G 7G 9G11G20G30G 5G29G13
  21813695.396   114631726.684       -3739.852          41.000  
  19582545.500   102906964.242        -117.661          46.000  
  20773538.103   109165680.493       -2833.284          42.000  
  20304104.430   106698776.184       -1792.319          46.000  
  19313431.252   101492783.284        1419.647          46.000  
  19977308.697   104981465.954        1888.445          46.000  
  21306800.092   111967973.682        2943.884          44.000  
  23874396.076   125460780.870       -1207.047          41.000  
  22594095.945   118732789.570        3171.368          38.000  
 23  8 28 15 14 33.9950000  0  9G 6G 7G 9G11G20G30G 5G29G13
  21814406.911   114635466.912       -3740.490          42.000  
  19582568.333   102907082.506        -118.636          46.000  
  20774077.280   109168513.975       -2833.619          42.000  
  20304445.564   106700569.039       -1793.324          45.000  
  19313161.131   101491364.139        1418.884          46.000  
  19976949.658   104979577.734        1887.867          46.000  
  21306239.495   111965030.315        2943.433          44.000  
  23874625.599   125461988.230       -1207.665          40.000  
  22593492.665   118729618.149        3171.110          38.000  
 23  8 28 15 14 34.9950000  0  9G 6G 7G 9G11G20G30G 5G29G13
  21815118.609   114639207.597       -3741.234          42.000  
  19582591.158   102907201.524        -119.403          46.000  
  20774616.623   109171347.916       -2834.105          41.000  
  20304786.978   106702362.730       -1793.996          46.000  
  19312891.220   101489945.741        1417.816          46.000  
  19976589.992   104977690.262        1886.812          46.000  
  21305679.274   111962087.426        2942.590          44.000  
  23874855.514   125463196.359       -1208.737          41.000  
  22592889.402   118726447.132        3170.454          38.000  
 23  8 28 15 14 35.9950000  0  9G 6G 7G 9G11G20G30G 5G29G13
  21815830.238   114642948.374       -3740.638          42.000  
  19582613.460   102907321.002        -119.658          46.000  
  20775156.253   109174181.978       -2834.100          42.000  
  20305128.583   106704156.941       -1794.250          46.000  
  19312621.509   101488527.716        1418.073          46.000  
  19976230.448   104975803.158        1887.021          46.000  
  21305119.270   111959144.697        2942.944          44.000  
  23875085.586   125464404.969       -1208.656          41.000  
  22592286.524   118723276.099        3171.664          39.000  
 23  8 28 15 14 36.9950000  0  9G 6G 7G 9G11G20G30G 5G29G13
  21816542.093   114646688.947       -3740.609          42.000  
  19582636.241   102907440.605        -120.177          46.000  
  20775695.526   109177015.822       -2833.884          42.000  
  20305470.180   106705951.358       -1794.936          46.000  
  19312351.563   101487109.809        1417.297          46.000  
  19975871.375   104973916.128        1886.521          46.000  
  21304559.153   111956201.793        2942.504          44.000  
  23875315.528   125465613.746       -1209.346          41.000  
  22591683.453   118720104.846        3170.679          39.000  
 23  8 28 15 14 37.9950000  0  9G 6G 7G 9G11G20G30G 5G29G13
  21817253.757   114650430.189       -3741.675          41.000  
  19582659.284   102907561.191        -121.002          46.000  
  20776234.677   109179850.355       -2835.066          41.000  
  20305811.515   106707746.825       -1796.014          45.000  
  19312082.176   101485692.826        1416.540          46.000  
  19975512.328   104972030.020        1885.659          46.000  
  21303999.193   111953259.589        2941.851          44.000  
  23875545.679   125466823.510       -1210.245          41.000  
  22591080.295   118716934.128        3170.667          38.000  
 23  8 28 15 14 38.9950000  0  9G 6G 7G 9G11G20G30G 5G29G13
  21817965.848   114654171.785       -3741.437          41.000  
  19582682.379   102907682.469        -121.341          46.000  
  20776773.766   109182685.216       -2834.502          41.000  
  20306153.173   106709543.060       -1796.408          45.000  
  19311812.622   101484276.511        1416.211          46.000  
  19975153.621   104970144.574        1885.392          46.000  
  21303439.250   111950317.770        2941.889          43.000  
  23875775.882   125468034.012       -1210.805          41.000  
  22590477.346   118713763.744        3170.370          38.000  
 23  8 28 15 14 39.9950000  0  9G 6G 7G 9G11G20G30G 5G29G13
  21818678.218   114657913.679       -3742.019          41.000  
  19582705.588   102907804.370        -122.024          46.000  
  20777313.248   109185520.388       -2835.068          41.000  
  20306494.543   106711339.971       -1797.099          45.000  
  19311543.173   101482860.769        1415.570          46.000  
  19974794.949   104968259.690        1884.717          46.000  
  21302879.788   111947376.305        2941.418          44.000  
  23876006.042   125469245.130       -1211.488          41.000  
  22589874.598   118710593.546        3170.112          39.000  
 23  8 28 15 14 40.9950000  0  9G 6G 7G 9G11G20G30G 5G29G13
  21819390.493   114661655.851       -3742.138          41.000  
  19582728.832   102907926.885        -122.635          46.000  
  20777852.992   109188355.835       -2835.372          41.000  
  20306836.497   106713137.567       -1797.675          45.000  
  19311274.196   101481445.581        1415.100          46.000  
  19974436.199   104966375.360        1884.308          46.000  
  21302319.836   111944435.142        2941.241          44.000  
  23876236.167   125470456.903       -1211.885          41.000  
  22589271.737   118707423.547        3169.942          39.000  
 23  8 28 15 14 41.9950000  0  9G 6G 7G 9G11G20G30G 5G29G13
  21820102.845   114665398.339       -3742.405          42.000  
  19582751.953   102908050.097        -123.360          46.000  
  20778392.562   109191191.679       -2835.673          41.000  
  20307178.966   106714935.944       -1798.574          45.000  
  19311005.078   101480031.078        1414.294          45.000  
  19974078.138   104964491.672        1883.664          46.000  
  21301760.024   111941494.399        2940.577          44.000  
  23876466.518   125471669.421       -1212.578          40.000  
  22588668.614   118704253.849        3169.464          40.000  
 23  8 28 15 14 42.9950000  0  9G 6G 7G 9G11G20G30G 5G29G13
  21820815.163   114669140.992       -3742.900          42.000  
  19582775.825   102908173.785        -123.989          46.000  
  20778931.974   109194027.644       -2836.173          41.000  
  20307521.296   106716734.844       -1799.590          45.000  
  19310735.874   101478616.978        1413.733          45.000  
  19973719.981   104962608.412        1882.693          46.000  
  21301200.248   111938553.830        2940.180          44.000  
  23876697.193   125472882.436       -1213.712          41.000  
  22588065.752   118701084.191        3169.178          40.000  
 23  8 28 15 14 43.9950000  0  9G 6G 7G 9G11G20G30G 5G29G13
  21821527.350   114672883.915       -3742.976          42.000  
  19582799.104   102908298.093        -124.573          46.000  
  20779471.491   109196863.914       -2836.175          41.000  
  20307863.626   106718534.432       -1799.791          45.000  
  19310467.149   101477203.476        1413.287          46.000  
  19973361.815   104960725.703        1882.559          46.000  
  21300640.296   111935613.563        2940.299          44.000  
  23876928.329   125474096.062       -1213.727          41.000  
  22587462.437   118697914.758        3169.279          40.000  
 23  8 28 15 14 44.9950000  0  9G 6G 7G 9G11G20G30G 5G29G13
  21822239.651   114676627.042       -3743.185          42.000  
  19582822.714   102908422.907        -125.099          45.000  
  20780011.157   109199700.342       -2836.570          41.000  
  20308206.077   106720334.609       -1800.500          45.000  
  19310198.346   101475790.426        1412.787          46.000  
  19973003.711   104958843.446        1882.179          46.000  
  21300080.432   111932673.549        2939.681          43.000  
  23877159.615   125475310.236       -1214.224          41.000  
  22586859.043   118694745.421        3169.203          39.000  
 23  8 28 15 14 45.9950000  0  9G 6G 7G 9G11G20G30G 5G29G13
  21822951.934   114680370.469       -3743.411          42.000  
  19582846.263   102908548.390        -125.638          45.000  
  20780551.032   109202537.122       -2836.535          41.000  
  20308548.957   106722135.524       -1801.123          45.000  
  19309929.744   101474378.005        1412.201          46.000  
  19972645.693   104956961.826        1881.297          46.000  
  21299520.830   111929733.865        2939.609          43.000  
  23877390.856   125476525.086       -1214.905          41.000  
  22586255.475   118691576.353        3169.290          39.000  
 23  8 28 15 14 46.9950000  0  9G 6G 7G 9G11G20G30G 5G29G13
  21823664.635   114684114.095       -3744.000          43.000  
  19582870.240   102908674.415        -126.816          46.000  
  20781090.898   109205374.113       -2837.518          41.000  
  20308891.766   106723937.015       -1802.131          45.000  
  19309661.176   101472966.056        1411.371          46.000  
  19972288.348   104955080.652        1880.431          46.000  
  21298961.324   111926794.416        2938.885          43.000  
  23877622.508   125477740.507       -1216.119          42.000  
  22585652.509   118688407.425        3168.142          39.000  
 23  8 28 15 14 47.9950000  0  9G 6G 7G 9G11G20G30G 5G29G13
  21824377.075   114687857.511       -3744.032          43.000  
  19582894.268   102908800.539        -126.584          46.000  
  20781630.842   109208210.885       -2837.143          41.000  
  20309234.410   106725738.713       -1802.177          45.000  
  19309392.626   101471554.204        1411.292          46.000  
  19971930.670   104953199.548        1880.503          46.000  
  21298401.782   111923854.811        2939.106          43.000  
  23877854.456   125478956.064       -1216.209          42.000  
  22585049.185   118685238.157        3168.939          39.000  
 23  8 28 15 14 48.9950000  0  9G 6G 7G 9G11G20G30G 5G29G13
  21825089.297   114691601.560       -3744.046          42.000  
  19582918.742   102908927.663        -127.757          46.000  
  20782170.735   109211048.311       -2837.651          42.000  
  20309577.481   106727541.459       -1803.255          45.000  
  19309124.503   101470143.285        1410.498          46.000  
  19971572.862   104951319.374        1879.762          46.000  
  21297842.136   111920915.894        2938.371          43.000  
  23878086.588   125480172.626       -1216.991          42.000  
  22584446.490   118682069.476        3168.539          40.000  
 23  8 28 15 14 49.9950000  0  9G 6G 7G 9G11G20G30G 5G29G13
  21825801.607   114695346.018       -3744.712          42.000  
  19582943.007   102909055.496        -128.118          46.000  
  20782710.697   109213886.118       -2837.932          41.000  
  20309920.727   106729344.992       -1803.890          45.000  
  19308856.468   101468733.057        1409.802          46.000  
  19971215.273   104949439.894        1878.954          46.000  
  21297283.032   111917977.415        2938.242          43.000  
  23878318.361   125481389.972       -1217.732          42.000  
  22583843.689   118678901.151        3168.194          40.000  
 23  8 28 15 14 50.9950000  0  9G 6G 7G 9G11G20G30G 5G29G13
  21826514.029   114699090.725       -3745.109          43.000  
  19582967.743   102909183.962        -129.332          46.000  
  20783250.746   109216724.228       -2838.819          41.000  
  20310264.322   106731149.211       -1804.963          46.000  
  19308588.337   101467323.381        1408.935          46.000  
  19970857.735   104947560.932        1878.396          46.000  
  21296723.927   111915039.232        2937.800          43.000  
  23878550.284   125482607.909       -1219.013          42.000  
  22583240.584   118675732.970        3167.693          39.000  
 23  8 28 15 14 51.9950000  0  9G 6G 7G 9G11G20G30G 5G29G13
  21827226.530   114702835.916       -3745.447          42.000  
  19582992.347   102909313.209        -129.700          46.000  
  20783791.214   109219562.792       -2838.957          41.000  
  20310608.161   106732954.290       -1805.514          46.000  
  19308320.502   101465914.472        1408.588          46.000  
  19970500.006   104945682.741        1877.932          46.000  
  21296165.005   111912101.558        2937.490          43.000  
  23878782.136   125483826.702       -1219.329          42.000  
  22582637.443   118672565.233        3167.425          39.000  
 23  8 28 15 14 52.9950000  0  9G 6G 7G 9G11G20G30G 5G29G13
  21827938.953   114706581.270       -3745.572          42.000  
  19583017.048   102909442.975        -130.042          46.000  
  20784331.281   109222401.526       -2838.565          41.000  
  20310952.236   106734759.954       -1805.990          46.000  
  19308052.318   101464506.042        1408.295          46.000  
  19970142.442   104943805.001        1877.688          46.000  
  21295606.432   111909164.105        2937.556          43.000  
  23879014.110   125485045.986       -1219.317          42.000  
  22582034.556   118669397.573        3167.719          39.000  
 23  8 28 15 14 53.9950000  0  9G 6G 7G 9G11G20G30G 5G29G13
  21828651.916   114710327.054       -3746.074          42.000  
  19583041.723   102909573.499        -130.785          46.000  
  20784871.627   109225240.727       -2839.420          41.000  
  20311296.171   106736566.452       -1806.958          46.000  
  19307784.335   101463098.330        1407.446          46.000  
  19969785.428   104941927.970        1876.556          46.000  
  21295047.641   111906227.162        2936.504          44.000  
  23879246.338   125486266.100       -1220.674          42.000  
  22581431.755   118666230.288        3166.977          39.000  
 23  8 28 15 14 54.9950000  0  9G 6G 7G 9G11G20G30G 5G29G13
  21829364.871   114714073.114       -3746.310          42.000  
  19583066.694   102909704.645        -131.537          46.000  
  20785411.929   109228080.208       -2839.871          41.000  
  20311640.437   106738373.641       -1807.832          46.000  
  19307516.492   101461691.200        1406.714          46.000  
  19969428.362   104940051.501        1875.828          46.000  
  21294488.920   111903290.531        2936.142          44.000  
  23879478.583   125487486.824       -1221.343          42.000  
  22580828.562   118663063.193        3166.700          39.000  
 23  8 28 15 14 55.9950000  0  9G 6G 7G 9G11G20G30G 5G29G13
  21830077.747   114717819.320       -3746.628          42.000  
  19583091.726   102909836.267        -132.150          46.000  
  20785952.424   109230919.842       -2839.980          41.000  
  20311984.765   106740181.354       -1808.033          46.000  
  19307248.858   101460284.486        1406.317          46.000  
  19969071.339   104938175.452        1875.577          46.000  
  21293930.121   111900354.048        2935.882          44.000  
  23879710.985   125488708.075       -1221.654          42.000  
  22580225.936   118659896.197        3166.196          39.000  
 23  8 28 15 14 56.9950000  0  9G 6G 7G 9G11G20G30G 5G29G13
  21830790.475   114721565.645       -3746.328          42.000  
  19583117.422   102909968.349        -132.323          46.000  
  20786493.328   109233759.615       -2839.928          42.000  
  20312328.927   106741989.620       -1808.688          46.000  
  19306981.023   101458878.213        1405.841          46.000  
  19968714.011   104936299.811        1875.300          46.000  
  21293371.426   111897417.774        2936.044          44.000  
  23879943.526   125489929.812       -1221.975          42.000  
  22579623.363   118656729.223        3167.039          39.000  
 23  8 28 15 14 57.9950000  0  9G 6G 7G 9G11G20G30G 5G29G13
  21831503.334   114725312.432       -3746.819          42.000  
  19583143.030   102910101.248        -133.012          46.000  
  20787033.831   109236599.866       -2840.337          42.000  
  20312673.167   106743798.756       -1809.418          46.000  
  19306713.703   101457472.698        1405.243          46.000  
  19968357.512   104934424.933        1874.590          46.000  
  21292812.766   111894481.978        2935.864          44.000  
  23880175.928   125491152.350       -1222.364          42.000  
  22579020.676   118653562.644        3166.990          39.000  
 23  8 28 15 14 58.9950000  0  9G 6G 7G 9G11G20G30G 5G29G13
  21832215.914   114729059.068       -3747.083          42.000  
  19583168.219   102910234.321        -133.836          46.000  
  20787574.378   109239439.938       -2840.936          41.000  
  20313017.530   106745608.118       -1810.007          46.000  
  19306446.183   101456067.300        1404.828          46.000  
  19968000.751   104932550.152        1874.008          46.000  
  21292254.079   111891546.065        2935.560          44.000  
  23880408.906   125492375.112       -1223.353          43.000  
  22578418.329   118650395.880        3165.922          39.000  
 23  8 28 15 14 59.9950000  0  9G 6G 7G 9G11G20G30G 5G29G13
  21832929.235   114732806.121       -3747.262          43.000  
  19583193.575   102910368.129        -134.494          46.000  
  20788115.204   109242280.430       -2841.169          41.000  
  20313362.643   106747418.313       -1811.119          47.000  
  19306178.732   101454662.628        1404.059          46.000  
  19967643.815   104930676.083        1873.638          46.000  
  21291695.585   111888610.631        2934.721          44.000  
  23880641.657   125493598.643       -1223.953          43.000  
  22577815.913   118647229.402        3166.495          39.000  
 23  8 28 15 15  0.9950000  0  9G 6G 7G 9G11G20G30G 5G29G13
  21833642.199   114736553.528       -3747.286          42.000  
  19583218.764   102910502.643        -134.526          45.000  
  20788655.907   109245121.305       -2840.955          41.000  
  20313707.703   106749229.273       -1810.944          45.000  
  19305911.578   101453258.639        1404.120          45.000  
  19967287.106   104928802.671        1873.381          46.000  
  21291137.108   111885675.563        2935.219          44.000  
  23880874.871   125494822.891       -1224.452          43.000  
  22577213.444   118644063.210        3166.638          38.000  
 23  8 28 15 15  1.9950000  0  9G 6G 7G 9G11G20G30G 5G29G13
  21834355.747   114740301.163       -3747.710          42.000  
  19583244.459   102910637.728        -135.118          45.000  
  20789196.742   109247962.426       -2840.986          40.000  
  20314052.755   106751040.875       -1811.725          45.000  
  19305644.703   101451855.154        1403.400          45.000  
  19966930.930   104926929.776        1873.022          46.000  
  21290578.579   111882740.803        2934.775          44.000  
  23881108.302   125496047.737       -1225.051          43.000  
  22576610.487   118640897.185        3166.708          37.000  
 23  8 28 15 15  2.9950000  0  9G 6G 7G 9G11G20G30G 5G29G13
  21835069.199   114744049.161       -3748.332          42.000  
  19583270.007   102910773.526        -136.269          45.000  
  20789737.507   109250803.926       -2842.090          40.000  
  20314397.572   106752853.255       -1813.004          45.000  
  19305377.575   101450452.339        1402.435          45.000  
  19966573.986   104925057.526        1871.905          46.000  
  21290020.251   111879806.441        2933.941          44.000  
  23881341.594   125497273.305       -1226.225          43.000  
  22576007.486   118637731.512        3165.423          37.000  
 23  8 28 15 15  3.9950000  0  9G 6G 7G 9G11G20G30G 5G29G13
  21835782.355   114747797.390       -3748.268          42.000  
  19583296.112   102910909.879        -136.490          45.000  
  20790278.202   109253645.639       -2841.841          40.000  
  20314742.807   106754666.254       -1813.250          45.000  
  19305110.779   101449050.049        1402.112          45.000  
  19966217.792   104923185.767        1871.843          46.000  
  21289461.835   111876872.353        2934.100          44.000  
  23881575.261   125498499.436       -1226.186          43.000  
  22575404.651   118634565.934        3166.171          37.000  
 23  8 28 15 15  4.9950000  0  9G 6G 7G 9G11G20G30G 5G29G13
  21836495.676   114751545.822       -3748.869          42.000  
  19583322.628   102911046.784        -137.533          45.000  
  20790819.036   109256487.590       -2842.382          40.000  
  20315088.181   106756479.872       -1814.200          46.000  
  19304844.061   101447648.263        1401.202          45.000  
  19965861.624   104921314.538        1870.792          46.000  
  21288903.603   111873938.528        2933.493          44.000  
  23881808.562   125499726.179       -1227.217          43.000  
  22574802.234   118631400.549        3165.255          36.000  
 23  8 28 15 15  5.9950000  0  9G 6G 7G 9G11G20G30G 5G29G13
  21837209.407   114755294.516       -3748.902          42.000  
  19583349.030   102911184.273        -137.529          45.000  
  20791360.246   109259329.784       -2842.216          40.000  
  20315433.565   106758294.144       -1814.661          46.000  
  19304577.360   101446247.027        1401.019          45.000  
  19965505.143   104919443.830        1870.527          46.000  
  21288345.309   111871005.007        2933.364          44.000  
  23882041.880   125500953.538       -1227.774          42.000  
  22574199.434   118628235.324        3165.560          36.000  
 23  8 28 15 15  6.9950000  0  9G 6G 7G 9G11G20G30G 5G29G13
  21837922.790   114759043.451       -3749.247          42.000  
  19583375.039   102911322.364        -138.508          45.000  
  20791901.264   109262172.246       -2842.690          40.000  
  20315778.817   106760109.062       -1815.474          45.000  
  19304310.608   101444846.339        1400.305          45.000  
  19965149.193   104917573.660        1869.847          46.000  
  21287786.911   111868071.756        2932.921          44.000  
  23882275.591   125502181.480       -1228.516          42.000  
  22573596.834   118625070.314        3164.591          36.000  
 23  8 28 15 15  7.9950000  0  9G 6G 7G 9G11G20G30G 5G29G13
  21838636.085   114762792.408       -3749.249          43.000  
  19583401.372   102911460.787        -138.676          45.000  
  20792442.168   109265014.749       -2843.018          40.000  
  20316124.201   106761924.414       -1815.750          45.000  
  19304043.933   101443445.983        1399.847          45.000  
  19964793.671   104915703.799        1869.441          46.000  
  21287228.548   111865138.594        2933.023          44.000  
  23882509.337   125503409.822       -1228.871          43.000  
  22572994.278   118621905.202        3164.913          36.000  
 23  8 28 15 15  8.9950000  0  9G 6G 7G 9G11G20G30G 5G29G13
  21839349.380   114766541.754       -3749.398          43.000  
  19583427.722   102911599.944        -139.268          45.000  
  20792983.160   109267857.599       -2842.773          40.000  
  20316469.925   106763740.545       -1816.349          45.000  
  19303777.434   101442046.279        1399.469          45.000  
  19964437.765   104913834.586        1869.009          46.000  
  21286670.612   111862205.874        2932.564          44.000  
  23882743.204   125504638.889       -1229.482          43.000  
  22572392.394   118618740.428        3164.434          37.000  
 23  8 28 15 15  9.9950000  0  9G 6G 7G 9G11G20G30G 5G29G13
  21840063.425   114770291.084       -3749.318          43.000  
  19583454.359   102911739.444        -139.604          44.000  
  20793524.466   109270700.502       -2842.974          41.000  
  20316815.648   106765557.080       -1816.498          46.000  
  19303511.135   101440646.861        1399.457          45.000  
  19964082.226   104911965.636        1869.165          46.000  
  21286113.112   111859273.177        2932.898          44.000  
  23882977.238   125505868.334       -1229.400          43.000  
  22571790.292   118615575.593        3164.761          39.000  
 23  8 28 15 15 10.9950000  0  9G 6G 7G 9G11G20G30G 5G29G13
  21840776.825   114774040.607       -3749.964          43.000  
  19583480.779   102911879.460        -140.517          44.000  
  20794065.431   109273543.573       -2843.243          41.000  
  20317161.477   106767374.219       -1817.661          46.000  
  19303244.897   101439247.955        1398.468          45.000  
  19963726.974   104910097.194        1868.090          46.000  
  21285555.525   111856340.747        2932.103          44.000  
  23883211.498   125507098.313       -1230.467          43.000  
  22571188.172   118612410.801        3164.846          38.000  
 23  8 28 15 15 11.9950000  0  9G 6G 7G 9G11G20G30G 5G29G13
  21841490.487   114777790.487       -3749.834          43.000  
  19583507.574   102912020.194        -141.131          45.000  
  20794606.458   109276387.046       -2843.405          40.000  
  20317507.410   106769192.139       -1818.324          45.000  
  19302978.737   101437849.727        1398.102          45.000  
  19963371.565   104908229.401        1867.710          46.000  
  21284997.659   111853408.707        2932.028          44.000  
  23883445.427   125508329.001       -1230.953          41.000  
  22570585.572   118609246.402        3164.307          37.000  
 23  8 28 15 15 12.9950000  0  9G 6G 7G 9G11G20G30G 5G29G13
  21842204.235   114781540.618       -3750.339          43.000  
  19583534.665   102912161.494        -141.825          45.000  
  20795147.668   109279230.744       -2843.890          40.000  
  20317853.648   106771010.676       -1819.031          45.000  
  19302712.368   101436452.014        1397.290          46.000  
  19963016.454   104906362.129        1866.829          46.000  
  21284439.959   111850476.960        2931.443          44.000  
  23883679.435   125509560.305       -1231.786          41.000  
  22569983.531   118606082.121        3164.196          37.000  
 23  8 28 15 15 13.9950000  0  9G 6G 7G 9G11G20G30G 5G29G13
  21842918.037   114785291.008       -3750.814          43.000  
  19583561.556   102912303.385        -142.323          45.000  
  20795688.938   109282074.730       -2844.482          40.000  
  20318199.547   106772829.891       -1819.670          45.000  
  19302446.741   101435054.858        1396.729          46.000  
  19962661.377   104904495.396        1866.394          46.000  
  21283882.198   111847545.517        2931.104          44.000  
  23883913.896   125510792.218       -1232.326          42.000  
  22569381.612   118602918.042        3163.758          37.000  
 23  8 28 15 15 14.9950000  0  9G 6G 7G 9G11G20G30G 5G29G13
  21843632.030   114789041.659       -3750.699          43.000  
  19583588.752   102912445.905        -142.758          45.000  
  20796230.253   109284918.986       -2844.635          40.000  
  20318545.898   106774649.771       -1820.188          45.000  
  19302181.184   101433658.272        1396.332          46.000  
  19962306.265   104902629.214        1866.190          46.000  
  21283324.559   111844614.366        2931.038          44.000  
  23884148.514   125512024.772       -1232.897          41.000  
  22568779.580   118599754.150        3163.996          37.000  
 23  8 28 15 15 15.9950000  0  9G 6G 7G 9G11G20G30G 5G29G13
  21844345.997   114792792.513       -3751.414          43.000  
  19583615.687   102912588.935        -143.542          45.000  
  20796771.498   109287763.425       -2844.757          40.000  
  20318892.451   106776470.252       -1821.028          45.000  
  19301915.365   101432262.179        1395.483          46.000  
  19961951.380   104900763.523        1865.154          46.000  
  21282766.719   111841683.485        2930.512          44.000  
  23884382.774   125513257.877       -1233.794          41.000  
  22568177.695   118596590.432        3163.015          37.000  
 23  8 28 15 15 16.9950000  0  9G 6G 7G 9G11G20G30G 5G29G13
  21845059.998   114796543.771       -3751.502          43.000  
  19583642.691   102912732.735        -143.909          45.000  
  20797313.170   109290608.300       -2844.999          40.000  
  20319239.073   106778291.563       -1821.439          45.000  
  19301649.641   101430866.792        1395.270          46.000  
  19961596.669   104898898.520        1864.956          46.000  
  21282208.905   111838753.067        2930.369          44.000  
  23884617.742   125514491.738       -1233.940          41.000  
  22567576.221   118593427.016        3163.206          37.000  
 23  8 28 15 15 17.9950000  0  9G 6G 7G 9G11G20G30G 5G29G13
  21845773.852   114800295.161       -3751.559          43.000  
  19583669.957   102912877.010        -144.698          45.000  
  20797854.563   109293453.308       -2845.363          40.000  
  20319585.600   106780113.414       -1822.080          45.000  
  19301384.224   101429471.859        1394.586          46.000  
  19961242.168   104897033.952        1864.227          47.000  
  21281651.310   111835822.829        2930.009          45.000  
  23884852.752   125515726.130       -1234.656          41.000  
  22566974.512   118590263.668        3163.348          37.000  
 23  8 28 15 15 18.9950000  0  9G 6G 7G 9G11G20G30G 5G29G13
  21846487.819   114804046.815       -3751.747          43.000  
  19583697.581   102913021.872        -145.267          45.000  
  20798396.104   109296298.598       -2845.623          39.000  
  20319931.891   106781935.931       -1822.929          45.000  
  19301118.902   101428077.478        1393.903          46.000  
  19960887.414   104895169.935        1863.695          47.000  
  21281093.889   111832892.885        2929.893          45.000  
  23885087.414   125516961.132       -1235.246          41.000  
  22566372.645   118587100.531        3162.990          37.000  
 23  8 28 15 15 19.9950000  0  9G 6G 7G 9G11G20G30G 5G29G13
  21847201.568   114807798.700       -3751.788          42.000  
  19583725.257   102913167.295        -145.382          45.000  
  20798937.401   109299144.130       -2845.521          39.000  
  20320278.740   106783759.083       -1823.276          45.000  
  19300853.720   101426683.621        1393.707          46.000  
  19960533.122   104893306.437        1863.358          47.000  
  21280536.494   111829963.225        2929.568          45.000  
  23885322.539   125518196.716       -1235.484          41.000  
  22565770.804   118583937.532        3163.364          37.000  
 23  8 28 15 15 20.9950000  0  9G 6G 7G 9G11G20G30G 5G29G13
  21847915.692   114811550.508       -3751.799          42.000  
  19583752.880   102913312.991        -145.735          45.000  
  20799479.091   109301989.580       -2845.114          39.000  
  20320625.476   106785582.569       -1823.756          45.000  
  19300588.677   101425289.986        1393.353          46.000  
  19960178.874   104891443.137        1863.099          47.000  
  21279979.134   111827033.527        2929.579          45.000  
  23885557.418   125519432.613       -1235.890          41.000  
  22565169.173   118580774.427        3163.159          37.000  
 23  8 28 15 15 21.9950000  0  9G 6G 7G 9G11G20G30G 5G29G13
  21848629.964   114815302.698       -3752.427          42.000  
  19583780.818   102913459.411        -146.892          45.000  
  20800020.449   109304835.444       -2846.254          39.000  
  20320972.587   106787406.824       -1824.747          45.000  
  19300323.739   101423897.038        1392.413          46.000  
  19959824.451   104889580.510        1862.142          47.000  
  21279421.818   111824104.278        2928.989          45.000  
  23885792.700   125520669.248       -1237.180          41.000  
  22564567.202   118577611.613        3162.390          38.000  
 23  8 28 15 15 22.9950000  0  9G 6G 7G 9G11G20G30G 5G29G13
  21849344.376   114819055.395       -3752.654          43.000  
  19583809.192   102913606.679        -147.276          45.000  
  20800562.331   109307681.835       -2846.662          40.000  
  20321319.584   106789232.014       -1825.471          45.000  
  19300058.993   101422504.885        1392.145          46.000  
  19959470.465   104887718.688        1861.560          47.000  
  21278864.318   111821175.589        2928.530          44.000  
  23886028.443   125521906.765       -1237.914          41.000  
  22563965.187   118574449.247        3162.086          38.000  
 23  8 28 15 15 23.9950000  0  9G 6G 7G 9G11G20G30G 5G29G13
  21850058.378   114822808.300       -3753.087          42.000  
  19583837.400   102913754.495        -148.207          45.000  
  20801104.081   109310528.418       -2846.848          39.000  
  20321667.175   106791057.808       -1826.268          45.000  
  19299794.247   101421113.268        1391.193          46.000  
  19959116.461   104885857.347        1861.010          47.000  
  21278307.359   111818247.142        2928.104          45.000  
  23886263.690   125523144.807       -1238.584          41.000  
  22563363.756   118571287.039        3161.645          38.000  
 23  8 28 15 15 24.9950000  0  9G 6G 7G 9G11G20G30G 5G29G13
  21850772.685   114826561.467       -3753.172          42.000  
  19583865.958   102913902.918        -148.696          45.000  
  20801645.588   109313375.297       -2847.229          39.000  
  20322014.286   106792884.276       -1826.939          45.000  
  19299529.606   101419722.196        1390.814          46.000  
  19958762.553   104883996.570        1860.467          47.000  
  21277750.366   111815319.018        2927.873          45.000  
  23886499.311   125524383.504       -1238.794          41.000  
  22562762.352   118568125.005        3161.754          38.000  
 23  8 28 15 15 25.9950000  0  9G 6G 7G 9G11G20G30G 5G29G13
  21851487.018   114830314.840       -3753.249          42.000  
  19583894.628   102914051.866        -149.062          45.000  
  20802187.591   109316222.374       -2847.275          39.000  
  20322361.441   106794711.346       -1827.270          45.000  
  19299264.999   101418331.628        1390.503          46.000  
  19958408.523   104882136.273        1860.341          47.000  
  21277193.337   111812391.121        2928.041          45.000  
  23886734.584   125525622.767       -1239.308          41.000  
  22562160.686   118564963.131        3161.949          38.000  
 23  8 28 15 15 26.9950000  0  9G 6G 7G 9G11G20G30G 5G29G13
  21852201.221   114834068.421       -3754.163          42.000  
  19583923.386   102914201.381        -150.353          45.000  
  20802728.854   109319069.654       -2847.653          39.000  
  20322709.520   106796539.023       -1828.263          45.000  
  19299000.271   101416941.579        1389.319          46.000  
  19958054.406   104880276.479        1859.121          47.000  
  21276636.422   111809463.506        2927.076          45.000  
  23886970.432   125526862.607       -1240.643          41.000  
  22561559.046   118561801.381        3161.217          38.000  
 23  8 28 15 15 27.9950000  0  9G 6G 7G 9G11G20G30G 5G29G13
  21852915.467   114837822.492       -3754.296          42.000  
  19583952.214   102914351.706        -150.697          46.000  
  20803271.006   109321917.442       -2847.784          39.000  
  20323057.129   106798367.600       -1828.847          44.000  
  19298735.848   101415552.296        1389.124          46.000  
  19957700.855   104878417.444        1858.774          47.000  
  21276079.490   111806536.428        2926.958          45.000  
  23887206.926   125528103.277       -1241.215          41.000  
  22560957.458   118558640.045        3161.288          38.000  
 23  8 28 15 15 28.9950000  0  9G 6G 7G 9G11G20G30G 5G29G13
  21853629.800   114841576.576       -3754.602          42.000  
  19583980.998   102914502.398        -151.217          46.000  
  20803813.088   109324765.273       -2848.174          39.000  
  20323404.894   106800196.603       -1829.523          44.000  
  19298471.678   101414163.351        1388.476          45.000  
  19957347.026   104876558.732        1858.234          47.000  
  21275522.767   111803609.411        2926.577          45.000  
  23887442.810   125529344.315       -1241.448          41.000  
  22560355.932   118555478.674        3161.055          38.000  
 23  8 28 15 15 29.9950000  0  9G 6G 7G 9G11G20G30G 5G29G13
  21854344.012   114845330.999       -3754.842          42.000  
  19584009.843   102914653.786        -151.871          46.000  
  20804355.092   109327613.455       -2848.567          39.000  
  20323752.756   106802026.373       -1830.332          44.000  
  19298207.342   101412775.063        1387.671          45.000  
  19956993.336   104874700.654        1857.671          47.000  
  21274965.817   111800682.771        2926.328          45.000  
  23887679.173   125530586.092       -1242.357          41.000  
  22559754.013   118552317.555        3161.168          38.000  
 23  8 28 15 15 30.9950000  0  9G 6G 7G 9G11G20G30G 5G29G13
  21855058.554   114849085.480       -3754.451          42.000  
  19584039.046   102914805.561        -151.842          46.000  
  20804897.061   109330461.691       -2847.975          39.000  
  20324100.887   106803856.581       -1830.427          44.000  
  19297943.294   101411387.100        1388.019          45.000  
  19956639.839   104872842.904        1857.750          47.000  
  21274409.077   111797756.257        2926.604          45.000  
  23887915.833   125531828.246       -1242.298          41.000  
  22559152.547   118549156.436        3161.477          38.000  
 23  8 28 15 15 31.9950000  0  9G 6G 7G 9G11G20G30G 5G29G13
  21855772.958   114852839.932       -3754.526          42.000  
  19584067.988   102914957.636        -152.289          46.000  
  20805438.768   109333309.897       -2847.990          38.000  
  20324448.949   106805687.163       -1830.841          44.000  
  19297678.740   101409999.432        1387.384          45.000  
  19956286.149   104870985.427        1857.274          47.000  
  21273852.136   111794829.760        2926.409          45.000  
  23888152.562   125533070.747       -1242.879          41.000  
  22558551.239   118545995.236        3161.029          38.000  
 23  8 28 15 15 32.9950000  0  9G 6G 7G 9G11G20G30G 5G29G13
  21856487.439   114856594.701       -3755.059          42.000  
  19584097.208   102915110.392        -153.328          46.000  
  20805980.649   109336158.444       -2848.876          38.000  
  20324797.142   106807518.483       -1831.943          44.000  
  19297414.648   101408612.377        1386.591          45.000  
  19955932.642   104869128.544        1856.537          47.000  
  21273295.351   111791903.624        2925.703          45.000  
  23888389.423   125534313.928       -1243.778          41.000  
  22557949.957   118542834.289        3160.447          39.000  
 23  8 28 15 15 33.9950000  0  9G 6G 7G 9G11G20G30G 5G29G13
  21857201.616   114860350.025       -3755.367          42.000  
  19584126.149   102915264.040        -154.069          46.000  
  20806522.609   109339007.563       -2849.174          38.000  
  20325146.077   106809350.767       -1832.682          44.000  
  19297151.097   101407226.185        1385.876          45.000  
  19955579.267   104867272.513        1855.758          47.000  
  21272738.785   111788978.085        2925.398          45.000  
  23888626.371   125535558.055       -1244.612          41.000  
  22557349.041   118539673.805        3160.380          39.000  
 23  8 28 15 15 34.9950000  0  9G 6G 7G 9G11G20G30G 5G29G13
  21857915.975   114864105.498       -3755.757          42.000  
  19584155.422   102915418.175        -154.631          46.000  
  20807063.933   109341856.834       -2849.339          37.000  
  20325494.715   106811183.589       -1833.477          44.000  
  19296887.861   101405840.430        1385.291          46.000  
  19955226.284   104865416.920        1855.132          47.000  
  21272182.202   111786052.748        2925.040          45.000  
  23888863.127   125536802.656       -1244.811          41.000  
  22556748.030   118536513.417        3160.154          39.000  
 23  8 28 15 15 35.9950000  0  9G 6G 7G 9G11G20G30G 5G29G13
  21858630.719   114867861.246       -3756.143          42.000  
  19584184.389   102915572.929        -155.040          46.000  
  20807605.570   109344706.392       -2849.823          37.000  
  20325843.806   106813017.095       -1833.894          44.000  
  19296623.970   101404455.258        1384.936          46.000  
  19954872.995   104863561.884        1854.899          47.000  
  21271625.470   111783127.739        2924.961          45.000  
  23889099.909   125538047.903       -1245.375          41.000  
  22556146.905   118533353.224        3160.107          39.000  
 23  8 28 15 15 36.9950000  0  9G 6G 7G 9G11G20G30G 5G29G13
  21859345.453   114871617.165       -3755.876          42.000  
  19584213.697   102915728.196        -155.331          45.000  
  20808147.286   109347556.131       -2849.657          37.000  
  20326192.828   106814851.185       -1834.207          44.000  
  19296360.384   101403070.579        1384.595          45.000  
  19954520.108   104861707.332        1854.531          46.000  
  21271068.913   111780202.969        2924.866          45.000  
  23889336.630   125539293.710       -1245.989          40.000  
  22555545.823   118530193.174        3160.242          39.000  
 23  8 28 15 15 37.9950000  0  9G 6G 7G 9G11G20G30G 5G29G13
  21860060.450   114875373.382       -3756.155          42.000  
  19584243.179   102915884.103        -156.100          46.000  
  20808689.359   109350406.186       -2850.064          37.000  
  20326541.937   106816685.978       -1835.007          44.000  
  19296096.877   101401686.485        1383.966          45.000  
  19954167.082   104859853.337        1854.064          46.000  
  21270512.269   111777278.533        2924.586          45.000  
  23889573.734   125540540.187       -1246.692          41.000  
  22554944.654   118527033.331        3160.188          39.000  
 23  8 28 15 15 38.9950000  0  9G 6G 7G 9G11G20G30G 5G29G13
  21860775.211   114879129.911       -3756.613          42.000  
  19584272.984   102916040.662        -156.850          46.000  
  20809231.616   109353256.547       -2850.227          37.000  
  20326891.168   106818521.506       -1835.951          44.000  
  19295833.772   101400303.012        1383.386          46.000  
  19953814.352   104857999.979        1853.102          46.000  
  21269955.441   111774354.482        2924.092          45.000  
  23889811.075   125541787.326       -1247.378          40.000  
  22554343.407   118523873.749        3159.692          39.000  
 23  8 28 15 15 39.9950000  0  9G 6G 7G 9G11G20G30G 5G29G13
  21861489.867   114882886.514       -3756.255          41.000  
  19584302.728   102916197.635        -156.702          46.000  
  20809774.205   109356107.008       -2850.099          37.000  
  20327240.504   106820357.493       -1836.111          44.000  
  19295570.631   101398919.932        1382.965          46.000  
  19953461.534   104856146.976        1852.679          46.000  
  21269399.329   111771430.562        2923.976          45.000  
  23890048.389   125543034.892       -1247.820          40.000  
  22553742.247   118520714.189        3159.891          39.000  
 23  8 28 15 15 40.9950000  0  9G 6G 7G 9G11G20G30G 5G29G13
  21862204.645   114886643.285       -3756.846          42.000  
  19584332.690   102916355.149        -157.817          46.000  
  20810316.444   109358957.643       -2850.326          37.000  
  20327590.189   106822194.070       -1836.803          44.000  
  19295307.656   101397537.301        1382.404          46.000  
  19953108.935   104854294.411        1852.167          46.000  
  21268843.251   111768506.851        2923.637          45.000  
  23890285.442   125544283.000       -1248.509          40.000  
  22553141.288   118517554.720        3159.175          39.000  
 23  8 28 15 15 41.9950000  0  9G 6G 7G 9G11G20G30G 5G29G13
  21862919.851   114890400.291       -3757.002          42.000  
  19584362.643   102916513.217        -158.448          46.000  
  20810858.648   109361808.562       -2851.055          36.000  
  20327940.276   106824031.278       -1837.583          45.000  
  19295044.856   101396155.215        1381.793          46.000  
  19952756.266   104852442.393        1851.815          46.000  
  21268286.642   111765583.435        2923.279          45.000  
  23890522.904   125545531.718       -1249.036          40.000  
  22552539.770   118514395.440        3159.186          38.000  
 23  8 28 15 15 42.9950000  0  9G 6G 7G 9G11G20G30G 5G29G13
  21863634.621   114894157.471       -3757.020          41.000  
  19584392.893   102916671.794        -158.690          45.000  
  20811401.210   109364659.623       -2851.050          37.000  
  20328290.083   106825869.066       -1837.795          44.000  
  19294782.047   101394773.596        1381.531          46.000  
  19952403.964   104850590.824        1851.567          46.000  
  21267730.084   111762660.225        2923.337          45.000  
  23890760.210   125546780.945       -1249.547          39.000  
  22551938.697   118511236.224        3159.017          39.000  
 23  8 28 15 15 43.9950000  0  9G 6G 7G 9G11G20G30G 5G29G13
  21864349.748   114897914.898       -3758.064          41.000  
  19584422.916   102916830.953        -159.795          45.000  
  20811943.842   109367510.957       -2851.820          38.000  
  20328639.724   106827707.514       -1839.121          44.000  
  19294519.465   101393392.544        1380.353          46.000  
  19952051.714   104848739.800        1850.210          46.000  
  21267173.963   111759737.323        2922.312          45.000  
  23890998.004   125548030.775       -1250.560          39.000  
  22551337.974   118508077.209        3158.543          40.000  
 23  8 28 15 15 44.9950000  0  9G 6G 7G 9G11G20G30G 5G29G13
  21865064.893   114901672.653       -3757.765          42.000  
  19584453.105   102916990.820        -160.045          45.000  
  20812486.073   109370362.619       -2851.622          37.000  
  20328989.409   106829546.708       -1839.145          44.000  
  19294256.490   101392012.122        1380.341          46.000  
  19951699.420   104846889.412        1850.326          46.000  
  21266617.694   111756814.826        2922.588          45.000  
  23891236.147   125549281.325       -1250.848          40.000  
  22550737.189   118504918.499        3158.828          40.000  
 23  8 28 15 15 45.9950000  0  9G 6G 7G 9G11G20G30G 5G29G13
  21865780.064   114905430.784       -3758.182          42.000  
  19584483.556   102917151.390        -160.811          45.000  
  20813028.653   109373214.701       -2852.222          38.000  
  20329339.443   106831386.691       -1840.345          44.000  
  19293993.821   101390632.390        1379.468          46.000  
  19951347.092   104845039.698        1849.225          46.000  
  21266061.050   111753892.742        2922.007          45.000  
  23891473.862   125550532.654       -1251.939          39.000  
  22550136.465   118501760.066        3158.282          40.000  
 23  8 28 15 15 46.9950000  0  9G 6G 7G 9G11G20G30G 5G29G13
  21866495.122   114909189.182       -3758.448          42.000  
  19584514.067   102917312.555        -161.396          45.000  
  20813571.320   109376067.038       -2852.747          37.000  
  20329689.677   106833227.325       -1840.848          44.000  
  19293731.527   101389253.222        1379.089          46.000  
  19950995.417   104843190.500        1849.048          46.000  
  21265504.955   111750970.950        2921.829          44.000  
  23891711.630   125551784.542       -1252.281          39.000  
  22549535.881   118498601.867        3158.113          40.000  
 23  8 28 15 15 47.9950000  0  9G 6G 7G 9G11G20G30G 5G29G13
  21867210.328   114912947.740       -3758.779          42.000  
  19584545.015   102917474.213        -161.798          45.000  
  20814114.222   109378919.501       -2852.559          37.000  
  20330039.938   106835068.528       -1841.542          44.000  
  19293469.180   101387874.514        1378.393          46.000  
  19950643.822   104841341.760        1848.524          46.000  
  21264948.825   111748049.372        2921.488          44.000  
  23891949.992   125553036.968       -1252.694          39.000  
  22548935.009   118495443.706        3158.187          40.000  
 23  8 28 15 15 48.9950000  0  9G 6G 7G 9G11G20G30G 5G29G13
  21867925.813   114916706.388       -3759.213          42.000  
  19584575.693   102917636.332        -162.692          45.000  
  20814657.107   109381772.135       -2853.163          37.000  
  20330390.173   106836910.243       -1842.234          44.000  
  19293206.938   101386496.208        1377.814          46.000  
  19950292.113   104839493.429        1847.772          46.000  
  21264392.722   111745127.979        2920.984          44.000  
  23892188.396   125554289.840       -1253.507          39.000  
  22548334.372   118492285.608        3157.728          40.000  
 23  8 28 15 15 49.9950000  0  9G 6G 7G 9G11G20G30G 5G29G13
  21868640.949   114920465.410       -3759.062          42.000  
  19584606.842   102917799.155        -163.246          45.000  
  20815200.280   109384625.112       -2853.062          38.000  
  20330740.844   106838752.729       -1842.764          44.000  
  19292945.228   101385118.587        1377.240          46.000  
  19949941.005   104837645.751        1847.297          46.000  
  21263836.950   111742207.015        2920.840          45.000  
  23892427.150   125555543.448       -1253.578          39.000  
  22547733.902   118489127.824        3157.696          41.000  
 23  8 28 15 15 50.9950000  0  9G 6G 7G 9G11G20G30G 5G29G13
  21869356.704   114924224.407       -3758.953          42.000  
  19584637.772   102917962.299        -163.177          45.000  
  20815743.357   109387478.081       -2852.664          38.000  
  20331091.183   106840595.606       -1842.840          44.000  
  19292683.266   101383741.232        1377.356          46.000  
  19949589.776   104835798.338        1847.440          46.000  
  21263281.108   111739286.087        2921.012          45.000  
  23892665.538   125556797.424       -1254.060          39.000  
  22547133.701   118485969.942        3158.027          41.000  
 23  8 28 15 15 51.9950000  0  9G 6G 7G 9G11G20G30G 5G29G13
  21870072.268   114927983.782       -3759.823          42.000  
  19584668.956   102918126.162        -164.392          45.000  
  20816286.617   109390331.472       -2853.875          38.000  
  20331441.950   106842439.268       -1844.175          44.000  
  19292421.574   101382364.580        1376.141          46.000  
  19949238.547   104833951.606        1846.196          46.000  
  21262725.528   111736365.584        2920.168          44.000  
  23892904.693   125558052.117       -1254.944          40.000  
  22546533.135   118482812.407        3156.993          41.000  
 23  8 28 15 15 52.9950000  0  9G 6G 7G 9G11G20G30G 5G29G13
  21870788.032   114931743.408       -3759.955          42.000  
  19584700.279   102918290.620        -164.961          45.000  
  20816829.912   109393185.112       -2854.365          38.000  
  20331792.908   106844283.591       -1844.957          44.000  
  19292159.689   101380988.484        1375.537          46.000  
  19948887.300   104832105.413        1845.602          46.000  
  21262169.983   111733445.399        2919.641          44.000  
  23893143.962   125559307.456       -1255.956          40.000  
  22545932.018   118479655.035        3157.079          41.000  
 23  8 28 15 15 53.9950000  0  9G 6G 7G 9G11G20G30G 5G29G13
  21871503.613   114935503.390       -3760.370          43.000  
  19584732.056   102918455.785        -165.479          46.000  
  20817372.858   109396039.113       -2854.126          38.000  
  20332144.417   106846128.634       -1845.265          45.000  
  19291898.146   101379613.022        1374.951          47.000  
  19948536.193   104830259.860        1845.408          46.000  
  21261613.722   111730525.627        2919.139          43.000  
  23893382.654   125560563.485       -1256.410          39.000  
  22545331.164   118476497.972        3156.660          42.000  
 23  8 28 15 15 54.9950000  0  9G 6G 7G 9G11G20G30G 5G29G13
  21872219.482   114939263.348       -3760.438          43.000  
  19584763.754   102918621.261        -166.148          46.000  
  20817915.987   109398893.077       -2854.316          38.000  
  20332495.472   106847974.097       -1846.071          44.000  
  19291636.523   101378237.856        1374.664          47.000  
  19948185.069   104828414.570        1844.628          46.000  
  21261058.508   111727605.870        2919.484          44.000  
  23893621.496   125561819.836       -1256.771          39.000  
  22544730.710   118473340.756        3157.055          42.000  
 23  8 28 15 15 55.9950000  0  9G 6G 7G 9G11G20G30G 5G29G13
  21872935.002   114943023.554       -3760.380          43.000  
  19584795.548   102918787.354        -166.515          46.000  
  20818459.134   109401747.363       -2854.598          39.000  
  20332846.465   106849820.243       -1846.766          45.000  
  19291374.700   101376863.297        1373.926          46.000  
  19947834.249   104826569.855        1844.203          47.000  
  21260503.199   111724686.449        2919.255          44.000  
  23893860.433   125563076.836       -1257.565          40.000  
  22544129.864   118470183.816        3156.477          42.000  
 23  8 28 15 15 56.9950000  0  9G 6G 7G 9G11G20G30G 5G29G13
  21873650.496   114946783.968       -3760.604          43.000  
  19584827.273   102918953.956        -166.862          46.000  
  20819002.569   109404601.814       -2854.357          39.000  
  20333197.468   106851666.957       -1846.859          45.000  
  19291113.052   101375489.193        1373.700          47.000  
  19947483.544   104824725.619        1844.016          47.000  
  21259947.628   111721767.268        2918.847          44.000  
  23894099.806   125564334.412       -1257.917          39.000  
  22543529.184   118467026.982        3156.640          41.000  
 23  8 28 15 15 57.9950000  0  9G 6G 7G 9G11G20G30G 5G29G13
  21874366.095   114950544.790       -3761.009          43.000  
  19584859.006   102919121.328        -167.513          46.000  
  20819546.039   109407456.711       -2854.449          39.000  
  20333549.238   106853514.492       -1847.597          45.000  
  19290851.359   101374115.820        1373.157          46.000  
  19947132.768   104822882.094        1843.556          47.000  
  21259392.510   111718848.571        2918.774          45.000  
  23894339.555   125565592.737       -1258.390          39.000  
  22542928.687   118463870.475        3156.521          41.000  
 23  8 28 15 15 58.9950000  0  9G 6G 7G 9G11G20G30G 5G29G13
  21875081.990   114954305.783       -3761.192          43.000  
  19584891.053   102919289.214        -168.115          46.000  
  20820089.273   109410311.787       -2855.057          38.000  
  20333900.851   106855362.622       -1848.473          45.000  
  19290590.077   101372742.920        1372.790          46.000  
  19946782.211   104821039.027        1842.923          47.000  
  21258837.200   111715930.062        2918.681          44.000  
  23894579.277   125566851.591       -1259.117          40.000  
  22542328.330   118460714.094        3156.368          41.000  
 23  8 28 15 15 59.9950000  0  9G 6G 7G 9G11G20G30G 5G29G13
  21875797.274   114958066.845       -3761.289          43.000  
  19584922.891   102919457.533        -168.522          46.000  
  20820632.681   109413166.958       -2855.279          39.000  
  20334252.743   106857211.234       -1849.052          45.000  
  19290328.629   101371370.414        1372.302          46.000  
  19946431.566   104819196.343        1842.518          48.000  
  21258282.231   111713011.721        2918.093          44.000  
  23894818.938   125568110.907       -1259.551          40.000  
  22541727.685   118457557.755        3156.089          41.000  
 23  8 28 15 16  0.9950000  0  9G 6G 7G 9G11G20G30G 5G29G13
  21876512.960   114961828.158       -3761.170          43.000  
  19584955.096   102919626.437        -168.849          46.000  
  20821176.343   109416022.397       -2855.544          39.000  
  20334604.583   106859060.504       -1849.402          45.000  
  19290067.251   101369998.475        1371.783          46.000  
  19946080.991   104817354.194        1842.187          48.000  
  21257727.271   111710093.668        2917.905          44.000  
  23895058.565   125569370.847       -1260.354          40.000  
  22541127.075   118454401.576        3156.174          41.000  
 23  8 28 15 16  1.9950000  0  9G 6G 7G 9G11G20G30G 5G29G13
  21877228.480   114965589.670       -3761.774          42.000  
  19584987.509   102919795.887        -169.944          46.000  
  20821719.987   109418878.044       -2856.084          39.000  
  20334956.642   106860910.369       -1850.241          45.000  
  19289805.960   101368627.027        1371.100          46.000  
  19945730.329   104815512.520        1841.400          47.000  
  21257172.136   111707175.846        2917.706          44.000  
  23895298.924   125570631.296       -1260.618          40.000  
  22540526.848   118451245.523        3155.905          41.000  
 23  8 28 15 16  2.9950000  0  9G 6G 7G 9G11G20G30G 5G29G13
  21877944.087   114969351.437       -3762.176          42.000  
  19585019.836   102919965.949        -170.273          46.000  
  20822263.823   109421733.939       -2856.211          39.000  
  20335308.717   106862760.911       -1850.982          45.000  
  19289544.888   101367256.144        1370.465          46.000  
  19945379.867   104813671.413        1840.781          47.000  
  21256617.079   111704258.352        2917.261          44.000  
  23895539.397   125571892.394       -1261.363          41.000  
  22539926.343   118448089.693        3155.685          41.000  
 23  8 28 15 16  3.9950000  0  9G 6G 7G 9G11G20G30G 5G29G13
  21878659.983   114973113.402       -3762.372          42.000  
  19585052.127   102920136.559        -170.871          46.000  
  20822807.423   109424590.063       -2856.410          39.000  
  20335660.898   106864612.048       -1851.428          45.000  
  19289283.702   101365885.771        1370.001          46.000  
  19945029.415   104811830.798        1840.051          47.000  
  21256062.188   111701341.119        2917.027          44.000  
  23895779.250   125573154.064       -1261.970          41.000  
  22539325.689   118444933.993        3155.313          41.000  
 23  8 28 15 16  4.9950000  0  9G 6G 7G 9G11G20G30G 5G29G13
  21879375.904   114976875.521       -3762.115          42.000  
  19585084.707   102920307.652        -170.933          46.000  
  20823351.207   109427446.354       -2856.243          39.000  
  20336013.209   106866463.748       -1851.614          45.000  
  19289022.725   101364515.852        1369.818          46.000  
  19944679.102   104809990.614        1840.004          47.000  
  21255507.106   111698424.082        2917.133          44.000  
  23896019.653   125574416.243       -1262.254          41.000  
  22538725.331   118441778.364        3155.723          41.000  
 23  8 28 15 16  5.9950000  0  9G 6G 7G 9G11G20G30G 5G29G13
  21880091.616   114980637.864       -3762.456          42.000  
  19585117.025   102920479.332        -171.853          46.000  
  20823894.790   109430302.866       -2856.255          38.000  
  20336365.441   106868316.095       -1852.421          44.000  
  19288762.132   101363146.476        1369.256          46.000  
  19944329.155   104808150.960        1839.473          47.000  
  21254951.901   111695507.348        2916.764          43.000  
  23896260.379   125575679.013       -1263.117          41.000  
  22538125.096   118438622.906        3155.576          41.000  
 23  8 28 15 16  6.9950000  0  9G 6G 7G 9G11G20G30G 5G29G13
  21880807.424   114984400.379       -3762.977          42.000  
  19585149.857   102920651.512        -172.426          45.000  
  20824438.425   109433159.583       -2857.147          38.000  
  20336717.691   106870169.002       -1853.252          44.000  
  19288501.478   101361777.571        1368.616          46.000  
  19943978.676   104806311.775        1838.781          47.000  
  21254396.565   111692590.828        2916.351          43.000  
  23896501.008   125576942.320       -1263.707          41.000  
  22537524.556   118435467.580        3154.836          41.000  
 23  8 28 15 16  7.9950000  0  9G 6G 7G 9G11G20G30G 5G29G13
  21881523.773   114988163.123       -3763.303          42.000  
  19585182.699   102920824.292        -173.517          46.000  
  20824981.973   109436016.517       -2857.267          38.000  
  20337070.133   106872022.573       -1854.155          45.000  
  19288241.042   101360409.216        1367.786          46.000  
  19943628.389   104804473.101        1838.208          47.000  
  21253841.517   111689674.609        2915.911          43.000  
  23896741.656   125578206.226       -1264.777          41.000  
  22536924.268   118432312.404        3154.796          41.000  
 23  8 28 15 16  8.9950000  0  9G 6G 7G 9G11G20G30G 5G29G13
  21882240.314   114991926.408       -3763.853          42.000  
  19585215.854   102920997.950        -174.013          46.000  
  20825525.774   109438874.029       -2857.317          38.000  
  20337423.099   106873877.088       -1854.928          45.000  
  19287980.493   101359041.700        1367.218          46.000  
  19943278.163   104802635.271        1837.662          46.000  
  21253286.216   111686758.998        2915.247          43.000  
  23896982.809   125579471.030       -1265.112          41.000  
  22536323.745   118429157.719        3154.461          42.000  
 23  8 28 15 16  9.9950000  0  9G 6G 7G 9G11G20G30G 5G29G13
  21882956.305   114995689.766       -3763.125          42.000  
  19585249.027   102921172.011        -174.130          46.000  
  20826069.637   109441731.605       -2857.275          39.000  
  20337775.855   106875732.092       -1855.431          44.000  
  19287720.563   101357674.585        1367.035          46.000  
  19942928.269   104800797.828        1837.350          46.000  
  21252730.950   111683843.497        2915.618          43.000  
  23897223.901   125580736.288       -1265.604          41.000  
  22535723.475   118426003.060        3154.500          41.000  
 23  8 28 15 16 10.9950000  0  9G 6G 7G 9G11G20G30G 5G29G13
  21883672.348   114999453.405       -3763.455          42.000  
  19585282.383   102921346.687        -174.888          46.000  
  20826613.734   109444589.490       -2857.896          39.000  
  20338129.004   106877587.725       -1855.787          44.000  
  19287460.651   101356308.025        1366.461          46.000  
  19942578.628   104798960.921        1836.739          46.000  
  21252175.868   111680928.321        2915.260          43.000  
  23897465.081   125582002.148       -1265.899          41.000  
  22535123.284   118422848.595        3154.315          40.000  
 23  8 28 15 16 11.9950000  0  9G 6G 7G 9G11G20G30G 5G29G13
  21884388.680   115003217.254       -3764.084          42.000  
  19585315.207   102921521.933        -175.724          45.000  
  20827157.954   109447447.605       -2858.340          39.000  
  20338482.868   106879444.034       -1856.672          45.000  
  19287200.983   101354942.015        1365.515          46.000  
  19942228.890   104797124.560        1835.825          46.000  
  21251620.890   111678013.472        2914.284          43.000  
  23897705.981   125583268.636       -1267.180          41.000  
  22534523.136   118419694.309        3153.977          41.000  
 23  8 28 15 16 12.9950000  0  9G 6G 7G 9G11G20G30G 5G29G13
  21885104.898   115006981.349       -3764.064          42.000  
  19585348.956   102921697.760        -176.034          45.000  
  20827702.279   109450305.989       -2858.894          39.000  
  20338836.645   106881300.987       -1857.596          45.000  
  19286941.341   101353576.557        1365.045          46.000  
  19941879.389   104795288.728        1835.456          46.000  
  21251066.034   111675098.881        2914.231          43.000  
  23897947.474   125584535.709       -1267.330          41.000  
  22533922.927   118416540.178        3153.551          41.000  
 23  8 28 15 16 13.9950000  0  9G 6G 7G 9G11G20G30G 5G29G13
  21885820.959   115010745.572       -3764.558          42.000  
  19585382.451   102921874.078        -176.848          46.000  
  20828246.639   109453164.475       -2859.177          38.000  
  20339190.571   106883158.466       -1858.168          45.000  
  19286681.324   101352211.527        1364.606          46.000  
  19941530.000   104793453.319        1834.810          46.000  
  21250511.614   111672184.478        2914.037          43.000  
  23898188.532   125585803.268       -1268.102          41.000  
  22533322.604   118413386.130        3153.546          39.000  
 23  8 28 15 16 14.9950000  0  9G 6G 7G 9G11G20G30G 5G29G13
  21886537.054   115014510.159       -3765.138          42.000  
  19585416.183   102922051.107        -177.815          46.000  
  20828790.832   109456023.340       -2858.842          38.000  
  20339544.618   106885016.712       -1858.804          45.000  
  19286421.648   101350847.169        1363.849          46.000  
  19941180.804   104791618.565        1834.302          46.000  
  21249957.360   111669270.492        2913.743          43.000  
  23898429.921   125587071.555       -1268.773          42.000  
  22532722.596   118410232.364        3153.353          39.000  
 23  8 28 15 16 15.9950000  0  9G 6G 7G 9G11G20G30G 5G29G13
  21887253.412   115018274.705       -3764.896          42.000  
  19585449.530   102922228.421        -177.775          46.000  
  20829335.078   109458882.214       -2859.243          38.000  
  20339898.692   106886875.338       -1858.969          46.000  
  19286162.067   101349483.083        1363.843          46.000  
  19940831.329   104789784.072        1834.143          46.000  
  21249402.531   111666356.557        2913.876          44.000  
  23898671.371   125588340.171       -1268.668          40.000  
  22532122.247   118407078.496        3154.099          40.000  
 23  8 28 15 16 16.9950000  0  9G 6G 7G 9G11G20G30G 5G29G13
  21887969.386   115022039.302       -3764.993          42.000  
  19585483.671   102922406.124        -178.254          46.000  
  20829879.211   109461741.160       -2859.284          38.000  
  20340252.783   106888734.397       -1859.510          45.000  
  19285902.600   101348119.365        1363.159          46.000  
  19940482.525   104787949.915        1833.783          46.000  
  21248847.972   111663442.692        2913.605          44.000  
  23898912.977   125589609.220       -1269.609          42.000  
  22531522.126   118403924.672        3153.468          39.000  
 23  8 28 15 16 17.9950000  0  9G 6G 7G 9G11G20G30G 5G29G13
  21888685.447   115025804.181       -3765.072          42.000  
  19585517.970   102922584.473        -178.925          46.000  
  20830423.361   109464600.361       -2859.291          38.000  
  20340606.830   106890594.178       -1860.402          45.000  
  19285643.316   101346756.235        1362.604          46.000  
  19940133.678   104786116.343        1833.341          46.000  
  21248293.473   111660529.179        2913.048          43.000  
  23899154.584   125590878.905       -1270.167          42.000  
  22530921.760   118400771.037        3153.422          39.000  
 23  8 28 15 16 18.9950000  0  9G 6G 7G 9G11G20G30G 5G29G13
  21889401.412   115029569.453       -3765.344          41.000  
  19585552.076   102922763.548        -179.291          46.000  
  20830967.634   109467459.986       -2859.711          39.000  
  20340961.262   106892454.747       -1860.936          45.000  
  19285383.901   101345393.809        1362.231          46.000  
  19939785.040   104784283.481        1832.428          46.000  
  21247739.508   111657616.140        2913.012          44.000  
  23899396.488   125592149.356       -1270.692          41.000  
  22530321.097   118397617.730        3153.287          39.000  
 23  8 28 15 16 19.9950000  0  9G 6G 7G 9G11G20G30G 5G29G13
  21890117.909   115033334.946       -3765.230          42.000  
  19585586.767   102922943.216        -179.836          46.000  
  20831511.696   109470319.840       -2859.918          39.000  
  20341315.536   106894315.961       -1861.498          45.000  
  19285124.861   101344031.920        1361.542          46.000  
  19939436.315   104782451.126        1832.147          46.000  
  21247185.742   111654703.369        2912.636          44.000  
  23899638.462   125593420.353       -1271.007          41.000  
  22529720.635   118394464.590        3153.304          40.000  
 23  8 28 15 16 20.9950000  0  9G 6G 7G 9G11G20G30G 5G29G13
  21890834.162   115037100.771       -3765.876          42.000  
  19585621.179   102923123.530        -180.408          46.000  
  20832056.230   109473180.031       -2860.174          39.000  
  20341669.889   106896177.897       -1862.440          45.000  
  19284866.170   101342670.645        1361.096          46.000  
  19939087.895   104780619.375        1831.492          46.000  
  21246631.497   111651790.996        2912.159          44.000  
  23899880.444   125594692.044       -1271.838          41.000  
  22529120.033   118391311.760        3152.851          40.000  
 23  8 28 15 16 21.9950000  0  9G 6G 7G 9G11G20G30G 5G29G13
  21891550.912   115040866.801       -3766.311          41.000  
  19585655.347   102923304.404        -181.384          46.000  
  20832600.826   109476040.475       -2860.843          39.000  
  20342024.154   106898040.466       -1863.232          44.000  
  19284607.227   101341309.943        1360.150          46.000  
  19938739.431   104778788.140        1830.933          46.000  
  21246077.470   111648878.884        2911.641          45.000  
  23900122.435   125595964.338       -1272.634          41.000  
  22528519.380   118388159.022        3152.403          38.000  
 23  8 28 15 16 22.9950000  0  9G 6G 7G 9G11G20G30G 5G29G13
  21892267.095   115044633.087       -3766.769          41.000  
  19585689.715   102923485.869        -181.900          46.000  
  20833145.246   109478901.150       -2860.846          38.000  
  20342378.682   106899903.673       -1863.718          45.000  
  19284348.195   101339949.772        1359.735          46.000  
  19938391.535   104776957.463        1830.072          46.000  
  21245523.557   111645967.062        2911.732          45.000  
  23900364.295   125597237.248       -1273.400          42.000  
  22527919.301   118385006.496        3152.630          39.000  
 23  8 28 15 16 23.9950000  0  9G 6G 7G 9G11G20G30G 5G29G13
  21892983.601   115048399.445       -3766.506          41.000  
  19585724.607   102923667.766        -182.117          46.000  
  20833689.990   109481761.944       -2861.035          38.000  
  20342733.418   106901767.376       -1863.917          45.000  
  19284089.487   101338589.998        1359.534          46.000  
  19938043.255   104775127.161        1830.151          45.000  
  21244969.530   111643055.427        2911.438          45.000  
  23900606.922   125598510.614       -1273.817          42.000  
  22527319.494   118381854.009        3152.655          39.000  
 23  8 28 15 16 24.9950000  0  9G 6G 7G 9G11G20G30G 5G29G13
  21893699.941   115052166.006       -3766.922          41.000  
  19585759.620   102923850.207        -182.909          46.000  
  20834234.820   109484622.934       -2861.143          38.000  
  20343088.138   106903631.713       -1864.956          45.000  
  19283830.735   101337230.738        1358.905          46.000  
  19937695.245   104773297.363        1829.328          46.000  
  21244415.590   111640144.033        2911.111          45.000  
  23900849.611   125599784.521       -1274.468          42.000  
  22526719.363   118378701.659        3152.293          39.000  
 23  8 28 15 16 25.9950000  0  9G 6G 7G 9G11G20G30G 5G29G13
  21894416.456   115055932.791       -3766.847          40.000  
  19585794.381   102924033.225        -183.343          45.000  
  20834779.555   109487484.185       -2861.393          38.000  
  20343442.735   106905496.674       -1865.408          44.000  
  19283572.385   101335872.023        1358.307          46.000  
  19937347.419   104771468.095        1828.833          46.000  
  21243861.720   111637232.933        2910.971          45.000  
  23901092.292   125601059.028       -1274.730          42.000  
  22526119.076   118375549.490        3152.112          39.000  
 23  8 28 15 16 26.9950000  0  9G 6G 7G 9G11G20G30G 5G29G13
  21895133.215   115059699.799       -3767.232          40.000  
  19585829.255   102924216.792        -184.047          45.000  
  20835324.124   109490345.661       -2861.725          38.000  
  20343797.489   106907362.233       -1865.970          44.000  
  19283314.017   101334513.808        1357.812          46.000  
  19936999.662   104769639.312        1828.363          46.000  
  21243307.693   111634322.085        2910.580          44.000  
  23901335.007   125602334.108       -1275.414          42.000  
  22525519.286   118372397.462        3151.730          39.000  
 23  8 28 15 16 27.9950000  0  9G 6G 7G 9G11G20G30G 5G29G13
  21895849.817   115063467.038       -3767.335          40.000  
  19585864.182   102924400.945        -184.384          45.000  
  20835868.763   109493207.371       -2861.528          38.000  
  20344152.549   106909228.470       -1866.632          44.000  
  19283055.693   101333156.169        1357.318          46.000  
  19936652.281   104767811.085        1827.847          46.000  
  21242753.780   111631411.555        2910.404          44.000  
  23901577.460   125603609.791       -1275.782          42.000  
  22524919.810   118369245.614        3151.872          39.000  
 23  8 28 15 16 28.9950000  0  9G 6G 7G 9G11G20G30G 5G29G13
  21896566.305   115067234.324       -3767.597          40.000  
  19585899.327   102924585.506        -185.059          45.000  
  20836413.148   109496069.159       -2861.533          38.000  
  20344507.626   106911095.161       -1867.352          44.000  
  19282797.377   101331798.882        1356.818          46.000  
  19936304.699   104765983.209        1827.228          46.000  
  21242199.875   111628501.124        2909.971          44.000  
  23901820.315   125604885.906       -1276.710          42.000  
  22524320.403   118366093.772        3151.732          39.000  
 23  8 28 15 16 29.9950000  0  9G 6G 7G 9G11G20G30G 5G29G13
  21897282.864   115071001.840       -3767.677          40.000  
  19585934.410   102924770.607        -185.065          46.000  
  20836957.473   109498931.181       -2861.879          38.000  
  20344862.554   106912962.452       -1867.411          44.000  
  19282539.332   101330442.121        1356.775          46.000  
  19935957.081   104764155.825        1827.410          46.000  
  21241646.171   111625590.978        2910.068          45.000  
  23902062.794   125606162.586       -1276.767          41.000  
  22523721.102   118362942.076        3151.917          40.000  
 23  8 28 15 16 30.9950000  0  9G 6G 7G 9G11G20G30G 5G29G13
  21897999.823   115074769.574       -3767.702          40.000  
  19585969.756   102924956.316        -185.990          45.000  
  20837502.007   109501793.462       -2862.331          38.000  
  20345217.762   106914830.401       -1868.064          44.000  
  19282281.479   101329085.908        1356.085          46.000  
  19935609.412   104762329.005        1826.504          46.000  
  21241092.406   111622681.132        2909.830          44.000  
  23902305.841   125607439.872       -1277.299          41.000  
  22523122.010   118359790.571        3151.294          40.000  
 23  8 28 15 16 31.9950000  0  9G 6G 7G 9G11G20G30G 5G29G13
  21898716.687   115078537.468       -3767.719          40.000  
  19586004.970   102925142.504        -186.242          45.000  
  20838046.454   109504655.883       -2862.629          38.000  
  20345573.031   106916698.920       -1868.812          44.000  
  19282023.730   101327730.176        1355.633          46.000  
  19935261.402   104760502.624        1826.179          46.000  
  21240538.413   111619771.510        2909.679          44.000  
  23902548.791   125608717.679       -1277.888          41.000  
  22522522.699   118356639.155        3151.444          40.000  
 23  8 28 15 16 32.9950000  0  9G 6G 7G 9G11G20G30G 5G29G13
  21899434.065   115082305.688       -3768.234          40.000  
  19586040.359   102925329.358        -187.001          45.000  
  20838590.622   109507518.621       -2862.702          38.000  
  20345928.745   106918568.146       -1869.578          44.000  
  19281765.616   101326375.054        1354.791          46.000  
  19934913.785   104758676.858        1825.375          46.000  
  21239984.640   111616862.258        2909.028          44.000  
  23902792.152   125609996.163       -1278.993          41.000  
  22521923.511   118353487.999        3151.541          39.000  
 23  8 28 15 16 33.9950000  0  9G 6G 7G 9G11G20G30G 5G29G13
  21900151.374   115086074.213       -3768.875          40.000  
  19586075.853   102925516.868        -187.970          45.000  
  20839135.234   109510381.748       -2863.927          38.000  
  20346284.573   106920438.087       -1870.327          44.000  
  19281508.103   101325020.555        1353.998          46.000  
  19934566.002   104756851.681        1824.597          46.000  
  21239431.101   111613953.385        2908.572          44.000  
  23903035.304   125611275.317       -1279.666          41.000  
  22521324.053   118350337.094        3150.550          39.000  
 23  8 28 15 16 34.9950000  0  9G 6G 7G 9G11G20G30G 5G29G13
  21900868.657   115089843.097       -3769.059          40.000  
  19586111.923   102925705.108        -188.478          45.000  
  20839679.951   109513245.208       -2863.172          37.000  
  20346640.644   106922308.834       -1871.114          44.000  
  19281250.590   101323666.751        1353.778          46.000  
  19934218.909   104755027.199        1824.319          45.000  
  21238877.554   111611044.963        2908.386          44.000  
  23903278.926   125612555.217       -1280.143          41.000  
  22520724.673   118347186.533        3150.202          39.000  
 23  8 28 15 16 35.9950000  0  9G 6G 7G 9G11G20G30G 5G29G13
  21901586.140   115093612.030       -3769.147          40.000  
  19586147.635   102925893.729        -189.323          45.000  
  20840224.555   109516108.779       -2864.769          37.000  
  20346996.821   106924179.995       -1871.449          44.000  
  19280993.173   101322313.302        1352.875          46.000  
  19933871.370   104753203.045        1823.629          45.000  
  21238324.059   111608136.632        2907.948          44.000  
  23903522.304   125613835.520       -1280.963          41.000  
  22520125.136   118344035.916        3149.857          39.000  
 23  8 28 15 16 36.9950000  0  9G 6G 7G 9G11G20G30G 5G29G13
  21902303.117   115097381.397       -3769.368          40.000  
  19586183.425   102926083.104        -189.280          45.000  
  20840769.526   109518972.723       -2864.201          37.000  
  20347353.250   106926052.031       -1871.968          44.000  
  19280735.730   101320960.591        1352.588          46.000  
  19933524.556   104751379.625        1823.403          46.000  
  21237770.626   111605228.814        2907.829          44.000  
  23903766.058   125615116.610       -1281.126          42.000  
  22519525.799   118340885.690        3150.344          39.000  
 23  8 28 15 16 37.9950000  0  9G 6G 7G 9G11G20G30G 5G29G13
  21903020.068   115101150.666       -3769.564          40.000  
  19586219.268   102926272.791        -190.123          45.000  
  20841314.435   109521836.638       -2864.323          37.000  
  20347709.872   106927924.398       -1872.716          44.000  
  19280478.627   101319608.118        1352.155          46.000  
  19933177.419   104749556.442        1822.864          46.000  
  21237217.244   111602320.977        2907.494          44.000  
  23904009.697   125616398.010       -1281.582          42.000  
  22518926.375   118337735.358        3149.816          39.000  
 23  8 28 15 16 38.9950000  0  9G 6G 7G 9G11G20G30G 5G29G13
  21903737.359   115104920.282       -3769.789          41.000  
  19586255.294   102926463.123        -190.603          46.000  
  20841859.274   109524700.893       -2864.516          38.000  
  20348066.458   106929797.460       -1873.255          45.000  
  19280221.359   101318256.273        1351.648          47.000  
  19932830.744   104747733.875        1822.375          46.000  
  21236664.273   111599413.493        2907.475          44.000  
  23904253.878   125617680.076       -1281.898          42.000  
  22518326.891   118334585.277        3149.922          41.000  
 23  8 28 15 16 39.9950000  0  9G 6G 7G 9G11G20G30G 5G29G13
  21904454.641   115108690.055       -3770.143          41.000  
  19586291.852   102926653.953        -191.175          46.000  
  20842404.175   109527565.287       -2864.266          39.000  
  20348423.228   106931671.125       -1874.006          45.000  
  19279964.169   101316904.896        1351.263          47.000  
  19932483.808   104745911.775        1821.699          46.000  
  21236111.258   111596506.275        2907.153          43.000  
  23904497.911   125618962.678       -1282.768          42.000  
  22517727.423   118331435.267        3150.483          40.000  
 23  8 28 15 16 40.9950000  0  9G 6G 7G 9G11G20G30G 5G29G13
  21905172.203   115112459.813       -3769.921          40.000  
  19586328.053   102926845.110        -191.415          45.000  
  20842948.752   109530429.737       -2864.672          38.000  
  20348779.936   106933545.174       -1874.492          45.000  
  19279707.284   101315553.863        1350.671          47.000  
  19932136.941   104744089.946        1821.411          46.000  
  21235558.104   111593599.108        2906.867          44.000  
  23904741.664   125620245.636       -1283.403          40.000  
  22517127.921   118328285.223        3149.824          40.000  
 23  8 28 15 16 41.9950000  0  9G 6G 7G 9G11G20G30G 5G29G13
  21905889.983   115116230.116       -3770.318          40.000  
  19586364.454   102927037.218        -192.292          46.000  
  20843493.513   109533294.758       -2865.181          38.000  
  20349136.785   106935420.216       -1875.337          44.000  
  19279450.469   101314203.695        1349.957          47.000  
  19931790.746   104742268.983        1820.753          46.000  
  21235005.037   111590692.567        2906.462          44.000  
  23904986.011   125621529.525       -1284.162          41.000  
  22516528.681   118325135.702        3149.624          40.000  
 23  8 28 15 16 42.9950000  0  9G 6G 7G 9G11G20G30G 5G29G13
  21906607.780   115120000.792       -3770.513          41.000  
  19586400.872   102927229.983        -192.719          45.000  
  20844038.422   109536160.109       -2865.087          38.000  
  20349493.642   106937295.996       -1875.978          44.000  
  19279193.541   101312854.175        1349.475          46.000  
  19931444.848   104740448.670        1820.244          46.000  
  21234451.943   111587786.436        2906.004          44.000  
  23905229.712   125622814.136       -1284.797          41.000  
  22515928.969   118321986.442        3149.427          39.000  
 23  8 28 15 16 43.9950000  0  9G 6G 7G 9G11G20G30G 5G29G13
  21907325.595   115123771.478       -3770.327          41.000  
  19586437.605   102927423.143        -193.067          45.000  
  20844583.497   109539025.533       -2865.285          38.000  
  20349850.507   106939172.220       -1876.219          44.000  
  19278936.569   101311505.008        1349.097          46.000  
  19931098.513   104738628.712        1819.646          47.000  
  21233898.702   111584880.387        2906.120          44.000  
  23905473.832   125624099.142       -1284.972          41.000  
  22515329.571   118318837.164        3149.090          39.000  
 23  8 28 15 16 44.9950000  0  9G 6G 7G 9G11G20G30G 5G29G13
  21908043.183   115127542.529       -3771.304          40.000  
  19586474.390   102927617.019        -194.338          45.000  
  20845128.695   109541891.332       -2866.206          37.000  
  20350207.294   106941049.218       -1877.519          44.000  
  19278679.885   101310156.505        1347.980          46.000  
  19930752.275   104736809.366        1818.951          47.000  
  21233345.922   111581974.762        2905.256          44.000  
  23905718.414   125625384.877       -1286.253          41.000  
  22514730.183   118315688.189        3148.556          39.000  
 23  8 28 15 16 45.9950000  0  9G 6G 7G 9G11G20G30G 5G29G13
  21908760.980   115131313.664       -3771.222          41.000  
  19586511.454   102927811.288        -194.355          45.000  
  20845674.197   109544757.193       -2865.838          37.000  
  20350564.430   106942926.684       -1877.813          44.000  
  19278423.157   101308808.386        1347.955          46.000  
  19930406.150   104734990.410        1818.746          47.000  
  21232792.960   111579069.273        2905.187          44.000  
  23905963.171   125626671.024       -1286.273          41.000  
  22514130.898   118312539.201        3149.128          38.000  
 23  8 28 15 16 46.9950000  0  9G 6G 7G 9G11G20G30G 5G29G13
  21909478.768   115135084.941       -3771.172          41.000  
  19586548.405   102928006.084        -194.797          45.000  
  20846219.674   109547623.261       -2865.750          37.000  
  20350921.610   106944804.725       -1878.154          44.000  
  19278166.770   101307460.762        1347.559          46.000  
  19930059.999   104733171.923        1818.333          46.000  
  21232239.945   111576164.012        2905.197          43.000  
  23906208.303   125627957.725       -1286.907          42.000  
  22513531.248   118309390.359        3148.984          38.000  
 23  8 28 15 16 47.9950000  0  9G 6G 7G 9G11G20G30G 5G29G13
  21910196.697   115138856.584       -3771.791          41.000  
  19586585.574   102928201.571        -195.658          45.000  
  20846764.749   109550489.671       -2866.597          37.000  
  20351279.174   106946683.535       -1879.333          44.000  
  19277910.548   101306113.801        1346.576          46.000  
  19929714.380   104731354.091        1817.178          47.000  
  21231687.218   111573259.168        2904.554          43.000  
  23906453.644   125629245.135       -1287.927          42.000  
  22512932.007   118306241.833        3148.023          38.000  
 23  8 28 15 16 48.9950000  0  9G 6G 7G 9G11G20G30G 5G29G13
  21910914.311   115142628.163       -3771.422          41.000  
  19586622.909   102928397.373        -195.914          45.000  
  20847309.902   109553356.075       -2866.200          37.000  
  20351636.869   106948562.686       -1879.183          44.000  
  19277654.370   101304767.099        1346.619          46.000  
  19929368.542   104729536.485        1817.723          47.000  
  21231134.177   111570354.309        2905.241          43.000  
  23906698.471   125630532.854       -1287.755          42.000  
  22512333.037   118303093.143        3149.217          38.000  
 23  8 28 15 16 49.9950000  0  9G 6G 7G 9G11G20G30G 5G29G13
  21911632.300   115146399.907       -3771.660          41.000  
  19586660.174   102928593.667        -196.237          45.000  
  20847855.204   109556222.649       -2866.570          37.000  
  20351994.572   106950442.418       -1879.800          44.000  
  19277398.114   101303420.878        1346.130          46.000  
  19929022.461   104727719.366        1817.169          46.000  
  21230581.092   111567449.701        2904.498          43.000  
  23906943.611   125631821.107       -1288.439          42.000  
  22511733.919   118299944.621        3148.376          38.000  
 23  8 28 15 16 50.9950000  0  9G 6G 7G 9G11G20G30G 5G29G13
  21912349.984   115150171.941       -3772.027          41.000  
  19586697.552   102928790.602        -197.143          45.000  
  20848400.305   109559089.479       -2866.521          37.000  
  20352352.790   106952322.837       -1880.593          44.000  
  19277142.041   101302075.248        1345.355          46.000  
  19928676.816   104725902.822        1816.555          46.000  
  21230028.418   111564545.446        2904.172          43.000  
  23907188.953   125633109.981       -1288.838          42.000  
  22511134.722   118296796.276        3148.416          38.000  
 23  8 28 15 16 51.9950000  0  9G 6G 7G 9G11G20G30G 5G29G13
  21913068.008   115153944.152       -3772.383          41.000  
  19586735.218   102928988.054        -197.552          45.000  
  20848945.834   109561956.533       -2866.760          37.000  
  20352710.842   106954203.853       -1881.233          44.000  
  19276886.247   101300730.119        1344.965          46.000  
  19928331.005   104724086.764        1815.755          46.000  
  21229475.996   111561641.444        2903.912          43.000  
  23907434.285   125634399.427       -1289.702          43.000  
  22510535.586   118293648.087        3147.978          38.000  
 23  8 28 15 16 52.9950000  0  9G 6G 7G 9G11G20G30G 5G29G13
  21913785.866   115157716.700       -3772.836          41.000  
  19586773.024   102929186.233        -198.627          45.000  
  20849491.275   109564823.997       -2867.775          37.000  
  20353069.339   106956085.648       -1882.416          44.000  
  19276630.427   101299385.667        1344.067          46.000  
  19927985.368   104722271.377        1814.764          46.000  
  21228923.444   111558737.891        2903.114          43.000  
  23907680.351   125635689.611       -1290.875          42.000  
  22509936.311   118290500.202        3147.587          38.000  
 23  8 28 15 16 53.9950000  0  9G 6G 7G 9G11G20G30G 5G29G13
  21914503.899   115161489.503       -3772.988          41.000  
  19586810.935   102929384.964        -198.756          45.000  
  20850037.467   109567691.654       -2867.359          37.000  
  20353427.907   106957968.056       -1882.566          44.000  
  19276374.720   101298041.744        1343.854          46.000  
  19927640.168   104720456.487        1814.749          46.000  
  21228370.612   111555834.596        2903.390          43.000  
  23907925.945   125636980.345       -1290.975          42.000  
  22509337.167   118287352.484        3147.396          38.000  
 23  8 28 15 16 54.9950000  0  9G 6G 7G 9G11G20G30G 5G29G13
  21915222.010   115165262.444       -3772.960          41.000  
  19586849.291   102929584.205        -199.475          45.000  
  20850583.266   109570559.481       -2867.787          37.000  
  20353786.535   106959851.024       -1883.196          44.000  
  19276118.926   101296698.296        1343.311          46.000  
  19927294.724   104718642.059        1814.238          46.000  
  21227817.955   111552931.545        2902.924          43.000  
  23908171.653   125638271.620       -1291.397          42.000  
  22508737.411   118284204.844        3147.491          38.000  
 23  8 28 15 16 55.9950000  0  9G 6G 7G 9G11G20G30G 5G29G13
  21915940.209   115169035.670       -3773.291          41.000  
  19586887.463   102929784.092        -200.323          45.000  
  20851128.943   109573427.647       -2868.350          37.000  
  20354145.119   106961734.706       -1883.969          45.000  
  19275863.402   101295355.463        1342.682          46.000  
  19926949.637   104716828.266        1813.390          46.000  
  21227265.673   111550028.845        2902.645          43.000  
  23908417.527   125639563.564       -1292.224          42.000  
  22508138.049   118281057.470        3147.031          38.000  
 23  8 28 15 16 56.9950000  0  9G 6G 7G 9G11G20G30G 5G29G13
  21916658.434   115172809.047       -3773.541          41.000  
  19586925.583   102929984.442        -200.597          45.000  
  20851674.577   109576295.956       -2868.976          37.000  
  20354503.922   106963618.919       -1884.559          45.000  
  19275607.940   101294013.081        1342.181          46.000  
  19926604.506   104715014.873        1813.053          46.000  
  21226713.278   111547126.346        2902.485          43.000  
  23908663.182   125640855.990       -1292.775          41.000  
  22507538.817   118277910.134        3147.425          38.000  
 23  8 28 15 16 57.9950000  0  9G 6G 7G 9G11G20G30G 5G29G13
  21917376.807   115176582.521       -3773.873          41.000  
  19586963.668   102930185.271        -201.466          45.000  
  20852220.166   109579164.350       -2868.739          37.000  
  20354862.751   106965503.656       -1885.473          45.000  
  19275352.216   101292671.127        1341.351          46.000  
  19926259.516   104713201.892        1812.373          46.000  
  21226160.987   111544224.010        2902.207          43.000  
  23908909.108   125642148.908       -1293.528          41.000  
  22506939.332   118274762.873        3147.052          38.000  
 23  8 28 15 16 58.9950000  0  9G 6G 7G 9G11G20G30G 5G29G13
  21918095.477   115180356.208       -3773.713          41.000  
  19587001.858   102930386.656        -201.551          45.000  
  20852766.480   109582033.008       -2868.549          37.000  
  20355221.344   106967389.011       -1885.473          45.000  
  19275097.085   101291329.699        1341.309          46.000  
  19925914.490   104711389.440        1812.384          46.000  
  21225608.496   111541321.967        2902.122          43.000  
  23909154.816   125643442.397       -1293.727          41.000  
  22506340.004   118271615.778        3147.549          38.000  
 23  8 28 15 16 59.9950000  0  9G 6G 7G 9G11G20G30G 5G29G13
  21918813.553   115184130.077       -3774.021          41.000  
  19587040.606   102930588.602        -202.104          46.000  
  20853312.498   109584901.881       -2869.197          38.000  
  20355580.112   106969274.978       -1886.240          46.000  
  19274841.980   101289988.782        1340.680          47.000  
  19925569.412   104709577.490        1811.578          46.000  
  21225056.153   111538420.176        2901.439          43.000  
  23909400.715   125644736.424       -1293.978          41.000  
  22505740.738   118268468.854        3146.915          38.000  
 23  8 28 15 17  0.9950000  0  9G 6G 7G 9G11G20G30G 5G29G13
  21919531.795   115187904.123       -3773.636          41.000  
  19587079.040   102930791.054        -202.283          46.000  
  20853858.716   109587770.927       -2868.823          38.000  
  20355938.818   106971161.527       -1886.515          45.000  
  19274586.579   101288648.344        1340.521          46.000  
  19925224.814   104707765.980        1811.810          46.000  
  21224504.229   111535518.600        2902.022          43.000  
  23909646.816   125646031.018       -1294.772          41.000  
  22505141.707   118265321.991        3147.128          38.000  
 23  8 28 15 17  1.9950000  0  9G 6G 7G 9G11G20G30G 5G29G13
  21920249.863   115191678.169       -3773.974          40.000  
  19587117.631   102930993.814        -202.923          45.000  
  20854404.707   109590640.001       -2869.108          37.000  
  20356297.874   106973048.495       -1887.413          45.000  
  19274331.334   101287308.240        1340.027          46.000  
  19924880.381   104705954.777        1811.077          46.000  
  21223952.418   111532617.090        2901.481          44.000  
  23909893.073   125647325.931       -1295.215          41.000  
  22504542.370   118262175.100        3147.046          38.000  
 23  8 28 15 17  2.9950000  0  9G 6G 7G 9G11G20G30G 5G29G13
  21920967.870   115195452.605       -3774.936          40.000  
  19587156.397   102931197.329        -204.025          45.000  
  20854950.715   109593509.455       -2869.728          37.000  
  20356657.000   106974936.212       -1888.158          45.000  
  19274076.212   101285968.824        1339.069          46.000  
  19924535.670   104704144.266        1810.112          46.000  
  21223400.275   111529716.063        2900.677          44.000  
  23910139.715   125648621.595       -1296.068          41.000  
  22503943.313   118259028.535        3146.188          38.000  
 23  8 28 15 17  3.9950000  0  9G 6G 7G 9G11G20G30G 5G29G13
  21921686.051   115199227.372       -3774.894          40.000  
  19587195.215   102931401.547        -204.476          45.000  
  20855496.768   109596379.274       -2869.659          37.000  
  20357016.134   106976824.717       -1888.995          44.000  
  19273821.605   101284630.089        1338.379          46.000  
  19924191.438   104702334.422        1809.336          46.000  
  21222848.238   111526815.459        2900.325          44.000  
  23910386.487   125649918.023       -1297.118          41.000  
  22503344.230   118255882.242        3146.208          37.000  
 23  8 28 15 17  4.9950000  0  9G 6G 7G 9G11G20G30G 5G29G13
  21922404.380   115203002.459       -3775.060          40.000  
  19587234.129   102931606.446        -205.368          45.000  
  20856042.960   109599249.449       -2870.839          37.000  
  20357375.565   106978713.958       -1889.797          44.000  
  19273566.954   101283291.995        1337.585          46.000  
  19923847.128   104700525.191        1808.821          46.000  
  21222296.148   111523915.240        2899.743          43.000  
  23910633.434   125651215.105       -1297.676          41.000  
  22502744.989   118252736.285        3145.527          36.000  
 23  8 28 15 17  5.9950000  0  9G 6G 7G 9G11G20G30G 5G29G13
  21923123.146   115206777.703       -3775.483          40.000  
  19587273.182   102931811.808        -205.757          45.000  
  20856589.221   109602119.744       -2870.281          36.000  
  20357735.065   106980603.738       -1890.356          44.000  
  19273312.303   101281954.336        1337.347          46.000  
  19923502.913   104698716.396        1808.535          46.000  
  21221744.398   111521015.224        2899.560          43.000  
  23910880.668   125652512.685       -1298.098          42.000  
  22502145.740   118249590.370        3146.002          36.000  
 23  8 28 15 17  6.9950000  0  9G 6G 7G 9G11G20G30G 5G29G13
  21923842.130   115210553.165       -3774.996          40.000  
  19587312.018   102932017.783        -205.769          45.000  
  20857135.491   109604990.313       -2870.097          36.000  
  20358094.522   106982494.141       -1890.058          44.000  
  19273057.652   101280617.239        1337.366          46.000  
  19923159.005   104696908.152        1808.428          46.000  
  21221192.413   111518115.497        2900.029          43.000  
  23911127.886   125653810.887       -1298.184          42.000  
  22501547.075   118246444.660        3146.106          36.000  
 23  8 28 15 17  7.9950000  0  9G 6G 7G 9G11G20G30G 5G29G13
  21924561.166   115214328.721       -3775.253          41.000  
  19587351.639   102932224.189        -206.339          46.000  
  20857681.814   109607860.945       -2870.396          37.000  
  20358454.293   106984385.059       -1890.879          45.000  
  19272803.245   101279280.543        1336.627          46.000  
  19922815.384   104695100.302        1807.873          47.000  
  21220640.637   111515215.945        2899.993          43.000  
  23911375.399   125655109.550       -1298.880          42.000  
  22500948.411   118243298.928        3146.182          38.000  
 23  8 28 15 17  8.9950000  0  9G 6G 7G 9G11G20G30G 5G29G13
  21925280.072   115218104.441       -3775.818          41.000  
  19587391.085   102932431.094        -206.980          45.000  
  20858227.692   109610731.834       -2871.079          36.000  
  20358813.908   106986276.560       -1891.737          45.000  
  19272549.117   101277944.320        1336.053          46.000  
  19922471.239   104693292.924        1807.201          47.000  
  21220089.018   111512316.621        2899.167          43.000  
  23911622.992   125656408.709       -1299.354          42.000  
  22500349.118   118240153.343        3145.879          32.000  
 23  8 28 15 17  9.9950000  0  9G 6G 7G 9G11G20G30G 5G29G13
  21925998.872   115221880.410       -3775.484          41.000  
  19587430.200   102932638.627        -207.463          46.000  
  20858773.762   109613602.951       -2870.770          36.000  
  20359173.792   106988168.719       -1892.005          45.000  
  19272294.937   101276608.673        1335.870          46.000  
  19922127.025   104691486.102        1806.884          46.000  
  21219537.382   111509417.615        2899.209          43.000  
  23911870.471   125657708.508       -1299.559          42.000  
  22499750.218   118237008.026        3145.166          33.000  
 23  8 28 15 17 10.9950000  0  9G 6G 7G 9G11G20G30G 5G29G13
  21926718.039   115225656.447       -3775.865          42.000  
  19587469.908   102932846.580        -207.975          46.000  
  20859319.980   109616474.170       -2871.220          36.000  
  20359534.061   106990061.384       -1892.797          44.000  
  19272040.670   101275273.427        1335.266          46.000  
  19921783.674   104689679.650        1806.523          46.000  
  21218986.121   111506518.757        2898.985          44.000  
  23912117.889   125659008.771       -1300.261          42.000  
  22499151.475   118233862.625        3145.877          35.000  
 23  8 28 15 17 11.9950000  0  9G 6G 7G 9G11G20G30G 5G29G13
  21927436.962   115229432.804       -3776.712          42.000  
  19587509.598   102933055.189        -209.391          46.000  
  20859866.337   109619345.701       -2872.331          36.000  
  20359894.102   106991954.718       -1893.904          44.000  
  19271786.700   101273938.774        1334.210          46.000  
  19921440.341   104687873.823        1805.367          47.000  
  21218434.580   111503620.289        2897.914          44.000  
  23912365.123   125660309.690       -1301.782          42.000  
  22498552.679   118230717.542        3144.787          36.000  
 23  8 28 15 17 12.9950000  0  9G 6G 7G 9G11G20G30G 5G29G13
  21928155.963   115233209.308       -3776.755          42.000  
  19587549.262   102933264.284        -209.394          46.000  
  20860412.930   109622217.388       -2871.883          36.000  
  20360254.248   106993848.642       -1894.426          44.000  
  19271532.738   101272604.615        1333.856          46.000  
  19921096.886   104686068.442        1805.142          47.000  
  21217883.092   111500722.027        2897.659          44.000  
  23912612.533   125661611.122       -1301.749          41.000  
  22497954.416   118227572.540        3144.948          37.000  
 23  8 28 15 17 13.9950000  0  9G 6G 7G 9G11G20G30G 5G29G13
  21928874.659   115236986.043       -3777.213          41.000  
  19587589.319   102933473.960        -210.051          46.000  
  20860959.803   109625089.370       -2872.220          35.000  
  20360614.316   106995743.212       -1895.190          44.000  
  19271278.933   101271271.025        1332.983          46.000  
  19920753.352   104684263.589        1804.236          47.000  
  21217331.509   111497824.027        2897.773          43.000  
  23912860.108   125662913.135       -1302.567          41.000  
  22497356.118   118224427.700        3144.493          35.000  
 23  8 28 15 17 14.9950000  0  9G 6G 7G 9G11G20G30G 5G29G13
  21929593.408   115240762.975       -3776.829          41.000  
  19587629.088   102933684.204        -210.501          46.000  
  20861506.562   109627961.547       -2872.250          36.000  
  20360974.873   106997638.395       -1895.445          44.000  
  19271025.530   101269937.946        1332.874          46.000  
  19920410.089   104682459.242        1804.321          46.000  
  21216780.055   111494926.330        2897.565          43.000  
  23913107.709   125664215.753       -1302.775          41.000  
  22496748.257   118221283.034        3144.326          31.000  
 23  8 28 15 17 15.9950000  0  9G 6G 7G 9G11G20G30G 5G29G13
  21930312.714   115244540.126       -3777.088          42.000  
  19587669.233   102933894.997        -211.066          46.000  
  20862053.268   109630833.962       -2872.708          35.000  
  20361335.499   106999534.210       -1895.901          44.000  
  19270771.996   101268605.394        1332.623          46.000  
  19920066.686   104680655.438        1803.801          47.000  
  21216228.629   111492028.895        2897.499          43.000  
  23913355.563   125665518.936       -1303.287          42.000  
  22496156.546   118218138.539        3144.718          33.000  
 23  8 28 15 17 16.9950000  0  9G 6G 7G 9G11G20G30G 5G29G13
  21931031.506   115248317.520       -3777.651          42.000  
  19587709.700   102934106.406        -211.729          46.000  
  20862600.114   109633706.641       -2872.958          36.000  
  20361696.771   107001430.677       -1896.876          44.000  
  19270518.723   101267273.438        1331.793          47.000  
  19919723.397   104678852.175        1803.058          47.000  
  21215676.914   111489131.804        2897.170          43.000  
  23913603.443   125666822.744       -1304.106          42.000  
  22495558.178   118214994.236        3144.189          33.000  
 23  8 28 15 17 17.9950000  0  9G 6G 7G 9G11G20G30G 5G29G13
  21931750.429   115252095.266       -3777.974          42.000  
  19587750.193   102934318.490        -212.347          46.000  
  20863146.725   109636579.647       -2873.141          35.000  
  20362058.025   107003327.875       -1897.587          45.000  
  19270265.198   101265942.125        1331.128          46.000  
  19919380.291   104677049.554        1802.399          47.000  
  21215125.574   111486235.113        2896.631          42.000  
  23913851.489   125668127.248       -1305.064          42.000  
  22494961.215   118211850.161        3144.663          36.000  
 23  8 28 15 17 18.9950000  0  9G 6G 7G 9G11G20G30G 5G29G13
  21932469.038   115255873.173       -3777.869          42.000  
  19587790.782   102934531.083        -212.388          46.000  
  20863693.292   109639452.868       -2873.174          35.000  
  20362419.489   107005225.668       -1897.768          45.000  
  19270011.873   101264611.320        1330.658          46.000  
  19919037.455   104675247.412        1802.306          47.000  
  21214574.095   111483338.670        2896.746          43.000  
  23914100.024   125669432.285       -1304.920          40.000  
  22494367.332   118208706.313        3144.183          39.000  
 23  8 28 15 17 19.9950000  0  9G 6G 7G 9G11G20G30G 5G29G13
  21933188.004   115259651.082       -3777.832          42.000  
  19587831.354   102934744.077        -213.216          45.000  
  20864239.719   109642326.164       -2873.675          35.000  
  20362780.866   107007123.901       -1898.485          45.000  
  19269758.688   101263280.856        1330.164          46.000  
  19918694.567   104673445.605        1801.763          47.000  
  21214022.720   111480442.325        2896.252          43.000  
  23914348.629   125670737.699       -1305.453          40.000  
  22493768.580   118205562.388        3144.465          37.000  
 23  8 28 15 17 20.9950000  0  9G 6G 7G 9G11G20G30G 5G29G13
  21933906.866   115263429.268       -3778.131          42.000  
  19587872.144   102934957.653        -213.939          46.000  
  20864786.714   109645199.656       -2873.698          36.000  
  20363142.565   107009022.777       -1899.220          45.000  
  19269505.276   101261950.942        1329.730          46.000  
  19918351.644   104671644.357        1800.732          47.000  
  21213471.590   111477546.306        2895.682          42.000  
  23914596.980   125672043.739       -1306.412          41.000  
  22493168.458   118202418.661        3142.985          36.000  
 23  8 28 15 17 21.9950000  0  9G 6G 7G 9G11G20G30G 5G29G13
  21934625.710   115267207.598       -3778.321          42.000  
  19587912.916   102935171.755        -214.229          46.000  
  20865333.517   109648073.353       -2873.318          36.000  
  20363504.037   107010922.237       -1899.669          45.000  
  19269252.632   101260621.530        1329.431          46.000  
  19918009.096   104669843.559        1800.692          47.000  
  21212920.434   111474650.520        2895.864          43.000  
  23914845.436   125673350.324       -1306.663          41.000  
  22492570.814   118199275.025        3143.981          35.000  
 23  8 28 15 17 22.9950000  0  9G 6G 7G 9G11G20G30G 5G29G13
  21935344.746   115270986.010       -3778.350          41.000  
  19587953.566   102935386.292        -214.926          46.000  
  20865879.988   109650947.189       -2874.629          35.000  
  20363865.990   107012822.187       -1900.295          45.000  
  19268999.804   101259292.524        1328.699          46.000  
  19917666.688   104668043.162        1800.115          47.000  
  21212369.112   111471754.875        2895.628          42.000  
  23915094.189   125674657.334       -1307.003          41.000  
  22491972.359   118196131.457        3143.405          36.000  
 23  8 28 15 17 23.9950000  0  9G 6G 7G 9G11G20G30G 5G29G13
  21936063.582   115274764.480       -3778.336          42.000  
  19587994.793   102935601.207        -215.171          46.000  
  20866426.502   109653821.034       -2873.845          34.000  
  20364227.768   107014722.578       -1900.646          45.000  
  19268747.012   101257963.846        1328.705          46.000  
  19917324.184   104666243.089        1799.929          47.000  
  21211818.060   111468859.344        2895.430          42.000  
  23915342.994   125675964.773       -1307.555          41.000  
  22491374.323   118192987.850        3143.407          36.000  
 23  8 28 15 17 24.9950000  0  9G 6G 7G 9G11G20G30G 5G29G13
  21936782.636   115278543.093       -3778.859          42.000  
  19588035.975   102935816.633        -216.089          46.000  
  20866972.729   109656695.081       -2874.374          35.000  
  20364589.179   107016623.539       -1901.571          45.000  
  19268494.106   101256635.676        1327.679          46.000  
  19916981.723   104664443.497        1799.043          47.000  
  21211266.764   111465964.031        2895.220          42.000  
  23915591.852   125677272.747       -1308.807          41.000  
  22490776.190   118189844.373        3143.386          36.000  
 23  8 28 15 17 25.9950000  0  9G 6G 7G 9G11G20G30G 5G29G13
  21937501.602   115282322.196       -3779.715          42.000  
  19588077.393   102936032.885        -216.931          46.000  
  20867519.784   109659569.627       -2875.894          35.000  
  20364951.210   107018525.382       -1902.667          45.000  
  19268241.505   101255308.306        1326.538          46.000  
  19916639.333   104662644.684        1798.003          47.000  
  21210715.529   111463069.288        2894.045          42.000  
  23915840.657   125678581.525       -1309.432          41.000  
  22490178.232   118186701.323        3141.868          36.000  
 23  8 28 15 17 26.9950000  0  9G 6G 7G 9G11G20G30G 5G29G13
  21938220.900   115286101.763       -3779.634          42.000  
  19588119.143   102936249.981        -217.397          46.000  
  20868066.779   109662444.645       -2875.121          35.000  
  20365313.346   107020428.123       -1902.919          45.000  
  19267988.808   101253981.737        1326.202          46.000  
  19916297.108   104660846.668        1797.832          47.000  
  21210164.756   111460175.091        2893.991          42.000  
  23916089.427   125679891.201       -1310.125          41.000  
  22489580.013   118183558.699        3142.228          35.000  
 23  8 28 15 17 27.9950000  0  9G 6G 7G 9G11G20G30G 5G29G13
  21938940.198   115289881.257       -3779.544          42.000  
  19588160.517   102936467.354        -217.663          46.000  
  20868613.948   109665319.615       -2874.820          35.000  
  20365675.464   107022331.212       -1903.264          45.000  
  19267736.810   101252655.414        1326.270          46.000  
  19915955.057   104659048.870        1797.726          47.000  
  21209613.879   111457280.902        2894.085          42.000  
  23916338.957   125681201.133       -1310.021          41.000  
  22488982.011   118180415.896        3143.368          35.000  
 23  8 28 15 17 28.9950000  0  9G 6G 7G 9G11G20G30G 5G29G13
  21939660.046   115293661.104       -3780.300          42.000  
  19588202.188   102936685.418        -218.558          46.000  
  20869161.230   109668194.943       -2875.773          36.000  
  20366037.905   107024235.051       -1904.360          45.000  
  19267484.488   101251329.773        1325.195          46.000  
  19915613.199   104657251.744        1796.694          47.000  
  21209063.464   111454387.108        2893.596          42.000  
  23916588.172   125682511.792       -1311.114          41.000  
  22488383.905   118177273.470        3142.056          35.000  
 23  8 28 15 17 29.9950000  0  9G 6G 7G 9G11G20G30G 5G29G13
  21940379.378   115297441.030       -3779.840          43.000  
  19588244.305   102936903.938        -218.708          47.000  
  20869708.548   109671070.403       -2875.554          36.000  
  20366400.521   107026139.395       -1904.354          45.000  
  19267232.237   101250004.540        1325.092          46.000  
  19915271.052   104655455.022        1796.613          47.000  
  21208513.329   111451493.520        2893.450          43.000  
  23916837.606   125683822.936       -1311.378          41.000  
  22487786.296   118174131.135        3142.299          35.000  
 23  8 28 15 17 30.9950000  0  9G 6G 7G 9G11G20G30G 5G29G13
  21941098.729   115301221.098       -3779.980          42.000  
  19588286.124   102937122.934        -219.266          47.000  
  20870255.891   109673946.029       -2876.296          36.000  
  20366763.284   107028044.286       -1905.166          45.000  
  19266980.256   101248679.770        1324.457          46.000  
  19914929.560   104653658.727        1795.979          47.000  
  21207963.132   111448600.117        2893.208          42.000  
  23917087.074   125685134.554       -1311.995          40.000  
  22487188.504   118170988.763        3142.277          35.000  
 23  8 28 15 17 31.9950000  0  9G 6G 7G 9G11G20G30G 5G29G13
  21941818.515   115305001.431       -3780.511          42.000  
  19588327.839   102937342.533        -219.912          47.000  
  20870803.121   109676821.878       -2875.977          37.000  
  20367126.284   107029949.838       -1905.905          45.000  
  19266728.693   101247355.569        1323.743          46.000  
  19914587.824   104651863.001        1795.193          47.000  
  21207412.683   111445707.051        2892.790          43.000  
  23917336.664   125686446.799       -1312.633          41.000  
  22486590.703   118167846.607        3142.536          36.000  
 23  8 28 15 17 32.9950000  0  9G 6G 7G 9G11G20G30G 5G29G13
  21942537.787   115308781.957       -3780.549          42.000  
  19588369.728   102937562.688        -220.271          47.000  
  20871350.640   109679697.968       -2875.785          36.000  
  20367489.266   107031856.001       -1906.230          45.000  
  19266476.660   101246031.893        1323.566          46.000  
  19914245.904   104650067.777        1795.165          47.000  
  21206862.660   111442814.252        2893.152          43.000  
  23917586.508   125687759.597       -1312.641          41.000  
  22485993.129   118164704.661        3141.850          36.000  
 23  8 28 15 17 33.9950000  0  9G 6G 7G 9G11G20G30G 5G29G13
  21943257.007   115312562.635       -3780.658          43.000  
  19588411.434   102937783.362        -220.836          47.000  
  20871898.254   109682574.277       -2877.033          36.000  
  20367851.942   107033762.739       -1907.022          45.000  
  19266224.687   101244708.718        1322.827          46.000  
  19913904.081   104648273.015        1794.814          47.000  
  21206312.481   111439921.727        2892.284          43.000  
  23917836.578   125689072.943       -1313.356          40.000  
  22485395.372   118161562.838        3142.051          37.000  
 23  8 28 15 17 34.9950000  0  9G 6G 7G 9G11G20G30G 5G29G13
  21943976.060   115316343.203       -3780.906          43.000  
  19588453.262   102938004.285        -221.505          46.000  
  20872445.868   109685450.426       -2876.321          36.000  
  20368214.575   107035669.768       -1907.438          45.000  
  19265973.247   101243385.737        1322.595          46.000  
  19913562.685   104646478.481        1794.158          47.000  
  21205762.110   111437029.107        2892.581          43.000  
  23918086.518   125690386.537       -1314.076          39.000  
  22484798.033   118158420.818        3141.901          38.000  
 23  8 28 15 17 35.9950000  0  9G 6G 7G 9G11G20G30G 5G29G13
  21944695.437   115320123.866       -3781.271          43.000  
  19588495.518   102938225.644        -221.941          47.000  
  20872993.499   109688326.752       -2876.644          37.000  
  20368577.601   107037577.323       -1908.161          45.000  
  19265721.484   101242063.214        1321.979          46.000  
  19913221.280   104644684.343        1793.718          47.000  
  21205211.870   111434136.711        2892.194          43.000  
  23918336.876   125691700.600       -1314.558          39.000  
  22484200.555   118155278.876        3141.986          38.000  
 23  8 28 15 17 36.9950000  0  9G 6G 7G 9G11G20G30G 5G29G13
  21945414.639   115323905.008       -3781.456          43.000  
  19588537.835   102938447.835        -222.447          47.000  
  20873541.096   109691203.555       -2877.397          37.000  
  20368940.356   107039485.759       -1908.848          45.000  
  19265469.643   101240741.465        1321.265          46.000  
  19912880.259   104642890.987        1793.210          47.000  
  21204661.691   111431244.836        2891.793          42.000  
  23918587.417   125693015.565       -1315.478          40.000  
  22483603.104   118152137.338        3141.193          38.000  
 23  8 28 15 17 37.9950000  0  9G 6G 7G 9G11G20G30G 5G29G13
  21946133.998   115327686.521       -3781.352          43.000  
  19588580.247   102938670.721        -222.820          47.000  
  20874089.032   109694080.701       -2876.653          37.000  
  20369304.150   107041394.947       -1909.190          45.000  
  19265217.879   101239420.396        1321.161          46.000  
  19912539.151   104641098.293        1792.742          47.000  
  21204111.320   111428353.411        2891.457          42.000  
  23918838.072   125694331.140       -1315.298          40.000  
  22483005.399   118148996.151        3141.235          38.000  
 23  8 28 15 17 38.9950000  0  9G 6G 7G 9G11G20G30G 5G29G13
  21946854.020   115331468.135       -3781.870          43.000  
  19588622.747   102938894.079        -223.536          47.000  
  20874636.646   109696957.960       -2876.851          37.000  
  20369667.873   107043304.673       -1909.724          45.000  
  19264966.605   101238099.767        1320.172          46.000  
  19912197.790   104639306.012        1791.862          47.000  
  21203560.722   111425462.135        2891.068          43.000  
  23919088.893   125695647.296       -1316.416          39.000  
  22482407.685   118145854.956        3140.912          39.000  
 23  8 28 15 17 39.9950000  0 10G 6G 7G 9G11G20G30G 5G29G13G 4
  21947573.737   115335249.987       -3782.107          43.000  
  19588665.029   102939118.049        -224.288          47.000  
  20875184.592   109699835.564       -2877.641          37.000  
  20370031.082   107045215.056       -1910.731          45.000  
  19264715.121   101236779.707        1319.824          46.000  
  19911857.135   104637514.308        1791.469          47.000  
  21203010.263   111422571.207        2890.828          42.000  
  23919339.653   125696963.990       -1317.214          40.000  
  22481810.015   118142714.021        3140.765          38.000  
  23407470.287                       -3429.000          13.000  
 23  8 28 15 17 40.9950000  0 10G 6G 7G 9G11G20G30G 5G29G13G 4
  21948293.061   115339032.093       -3781.932          42.000  
  19588707.695   102939342.631        -224.726          47.000  
  20875732.450   109702713.432       -2877.891          37.000  
  20370394.046   107047126.104       -1911.088          45.000  
  19264463.890   101235460.248        1319.458          46.000  
  19911516.568   104635723.176        1790.881          47.000  
  21202460.049   111419680.592        2890.597          42.000  
  23919590.028   125698281.411       -1317.466          38.000  
  22481212.467   118139573.280        3140.991          38.000  
  23408123.510                       -3429.000          11.000  
 23  8 28 15 17 41.9950000  0  9G 6G 7G 9G11G20G30G 5G29G13
  21949012.690   115342814.288       -3782.730          42.000  
  19588750.509   102939567.617        -225.725          47.000  
  20876280.343   109705591.340       -2878.482          37.000  
  20370757.657   107049037.644       -1912.342          45.000  
  19264212.921   101234141.169        1318.536          46.000  
  19911175.774   104633932.394        1790.027          47.000  
  21201909.818   111416790.135        2890.120          42.000  
  23919840.640   125699599.210       -1318.321          39.000  
  22480614.649   118136432.553        3140.008          38.000  
 23  8 28 15 17 42.9950000  0  9G 6G 7G 9G11G20G30G 5G29G13
  21949732.067   115346596.649       -3782.685          42.000  
  19588793.062   102939793.147        -226.101          47.000  
  20876828.333   109708469.480       -2878.465          37.000  
  20371121.110   107050949.766       -1912.735          44.000  
  19263962.092   101232822.597        1318.219          46.000  
  19910835.190   104632142.119        1789.739          48.000  
  21201359.822   111413899.937        2889.828          42.000  
  23920091.591   125700917.550       -1319.015          40.000  
  22480017.293   118133291.946        3140.558          38.000  
 23  8 28 15 17 43.9950000  0  9G 6G 7G 9G11G20G30G 5G29G13
  21950451.505   115350379.057       -3782.414          42.000  
  19588836.277   102940019.081        -226.348          47.000  
  20877376.331   109711347.663       -2878.271          36.000  
  20371484.694   107052862.336       -1913.009          44.000  
  19263711.437   101231504.395        1318.060          46.000  
  19910494.640   104630352.189        1789.762          48.000  
  21200809.337   111411009.840        2890.138          42.000  
  23920342.307   125702236.298       -1318.818          40.000  
  22479419.763   118130151.327        3141.058          39.000  
 23  8 28 15 17 44.9950000  0  9G 6G 7G 9G11G20G30G 5G29G13
  21951171.125   115354161.864       -3782.910          42.000  
  19588879.239   102940245.774        -227.096          47.000  
  20877924.032   109714226.298       -2879.070          36.000  
  20371848.260   107054775.747       -1913.762          44.000  
  19263461.009   101230186.943        1317.041          46.000  
  19910154.108   104628562.985        1788.806          47.000  
  21200259.603   111408120.257        2889.376          43.000  
  23920592.980   125703555.865       -1320.094          38.000  
  22478822.206   118127011.148        3139.886          38.000  
 23  8 28 15 17 45.9950000  0  9G 6G 7G 9G11G20G30G 5G29G13
  21951890.868   115357944.888       -3783.444          42.000  
  19588922.725   102940473.019        -227.800          47.000  
  20878471.864   109717105.145       -2878.954          36.000  
  20372212.263   107056689.746       -1914.540          43.000  
  19263210.380   101228870.005        1316.443          46.000  
  19909813.636   104626774.285        1788.206          47.000  
  21199710.156   111405230.939        2888.666          43.000  
  23920843.574   125704875.941       -1320.453          38.000  
  22478224.728   118123871.024        3139.960          38.000  
 23  8 28 15 17 46.9950000  0  9G 6G 7G 9G11G20G30G 5G29G13
  21952610.507   115361728.002       -3783.112          42.000  
  19588965.950   102940700.724        -227.954          47.000  
  20879019.748   109719984.137       -2879.626          36.000  
  20372576.650   107058604.279       -1914.816          43.000  
  19262959.935   101227553.493        1316.180          46.000  
  19909473.165   104624986.004        1787.952          47.000  
  21199160.684   111402341.794        2888.887          43.000  
  23921094.586   125706196.527       -1320.846          38.000  
  22477627.626   118120731.012        3140.356          38.000  
 23  8 28 15 17 47.9950000  0  9G 6G 7G 9G11G20G30G 5G29G13
  21953330.389   115365511.458       -3783.692          42.000  
  19589009.462   102940929.106        -228.680          47.000  
  20879567.642   109722863.420       -2879.571          36.000  
  20372941.368   107060519.535       -1915.674          44.000  
  19262709.402   101226237.643        1315.411          46.000  
  19909132.746   104623198.350        1787.511          47.000  
  21198610.967   111399453.067        2888.511          43.000  
  23921346.183   125707517.809       -1321.724          39.000  
  22477030.113   118117591.265        3140.112          37.000  
 23  8 28 15 17 48.9950000  0  9G 6G 7G 9G11G20G30G 5G29G13
  21954050.019   115369295.224       -3783.828          42.000  
  19589052.974   102941158.170        -229.177          47.000  
  20880115.823   109725743.063       -2879.384          37.000  
  20373305.833   107062435.545       -1916.187          44.000  
  19262459.035   101224922.433        1315.039          45.000  
  19908792.528   104621411.336        1786.864          47.000  
  21198061.774   111396564.764        2888.314          43.000  
  23921597.877   125708839.746       -1322.016          39.000  
  22476432.547   118114451.800        3139.551          37.000  
 23  8 28 15 17 49.9950000  0  9G 6G 7G 9G11G20G30G 5G29G13
  21954769.875   115373079.130       -3783.924          42.000  
  19589096.678   102941387.705        -229.665          47.000  
  20880664.178   109728622.866       -2879.508          37.000  
  20373670.953   107064352.080       -1916.894          44.000  
  19262208.973   101223607.675        1314.539          45.000  
  19908452.554   104619624.767        1786.245          47.000  
  21197512.127   111393676.633        2888.162          43.000  
  23921849.378   125710162.206       -1322.761          38.000  
  22475835.637   118111312.415        3139.447          38.000  
 23  8 28 15 17 50.9950000  0  9G 6G 7G 9G11G20G30G 5G29G13
  21955489.906   115376863.433       -3784.428          42.000  
  19589140.652   102941618.012        -230.370          47.000  
  20881212.464   109731503.124       -2880.613          37.000  
  20374035.855   107066269.433       -1917.457          44.000  
  19261958.807   101222293.658        1313.983          46.000  
  19908112.807   104617838.914        1785.754          47.000  
  21196962.977   111390788.964        2887.765          43.000  
  23922101.036   125711485.458       -1323.731          38.000  
  22475238.473   118108173.402        3138.898          38.000  
 23  8 28 15 17 51.9950000  0  9G 6G 7G 9G11G20G30G 5G29G13
  21956209.911   115380647.730       -3784.246          42.000  
  19589184.758   102941848.666        -230.676          47.000  
  20881760.907   109734383.333       -2879.995          37.000  
  20374401.166   107068187.186       -1917.821          44.000  
  19261709.147   101220979.957        1313.770          46.000  
  19907773.121   104616053.368        1785.657          47.000  
  21196413.627   111387901.393        2887.794          43.000  
  23922352.686   125712809.019       -1323.808          38.000  
  22474641.239   118105034.328        3139.081          38.000  
 23  8 28 15 17 52.9950000  0  9G 6G 7G 9G11G20G30G 5G29G13
  21956930.107   115384432.284       -3784.715          42.000  
  19589228.689   102942079.932        -231.403          46.000  
  20882309.080   109737263.874       -2880.356          37.000  
  20374766.286   107070105.642       -1918.633          44.000  
  19261458.754   101219666.850        1312.878          45.000  
  19907433.540   104614268.393        1784.833          47.000  
  21195864.128   111385014.196        2887.019          43.000  
  23922604.632   125714133.243       -1324.503          37.000  
  22474044.075   118101895.459        3138.702          38.000  
 23  8 28 15 17 53.9950000  0  9G 6G 7G 9G11G20G30G 5G29G13
  21957650.356   115388217.029       -3784.846          42.000  
  19589272.663   102942311.756        -231.881          46.000  
  20882857.531   109740144.612       -2880.824          37.000  
  20375131.240   107072024.686       -1919.198          44.000  
  19261209.067   101218354.270        1312.360          46.000  
  19907094.290   104612483.933        1784.250          48.000  
  21195314.874   111382127.246        2886.907          43.000  
  23922856.203   125715458.019       -1325.011          37.000  
  22473447.295   118098756.801        3138.366          38.000  
 23  8 28 15 17 54.9950000  0  9G 6G 7G 9G11G20G30G 5G29G13
  21958370.492   115392001.886       -3784.777          42.000  
  19589316.586   102942544.014        -232.198          46.000  
  20883405.791   109743025.467       -2880.626          36.000  
  20375496.333   107073944.231       -1919.622          44.000  
  19260959.477   101217042.097        1312.189          45.000  
  19906754.823   104610699.875        1784.025          47.000  
  21194765.489   111379240.468        2887.103          43.000  
  23923107.835   125716783.270       -1325.218          37.000  
  22472849.485   118095618.119        3138.757          37.000  
