     2.10           OBSERVATION DATA    M (MIXED)           RINEX VERSION / TYPE
RTKCONV 2.4.2                           20231219 145112 UTC PGM / RUN BY / DATE 
log: C:\Users\adminlocal\Desktop\verniquet\verniquet\micro  COMMENT             
format: u-blox                                              COMMENT             
                                                            MARKER NAME         
                                                            MARKER NUMBER       
                                                            OBSERVER / AGENCY   
                                                            REC # / TYPE / VERS 
                                                            ANT # / TYPE        
  4202098.6351   178654.0760  4778969.3673                  APPROX POSITION XYZ 
        0.0000        0.0000        0.0000                  ANTENNA: DELTA H/E/N
     1     1                                                WAVELENGTH FACT L1/2
     4    C1    L1    D1    S1                              # / TYPES OF OBSERV 
  2023    12    19    10    56   19.9970000     GPS         TIME OF FIRST OBS   
  2023    12    19    11    45   30.9970000     GPS         TIME OF LAST OBS    
                                                            END OF HEADER       
 23 12 19 10 56 19.9970000  0 12G 5G13G23G15G22G24G17E 2E 5G14E 3G30
  21560496.645   113301164.594       -3009.079          47.000  
  19113880.430   100444116.556        -552.361          48.000  
  22551494.868   118508913.291        2769.195          45.000  
  19474385.272   102338578.502        1691.245          48.000  
  20169608.735   105992012.428         199.166          48.000  
  21533936.131   113161612.2172       3220.512          43.000  
  23479189.015   123383976.0972       2790.581          38.000  
  23331667.769   122608746.919        2147.693          44.000  
  26124614.155   137285778.905       -2558.452          37.000  
  20469170.707   107566214.1152       -939.229          47.000  
  23335001.485   122626270.605       -1435.357          45.000  
  22272740.152   117044030.5072      -2664.696          45.000  
 23 12 19 10 56 20.9970000  0 12G 5G13G23G15G22G24G17E 2E 5G14E 3G30
  21561069.553   113304173.592       -3009.176          47.000  
  19113985.184   100444668.920        -552.569          48.000  
  22550968.107   118506144.153        2768.919          45.000  
  19474063.185   102336887.264        1691.042          48.000  
  20169571.095   105991813.440         198.537          48.000  
  21533323.053   113158391.6342       3220.294          43.000  
  23478658.223   123381185.7152       2790.142          38.000  
  23331259.076   122606599.209        2147.522          44.000  
  26125101.007   137288337.319       -2558.165          37.000  
  20469349.398   107567153.2792       -939.425          47.000  
  23335274.651   122627705.819       -1435.133          45.000  
  22273247.334   117046694.8402      -2664.477          44.000  
 23 12 19 10 56 21.9970000  0 12G 5G13G23G15G22G24G17E 2E 5G14E 3G30
  21561642.278   113307183.226       -3010.247          47.000  
  19114090.757   100445222.034        -553.728          48.000  
  22550441.259   118503375.755        2767.856          45.000  
  19473741.490   102335196.829        1689.857          48.000  
  20169533.359   105991615.317         197.565          48.000  
  21532709.870   113155171.5812       3219.501          42.000  
  23478127.702   123378395.7962       2789.302          38.000  
  23330850.907   122604452.104        2146.774          44.000  
  26125588.261   137290896.042       -2558.776          37.000  
  20469528.079   107568093.3002       -940.370          47.000  
  23335547.982   122629141.591       -1436.452          45.000  
  22273754.219   117049359.5972      -2665.186          45.000  
 23 12 19 10 56 22.9970000  0 12G 5G13G23G15G22G24G17E 2E 5G14E 3G30
  21562215.378   113310193.797       -3010.356          47.000  
  19114196.061   100445776.212        -554.135          48.000  
  22549914.498   118500608.415        2767.402          45.000  
  19473420.240   102333507.508        1689.545          48.000  
  20169495.675   105991418.436         196.959          48.000  
  21532097.070   113151952.3702       3219.601          42.000  
  23477597.058   123375606.7072       2789.148          38.000  
  23330442.450   122602305.974        2146.234          44.000  
  26126075.209   137293455.431       -2559.037          37.000  
  20469707.214   107569034.5282       -941.125          47.000  
  23335821.331   122630578.180       -1436.317          45.000  
  22274261.854   117052025.0912      -2665.174          45.000  
 23 12 19 10 56 23.9970000  0 12G 5G13G23G15G22G24G17E 2E 5G14E 3G30
  21562788.452   113313204.500       -3011.254          47.000  
  19114301.312   100446330.631        -554.980          48.000  
  22549387.598   118497841.331        2766.366          44.000  
  19473098.624   102331818.498        1688.456          48.000  
  20169458.401   105991221.958         195.697          48.000  
  21531484.315   113148733.2092       3218.837          42.000  
  23477066.598   123372817.5792       2788.564          38.000  
  23330034.342   122600159.976        2145.506          45.000  
  26126562.297   137296014.640       -2559.798          37.000  
  20469886.524   107569976.1212       -942.289          47.000  
  23336094.549   122632014.826       -1437.186          45.000  
  22274768.940   117054690.4982      -2665.578          45.000  
 23 12 19 10 56 35.9970000  0 12G 5G13G23G15G22G24G17E 2E 5G14E 3G30
  21569665.696   113349352.810       -3012.221          46.000  
  19115573.276   100453013.150        -557.357          48.000  
  22543075.575   118464665.274        2764.345          45.000  
  19469246.549   102311583.985        1685.458          47.000  
  20169016.623   105988905.679         191.555          48.000  
  21524136.028   113110115.793        3218.818          43.000  
  23470701.552   123339356.5191       2789.221          38.000  
  23325136.641   122574428.903        2144.358          45.000  
  26132405.389   137326722.013       -2557.095          37.000  
  20472045.334   107581314.027        -945.985          48.000  
  23339378.331   122649267.096       -1437.033          45.000  
  22280857.190   117086679.011       -2664.138          45.000  
 23 12 19 10 56 36.9970000  0 12G 5G13G23G15G22G24G17E 2E 5G14E 3G30
  21570239.102   113352364.810       -3012.151          46.000  
  19115679.539   100453570.487        -557.676          48.000  
  22542549.869   118461901.039        2763.983          45.000  
  19468926.024   102309898.585        1685.080          47.000  
  20168980.117   105988714.117         191.037          48.000  
  21523523.604   113106896.736        3218.555          43.000  
  23470170.717   123336566.868        2789.586          39.000  
  23324728.324   122572284.386        2144.255          45.000  
  26132892.014   137329278.687       -2556.703          36.000  
  20472225.063   107582260.091        -946.448          48.000  
  23339651.654   122650703.839       -1437.003          45.000  
  22281364.241   117089343.021       -2664.274          45.000  
 23 12 19 10 56 37.9970000  0 12G 5G13G23G15G22G24G17E 2E 5G14E 3G30
  21570812.481   113355377.349       -3012.742          46.000  
  19115785.618   100454128.475        -558.202          48.000  
  22542024.225   118459137.446        2763.540          45.000  
  19468605.420   102308213.894        1684.505          47.000  
  20168943.829   105988523.362         190.437          48.000  
  21522911.407   113103678.083        3218.830          43.000  
  23469639.890   123333777.630        2788.898          38.000  
  23324320.128   122570140.417        2143.621          45.000  
  26133378.692   137331835.601       -2556.866          36.000  
  20472404.939   107583206.919        -947.076          48.000  
  23339924.994   122652141.016       -1437.374          45.000  
  22281871.240   117092007.341       -2664.321          45.000  
 23 12 19 10 56 38.9970000  0 12G 5G13G23G15G22G24G17E 2E 5G14E 3G30
  21571386.131   113358390.207       -3013.188          46.000  
  19115891.751   100454686.904        -558.799          48.000  
  22541498.433   118456374.294        2762.539          45.000  
  19468284.877   102306529.704        1683.781          47.000  
  20168907.952   105988333.205         189.438          48.000  
  21522299.052   113100459.689        3217.908          43.000  
  23469108.993   123330988.538        2789.007          38.000  
  23323912.491   122567996.784        2143.137          45.000  
  26133865.126   137334392.547       -2557.010          36.000  
  20472585.174   107584154.312        -947.812          48.000  
  23340198.343   122653578.421       -1437.692          45.000  
  22282378.073   117094671.776       -2664.670          45.000  
 23 12 19 10 56 39.9970000  0 12G 5G13G23G15G22G24G17E 2E 5G14E 3G30
  21571960.025   113361405.213       -3022.705          46.000  
  19115998.590   100455247.607        -568.533          48.000  
  22540973.042   118453613.403        2753.067          45.000  
  19467964.735   102304847.830        1674.092          47.000  
  20168872.222   105988145.455         179.843          48.000  
  21521687.265   113097243.338        3208.671          43.000  
  23468578.506   123328201.477        2779.411          38.000  
  23323505.002   122565855.276        2134.110          45.000  
  26134352.030   137336951.329       -2566.233          36.000  
  20472765.758   107585104.091        -957.572          48.000  
  23340471.971   122655017.859       -1446.844          45.000  
  22282885.586   117097338.152       -2674.097          45.000  
 23 12 19 10 56 40.9970000  0 12G 5G13G23G15G22G24G17E 2E 5G14E 3G30
  21572532.628   113364413.998       -3009.229          45.000  
  19116104.399   100455802.213        -555.012          47.000  
  22540446.656   118450846.417        2766.568          43.000  
  19467643.930   102303159.926        1687.477          46.000  
  20168835.795   105987951.783         193.001          47.000  
  21521074.265   113094020.667        3222.379          42.000  
  23468046.859   123325408.076        2792.962          36.000  
  23323096.423   122563707.634        2146.742          43.000  
  26134837.757   137339503.609       -2552.597          34.000  
  20472945.521   107586047.912        -944.333          46.000  
  23340745.058   122656451.040       -1433.668          43.000  
  22283391.861   117099998.103       -2659.984          43.000  
 23 12 19 10 56 41.9970000  0 12G 5G13G23G15G22G24G17E 2E 5G14E 3G30
  21573105.588   113367423.334       -3016.195          45.000  
  19116210.270   100456357.500        -562.270          47.000  
  22539920.471   118448080.104        2759.666          43.000  
  19467323.169   102301472.754        1680.215          46.000  
  20168799.289   105987758.928         185.985          47.000  
  21520461.169   113090798.491        3215.009          42.000  
  23467515.509   123322615.103        2786.085          37.000  
  23322688.123   122561560.499        2140.522          43.000  
  26135323.528   137342056.138       -2558.839          35.000  
  20473125.311   107586992.526        -951.663          46.000  
  23341017.945   122657884.644       -1440.136          44.000  
  22283898.135   117102658.422       -2667.272          44.000  
 23 12 19 10 56 42.9970000  0 12G 5G13G23G15G22G24G17E 2E 5G14E 3G30
  21573679.805   113370439.220       -3014.171          45.000  
  19116317.143   100456919.464        -560.578          47.000  
  22539395.280   118445320.482        2761.295          43.000  
  19467003.446   102299792.318        1681.961          46.000  
  20168763.787   105987572.940         187.201          47.000  
  21519849.408   113087582.738        3217.545          42.000  
  23466985.546   123319828.524        2788.073          37.000  
  23322280.957   122559419.983        2141.622          43.000  
  26135810.389   137344614.984       -2557.998          35.000  
  20473306.243   107587943.935        -950.070          46.000  
  23341292.384   122659324.761       -1439.239          44.000  
  22284405.771   117105325.069       -2665.275          44.000  
 23 12 19 10 56 43.9970000  0 12G 5G13G23G15G22G24G17E 2E 5G14E 3G30
  21574253.629   113373454.135       -3011.609          47.000  
  19116424.070   100457480.569        -558.038          48.000  
  22538870.098   118442559.995        2763.750          45.000  
  19466683.496   102298111.069        1684.405          48.000  
  20168728.040   105987386.206         190.053          48.000  
  21519237.158   113084365.934        3220.127          43.000  
  23466454.989   123317040.821        2791.174          37.000  
  23321873.538   122557278.476        2144.356          44.000  
  26136297.512   137347172.499       -2554.770          36.000  
  20473487.324   107588894.586        -947.258          48.000  
  23341566.152   122660763.744       -1436.098          45.000  
  22284913.197   117107990.507       -2661.929          45.000  
 23 12 19 10 56 44.9970000  0 12G 5G13G23G15G22G24G17E 2E 5G14E 3G30
  21574826.720   113376464.735       -3015.728          47.000  
  19116530.359   100458037.487        -562.229          48.000  
  22538344.210   118439795.314        2759.286          45.000  
  19466363.067   102296425.703        1679.849          48.000  
  20168691.866   105987195.477         185.301          48.000  
  21518624.324   113081144.758        3215.658          44.000  
  23465923.787   123314248.686        2787.188          38.000  
  23321465.089   122555136.6481       2140.682          44.000  
  26136783.116                       -2557.390          36.000  
  20473667.628   107589841.211        -952.086          48.000  
  23341839.013   122662202.3231      -1439.368          45.000  
  22285419.611   117110651.456       -2666.151          45.000  
 23 12 19 10 56 45.9970000  0 12G 5G13G23G15G22G24G17E 2E 5G14E 3G30
  21575400.361   113379480.259       -3015.540          46.000  
  19116637.276   100458599.453        -562.158          48.000  
  22537818.976   118437035.661        2759.564          45.000  
  19466043.257   102294745.414        1680.184          48.000  
  20168656.599   105987009.943         185.237          48.000  
  21518012.398   113077928.366        3216.061          44.000  
  23465393.440   123311461.336        2787.350          38.000  
  23321058.037   122552995.795        2140.775          44.000  
  26137269.646   137352289.9371      -2557.566          37.000  
  20473848.779   107590792.973        -951.964          48.000  
  23342113.269   122663641.770       -1439.510          45.000  
  22285926.845   117113317.106       -2665.679          45.000  
 23 12 19 10 56 46.9970000  0 13G 5G13E25G23G15G22G24G17E 2E 5G14E 3
                                G30
  21575974.369   113382496.398       -3016.682          46.000  
  19116744.421   100459162.148        -563.300          48.000  
  23411087.820   123026106.607        -700.807          46.000  
  22537293.907   118434276.762        2758.016          44.000  
  19465723.918   102293065.933        1678.831          47.000  
  20168621.472   105986825.287         184.022          47.000  
  21517400.698   113074712.516        3215.414          43.000  
  23464863.285   123308674.448        2786.582          38.000  
  23320650.958   122550855.539        2139.666          44.000  
  26137756.542   137354847.802       -2558.281          36.000  
  20474030.514   107591745.599        -953.340          47.000  
  23342387.674   122665081.730       -1440.619          44.000  
  22286434.411   117115983.158       -2666.441          44.000  
 23 12 19 10 56 47.9970000  0 13G 5G13E25G23G15G22G24G17E 2E 5G14E 3
                                G30
  21576548.490   113385513.376       -3015.881          46.000  
  19116851.914   100459725.836        -562.762          47.000  
  23411226.078   123026807.660        -700.181          46.000  
  22536769.127   118431518.828        2759.006          44.000  
  19465404.675   102291387.498        1679.420          47.000  
  20168586.274   105986641.783         184.469          47.000  
  21516789.111   113071497.433        3216.244          43.000  
  23464332.895   123305888.297        2787.560          38.000  
  23320244.098   122548716.189        2140.418          44.000  
  26138243.272   137357406.251       -2557.595          36.000  
  20474212.032   107592699.323        -952.650          47.000  
  23342661.869   122666522.446       -1439.624          44.000  
  22286941.654   117118649.868       -2665.633          44.000  
 23 12 19 10 56 48.9970000  0 13G 5G13E25G23G15G22G24G17E 2E 5G14E 3
                                G30
  21577122.803   113388532.179       -3019.114          46.000  
  19116959.259   100460291.469        -565.922          47.000  
  23411358.569   123027510.592        -703.233          46.000  
  22536244.731   118428762.864        2755.664          44.000  
  19465085.807   102289711.057        1676.205          47.000  
  20168551.985   105986460.382         180.920          47.000  
  21516177.734   113068284.079        3213.405          43.000  
  23463802.958   123303103.850        2784.113          38.000  
  23319837.167   122546578.661        2137.356          44.000  
  26138730.281   137359966.196       -2560.073          36.000  
  20474394.003   107593655.127        -956.221          47.000  
  23342936.352   122667964.913       -1442.582          44.000  
  22287449.289   117121318.203       -2668.556          44.000  
 23 12 19 10 56 49.9970000  0 13G 5G13E25G23G15G22G24G17E 2E 5G14E 3
                                G30
  21577696.836   113391548.660       -3018.459          45.000  
  19117066.220   100460854.914        -565.583          47.000  
  23411493.563   123028211.288        -702.583          46.000  
  22535720.002   118426004.704        2755.917          44.000  
  19464766.442   102288032.474        1676.605          46.000  
  20168517.154   105986276.937         181.507          47.000  
  21515565.589   113065068.328        3213.927          43.000  
  23463272.829   123300316.933        2784.873          37.000  
  23319429.731   122544438.829        2138.161          43.000  
  26139216.776   137362523.528       -2558.792          35.000  
  20474575.598   107594608.853        -955.833          47.000  
  23343210.556   122669404.958       -1441.642          44.000  
  22287957.152   117123984.015       -2668.013          44.000  
 23 12 19 10 56 50.9970000  0 13G 5G13E25G23G15G22G24G17E 2E 5G14E 3
                                G30
  21578271.079   113394566.429       -3017.789          45.000  
  19117173.748   100461419.754        -564.926          47.000  
  23411627.572   123028913.350        -702.178          46.000  
  22535195.615   118423247.940        2756.666          44.000  
  19464447.164   102286355.362        1676.967          46.000  
  20168483.074   105986095.065         181.719          47.000  
  21514953.889   113061853.779        3214.415          43.000  
  23462742.691   123297531.130        2785.677          37.000  
  23319022.731   122542300.330        2138.358          44.000  
  26139703.620   137365081.920       -2558.489          35.000  
  20474757.499   107595564.110        -955.522          47.000  
  23343484.795   122670846.213       -1441.289          44.000  
  22288464.840   117126650.876       -2666.826          44.000  
 23 12 19 10 56 51.9970000  0 13G 5G13E25G23G15G22G24G17E 2E 5G14E 3
                                G30
  21578845.593   113397584.590       -3018.639          45.000  
  19117281.224   100461985.117        -565.945          46.000  
  23411761.171   123029615.884        -703.177          46.000  
  22534671.157   118420491.688        2755.643          44.000  
  19464128.043   102284678.822        1675.915          46.000  
  20168448.636   105985913.867         180.487          47.000  
  21514342.233   113058639.504        3213.809          43.000  
  23462212.615   123294745.606        2785.238          37.000  
  23318616.341   122540162.209        2137.489          44.000  
  26140190.585   137367640.325       -2558.735          35.000  
  20474939.252   107596519.994        -956.481          47.000  
  23343759.235   122672287.741       -1441.749          44.000  
  22288972.467   117129317.933       -2667.391          44.000  
 23 12 19 10 56 52.9970000  0 13G 5G13E25G23G15G22G24G17E 2E 5G14E 3
                                G30
  21579419.914   113400602.857       -3018.357          45.000  
  19117388.918   100462550.713        -565.916          46.000  
  23411894.822   123030318.583        -703.073          46.000  
  22534146.691   118417735.660        2755.761          44.000  
  19463808.966   102283002.557        1675.906          46.000  
  20168414.145   105985733.032         180.350          47.000  
  21513730.751   113055425.247        3214.125          43.000  
  23461682.791   123291960.043        2785.786          37.000  
  23318209.760   122538024.221        2137.535          44.000  
  26140677.028   137370198.581       -2558.275          35.000  
  20475121.022   107597476.236        -956.749          47.000  
  23344033.290   122673729.319       -1441.831          44.000  
  22289480.111   117131984.867       -2666.911          44.000  
 23 12 19 10 56 53.9970000  0 13G 5G13E25G23G15G22G24G17E 2E 5G14E 3
                                G30
  21579994.576   113403621.867       -3019.660          45.000  
  19117496.586   100463117.159        -567.047          47.000  
  23412028.474   123031022.091        -704.264          46.000  
  22533622.678   118414980.488        2754.662          44.000  
  19463490.063   102281327.203        1674.645          46.000  
  20168379.995   105985553.219         178.873          47.000  
  21513119.077   113052211.648        3212.968          43.000  
  23461152.845   123289175.079        2784.415          37.000  
  23317803.144   122535886.965        2136.560          44.000  
  26141163.671   137372757.245       -2558.769          34.000  
  20475303.054   107598433.436        -957.985          47.000  
  23344308.026   122675171.514       -1442.741          44.000  
  22289987.895   117134652.356       -2668.049          44.000  
 23 12 19 10 56 54.9970000  0 13G 5G13E25G23G15G22G24G17E 2E 5G14E 3
                                G30
  21580569.299   113406641.355       -3019.822          45.000  
  19117604.350   100463684.202        -567.489          46.000  
  23412162.535   123031726.138        -704.268          46.000  
  22533098.517   118412225.924        2754.152          44.000  
  19463171.230   102279652.519        1674.379          46.000  
  20168345.950   105985374.134         178.719          47.000  
  21512507.770   113048998.428        3212.836          43.000  
  23460623.004   123286390.456        2784.702          38.000  
  23317396.606   122533750.215        2136.329          44.000  
  26141650.671   137375316.122       -2558.982          35.000  
  20475485.208   107599391.369        -958.392          47.000  
  23344582.387   122676614.086       -1442.696          44.000  
  22290495.644   117137320.088       -2667.626          44.000  
 23 12 19 10 56 55.9970000  0 13G 5G13E25G23G15G22G24G17E 2E 5G14E 3
                                G30
  21581144.005   113409661.300       -3020.825          45.000  
  19117712.000   100464251.844        -568.263          46.000  
  23412296.701   123032430.750        -705.324          46.000  
  22532574.208   118409471.938        2753.300          44.000  
  19462852.886   102277978.474        1673.465          46.000  
  20168312.079   105985195.836         177.454          47.000  
  21511896.288   113045785.596        3211.985          43.000  
  23460093.181   123283606.163        2783.853          38.000  
  23316990.156   122531613.946        2135.599          44.000  
  26142137.480   137377875.170       -2559.549          34.000  
  20475667.633   107600350.006        -959.370          47.000  
  23344856.967   122678057.046       -1443.345          44.000  
  22291003.236   117139988.092       -2668.355          44.000  
 23 12 19 10 56 56.9970000  0 13G 5G13E25G23G15G22G24G17E 2E 5G14E 3
                                G30
  21581718.937   113412681.717       -3020.581          45.000  
  19117820.296   100464820.109        -568.587          46.000  
  23412430.911   123033135.912        -705.439          46.000  
  22532050.274   118406718.572        2753.199          44.000  
  19462534.550   102276305.115        1672.854          46.000  
  20168278.217   105985018.298         177.192          47.000  
  21511284.894   113042573.141        3212.270          43.000  
  23459563.680   123280822.238        2784.134          37.000  
  23316583.827   122529478.185        2135.601          44.000  
  26142624.542   137380434.454       -2560.064          34.000  
  20475850.319   107601309.389        -959.779          47.000  
  23345132.061   122679500.405       -1443.376          44.000  
  22291510.845   117142656.403       -2668.351          44.000  
 23 12 19 10 56 57.9970000  0 13G 5G13E25G23G15G22G24G17E 2E 5G14E 3
                                G30
  21582293.634   113415702.588       -3021.343          45.000  
  19117928.680   100465388.942        -569.468          46.000  
  23412565.077   123033841.603        -706.222          46.000  
  22531526.200   118403965.787        2752.206          44.000  
  19462216.459   102274632.385        1672.119          46.000  
  20168244.713   105984841.500         175.975          47.000  
  21510673.595   113039361.071        3211.520          43.000  
  23459033.752   123278038.649        2783.090          37.000  
  23316177.429   122527342.895        2134.800          44.000  
  26143111.647   137382993.841       -2560.190          34.000  
  20476032.910   107602269.478        -960.940          47.000  
  23345406.701   122680944.144       -1444.238          44.000  
  22292018.742   117145324.936       -2669.047          44.000  
 23 12 19 10 56 58.9970000  0 13G 5G13E25G23G15G22G24G17E 2E 5G14E 3
                                G30
  21582868.531   113418723.944       -3021.742          45.000  
  19118036.923   100465958.360        -569.691          46.000  
  23412699.208   123034547.852        -706.465          46.000  
  22531002.825   118401213.599        2751.766          44.000  
  19461898.429   102272960.295        1671.753          46.000  
  20168211.156   105984665.433         175.803          47.000  
  21510062.724   113036149.363        3211.960          43.000  
  23458504.190   123275255.355        2782.920          38.000  
  23315771.380   122525208.081        2134.751          44.000  
  26143598.473   137385553.410       -2559.760          34.000  
  20476215.674   107603230.251        -961.055          47.000  
  23345681.280   122682388.246       -1444.287          43.000  
  22292526.413   117147993.743       -2668.973          44.000  
 23 12 19 10 56 59.9970000  0 13G 5G13E25G23G15G22G24G17E 2E 5G14E 3
                                G30
  21583443.219   113421745.756       -3021.905          45.000  
  19118145.333   100466528.379        -570.376          46.000  
  23412833.496   123035254.630        -707.076          45.000  
  22530479.231   118398461.991        2751.071          44.000  
  19461580.302   102271288.861        1671.093          45.000  
  20168177.695   105984490.118         174.991          46.000  
  21509451.565   113032938.049        3211.248          42.000  
  23457974.567   123272472.403        2783.022          37.000  
  23315365.505   122523073.758        2133.942          43.000  
  26144085.622   137388113.193       -2560.201          33.000  
  20476398.361   107604191.747        -961.760          46.000  
  23345956.173   122683832.718       -1444.583          43.000  
  22293034.005   117150662.783       -2668.945          43.000  
 23 12 19 10 57  0.9970000  0 13G 5G13E25G23G15G22G24G17E 2E 5G14E 3
                                G30
  21584018.151   113424768.025       -3022.612          45.000  
  19118254.083   100467098.960        -570.922          46.000  
  23412967.801   123035961.932        -707.508          45.000  
  22529955.436   118395710.951        2750.812          44.000  
  19461262.569   102269618.053        1670.574          45.000  
  20168144.470   105984315.533         174.316          46.000  
  21508840.676   113029727.075        3210.903          42.000  
  23457444.962   123269689.764        2782.544          38.000  
  23314959.360   122520939.890        2133.849          43.000  
  26144572.230   137390673.088       -2560.041          33.000  
  20476581.318   107605153.948        -962.542          46.000  
  23346231.058   122685277.565       -1444.980          43.000  
  22293542.138   117153332.089       -2669.412          43.000  
 23 12 19 10 57  1.9970000  0 13G 5G13E25G23G15G22G24G17E 2E 5G14E 3
                                G30
  21584592.970   113427790.833       -3022.907          45.000  
  19118362.754   100467670.232        -571.472          46.000  
  23413102.474   123036669.878        -708.136          45.000  
  22529431.825   118392960.600        2750.219          44.000  
  19460944.216   102267947.980        1670.027          45.000  
  20168111.306   105984141.797         173.382          46.000  
  21508229.535   113026516.589        3210.366          42.000  
  23456915.723   123266907.582        2782.632          37.000  
  23314553.285   122518806.614        2133.191          43.000  
  26145059.379   137393233.216       -2560.004          33.000  
  20476764.501   107606116.943        -963.199          46.000  
  23346505.942   122686722.870       -1445.300          43.000  
  22294050.340   117156001.745       -2669.693          43.000  
 23 12 19 10 57  2.9970000  0 13G 5G13E25G23G15G22G24G17E 2E 5G14E 3
                                G30
  21585168.252   113430814.175       -3023.773          45.000  
  19118471.643   100468242.137        -572.467          46.000  
  23413237.512   123037378.391        -708.894          45.000  
  22528908.703   118390210.897        2749.193          44.000  
  19460626.360   102266278.615        1668.807          45.000  
  20168078.255   105983968.856         172.067          46.000  
  21507618.673   113023306.507        3209.632          42.000  
  23456386.458   123264125.730        2781.786          37.000  
  23314147.419   122516673.849        2132.500          43.000  
  26145547.296   137395793.588       -2560.283          33.000  
  20476947.842   107607080.696        -964.246          46.000  
  23346780.914   122688168.598       -1446.131          43.000  
  22294558.229   117158671.696       -2670.285          43.000  
 23 12 19 10 57  3.9970000  0 13G 5G13E25G23G15G22G24G17E 2E 5G14E 3
                                G30
  21585743.847   113433838.195       -3024.332          45.000  
  19118580.515   100468814.869        -573.066          46.000  
  23413372.280   123038087.693        -709.580          45.000  
  22528385.597   118387461.998        2748.718          43.000  
  19460308.452   102264610.117        1668.202          45.000  
  20168045.300   105983796.869         171.536          46.000  
  21507007.627   113020097.035        3209.306          42.000  
  23455857.010   123261344.448        2781.559          37.000  
  23313741.230   122514541.820        2131.810          43.000  
  26146034.672   137398354.394       -2560.485          33.000  
  20477131.279   107608045.389        -965.125          46.000  
  23347055.991   122689614.925       -1446.463          43.000  
  22295066.405   117161342.128       -2670.426          43.000  
 23 12 19 10 57  4.9970000  0 13G 5G13E25G23G15G22G24G17E 2E 5G14E 3
                                G30
  21586319.216   113436862.896       -3024.987          45.000  
  19118689.457   100469388.390        -573.928          46.000  
  23413507.371   123038797.741        -710.468          45.000  
  22527862.798   118384713.906        2747.637          44.000  
  19459990.998   102262942.467        1667.135          45.000  
  20168012.930   105983625.843         170.364          46.000  
  21506397.114   113016888.176        3208.440          42.000  
  23455327.771   123258563.728        2780.448          38.000  
  23313335.548   122512410.459        2130.919          43.000  
  26146521.708   137400915.582       -2561.127          34.000  
  20477314.951   107609010.991        -966.110          46.000  
  23347331.434   122691061.838       -1447.238          43.000  
  22295574.791   117164013.036       -2671.094          43.000  
 23 12 19 10 57  5.9970000  0 13G 5G13E25G23G15G22G24G17E 2E 5G14E 3
                                G30
  21586894.802   113439888.158       -3025.786          45.000  
  19118798.399   100469962.603        -574.746          46.000  
  23413642.811   123039508.408        -711.232          45.000  
  22527339.788   118381966.479        2747.059          44.000  
  19459673.875   102261275.549        1666.481          45.000  
  20167980.525   105983455.650         169.628          46.000  
  21505786.618   113013679.754        3207.763          42.000  
  23454798.820   123255783.388        2780.446          37.000  
  23312930.406   122510279.691        2130.218          43.000  
  26147009.049   137403476.994       -2562.255          33.000  
  20477498.955   107609977.399        -967.075          46.000  
  23347606.545   122692509.227       -1447.939          43.000  
  22296083.675   117166684.291       -2671.481          43.000  
 23 12 19 10 57  6.9970000  0 13G 5G13E25G23G15G22G24G17E 2E 5G14E 3
                                G30
  21587470.564   113442913.938       -3026.442          45.000  
  19118907.811   100470537.456        -575.376          46.000  
  23413777.998   123040219.688        -711.671          45.000  
  22526817.041   118379219.736        2746.121          44.000  
  19459357.057   102259609.362        1665.677          45.000  
  20167948.181   105983286.272         168.737          46.000  
  21505176.061   113010471.769        3207.489          42.000  
  23454270.087   123253003.500        2779.307          38.000  
  23312524.750   122508149.466        2129.510          43.000  
  26147496.695   137406038.681       -2562.286          33.000  
  20477683.273   107610944.576        -967.723          46.000  
  23347882.093   122693957.045       -1448.053          43.000  
  22296592.008   117169355.865       -2671.851          43.000  
 23 12 19 10 57  7.9970000  0 13G 5G13E25G23G15G22G24G17E 2E 5G14E 3
                                G30
  21588046.368   113445940.326       -3026.376          45.000  
  19119017.556   100471113.084        -575.916          46.000  
  23413913.813   123040931.674        -712.274          45.000  
  22526294.529   118376473.725        2745.881          44.000  
  19459040.519   102257943.966        1665.112          45.000  
  20167916.090   105983117.802         168.109          46.000  
  21504565.443   113007264.334        3207.573          42.000  
  23453741.520   123250224.045        2779.332          38.000  
  23312119.529   122506019.873        2129.234          43.000  
  26147983.652   137408600.686       -2562.068          33.000  
  20477867.800   107611912.627        -968.387          46.000  
  23348157.963   122695405.418       -1448.684          43.000  
  22297100.237   117172027.877       -2672.493          43.000  
 23 12 19 10 57  8.9970000  0 13G 5G13E25G23G15G22G24G17E 2E 5G14E 3
                                G30
  21588622.322   113448967.231       -3026.970          45.000  
  19119127.187   100471689.321        -576.359          46.000  
  23414049.793   123041644.223        -712.513          45.000  
  22525771.808   118373728.334        2745.343          44.000  
  19458723.806   102256279.253        1664.631          46.000  
  20167884.313   105982950.116         167.305          46.000  
  21503955.226   113004057.301        3206.939          43.000  
  23453212.673   123247444.987        2779.399          38.000  
  23311714.379   122503890.790        2129.016          43.000  
  26148471.447   137411162.873       -2562.021          33.000  
  20478052.031   107612881.418        -968.967          46.000  
  23348433.720   122696854.178       -1448.833          43.000  
  22297608.701   117174700.151       -2672.247          43.000  
 23 12 19 10 57  9.9970000  0 13G 5G13E25G23G15G22G24G17E 2E 5G14E 3
                                G30
  21589198.493   113451994.618       -3027.798          45.000  
  19119237.010   100472266.181        -577.391          46.000  
  23414185.190   123042357.346        -713.548          45.000  
  22525249.287   118370983.575        2744.144          44.000  
  19458407.495   102254615.219        1663.550          46.000  
  20167852.824   105982783.189         166.469          46.000  
  21503345.219   113000850.691        3205.997          43.000  
  23452683.766   123244666.298        2778.547          38.000  
  23311309.132   122501762.225        2128.210          43.000  
  26148959.102   137413725.296       -2563.035          34.000  
  20478236.488   107613850.950        -970.162          46.000  
  23348709.233   122698303.333       -1449.577          43.000  
  22298117.070   117177372.724       -2672.894          43.000  
 23 12 19 10 57 10.9970000  0 13G 5G13E25G23G15G22G24G17E 2E 5G14E 3
                                G30
  21589774.847   113455022.474       -3027.985          45.000  
  19119346.501   100472843.627        -577.596          46.000  
  23414320.734   123043071.008        -713.901          45.000  
  22524727.247   118368239.392        2744.008          44.000  
  19458091.114   102252951.825        1663.260          46.000  
  20167821.187   105982617.017         165.951          46.000  
  21502735.055   112997644.439        3206.194          43.000  
  23452155.077   123241887.927        2778.589          38.000  
  23310904.078   122499634.154        2127.740          43.000  
  26149446.443   137416287.837       -2562.310          34.000  
  20478421.452   107614821.193        -970.626          46.000  
  23348985.165   122699752.872       -1449.561          43.000  
  22298625.604   117180045.551       -2673.023          43.000  
 23 12 19 10 57 11.9970000  0 13G 5G13E25G23G15G22G24G17E 2E 5G14E 3
                                G30
  21590351.036   113458050.727       -3029.036          45.000  
  19119456.167   100473421.604        -578.688          46.000  
  23414457.047   123043785.145        -715.015          45.000  
  22524205.031   118365495.732        2743.065          43.000  
  19457774.820   102251289.024        1662.023          46.000  
  20167789.768   105982451.511         164.757          46.000  
  21502125.161   112994438.492        3205.474          43.000  
  23451626.414   123239109.814        2778.031          38.000  
  23310499.093   122497506.472        2126.977          43.000  
  26149934.054   137418850.514       -2563.135          34.000  
  20478606.110   107615792.065        -971.770          46.000  
  23349261.035   122701202.722       -1450.528          43.000  
  22299134.034   117182718.556       -2673.582          43.000  
 23 12 19 10 57 12.9970000  0 13G 5G13E25G23G15G22G24G17E 2E 5G14E 3
                                G30
  21590927.426   113461079.638       -3029.062          45.000  
  19119566.069   100474000.382        -579.138          46.000  
  23414593.481   123044500.020        -715.266          45.000  
  22523683.174   118362752.896        2742.480          43.000  
  19457458.631   102249627.076        1661.658          46.000  
  20167758.323   105982286.973         164.060          46.000  
  21501515.372   112991233.159        3205.197          43.000  
  23451097.864   123236332.227        2777.723          38.000  
  23310094.170   122495379.502        2126.795          43.000  
  26150421.875   137421413.580       -2562.864          34.000  
  20478791.309   107616763.860        -972.098          46.000  
  23349536.810   122702653.159       -1450.591          43.000  
  22299642.280   117185392.028       -2673.404          43.000  
 23 12 19 10 57 13.9970000  0 13G 5G13E25G23G15G22G24G17E 2E 5G14E 3
                                G30
  21591504.094   113464108.995       -3030.198          45.000  
  19119676.354   100474579.701        -580.100          46.000  
  23414729.445   123045215.414        -715.987          45.000  
  22523161.124   118360010.596        2741.852          43.000  
  19457142.773   102247965.744        1660.659          46.000  
  20167727.506   105982123.147         163.121          46.000  
  21500905.722   112988028.151        3204.427          43.000  
  23450569.585   123233554.971        2776.705          38.000  
  23309689.525   122493252.996        2125.648          43.000  
  26150909.958   137423976.827       -2564.237          34.000  
  20478976.438   107617736.327        -973.033          46.000  
  23349812.959   122704103.942       -1451.357          43.000  
  22300150.849   117188065.753       -2674.205          42.000  
 23 12 19 10 57 14.9970000  0 13G 5G13E25G23G15G22G24G17E 2E 5G14E 3
                                G30
  21592080.754   113467139.173       -3030.507          44.000  
  19119786.631   100475159.984        -580.667          46.000  
  23414865.565   123045931.692        -716.702          44.000  
  22522639.267   118357269.273        2740.774          43.000  
  19456826.706   102246305.423        1659.742          46.000  
  20167696.723   105981960.433         162.018          46.000  
  21500295.785   112984823.888        3203.907          42.000  
  23450041.061   123230778.433        2776.548          37.000  
  23309284.733   122491127.304        2125.480          43.000  
  26151397.874   137426540.546       -2563.505          34.000  
  20479161.594   107618709.876        -974.070          46.000  
  23350089.240   122705555.456       -1451.674          43.000  
  22300659.392   117190740.109       -2674.771          42.000  
 23 12 19 10 57 15.9970000  0 13G 5G13E25G23G15G22G24G17E 2E 5G14E 3
                                G30
  21592657.475   113470169.969       -3030.815          44.000  
  19119897.396   100475741.011        -581.186          45.000  
  23415002.008   123046648.703        -717.127          45.000  
  22522117.671   118354528.658        2740.294          44.000  
  19456510.883   102244645.899        1659.396          46.000  
  20167666.124   105981798.604         161.525          46.000  
  21499686.118   112981620.125        3203.850          43.000  
  23449512.686   123228002.308        2775.662          37.000  
  23308880.315   122489002.245        2124.957          43.000  
  26151885.652   137429104.606       -2564.236          33.000  
  20479346.671   107619684.300        -974.757          46.000  
  23350365.128   122707007.501       -1452.166          43.000  
  22301168.179   117193414.810       -2674.530          42.000  
 23 12 19 10 57 16.9970000  0 13G 5G13E25G23G15G22G24G17E 2E 5G14E 3
                                G30
  21593234.144   113473201.125       -3031.639          44.000  
  19120008.196   100476322.514        -581.880          45.000  
  23415138.495   123047366.096        -717.718          44.000  
  22521596.372   118351788.565        2739.572          43.000  
  19456195.104   102242986.913        1658.514          46.000  
  20167635.002   105981637.400         160.624          46.000  
  21499076.826   112978416.670        3203.260          42.000  
  23448984.206   123225226.414        2775.345          37.000  
  23308476.212   122486877.579        2124.318          43.000  
  26152373.516   137431668.663       -2563.790          34.000  
  20479532.071   107620659.293        -975.527          46.000  
  23350641.653   122708459.773       -1452.417          43.000  
  22301676.845   117196089.695       -2675.135          42.000  
 23 12 19 10 57 17.9970000  0 13G 5G13E25G23G15G22G24G17E 2E 5G14E 3
                                G30
  21593810.830   113476232.577       -3031.544          44.000  
  19120118.787   100476904.497        -582.301          45.000  
  23415274.895   123048083.933        -718.242          44.000  
  22521075.099   118349048.898        2739.546          43.000  
  19455879.369   102241328.443        1658.109          46.000  
  20167604.089   105981476.833         160.099          47.000  
  21498467.115   112975213.453        3202.853          42.000  
  23448455.997   123222450.741        2775.402          37.000  
  23308072.161   122484753.254        2124.218          43.000  
  26152861.974   137434232.863       -2564.489          34.000  
  20479717.497   107621634.868        -975.845          46.000  
  23350917.933   122709912.337       -1452.927          43.000  
  22302186.077   117198764.714       -2675.417          42.000  
 23 12 19 10 57 18.9970000  0 13G 5G13E25G23G15G22G24G17E 2E 5G14E 3
                                G30
  21594387.804   113479264.646       -3032.144          44.000  
  19120229.753   100477487.196        -582.886          44.000  
  23415411.469   123048802.416        -718.580          45.000  
  22520553.914   118346309.963        2738.942          43.000  
  19455563.502   102239670.771        1657.358          45.000  
  20167573.673   105981317.148         159.459          46.000  
  21497857.885   112972010.798        3201.971          42.000  
  23447927.753   123219675.558        2775.448          38.000  
  23307668.066   122482629.559        2123.543          43.000  
  26153350.571   137436797.364       -2564.546          34.000  
  20479902.975   107622611.279        -976.686          45.000  
  23351194.807   122711365.400       -1453.153          43.000  
  22302695.353   117201440.124       -2675.454          43.000  
 23 12 19 10 57 19.9970000  0 13G 5G13E25G23G15G22G24G17E 2E 5G14E 3
                                G30
  21594964.856   113482297.501       -3033.149          44.000  
  19120340.937   100478070.789        -583.823          45.000  
  23415548.724   123049521.777        -719.681          44.000  
  22520032.998   118343571.951        2737.867          42.000  
  19455248.203   102238014.023        1656.516          45.000  
  20167543.711   105981158.521         158.304          45.000  
  21497248.732   112968808.736        3201.568          41.000  
  23447399.892   123216901.054        2774.537          38.000  
  23307263.945   122480506.674        2122.620          43.000  
  26153838.654   137439362.369       -2564.918          34.000  
  20480089.064   107623588.728        -977.449          45.000  
  23351471.733   122712819.171       -1453.921          42.000  
  22303204.576   117204116.121       -2676.109          42.000  
 23 12 19 10 57 20.9970000  0 13G 5G13E25G23G15G22G24G17E 2E 5G14E 3
                                G30
  21595542.179   113485331.050       -3033.789          44.000  
  19120452.548   100478655.228        -584.866          46.000  
  23415685.900   123050241.925        -720.628          45.000  
  22519512.284   118340834.729        2737.204          44.000  
  19454932.956   102236358.205        1655.265          45.000  
  20167513.522   105981000.880         157.187          46.000  
  21496639.624   112965607.315        3201.268          43.000  
  23446872.006   123214127.056        2773.604          36.000  
  23306860.252   122478384.482        2121.910          43.000  
  26154327.059   137441927.633       -2565.272          34.000  
  20480274.918   107624567.162        -978.751          45.000  
  23351748.895   122714273.550       -1454.656          43.000  
  22303714.044   117206792.568       -2676.629          42.000  
 23 12 19 10 57 21.9970000  0 13G 5G13E25G23G15G22G24G17E 2E 5G14E 3
                                G30
  21596119.590   113488365.230       -3034.941          44.000  
  19120563.811   100479240.457        -585.792          46.000  
  23415822.587   123050962.777        -721.282          45.000  
  22518991.596   118338098.329        2735.732          43.000  
  19454617.857   102234703.196        1654.371          45.000  
  20167483.168   105980844.161         156.213          46.000  
  21496030.533   112962406.487        3200.446          43.000  
  23446344.582   123211353.554        2773.270          38.000  
  23306456.637   122476262.987        2121.006          43.000  
  26154815.587   137444493.386       -2566.187          35.000  
  20480461.147   107625546.466        -979.955          46.000  
  23352025.725   122715728.461       -1455.304          43.000  
  22304223.896   117209469.494       -2677.236          43.000  
 23 12 19 10 57 22.9970000  0 13G 5G13E25G23G15G22G24G17E 2E 5G14E 3
                                G30
  21596697.218   113491399.921       -3034.319          44.000  
  19120675.449   100479826.295        -585.615          46.000  
  23415959.938   123051684.210        -721.142          45.000  
  22518471.256   118335362.540        2735.970          44.000  
  19454302.803   102233048.862        1654.619          45.000  
  20167453.450   105980688.226         156.121          46.000  
  21495421.407   112959206.064        3200.684          43.000  
  23445816.756   123208580.457        2773.683          38.000  
  23306053.511   122474141.996        2121.221          43.000  
  26155303.722   137447059.323       -2565.541          35.000  
  20480647.628   107626526.515        -979.938          46.000  
  23352302.617   122717183.824       -1455.177          43.000  
  22304733.686   117212146.696       -2676.644          43.000  
 23 12 19 10 57 23.9970000  0 13G 5G13E25G23G15G22G24G17E 2E 5G14E 3
                                G30
  21597274.663   113494434.826       -3035.262          44.000  
  19120787.156   100480412.484        -586.624          46.000  
  23416097.088   123052405.929        -722.288          45.000  
  22517950.812   118332627.078        2734.923          44.000  
  19453987.835   102231394.936        1653.316          45.000  
  20167423.706   105980532.774         154.934          46.000  
  21494812.455   112956005.766        3199.753          43.000  
  23445288.975   123205807.450        2772.706          38.000  
  23305649.791   122472021.239        2120.276          43.000  
  26155791.743   137449625.164       -2566.335          35.000  
  20480833.970   107627506.999        -981.049          46.000  
  23352579.770   122718639.264       -1455.839          43.000  
  22305243.381   117214823.905       -2677.609          43.000  
 23 12 19 10 57 24.9970000  0 13G 5G13E25G23G15G22G24G17E 2E 5G14E 3
                                G30
  21597852.291   113497470.278       -3036.051          44.000  
  19120898.838   100480999.326        -587.065          46.000  
  23416234.622   123053128.266        -722.651          45.000  
  22517430.220   118329892.301        2734.373          43.000  
  19453673.015   102229741.719        1652.979          45.000  
  20167394.250   105980378.152         154.077          46.000  
  21494203.390   112952805.903        3199.330          43.000  
  23444761.123   123203034.883        2772.263          38.000  
  23305246.456   122469901.033        2119.984          43.000  
  26156279.677   137452191.269       -2566.035          35.000  
  20481020.906   107628488.285        -981.703          46.000  
  23352856.836   122720095.157       -1456.041          43.000  
  22305752.552   117217501.459       -2677.588          43.000  
 23 12 19 10 57 25.9970000  0 13G 5G13E25G23G15G22G24G17E 2E 5G14E 3
                                G30
  21598430.147   113500506.223       -3036.113          43.000  
  19121011.016   100481586.784        -587.724          45.000  
  23416372.226   123053851.162        -723.387          44.000  
  22516909.977   118327158.132        2733.880          43.000  
  19453358.257   102228089.210        1651.998          44.000  
  20167365.309   105980224.284         153.513          46.000  
  21493594.613   112949606.508        3199.277          42.000  
  23444233.463   123200262.598        2772.305          38.000  
  23304842.954   122467781.357        2119.194          42.000  
  26156766.774   137454757.578       -2566.589          35.000  
  20481207.833   107629470.286        -982.577          45.000  
  23353134.172   122721551.492       -1456.652          43.000  
  22306261.706   117220179.293       -2677.998          41.000  
 23 12 19 10 57 26.9970000  0 13G 5G13E25G23G15G22G24G17E 2E 5G14E 3
                                G30
  21599007.775   113503542.415       -3036.792          43.000  
  19121122.549   100482174.623        -588.191          44.000  
  23416509.733   123054574.369        -723.496          44.000  
  22516389.655   118324424.332        2733.551          42.000  
  19453043.708   102226437.107        1651.508          43.000  
  20167335.949   105980070.952         152.831          46.000  
  21492985.636   112946407.212        3199.158          41.000  
  23443705.481   123197490.485        2771.907          37.000  
  23304439.444   122465661.908        2119.182          42.000  
  26157253.845   137457323.825       -2566.221          34.000  
  20481394.672   107630452.778        -982.947          45.000  
  23353410.898   122723007.954       -1456.775          43.000  
  22306770.537   117222857.135       -2677.959          41.000  
 23 12 19 10 57 27.9970000  0 13G 5G13E25G23G15G22G24G17E 2E 5G14E 3
                                G30
  21599585.578   113506579.161       -3037.299          42.000  
  19121234.746   100482763.188        -589.055          44.000  
  23416647.354   123055298.257        -724.275          44.000  
  22515869.568   118321691.266        2732.467          42.000  
  19452728.898   102224785.792        1650.753          43.000  
  20167306.763   105979918.496         151.812          46.000  
  21492376.858   112943208.443        3198.163          41.000  
  23443177.673   123194718.812        2771.519          37.000  
  23304035.550   122463543.088        2118.303          42.000  
  26157741.299   137459890.369       -2566.872          34.000  
  20481581.686   107631436.112        -983.932          45.000  
  23353688.243   122724464.901       -1457.173          42.000  
  22307279.752   117225535.414       -2678.572          41.000  
 23 12 19 10 57 28.9970000  0 13G 5G13E25G23G15G22G24G17E 2E 5G14E 3
                                G30
  21600163.241   113509616.250       -3037.135          42.000  
  19121346.602   100483352.206        -589.394          44.000  
  23416784.810   123056022.545        -724.532          44.000  
  22515349.369   118318958.638        2732.501          42.000  
  19452414.148   102223134.980        1650.542          42.000  
  20167277.665   105979766.652         151.555          46.000  
  21491768.090   112940009.883        3198.552          41.000  
  23442649.978   123191947.361        2771.278          37.000  
  23303632.363   122461424.617        2118.232          42.000  
  26158229.530   137462456.964       -2566.830          34.000  
  20481769.180   107632420.024        -984.459          45.000  
  23353965.535   122725922.122       -1457.246          42.000  
  22307789.124   117228213.771       -2678.432          41.000  
 23 12 19 10 57 29.9970000  0 13G 5G13E25G23G15G22G24G17E 2E 5G14E 3
                                G30
  21600741.210   113512653.752       -3037.743          44.000  
  19121458.772   100483941.775        -589.946          46.000  
  23416922.806   123056747.338        -725.244          45.000  
  22514829.466   118316226.582        2731.479          44.000  
  19452099.931   102221484.768        1649.653          45.000  
  20167249.152   105979615.522         150.692          46.000  
  21491159.453   112936811.641        3197.808          44.000  
  23442122.458   123189176.217        2770.267          37.000  
  23303229.333   122459306.588        2117.624          43.000  
  26158718.406   137465023.629       -2566.604          34.000  
  20481956.953   107633404.593        -984.875          46.000  
  23354242.811   122727379.673       -1457.654          43.000  
  22308298.539   117230892.394       -2678.902          42.000  
 23 12 19 10 57 30.9970000  0 13G 5G13E25G23G15G22G24G17E 2E 5G14E 3
                                G30
  21601319.170   113515691.947       -3038.543          44.000  
  19121571.256   100484532.160        -590.827          46.000  
  23417061.038   123057472.901        -726.157          45.000  
  22514309.938   118313495.327        2730.767          44.000  
  19451786.150   102219835.441        1648.900          45.000  
  20167220.481   105979465.343         149.843          46.000  
  21490551.051   112933614.049        3197.073          43.000  
  23441595.287   123186405.603        2770.062          36.000  
  23302826.582   122457189.277        2116.896          43.000  
  26159207.187   137467590.762       -2567.106          34.000  
  20482144.403   107634390.107        -985.875          46.000  
  23354520.068   122728837.834       -1458.561          43.000  
  22308808.591   117233571.460       -2679.198          42.000  
 23 12 19 10 57 31.9970000  0 13G 5G13E25G23G15G22G24G17E 2E 5G14E 3
                                G30
  21601897.243   113518730.717       -3039.113          44.000  
  19121683.391   100485123.248        -591.337          46.000  
  23417199.200   123058199.090        -726.321          45.000  
  22513790.200   118310764.772        2730.259          43.000  
  19451472.787   102218186.862        1648.257          45.000  
  20167192.081   105979316.014         148.902          46.000  
  21489942.736   112930416.926        3196.731          43.000  
  23441067.880   123183635.435        2769.730          37.000  
  23302423.822   122455072.536        2116.490          43.000  
  26159696.090   137470158.098       -2567.073          34.000  
  20482331.766   107635376.432        -986.561          46.000  
  23354797.431   122730296.461       -1458.857          43.000  
  22309318.434   117236250.894       -2679.982          42.000  
 23 12 19 10 57 32.9970000  0 13G 5G13E25G23G15G22G24G17E 2E 5G14E 3
                                G30
  21602475.308   113521769.694       -3039.251          44.000  
  19121795.770   100485714.684        -591.915          46.000  
  23417337.615   123058925.591        -726.811          45.000  
  22513270.664   118308034.570        2729.850          43.000  
  19451159.338   102216538.690        1647.831          45.000  
  20167164.012   105979167.202         148.221          46.000  
  21489334.247   112927219.930        3196.841          43.000  
  23440540.439   123180865.337        2769.989          37.000  
  23302021.018   122452956.054        2116.121          43.000  
  26160184.853   137472725.460       -2567.421          34.000  
  20482519.958   107636363.240        -987.585          46.000  
  23355074.863   122731755.222       -1459.181          43.000  
  22309828.696   117238930.336       -2679.559          42.000  
 23 12 19 10 57 33.9970000  0 13G 5G13E25G23G15G22G24G17E 2E 5G14E 3
                                G30
  21603053.783   113524809.039       -3039.583          44.000  
  19121908.272   100486306.624        -592.162          46.000  
  23417476.222   123059652.548        -727.112          45.000  
  22512751.406   118305304.887        2729.479          43.000  
  19450845.836   102214891.097        1647.436          45.000  
  20167135.978   105979019.049         147.861          46.000  
  21488725.767   112924023.254        3196.239          43.000  
  23440013.521   123178095.514        2769.609          37.000  
  23301618.704   122450839.972        2115.927          43.000  
  26160673.799   137475292.889       -2567.298          33.000  
  20482707.897   107637350.649        -987.843          46.000  
  23355352.138   122733214.275       -1459.172          43.000  
  22310338.923   117241609.967       -2679.489          42.000  
 23 12 19 10 57 34.9970000  0 13G 5G13E25G23G15G22G24G17E 2E 5G14E 3
                                G30
  21603632.292   113527848.848       -3040.188          44.000  
  19122020.887   100486899.157        -592.949          46.000  
  23417614.411   123060380.045        -727.858          45.000  
  22512232.105   118302575.804        2728.708          43.000  
  19450532.474   102213244.150        1646.364          45.000  
  20167107.595   105978871.644         146.873          46.000  
  21488117.330   112920826.934        3195.954          43.000  
  23439486.350   123175326.031        2768.932          37.000  
  23301216.127   122448724.383        2115.204          44.000  
  26161162.545   137477860.480       -2568.024          33.000  
  20482895.914   107638338.764        -988.569          46.000  
  23355629.440   122734673.706       -1459.664          43.000  
  22310849.438   117244289.853       -2680.300          43.000  
 23 12 19 10 57 35.9970000  0 13G 5G13E25G23G15G22G24G17E 2E 5G14E 3
                                G30
  21604211.046   113530889.079       -3040.541          44.000  
  19122133.571   100487492.231        -593.299          45.000  
  23417753.122   123061108.041        -728.272          45.000  
  22511712.926   118299847.257        2728.314          43.000  
  19450219.251   102211597.809        1645.957          45.000  
  20167079.518   105978724.939         146.198          46.000  
  21487509.426   112917630.941        3196.147          43.000  
  23438959.397   123172556.801        2769.167          37.000  
  23300813.943   122446609.230        2114.703          44.000  
  26161651.169   137480428.157       -2567.376          33.000  
  20483084.316   107639327.550        -988.951          46.000  
  23355907.081   122736133.452       -1459.731          43.000  
  22311359.482   117246969.940       -2680.351          43.000  
 23 12 19 10 57 36.9970000  0 13G 5G13E25G23G15G22G24G17E 2E 5G14E 3
                                G30
  21604789.948   113533929.762       -3041.315          44.000  
  19122246.684   100488085.925        -594.441          46.000  
  23417891.860   123061836.598        -729.139          45.000  
  22511193.861   118297119.333        2727.286          43.000  
  19449906.002   102209952.146        1644.902          45.000  
  20167052.008   105978578.999         145.400          46.000  
  21486901.486   112914435.390        3195.157          43.000  
  23438432.557   123169787.980        2768.290          37.000  
  23300411.646   122444494.581        2114.097          44.000  
  26162139.670   137482996.067       -2568.220          32.000  
  20483273.031   107640317.079        -990.116          46.000  
  23356184.653   122737593.638       -1460.751          43.000  
  22311869.944   117249650.313       -2680.813          43.000  
 23 12 19 10 57 37.9970000  0 13G 5G13E25G23G15G22G24G17E 2E 5G14E 3
                                G30
  21605369.060   113536970.942       -3041.110          44.000  
  19122359.805   100488680.224        -594.396          46.000  
  23418030.764   123062565.705        -729.127          45.000  
  22510674.970   118294392.010        2727.289          43.000  
  19449592.832   102208307.130        1644.899          45.000  
  20167024.497   105978433.832         145.080          46.000  
  21486293.180   112911240.199        3195.424          43.000  
  23437905.962   123167019.476        2768.549          38.000  
  23300009.549   122442380.418        2114.400          43.000  
  26162628.564   137485564.172       -2567.883          33.000  
  20483461.406   107641307.322        -990.206          46.000  
  23356462.644   122739054.183       -1460.474          43.000  
  22312380.258   117252330.954       -2680.408          43.000  
 23 12 19 10 57 38.9970000  0 13G 5G13E25G23G15G22G24G17E 2E 5G14E 3
                                G30
  21605948.399   113540012.560       -3041.863          44.000  
  19122472.873   100489275.074        -594.943          46.000  
  23418169.476   123063295.315        -729.712          45.000  
  22510156.341   118291665.260        2726.265          43.000  
  19449280.080   102206662.735        1644.093          45.000  
  20166996.978   105978289.365         144.091          46.000  
  21485685.337   112908045.376        3194.470          43.000  
  23437379.384   123164251.283        2767.767          38.000  
  23299607.112   122440266.715        2113.619          43.000  
  26163116.908   137488132.423       -2568.730          33.000  
  20483650.331   107642298.251        -991.283          46.000  
  23356740.862   122740515.073       -1460.963          43.000  
  22312890.738   117255011.813       -2680.899          43.000  
 23 12 19 10 57 39.9970000  0 13G 5G13E25G23G15G22G24G17E 2E 5G14E 3
                                G30
  21606527.336   113543054.640       -3042.265          44.000  
  19122586.431   100489870.540        -595.940          46.000  
  23418308.292   123064025.480        -730.705          45.000  
  22509637.703   118288939.093        2725.291          43.000  
  19448967.521   102205018.998        1643.079          45.000  
  20166969.381   105978145.662         143.057          46.000  
  21485077.624   112904850.909        3194.280          43.000  
  23436852.370   123161483.422        2767.405          37.000  
  23299205.129   122438153.512        2112.911          43.000  
  26163606.274   137490700.788       -2568.432          33.000  
  20483839.221   107643289.881        -992.284          47.000  
  23357019.411   122741976.341       -1461.482          43.000  
  22313400.991   117257692.939       -2681.473          43.000  
 23 12 19 10 57 40.9970000  0 13G 5G13E25G23G15G22G24G17E 2E 5G14E 3
                                G30
  21607106.308   113546096.847       -3041.391          45.000  
  19122699.691   100490466.254        -595.187          46.000  
  23418447.615   123064755.841        -729.654          45.000  
  22509119.292   118286213.157        2726.705          44.000  
  19448655.188   102203375.572        1643.935          45.000  
  20166942.228   105978002.348         143.992          46.000  
  21484469.633   112901656.506        3194.958          43.000  
  23436325.452   123158715.545        2768.607          37.000  
  23298803.399   122436040.437        2113.837          43.000  
  26164094.845   137493269.067       -2567.962          33.000  
  20484028.084   107644281.881        -991.206          46.000  
  23357297.803   122743437.660       -1460.637          43.000  
  22313911.096   117260374.005       -2680.231          41.000  
 23 12 19 10 57 41.9970000  0 13G 5G13E25G23G15G22G24G17E 2E 5G14E 3
                                G30
  21607685.498   113549138.957       -3042.792          43.000  
  19122812.647   100491062.003        -596.063          43.000  
  23418586.649   123065486.188        -730.834          44.000  
  22508600.733   118283487.383        2725.489          40.000  
  19448342.279   102201732.235        1642.935          44.000  
  20166915.146   105977859.251         142.695          44.000  
  21483861.719   112898461.920        3194.532          42.000  
  23435798.604   123155947.536        2768.123          36.000  
  23298401.407   122433927.267        2112.796          42.000  
  26164584.350   137495837.014       -2568.478          32.000  
  20484217.114   107645274.027        -992.429          45.000  
  23357575.828   122744898.796       -1461.163          41.000  
  22314421.218   117263054.695       -2680.800          41.000  
 23 12 19 10 57 42.9970000  0 13G 5G13E25G23G15G22G24G17E 2E 5G14E 3
                                G30
  21608264.531   113552181.754       -3042.659          43.000  
  19122926.091   100491658.602        -596.808          42.000  
  23418725.178   123066217.331        -731.355          43.000  
  22508082.095   118280762.377        2724.699          40.000  
  19448029.763   102200089.798        1642.311          43.000  
  20166887.723   105977717.144         141.776          43.000  
  21483253.867   112895267.959        3194.047          42.000  
  23435271.520   123153180.088        2767.333          35.000  
  23297999.659   122431814.885        2112.367          41.000  
  26165073.191   137498405.273       -2568.063          31.000  
  20484405.917   107646267.159        -993.380          43.000  
  23357853.714   122746360.584       -1462.149          40.000  
  22314931.218   117265735.987       -2681.640          40.000  
 23 12 19 10 57 43.9970000  0 13G 5G13E25G23G15G22G24G17E 2E 5G14E 3
                                G30
  21608843.503   113555224.797       -3043.092          44.000  
  19123039.595   100492255.469        -597.429          45.000  
  23418864.108   123066948.723        -731.754          44.000  
  22507563.622   118278037.566        2724.392          42.000  
  19447717.178   102198447.736        1641.612          44.000  
  20166860.832   105977575.460         141.287          45.000  
  21482646.355   112892074.095        3193.688          44.000  
  23434744.742   123150412.628        2767.206          35.000  
  23297597.545   122429702.697        2111.758          44.000  
  26165562.591   137500973.405       -2568.068          31.000  
  20484594.972   107647260.686        -993.958          45.000  
  23358131.853   122747822.407       -1462.121          42.000  
  22315440.913   117268417.232       -2681.359          41.000  
 23 12 19 10 57 44.9970000  0 13G 5G13E25G23G15G22G24G17E 2E 5G14E 3
                                G30
  21609422.711   113558268.699       -3044.536          44.000  
  19123153.798   100492853.448        -598.810          46.000  
  23419003.622   123067681.120        -733.107          45.000  
  22507044.985   118275313.931        2722.618          44.000  
  19447404.810   102196806.768        1640.231          45.000  
  20166834.447   105977435.023         139.516          46.000  
  21482038.817   112888881.047        3192.333          43.000  
  23434217.710   123147645.986        2766.094          36.000  
  23297195.763   122427591.461        2110.491          44.000  
  26166051.337   137503542.103       -2568.918          32.000  
  20484784.159   107648255.412        -995.564          46.000  
  23358410.289   122749285.100       -1463.264          43.000  
  22315950.835   117271099.199       -2682.623          42.000  
 23 12 19 10 57 45.9970000  0 13G 5G13E25G23G15G22G24G17E 2E 5G14E 3
                                G30
  21610001.953   113561313.611       -3044.056          44.000  
  19123268.141   100493452.522        -598.316          46.000  
  23419143.242   123068414.584        -732.652          45.000  
  22506526.818   118272591.399        2723.276          44.000  
  19447093.044   102195167.006        1640.430          45.000  
  20166807.923   105977295.852         139.766          46.000  
  21481431.576   112885688.931        3193.119          43.000  
  23433690.888   123144880.238        2766.478          36.000  
  23296794.076   122425481.226        2110.908          43.000  
  26166540.589   137506111.656       -2568.746          33.000  
  20484973.441   107649251.360        -995.126          46.000  
  23358688.559   122750748.698       -1462.532          43.000  
  22316460.948   117273781.947       -2681.853          42.000  
 23 12 19 10 57 46.9970000  0 14G 5G13E25G23G15G22G24G17E 2E 5G14E 3
                                G30E 8
  21610581.222   113564358.112       -3047.406          44.000  
  19123382.213   100494051.305        -601.778          46.000  
  23419282.669   123069147.714        -736.499          45.000  
  22506008.459   118269868.589        2719.787          44.000  
  19446781.375   102193526.996        1637.012          45.000  
  20166781.224   105977156.535         136.156          46.000  
  21480823.977   112882496.326        3189.552          43.000  
  23433163.996   123142113.938        2763.669          36.000  
  23296392.390   122423370.595        2107.369          43.000  
  26167029.727   137508680.429       -2571.543          33.000  
  20485162.558   107650247.154        -998.940          46.000  
  23358966.960   122752211.797       -1466.266          43.000  
  22316971.219   117276464.065       -2684.774          42.000  
  22651135.697   119032531.309        1064.981          43.000  
 23 12 19 10 57 47.9970000  0 14G 5G13E25G23G15G22G24G17E 2E 5G14E 3
                                G30E 8
  21611161.189   113567406.753       -3049.490          44.000  
  19123497.193   100494654.377        -603.975          46.000  
  23419423.152   123069885.038        -737.862          45.000  
  22505490.990   118267150.059        2717.499          43.000  
  19446470.621   102191891.324        1634.624          45.000  
  20166755.939   105977021.629         134.197          46.000  
  21480216.953   112879307.783        3187.620          43.000  
  23432638.204   123139351.634        2761.903          35.000  
  23295991.436   122421264.131        2105.678          43.000  
  26167519.703   137511253.072       -2573.019          33.000  
  20485352.922   107651247.310       -1000.939          46.000  
  23359245.919   122753678.935       -1467.619          43.000  
  22317482.388   117279150.130       -2686.845          42.000  
  22650933.013   119031466.947        1063.656          43.000  
 23 12 19 10 57 48.9970000  0 14G 5G13E25G23G15G22G24G17E 2E 5G14E 3
                                G30E 8
  21611740.902   113570455.504       -3047.723          44.000  
  19123612.155   100495257.680        -602.496          46.000  
  23419563.094   123070622.592        -736.595          45.000  
  22504973.216   118264431.760        2719.218          43.000  
  19446159.615   102190255.949        1636.257          45.000  
  20166730.261   105976887.161         135.185          46.000  
  21479610.087   112876119.251        3189.619          43.000  
  23432112.402   123136589.347        2763.384          35.000  
  23295590.465   122419157.808        2107.238          43.000  
  26168009.565   137513825.561       -2571.232          34.000  
  20485543.261   107652247.845        -999.739          46.000  
  23359525.236   122755146.115       -1465.926          43.000  
  22317993.880   117281836.098       -2685.121          42.000  
  22650730.922   119030402.646        1065.380          43.000  
 23 12 19 10 57 49.9970000  0 14G 5G13E25G23G15G22G24G17E 2E 5G14E 3
                                G30E 8
  21612320.747   113573503.571       -3048.838          44.000  
  19123726.898   100495860.440        -603.652          46.000  
  23419703.524   123071359.524        -737.497          45.000  
  22504455.800   118261712.939        2718.068          43.000  
  19445848.355   102188620.092        1635.116          45.000  
  20166704.626   105976752.286         133.968          46.000  
  21479003.518   112872929.987        3188.599          43.000  
  23431586.400   123133826.268        2762.414          35.000  
  23295189.232   122417050.830        2106.395          43.000  
  26168498.747   137516397.058       -2571.963          34.000  
  20485733.678   107653247.941       -1000.881          46.000  
  23359804.308   122756612.533       -1466.785          43.000  
  22318505.041   117284521.183       -2685.630          42.000  
  22650528.089   119029337.588        1064.611          43.000  
 23 12 19 10 57 50.9970000  0 14G 5G13E25G23G15G22G24G17E 2E 5G14E 3
                                G30E 8
  21612900.417   113576550.530       -3049.075          44.000  
  19123841.485   100496462.195        -603.844          46.000  
  23419843.353   123072095.449        -738.136          45.000  
  22503937.965   118258993.129        2717.507          43.000  
  19445536.912   102186983.309        1634.586          45.000  
  20166678.948   105976616.570         133.621          46.000  
  21478396.643   112869739.522        3188.356          43.000  
  23431060.355   123131061.932        2762.284          36.000  
  23294787.729   122414942.767        2105.989          43.000  
  26168987.668   137518967.174       -2571.980          34.000  
  20485923.937   107654247.177       -1001.482          46.000  
  23360082.700   122758077.757       -1467.196          43.000  
  22319016.227   117287204.955       -2685.888          43.000  
  22650324.628   119028271.365        1063.998          43.000  
 23 12 19 10 57 51.9970000  0 14G 5G13E25G23G15G22G24G17E 2E 5G14E 3
                                G30E 8
  21613480.759   113579599.778       -3049.063          44.000  
  19123956.508   100497066.409        -604.104          46.000  
  23419984.019   123072833.727        -738.158          45.000  
  22503420.853   118256275.759        2717.152          43.000  
  19445225.897   102185349.013        1634.379          45.000  
  20166653.672   105976483.447         133.152          46.000  
  21477789.733   112866551.266        3188.493          43.000  
  23430534.510   123128299.784        2762.385          36.000  
  23294387.482   122412837.020        2106.093          43.000  
  26169477.059   137521539.291       -2571.670          34.000  
  20486114.380   107655248.954       -1001.927          46.000  
  23360362.541   122759545.197       -1467.222          43.000  
  22319527.824   117289890.804       -2685.660          43.000  
  22650122.319   119027207.344        1064.405          43.000  
 23 12 19 10 57 52.9970000  0 14G 5G13E25G23G15G22G24G17E 2E 5G14E 3
                                G30E 8
  21614061.275   113582649.077       -3049.752          44.000  
  19124071.514   100497670.788        -605.039          46.000  
  23420124.528   123073572.133        -739.115          45.000  
  22502903.673   118253558.553        2716.535          43.000  
  19444914.821   102183714.966        1633.346          45.000  
  20166628.037   105976350.662         132.164          46.000  
  21477182.910   112863362.976        3187.862          43.000  
  23430008.840   123125537.535        2761.593          36.000  
  23293987.165   122410731.352        2104.993          43.000  
  26169966.791   137524111.151       -2572.129          34.000  
  20486305.190   107656251.023       -1002.633          46.000  
  23360641.648   122761012.584       -1467.827          42.000  
  22320039.037   117292576.520       -2686.246          43.000  
  22649919.853   119026143.304        1063.595          43.000  
 23 12 19 10 57 53.9970000  0 14G 5G13E25G23G15G22G24G17E 2E 5G14E 3
                                G30E 8
  21614641.591   113585698.838       -3049.865          44.000  
  19124186.668   100498275.776        -605.115          46.000  
  23420265.221   123074311.088        -739.112          45.000  
  22502386.675   118250841.968        2716.517          43.000  
  19444603.902   102182081.577        1633.009          45.000  
  20166603.040   105976218.638         131.411          46.000  
  21476576.096   112860175.057        3187.986          43.000  
  23429483.597   123122775.671        2761.611          37.000  
  23293586.290   122408626.172        2104.988          43.000  
  26170456.548   137526683.235       -2572.140          34.000  
  20486496.095   107657253.825       -1003.170          46.000  
  23360920.904   122762480.382       -1467.960          42.000  
  22320549.988   117295262.499       -2686.315          43.000  
  22649717.047   119025079.676        1063.470          43.000  
 23 12 19 10 57 54.9970000  0 14G 5G13E25G23G15G22G24G17E 2E 5G14E 3
                                G30E 8
  21615222.273   113588748.877       -3049.994          44.000  
  19124301.848   100498881.178        -605.616          46.000  
  23420406.157   123075050.402        -739.284          45.000  
  22501869.878   118248125.806        2715.821          43.000  
  19444293.061   102180448.654        1632.817          45.000  
  20166578.077   105976087.155         131.367          46.000  
  21475969.309   112856987.367        3187.630          43.000  
  23428958.162   123120013.939        2762.002          37.000  
  23293185.807   122406521.309        2104.813          43.000  
  26170946.463   137529255.306       -2572.245          34.000  
  20486686.992   107658257.143       -1003.580          46.000  
  23361200.177   122763948.346       -1467.706          42.000  
  22321060.956   117297948.539       -2686.119          43.000  
  22649514.519   119024016.257        1063.518          43.000  
 23 12 19 10 57 55.9970000  0 14G 5G13E25G23G15G22G24G17E 2E 5G14E 3
                                G30E 8
  21615802.763   113591799.278       -3050.945          44.000  
  19124416.976   100499487.069        -606.359          46.000  
  23420547.077   123075790.158        -739.911          45.000  
  22501353.134   118245410.131        2715.335          43.000  
  19443982.299   102178816.272        1631.932          45.000  
  20166552.731   105975956.327         130.380          46.000  
  21475362.669   112853799.938        3187.198          43.000  
  23428432.945   123117252.440        2761.460          37.000  
  23292785.299   122404416.818        2104.154          43.000  
  26171435.619   137531827.395       -2572.148          34.000  
  20486878.019   107659261.071       -1004.448          46.000  
  23361479.521   122765416.596       -1468.400          42.000  
  22321571.890   117300634.725       -2686.501          42.000  
  22649312.376   119022953.111        1063.064          43.000  
 23 12 19 10 57 56.9970000  0 14G 5G13E25G23G15G22G24G17E 2E 5G14E 3
                                G30E 8
  21616383.131   113594850.166       -3051.112          44.000  
  19124532.270   100500093.593        -606.947          46.000  
  23420687.891   123076530.504        -740.640          45.000  
  22500836.415   118242695.087        2714.596          43.000  
  19443672.016   102177184.593        1631.263          45.000  
  20166528.039   105975826.299         129.417          46.000  
  21474756.143   112850612.936        3186.693          43.000  
  23427907.746   123114491.325        2760.922          37.000  
  23292384.415   122402312.836        2103.850          43.000  
  26171925.551   137534399.722       -2572.136          34.000  
  20487069.465   107660265.739       -1005.162          46.000  
  23361758.689   122766885.273       -1468.862          42.000  
  22322082.850   117303321.234       -2686.684          42.000  
  22649110.285   119021890.403        1062.592          43.000  
 23 12 19 10 57 57.9970000  0 14G 5G13E25G23G15G22G24G17E 2E 5G14E 3
                                G30E 8
  21616964.014   113597901.508       -3051.802          44.000  
  19124648.052   100500700.712        -607.549          46.000  
  23420828.645   123077271.366        -741.233          45.000  
  22500319.566   118239980.641        2713.937          43.000  
  19443362.039   102175553.557        1630.474          45.000  
  20166503.303   105975696.981         128.786          46.000  
  21474149.469   112847426.299        3186.123          43.000  
  23427382.634   123111730.552        2760.387          37.000  
  23291983.836   122400209.363        2103.084          43.000  
  26172415.239   137536972.247       -2572.824          33.000  
  20487260.921   107661271.107       -1005.881          46.000  
  23362037.622   122768354.315       -1469.434          42.000  
  22322594.010   117306007.981       -2687.372          42.000  
  22648908.369   119020828.078        1062.028          43.000  
 23 12 19 10 57 58.9970000  0 14G 5G13E25G23G15G22G24G17E 2E 5G14E 3
                                G30E 8
  21617544.644   113600953.100       -3051.686          44.000  
  19124763.555   100501308.180        -607.603          46.000  
  23420969.834   123078012.553        -741.379          45.000  
  22499802.970   118237266.564        2713.735          43.000  
  19443051.818   102173922.952        1630.361          45.000  
  20166478.463   105975568.196         128.552          46.000  
  21473542.777   112844239.832        3186.247          43.000  
  23426857.339   123108969.880        2760.641          37.000  
  23291583.651   122398106.145        2102.960          43.000  
  26172904.570   137539544.702       -2572.800          33.000  
  20487452.096   107662276.971       -1006.226          46.000  
  23362317.707   122769823.500       -1469.122          42.000  
  22323104.866   117308694.756       -2686.850          42.000  
  22648706.234   119019765.929        1062.115          43.000  
 23 12 19 10 57 59.9970000  0 14G 5G13E25G23G15G22G24G17E 2E 5G14E 3
                                G30E 8
  21618125.204   113604004.988       -3052.363          44.000  
  19124878.927   100501916.120        -608.544          46.000  
  23421110.605   123078754.137        -741.983          45.000  
  22499286.635   118234552.943        2713.070          43.000  
  19442741.789   102172292.859        1629.472          46.000  
  20166453.945   105975440.025         127.634          46.000  
  21472936.487   112841053.598        3185.766          43.000  
  23426332.271   123106209.416        2760.050          37.000  
  23291183.404   122396003.268        2102.395          43.000  
  26173394.136   137542117.152       -2572.492          33.000  
  20487643.595   107663283.391       -1006.938          46.000  
  23362597.870   122771292.939       -1470.001          42.000  
  22323615.930   117311381.651       -2687.237          42.000  
  22648504.143   119018704.016        1061.658          43.000  
 23 12 19 10 58  0.9970000  0 14G 5G13E25G23G15G22G24G17E 2E 5G14E 3
                                G30E 8
  21618705.930   113607057.332       -3052.587          44.000  
  19124994.666   100502524.628        -608.981          46.000  
  23421251.856   123079496.260        -742.346          45.000  
  22498770.414   118231839.912        2712.457          43.000  
  19442431.733   102170663.418        1628.990          46.000  
  20166429.619   105975312.579         127.225          46.000  
  21472330.397   112837867.723        3185.881          43.000  
  23425807.115   123103449.255        2760.181          37.000  
  23290783.357   122393900.883        2102.066          43.000  
  26173883.457   137544689.830       -2573.118          33.000  
  20487835.225   107664290.523       -1007.469          46.000  
  23362877.719   122772762.729       -1469.957          42.000  
  22324127.030   117314068.804       -2687.059          42.000  
  22648302.087   119017642.501        1061.308          43.000  
 23 12 19 10 58  1.9970000  0 14G 5G13E25G23G15G22G24G17E 2E 5G14E 3
                                G30E 8
  21619286.725   113610109.940       -3053.121          44.000  
  19125110.744   100503133.511        -609.269          46.000  
  23421393.089   123080238.699        -742.868          45.000  
  22498254.088   118229127.248        2712.254          43.000  
  19442121.818   102169034.394        1628.650          46.000  
  20166405.180   105975185.694         126.203          46.000  
  21471724.238   112834682.042        3185.377          43.000  
  23425281.811   123100689.255        2759.370          37.000  
  23290383.198   122391798.755        2101.651          43.000  
  26174373.040   137547262.398       -2572.585          33.000  
  20488026.793   107665298.144       -1008.129          46.000  
  23363157.577   122774232.696       -1470.458          42.000  
  22324638.199   117316756.000       -2687.167          42.000  
  22648100.249   119016581.162        1060.875          43.000  
 23 12 19 10 58  2.9970000  0 14G 5G13E25G23G15G22G24G17E 2E 5G14E 3
                                G30E 8
  21619867.757   113613163.100       -3053.043          44.000  
  19125226.806   100503743.119        -609.759          46.000  
  23421534.122   123080981.803        -743.348          45.000  
  22497737.893   118226415.305        2711.478          43.000  
  19441812.059   102167406.153        1627.998          46.000  
  20166381.335   105975059.638         125.958          46.000  
  21471118.392   112831496.842        3185.276          43.000  
  23424756.708   123097929.681        2759.595          37.000  
  23289983.282   122389697.225        2101.496          43.000  
  26174862.292   137549835.336       -2573.253          33.000  
  20488218.431   107666306.581       -1008.533          46.000  
  23363437.470   122775703.127       -1470.531          42.000  
  22325149.621   117319443.568       -2687.396          42.000  
  22647898.647   119015520.309        1060.705          43.000  
 23 12 19 10 58  3.9970000  0 14G 5G13E25G23G15G22G24G17E 2E 5G14E 3
                                G30E 8
  21620448.962   113616216.808       -3053.685          44.000  
  19125343.015   100504353.386        -610.383          46.000  
  23421675.678   123081725.517        -743.785          45.000  
  22497221.786   118223704.051        2710.933          43.000  
  19441502.492   102165778.640        1627.275          46.000  
  20166357.576   105974934.434         125.048          46.000  
  21470512.329   112828312.111        3184.572          42.000  
  23424231.936   123095170.549        2758.880          37.000  
  23289583.646   122387596.273        2100.902          43.000  
  26175351.605   137552408.434       -2572.914          33.000  
  20488410.506   107667315.813       -1009.346          46.000  
  23363717.432   122777174.021       -1470.665          42.000  
  22325661.305   117322131.503       -2688.099          42.000  
  22647697.088   119014459.925        1060.619          43.000  
 23 12 19 10 58  4.9970000  0 14G 5G13E25G23G15G22G24G17E 2E 5G14E 3
                                G30E 8
  21621030.229   113619270.606       -3054.396          44.000  
  19125459.138   100504963.902        -610.973          46.000  
  23421817.138   123082469.426        -744.469          45.000  
  22496705.949   118220993.023        2710.582          43.000  
  19441192.977   102164151.423        1626.756          46.000  
  20166333.582   105974809.620         124.223          46.000  
  21469906.222   112825127.394        3184.432          42.000  
  23423707.130   123092411.376        2758.756          37.000  
  23289184.089   122385495.448        2100.403          43.000  
  26175841.415   137554981.389       -2572.630          33.000  
  20488602.511   107668325.418       -1010.302          46.000  
  23363997.404   122778644.967       -1471.429          42.000  
  22326173.059   117324819.293       -2688.031          42.000  
  22647495.163   119013399.609        1059.754          43.000  
 23 12 19 10 58  5.9970000  0 14G 5G13E25G23G15G22G24G17E 2E 5G14E 3
                                G30E 8
  21621611.923   113622325.099       -3054.919          44.000  
  19125575.356   100505575.230        -611.832          46.000  
  23421959.297   123083214.087        -745.118          45.000  
  22496190.434   118218282.823        2709.837          43.000  
  19440883.541   102162525.077        1625.829          46.000  
  20166310.400   105974685.768         123.361          46.000  
  21469300.394   112821943.294        3183.707          42.000  
  23423182.402   123089652.803        2758.148          37.000  
  23288784.889   122383395.334        2099.760          43.000  
  26176331.121   137557554.791       -2573.742          33.000  
  20488794.681   107669335.930       -1011.044          46.000  
  23364277.392   122780116.487       -1471.773          42.000  
  22326685.293   117327507.589       -2688.609          43.000  
  22647293.517   119012339.878        1059.439          43.000  
 23 12 19 10 58  6.9970000  0 14G 5G13E25G23G15G22G24G17E 2E 5G14E 3
                                G30E 8
  21622193.434   113625380.051       -3055.043          44.000  
  19125691.706   100506187.147        -611.990          46.000  
  23422101.280   123083959.299        -745.261          45.000  
  22495674.815   118215573.224        2709.603          43.000  
  19440574.062   102160899.388        1625.581          46.000  
  20166286.903   105974562.658         123.003          46.000  
  21468694.976   112818759.560        3183.915          42.000  
  23422657.569   123086894.545        2758.070          38.000  
  23288384.973   122381295.724        2099.458          43.000  
  26176821.088   137560128.342       -2573.730          33.000  
  20488987.244   107670347.169       -1011.405          46.000  
  23364557.215   122781588.414       -1471.992          42.000  
  22327197.264   117330196.126       -2688.425          43.000  
  22647092.377   119011280.552        1059.344          43.000  
 23 12 19 10 58  7.9970000  0 14G 5G13E25G23G15G22G24G17E 2E 5G14E 3
                                G30E 8
  21622774.850   113628435.123       -3055.387          45.000  
  19125808.029   100506799.311        -612.373          46.000  
  23422243.177   123084704.698        -745.577          45.000  
  22495159.301   118212863.873        2709.304          43.000  
  19440264.792   102159274.004        1625.084          46.000  
  20166263.406   105974439.954         122.414          46.000  
  21468088.930   112815575.875        3183.281          42.000  
  23422132.710   123084136.265        2758.330          38.000  
  23287985.625   122379196.225        2099.350          43.000  
  26177310.898   137562701.662       -2573.427          33.000  
  20489179.476   107671358.753       -1011.853          46.000  
  23364837.283   122783060.340       -1472.108          42.000  
  22327709.393   117332884.572       -2688.377          43.000  
  22646890.740   119010221.269        1059.120          43.000  
 23 12 19 10 58  8.9970000  0 14G 5G13E25G23G15G22G24G17E 2E 5G14E 3
                                G30E 8
  21623356.867   113631490.779       -3055.818          45.000  
  19125924.814   100507412.214        -613.100          46.000  
  23422385.248   123085450.781        -746.317          45.000  
  22494644.109   118210155.282        2708.114          43.000  
  19439955.478   102157649.423        1624.183          46.000  
  20166240.459   105974318.131         121.644          46.000  
  21467483.207   112812392.712        3182.677          42.000  
  23421607.808   123081378.522        2757.274          37.000  
  23287586.015   122377097.380        2098.636          43.000  
  26177800.193   137565275.359       -2573.599          33.000  
  20489371.952   107672371.197       -1012.783          46.000  
  23365117.856   122784532.804       -1472.518          42.000  
  22328221.130   117335573.437       -2689.042          43.000  
  22646689.312   119009162.518        1058.492          43.000  
 23 12 19 10 58  9.9970000  0 14G 5G13E25G23G15G22G24G17E 2E 5G14E 3
                                G30E 8
  21623938.692   113634547.000       -3056.852          45.000  
  19126041.417   100508025.800        -614.200          46.000  
  23422527.607   123086197.506        -747.352          45.000  
  22494128.935   118207447.352        2707.370          43.000  
  19439646.286   102156025.585        1623.311          46.000  
  20166217.128   105974197.153         120.337          46.000  
  21466877.684   112809210.012        3182.130          43.000  
  23421083.106   123078621.173        2757.242          37.000  
  23287186.484   122374999.095        2097.802          43.000  
  26178290.056   137567849.302       -2574.346          33.000  
  20489564.864   107673384.427       -1013.636          46.000  
  23365398.185   122786005.728       -1473.274          42.000  
  22328733.032   117338262.627       -2689.581          43.000  
  22646487.971   119008104.237        1057.921          43.000  
 23 12 19 10 58 10.9970000  0 14G 5G13E25G23G15G22G24G17E 2E 5G14E 3
                                G30E 8
  21624520.534   113637603.354       -3056.494          45.000  
  19126158.019   100508639.651        -614.109          46.000  
  23422669.774   123086944.422        -747.111          45.000  
  22493613.508   118204739.699        2707.476          43.000  
  19439337.295   102154402.069        1623.251          46.000  
  20166194.364   105974076.592         120.179          46.000  
  21466271.900   112806027.370        3182.584          43.000  
  23420558.421   123075863.856        2757.261          38.000  
  23286786.900   122372900.981        2097.933          43.000  
  26178779.657   137570423.062       -2573.686          33.000  
  20489757.994   107674398.051       -1013.976          46.000  
  23365678.793   122787478.700       -1473.072          42.000  
  22329244.315   117340951.750       -2689.010          43.000  
  22646286.569   119007046.031        1058.072          43.000  
 23 12 19 10 58 11.9970000  0 14G 5G13E25G23G15G22G24G17E 2E 5G14E 3
                                G30E 8
  21625102.316   113640660.344       -3057.266          45.000  
  19126274.901   100509254.267        -614.798          46.000  
  23422811.879   123087692.067        -747.962          45.000  
  22493098.343   118202032.824        2706.653          43.000  
  19439028.269   102152779.397        1622.414          45.000  
  20166171.574   105973956.948         119.163          46.000  
  21465666.290   112802845.282        3181.991          43.000  
  23420033.780   123073107.050        2757.006          38.000  
  23286387.229   122370803.514        2097.218          43.000  
  26179269.528   137572997.174       -2573.789          33.000  
  20489951.194   107675412.548       -1014.835          46.000  
  23365959.009   122788952.221       -1473.528          42.000  
  22329755.885   117343641.317       -2689.428          43.000  
  22646085.473   119005988.383        1057.591          43.000  
 23 12 19 10 58 12.9970000  0 14G 5G13E25G23G15G22G24G17E 2E 5G14E 3
                                G30E 8
  21625683.975   113643717.742       -3057.319          45.000  
  19126391.922   100509869.428        -615.297          46.000  
  23422954.404   123088440.197        -748.292          45.000  
  22492583.247   118199326.488        2706.503          43.000  
  19438719.427   102151157.302        1622.079          45.000  
  20166148.488   105973837.982         118.788          46.000  
  21465060.890   112799663.523        3181.814          43.000  
  23419509.550   123070350.548        2756.484          38.000  
  23285988.142   122368706.496        2096.982          43.000  
  26179759.242   137575571.435       -2574.240          33.000  
  20490144.447   107676427.701       -1015.283          46.000  
  23366239.460   122790426.088       -1474.080          42.000  
  22330267.569   117346331.097       -2689.851          42.000  
  22645884.133   119004931.077        1057.314          43.000  
 23 12 19 10 58 13.9970000  0 14G 5G13E25G23G15G22G24G17E 2E 5G14E 3
                                G30E 8
  21626265.774   113646775.202       -3057.688          45.000  
  19126509.275   100510484.784        -615.619          46.000  
  23423096.850   123089188.445        -748.443          45.000  
  22492068.623   118196620.357        2705.890          43.000  
  19438410.723   102149535.465        1621.638          45.000  
  20166126.125   105973719.364         118.247          46.000  
  21464455.454   112796481.724        3181.719          43.000  
  23418985.328   123067593.967        2756.144          39.000  
  23285589.178   122366609.554        2096.587          42.000  
  26180249.009   137578145.438       -2573.804          33.000  
  20490337.970   107677443.150       -1015.820          46.000  
  23366519.937   122791899.878       -1473.851          42.000  
  22330779.340   117349020.709       -2689.761          42.000  
  22645683.167   119003873.755        1057.137          43.000  
 23 12 19 10 58 14.9970000  0 14G 5G13E25G23G15G22G24G17E 2E 5G14E 3
                                G30E 8
  21626847.713   113649833.080       -3058.221          45.000  
  19126626.723   100511100.671        -616.043          46.000  
  23423239.366   123089937.192        -748.949          45.000  
  22491553.850   118193914.767        2705.303          43.000  
  19438102.387   102147914.243        1620.828          45.000  
  20166103.780   105973601.455         117.427          46.000  
  21463849.766   112793300.263        3181.550          43.000  
  23418461.245   123064837.668        2756.079          39.000  
  23285190.161   122364513.037        2096.208          42.000  
  26180738.958   137580719.585       -2574.346          33.000  
  20490531.650   107678459.268       -1016.495          46.000  
  23366800.293   122793374.023       -1474.339          42.000  
  22331291.086   117351710.536       -2690.066          42.000  
  22645481.975   119002816.760        1056.986          43.000  
 23 12 19 10 58 15.9970000  0 14G 5G13E25G23G15G22G24G17E 2E 5G14E 3
                                G30E 8
  21627429.372   113652891.232       -3058.298          45.000  
  19126743.963   100511717.005        -616.745          46.000  
  23423382.074   123090686.334        -749.659          45.000  
  22491039.191   118191209.620        2704.692          43.000  
  19437793.841   102146293.513        1620.181          45.000  
  20166081.653   105973484.139         116.676          46.000  
  21463244.383   112790119.041        3180.881          43.000  
  23417937.163   123062081.546        2755.854          39.000  
  23284791.485   122362416.859        2095.752          42.000  
  26181229.109   137583293.718       -2574.213          33.000  
  20490725.129   107679475.933       -1017.242          46.000  
  23367081.110   122794848.387       -1474.666          42.000  
  22331802.866   117354400.451       -2689.943          42.000  
  22645280.896   119001760.022        1056.323          43.000  
 23 12 19 10 58 16.9970000  0 14G 5G13E25G23G15G22G24G17E 2E 5G14E 3
                                G30E 8
  21628011.267   113655949.812       -3058.612          44.000  
  19126861.446   100512333.871        -616.987          46.000  
  23423524.450   123091435.941        -749.765          45.000  
  22490524.541   118188505.007        2704.677          43.000  
  19437485.635   102144673.365        1620.012          45.000  
  20166059.483   105973367.507         116.302          46.000  
  21462639.122   112786938.136        3180.768          43.000  
  23417413.011   123059325.715        2756.134          39.000  
  23284393.009   122360321.116        2095.571          42.000  
  26181719.024   137585867.971       -2573.733          33.000  
  20490918.783   107680493.241       -1017.538          47.000  
  23367361.465   122796323.079       -1474.831          42.000  
  22332314.925   117357090.577       -2690.152          42.000  
  22645079.677   119000703.602        1056.279          43.000  
 23 12 19 10 58 17.9970000  0 14G 5G13E25G23G15G22G24G17E 2E 5G14E 3
                                G30E 8
  21628593.197   113659008.670       -3059.094          44.000  
  19126979.052   100512951.170        -617.785          46.000  
  23423667.804   123092185.930        -750.373          45.000  
  22490009.803   118185800.843        2703.818          43.000  
  19437177.202   102143053.722        1619.396          45.000  
  20166037.487   105973251.447         115.642          46.000  
  21462033.879   112783757.450        3180.607          43.000  
  23416888.859   123056570.087        2755.022          39.000  
  23283994.481   122358225.680        2095.167          42.000  
  26182208.808   137588442.283       -2574.446          34.000  
  20491112.533   107681511.105       -1018.372          47.000  
  23367642.013   122797797.972       -1475.046          42.000  
  22332826.940   117359780.800       -2690.481          42.000  
  22644878.634   118999647.413        1055.897          44.000  
 23 12 19 10 58 18.9970000  0 14G 5G13E25G23G15G22G24G17E 2E 5G14E 3
                                G30E 8
  21629175.214   113662068.170       -3059.700          44.000  
  19127096.815   100513569.225        -618.146          46.000  
  23423810.608   123092936.634        -750.776          45.000  
  22489495.274   118183097.444        2703.260          43.000  
  19436869.215   102141434.902        1618.804          45.000  
  20166016.102   105973136.321         114.708          46.000  
  21461428.775   112780577.326        3179.893          43.000  
  23416364.759   123053814.949        2754.950          39.000  
  23283595.508   122356130.925        2094.538          42.000  
  26182698.705   137591016.878       -2574.588          34.000  
  20491306.439   107682529.841       -1018.840          47.000  
  23367922.813   122799273.428       -1475.568          42.000  
  22333339.174   117362471.447       -2690.784          42.000  
  22644677.581   118998591.800        1055.469          44.000  
 23 12 19 10 58 19.9970000  0 14G 5G13E25G23G15G22G24G17E 2E 5G14E 3
                                G30E 8
  21629757.275   113665127.945       -3059.875          44.000  
  19127214.656   100514187.711        -618.632          46.000  
  23423953.412   123093687.717        -751.157          45.000  
  22488980.702   118180394.485        2702.794          43.000  
  19436561.149   102139816.567        1618.130          45.000  
  20165994.394   105973021.765         114.406          46.000  
  21460823.523   112777397.403        3179.748          42.000  
  23415840.371   123051059.990        2754.823          39.000  
  23283196.797   122354036.467        2094.484          42.000  
  26183188.559   137593591.530       -2574.304          33.000  
  20491500.233   107683549.134       -1019.531          47.000  
  23368203.220   122800749.084       -1475.596          42.000  
  22333851.390   117365162.170       -2690.569          43.000  
  22644476.930   118997536.410        1055.273          44.000  
 23 12 19 10 58 20.9970000  0 14G 5G13E25G23G15G22G24G17E 2E 5G14E 3
                                G30E 8
  21630339.615   113668188.188       -3060.769          44.000  
  19127332.733   100514806.811        -619.561          46.000  
  23424096.521   123094439.353        -752.203          45.000  
  22488466.375   118177692.138        2701.835          43.000  
  19436253.170   102138198.906        1617.191          45.000  
  20165973.008   105972907.969         113.316          46.000  
  21460218.437   112774217.887        3179.062          42.000  
  23415316.515   123048305.401        2754.069          40.000  
  23282798.635   122351942.537        2093.459          42.000  
  26183678.692   137596166.336       -2575.133          34.000  
  20491694.332   107684569.136       -1020.566          47.000  
  23368484.300   122802225.141       -1476.480          42.000  
  22334363.589   117367853.175       -2691.362          42.000  
  22644276.016   118996481.406        1054.777          44.000  
 23 12 19 10 58 21.9970000  0 14G 5G13E25G23G15G22G24G17E 2E 5G14E 3
                                G30E 8
  21630922.295   113671249.041       -3061.449          44.000  
  19127450.696   100515426.643        -620.143          46.000  
  23424239.473   123095191.665        -752.748          45.000  
  22487952.125   118174990.527        2701.102          42.000  
  19435945.610   102136582.040        1616.265          45.000  
  20165951.257   105972795.058         112.492          46.000  
  21459613.185   112771038.886        3178.684          42.000  
  23414792.512   123045551.275        2753.844          40.000  
  23282400.055   122349849.217        2092.981          42.000  
  26184168.851   137598741.474       -2575.403          33.000  
  20491888.483   107685589.986       -1021.345          47.000  
  23368765.588   122803701.706       -1476.812          42.000  
  22334875.744   117370544.590       -2691.707          42.000  
  22644075.417   118995426.951        1054.090          44.000  
 23 12 19 10 58 22.9970000  0 14G 5G13E25G23G15G22G24G17E 2E 5G14E 3
                                G30E 8
  21631504.722   113674310.601       -3061.842          44.000  
  19127568.782   100516047.337        -621.150          46.000  
  23424382.102   123095944.777        -753.483          45.000  
  22487438.269   118172289.780        2700.150          42.000  
  19435638.198   102134966.082        1615.302          45.000  
  20165929.915   105972683.161         111.288          46.000  
  21459008.561   112767860.541        3177.827          42.000  
  23414268.647   123042797.765        2753.241          40.000  
  23282001.937   122347756.652        2092.314          42.000  
  26184658.618   137601317.035       -2575.634          33.000  
  20492083.332   107686611.814       -1022.341          47.000  
  23369046.650   122805178.930       -1477.769          42.000  
  22335387.699   117373236.517       -2692.242          42.000  
  22643874.862   118994373.146        1053.552          43.000  
 23 12 19 10 58 23.9970000  0 14G 5G13E25G23G15G22G24G17E 2E 5G14E 3
                                G30E 8
  21632087.211   113677372.818       -3062.656          44.000  
  19127686.894   100516668.816        -622.190          46.000  
  23424525.648   123096698.632        -754.395          45.000  
  22486924.377   118169589.812        2699.589          42.000  
  19435330.865   102133350.975        1614.521          45.000  
  20165908.975   105972572.201         110.314          46.000  
  21458403.867   112764682.754        3177.398          42.000  
  23413745.027   123040044.779        2752.783          40.000  
  23281604.403   122345664.778        2091.515          42.000  
  26185148.838   137603892.980       -2576.379          33.000  
  20492277.945   107687634.534       -1023.174          47.000  
  23369328.236   122806656.701       -1478.260          42.000  
  22335899.845   117375928.885       -2692.824          42.000  
  22643674.324   118993319.930        1052.842          43.000  
 23 12 19 10 58 24.9970000  0 14G 5G13E25G23G15G22G24G17E 2E 5G14E 3
                                G30E 8
  21632669.769   113680435.112       -3061.914          44.000  
  19127805.416   100517290.495        -621.505          46.000  
  23424668.513   123097452.640        -753.719          45.000  
  22486410.774   118166890.079        2700.050          43.000  
  19435023.252   102131736.150        1614.975          45.000  
  20165887.590   105972461.609         110.620          46.000  
  21457799.174   112761504.999        3178.093          42.000  
  23413221.346   123037291.760        2753.583          40.000  
  23281206.538   122343573.015        2092.097          42.000  
  26185639.512   137606468.724       -2575.169          33.000  
  20492472.795   107688657.585       -1022.821          47.000  
  23369609.341   122808134.483       -1477.627          42.000  
  22336412.026   117378621.134       -2691.623          42.000  
  22643473.839   118992266.728        1053.646          43.000  
 23 12 19 10 58 25.9970000  0 14G 5G13E25G23G15G22G24G17E 2E 5G14E 3
                                G30E 8
  21633252.396   113683497.632       -3063.011          44.000  
  19127923.554   100517912.527        -622.449          46.000  
  23424812.207   123098206.944        -754.704          45.000  
  22485897.371   118164190.708        2698.825          43.000  
  19434716.050   102130121.724        1613.811          45.000  
  20165866.780   105972351.519         109.521          46.000  
  21457194.349   112758327.369        3177.156          42.000  
  23412697.430   123034538.846        2752.623          40.000  
  23280808.691   122341481.490        2091.137          43.000  
  26186129.767   137609044.354       -2575.867          33.000  
  20492667.495   107689681.112       -1024.091          47.000  
  23369890.526   122809612.384       -1478.211          42.000  
  22336924.007   117381313.405       -2692.506          42.000  
  22643273.580   118991213.674        1052.669          43.000  
 23 12 19 10 58 26.9970000  0 14G 5G13E25G23G15G22G24G17E 2E 5G14E 3
                                G30E 8
  21633835.216   113686560.601       -3063.235          44.000  
  19128041.561   100518535.154        -622.806          46.000  
  23424955.516   123098961.780        -754.830          45.000  
  22485383.759   118161491.919        2698.644          42.000  
  19434408.734   102128507.958        1613.591          45.000  
  20165845.892   105972242.172         109.124          46.000  
  21456589.507   112755150.104        3177.295          42.000  
  23412174.106   123031786.297        2752.201          40.000  
  23280410.983   122339390.455        2090.953          43.000  
  26186619.577   137611620.164       -2575.713          33.000  
  20492862.327   107690705.317       -1024.246          47.000  
  23370171.448   122811090.664       -1478.216          42.000  
  22337436.625   117384005.930       -2692.691          42.000  
  22643073.173   118990161.000        1052.636          43.000  
 23 12 19 10 58 27.9970000  0 14G 5G13E25G23G15G22G24G17E 2E 5G14E 3
                                G30E 8
  21634418.150   113689623.819       -3063.557          45.000  
  19128159.856   100519158.165        -623.350          46.000  
  23425099.210   123099716.962        -755.489          45.000  
  22484870.112   118158793.549        2697.830          42.000  
  19434101.471   102126894.642        1613.055          45.000  
  20165825.205   105972133.379         108.214          46.000  
  21455984.752   112751973.032        3176.827          42.000  
  23411650.774   123029033.840        2752.124          40.000  
  23280013.022   122337299.694        2090.588          43.000  
  26187109.588   137614195.959       -2575.500          33.000  
  20493057.229   107691730.054       -1025.232          46.000  
  23370452.658   122812569.133       -1478.673          42.000  
  22337948.928   117386698.502       -2692.980          42.000  
  22642872.626   118989108.519        1052.060          43.000  
 23 12 19 10 58 28.9970000  0 14G 5G13E25G23G15G22G24G17E 2E 5G14E 3
                                G30E 8
  21635001.048   113692687.496       -3064.231          44.000  
  19128278.709   100519781.771        -624.063          46.000  
  23425243.227   123100472.680        -756.250          45.000  
  22484356.464   118156095.745        2697.316          42.000  
  19433794.443   102125281.981        1612.160          45.000  
  20165804.718   105972025.322         107.297          46.000  
  21455380.189   112748796.326        3176.658          42.000  
  23411127.242   123026281.746        2751.753          40.000  
  23279615.401   122335209.437        2089.740          43.000  
  26187599.826   137616771.928       -2576.435          33.000  
  20493252.287   107692755.483       -1026.061          46.000  
  23370733.842   122814047.967       -1479.186          42.000  
  22338461.520   117389391.328       -2692.886          42.000  
  22642672.429   118988056.431        1051.633          44.000  
 23 12 19 10 58 29.9970000  0 14G 5G13E25G23G15G22G24G17E 2E 5G14E 3
                                G30E 8
  21635584.129   113695751.553       -3063.989          44.000  
  19128397.441   100520405.882        -624.138          46.000  
  23425387.357   123101228.850        -756.199          45.000  
  22483843.245   118153398.470        2697.101          42.000  
  19433487.703   102123669.882        1611.895          45.000  
  20165784.502   105971917.906         107.406          46.000  
  21454775.670   112745619.938        3176.453          43.000  
  23410603.543   123023529.901        2752.069          40.000  
  23279217.938   122333119.548        2089.886          44.000  
  26188089.758   137619347.993       -2576.314          32.000  
  20493447.511   107693781.530       -1025.989          46.000  
  23371015.707   122815527.078       -1478.998          42.000  
  22338974.120   117392084.327       -2692.836          42.000  
  22642472.371   118987004.640        1051.651          44.000  
 23 12 19 10 58 30.9970000  0 14G 5G13E25G23G15G22G24G17E 2E 5G14E 3
                                G30E 8
  21636167.307   113698816.047       -3064.533          44.000  
  19128516.460   100521030.549        -624.935          46.000  
  23425531.016   123101985.511        -756.634          45.000  
  22483329.694   118150701.749        2696.569          42.000  
  19433180.797   102122058.403        1611.307          45.000  
  20165764.182   105971811.223         106.480          46.000  
  21454171.544   112742443.883        3175.938          43.000  
  23410080.159   123020778.360        2751.566          40.000  
  23278820.875   122331030.123        2089.312          44.000  
  26188580.188   137621924.156       -2576.435          32.000  
  20493642.744   107694808.253       -1026.893          46.000  
  23371297.179   122817006.545       -1479.621          43.000  
  22339486.493   117394777.537       -2693.054          42.000  
  22642272.304   118985953.202        1051.483          44.000  
 23 12 19 10 58 31.9970000  0 14G 5G13E25G23G15G22G24G17E 2E 5G14E 3
                                G30E 8
  21636750.284   113701880.720       -3064.763          44.000  
  19128635.357   100521655.545        -625.348          46.000  
  23425675.355   123102742.453        -757.146          45.000  
  22482817.059   118148005.384        2695.875          42.000  
  19432874.275   102120447.319        1610.668          45.000  
  20165744.341   105971705.020         105.698          46.000  
  21453567.121   112739267.934        3175.717          43.000  
  23409556.731   123018026.913        2751.045          40.000  
  23278423.290   122328940.925        2088.889          44.000  
  26189070.495   137624500.240       -2575.609          32.000  
  20493838.073   107695835.423       -1027.471          46.000  
  23371579.035   122818486.124       -1480.004          43.000  
  22339998.919   117397470.765       -2693.476          42.000  
  22642072.019   118984901.899        1051.012          44.000  
 23 12 19 10 58 32.9970000  0 14G 5G13E25G23G15G22G24G17E 2E 5G14E 3
                                G30E 8
  21637333.453   113704945.936       -3065.594          44.000  
  19128754.472   100522281.221        -626.063          46.000  
  23425819.756   123103500.032        -757.969          45.000  
  22482304.319   118145309.695        2695.195          42.000  
  19432567.797   102118836.972        1609.919          45.000  
  20165724.683   105971599.645         104.919          46.000  
  21452963.090   112736092.472        3175.298          43.000  
  23409033.285   123015275.878        2750.713          40.000  
  23278026.498   122326852.306        2088.299          44.000  
  26189560.619   137627076.611       -2576.876          32.000  
  20494033.621   107696863.384       -1028.485          46.000  
  23371860.463   122819966.149       -1480.186          43.000  
  22340511.283   117400164.311       -2693.647          43.000  
  22641871.804   118983851.071        1050.621          44.000  
 23 12 19 10 58 33.9970000  0 14G 5G13E25G23G15G22G24G17E 2E 5G14E 3
                                G30E 8
  21637916.508   113708011.416       -3065.916          44.000  
  19128873.770   100522907.316        -626.620          46.000  
  23425963.965   123104257.959        -758.426          45.000  
  22481791.605   118142614.420        2694.763          43.000  
  19432261.633   102117227.094        1609.308          45.000  
  20165704.982   105971494.839         104.161          46.000  
  21452358.902   112732917.216        3174.827          43.000  
  23408509.770   123012525.007        2750.552          40.000  
  23277628.834   122324763.990        2087.755          44.000  
  26190051.084   137629652.943       -2576.857          32.000  
  20494229.203   107697891.862       -1029.137          46.000  
  23372141.804   122821446.387       -1480.721          43.000  
  22341024.145   117402857.927       -2693.925          43.000  
  22641672.016   118982800.453        1050.192          44.000  
 23 12 19 10 58 34.9970000  0 14G 5G13E25G23G15G22G24G17E 2E 5G14E 3
                                G30E 8
  21638499.808   113711077.279       -3065.985          44.000  
  19128992.999   100523533.925        -626.731          46.000  
  23426108.269   123105016.351        -758.601          44.000  
  22481278.752   118139919.667        2694.725          43.000  
  19431955.207   102115617.790        1609.058          45.000  
  20165685.080   105971390.702         103.877          46.000  
  21451754.898   112729742.249        3174.781          43.000  
  23407986.333   123009774.436        2750.261          40.000  
  23277231.422   122322676.083        2087.688          44.000  
  26190541.836   137632229.350       -2575.875          32.000  
  20494425.343   107698920.970       -1029.386          46.000  
  23372423.555   122822926.912       -1480.639          43.000  
  22341537.286   117405551.730       -2693.860          43.000  
  22641472.587   118981750.155        1050.081          44.000  
 23 12 19 10 58 35.9970000  0 14G 5G13E25G23G15G22G24G17E 2E 5G14E 3
                                G30E 8
  21639083.300   113714143.601       -3066.412          44.000  
  19129112.481   100524161.133        -627.182          46.000  
  23426252.609   123105775.275        -759.024          44.000  
  22480766.239   118137225.554        2693.937          42.000  
  19431649.087   102114009.164        1608.286          44.000  
  20165665.378   105971287.333         103.046          46.000  
  21451150.745   112726567.676        3174.496          42.000  
  23407462.713   123007024.172        2750.409          40.000  
  23276834.360   122320588.696        2087.374          44.000  
  26191032.109   137634805.977       -2575.896          32.000  
  20494621.483   107699950.785       -1030.107          46.000  
  23372705.621   122824407.856       -1480.895          43.000  
  22342050.349   117408245.804       -2694.104          43.000  
  22641272.712   118980700.246        1049.903          44.000  
 23 12 19 10 58 36.9970000  0 14G 5G13E25G23G15G22G24G17E 2E 5G14E 3
                                G30E 8
  21639666.809   113717210.339       -3066.901          44.000  
  19129231.866   100524788.885        -627.975          46.000  
  23426397.053   123106534.695        -759.415          45.000  
  22480253.630   118134531.961        2693.574          42.000  
  19431342.792   102112401.128        1607.901          44.000  
  20165645.712   105971184.640         102.294          46.000  
  21450546.898   112723393.463        3173.864          42.000  
  23406938.989   123004274.244        2749.730          40.000  
  23276436.897   122318501.717        2086.968          44.000  
  26191522.504   137637382.744       -2577.293          32.000  
  20494817.598   107700981.270       -1030.712          46.000  
  23372987.494   122825889.082       -1481.058          42.000  
  22342563.377   117410940.076       -2694.196          43.000  
  22641072.767   118979650.681        1049.573          43.000  
 23 12 19 10 58 37.9970000  0 14G 5G13E25G23G15G22G24G17E 2E 5G14E 3
                                G30E 8
  21640250.571   113720277.422       -3066.718          44.000  
  19129351.069   100525417.136        -628.188          46.000  
  23426541.741   123107294.566        -759.724          44.000  
  22479741.170   118131838.872        2693.024          42.000  
  19431036.855   102110793.645        1607.425          45.000  
  20165626.089   105971082.603         102.020          46.000  
  21449942.946   112720219.467        3174.246          42.000  
  23406415.569   123001524.531        2749.810          40.000  
  23276039.520   122316415.143        2086.646          43.000  
  26192013.509   137639959.502       -2576.444          32.000  
  20495013.791   107702012.362       -1031.196          46.000  
  23373269.071   122827370.621       -1481.395          42.000  
  22343076.535   117413634.494       -2694.248          42.000  
  22640873.111   118978601.411        1049.562          44.000  
 23 12 19 10 58 38.9970000  0 14G 5G13E25G23G15G22G24G17E 2E 5G14E 3
                                G30E 8
  21640834.045   113723344.707       -3067.321          44.000  
  19129470.812   100526045.718        -628.698          46.000  
  23426686.404   123108054.696        -760.090          44.000  
  22479228.631   118129146.118        2692.702          43.000  
  19430731.205   102109186.564        1606.916          45.000  
  20165606.720   105970981.036         101.345          46.000  
  21449338.723   112717045.645        3173.808          42.000  
  23405892.019   122998774.883        2749.957          40.000  
  23275642.502   122314328.769        2086.377          43.000  
  26192504.445   137642536.227       -2576.369          32.000  
  20495209.948   107703043.881       -1031.648          46.000  
  23373551.136   122828852.245       -1481.462          42.000  
  22343589.441   117416328.920       -2694.333          42.000  
  22640673.672   118977552.272        1049.153          43.000  
 23 12 19 10 58 39.9970000  0 14G 5G13E25G23G15G22G24G17E 2E 5G14E 3
                                G30E 8
  21641417.982   113726412.310       -3067.698          44.000  
  19129590.433   100526674.761        -629.147          46.000  
  23426830.865   123108815.252        -760.572          44.000  
  22478716.397   118126453.847        2691.896          42.000  
  19430425.731   102107580.018        1606.235          45.000  
  20165587.018   105970880.091         100.875          45.000  
  21448734.702   112713872.064        3173.543          41.000  
  23405368.504   122996025.510        2749.152          40.000  
  23275245.422   122312242.776        2085.873          44.000  
  26192994.840   137645113.013       -2576.525          32.000  
  20495406.743   107704075.993       -1032.382          46.000  
  23373832.922   122830334.152       -1482.286          42.000  
  22344102.023   117419023.486       -2694.821          42.000  
  22640473.963   118976503.403        1048.725          43.000  
 23 12 19 10 58 40.9970000  0 14G 5G13E25G23G15G22G24G17E 2E 5G14E 3
                                G30E 8
  21642001.944   113729480.413       -3068.398          44.000  
  19129710.578   100527304.464        -630.027          46.000  
  23426975.763   123109576.404        -761.388          44.000  
  22478204.469   118123762.243        2691.190          42.000  
  19430120.212   102105974.177        1605.547          45.000  
  20165568.120   105970779.952          99.933          45.000  
  21448130.758   112710698.921        3172.609          41.000  
  23404844.928   122993276.490        2748.792          40.000  
  23274848.464   122310157.327        2085.311          43.000  
  26193485.496   137647689.987       -2577.107          32.000  
  20495603.259   107705108.873       -1033.226          46.000  
  23374115.354   122831816.471       -1482.623          42.000  
  22344614.693   117421718.369       -2695.206          42.000  
  22640274.760   118975454.984        1048.158          43.000  
 23 12 19 10 58 41.9970000  0 14G 5G13E25G23G15G22G24G17E 2E 5G14E 3
                                G30E 8
  21642585.933   113732548.950       -3068.260          44.000  
  19129830.644   100527934.718        -629.978          46.000  
  23427120.905   123110338.062        -761.465          44.000  
  22477692.322   118121071.186        2691.370          43.000  
  19429814.633   102104368.952        1605.298          45.000  
  20165548.706   105970680.533          99.524          45.000  
  21447526.867   112707526.124        3172.939          42.000  
  23404321.779   122990527.795        2748.733          40.000  
  23274451.481   122308072.331        2085.189          44.000  
  26193976.118   137650267.153       -2577.219          32.000  
  20495799.932   107706142.415       -1033.347          46.000  
  23374397.576   122833299.121       -1482.439          42.000  
  22345127.433   117424413.424       -2694.418          42.000  
  22640075.208   118974406.907        1048.371          44.000  
 23 12 19 10 58 42.9970000  0 14G 5G13E25G23G15G22G24G17E 2E 5G14E 3
                                G30E 8
  21643169.844   113735617.492       -3068.725          44.000  
  19129950.763   100528565.103        -630.646          46.000  
  23427265.463   123111099.800        -762.053          44.000  
  22477180.377   118118380.289        2690.505          43.000  
  19429509.289   102102763.936        1604.753          45.000  
  20165530.279   105970581.396          98.630          45.000  
  21446922.671   112704353.250        3172.646          41.000  
  23403798.569   122987778.993        2748.510          40.000  
  23274054.462   122305987.378        2084.735          44.000  
  26194466.312   137652843.981       -2576.396          31.000  
  20495996.465   107707176.223       -1034.105          46.000  
  23374679.685   122834781.701       -1482.692          42.000  
  22345640.155   117427108.325       -2694.927          43.000  
  22639875.647   118973358.787        1047.905          44.000  
 23 12 19 10 58 43.9970000  0 14G 5G13E25G23G15G22G24G17E 2E 5G14E 3
                                G30E 8
  21643753.999   113738686.554       -3068.864          45.000  
  19130071.056   100529196.156        -631.050          46.000  
  23427410.369   123111862.150        -762.446          44.000  
  22476668.483   118115690.043        2690.207          43.000  
  19429203.858   102101159.647        1604.245          45.000  
  20165511.380   105970483.055          98.167          46.000  
  21446319.155   112701180.844        3172.169          41.000  
  23403275.507   122985030.593        2748.204          40.000  
  23273657.644   122303902.962        2084.438          44.000  
  26194956.008   137655421.104       -2576.802          31.000  
  20496193.120   107708210.796       -1034.727          46.000  
  23374962.074   122836264.734       -1483.133          42.000  
  22346152.895   117429803.543       -2695.157          43.000  
  22639676.209   118972311.109        1047.889          44.000  
 23 12 19 10 58 44.9970000  0 14G 5G13E25G23G15G22G24G17E 2E 5G14E 3
                                G30E 8
  21644337.944   113741755.635       -3069.333          43.000  
  19130191.288   100529827.349        -631.458          46.000  
  23427555.424   123112624.563        -762.590          44.000  
  22476156.607   118112999.970        2689.760          43.000  
  19428898.706   102099555.568        1603.750          45.000  
  20165493.250   105970385.041          97.716          46.000  
  21445715.439   112698008.334        3172.473          42.000  
  23402752.533   122982282.082        2748.440          40.000  
  23273260.486   122301818.571        2084.349          44.000  
  26195446.072   137657997.918       -2577.354          31.000  
  20496390.203   107709245.619       -1035.034          46.000  
  23375244.340   122837747.677       -1483.010          42.000  
  22346665.739   117432498.552       -2695.101          43.000  
  22639477.285   118971263.374        1047.741          44.000  
 23 12 19 10 58 45.9970000  0 14G 5G13E25G23G15G22G24G17E 2E 5G14E 3
                                G30E 8
  21644922.064   113744825.050       -3069.546          44.000  
  19130311.747   100530459.023        -631.726          46.000  
  23427700.593   123113387.436        -763.159          44.000  
  22475644.714   118110310.375        2689.486          42.000  
  19428593.693   102097952.031        1603.211          45.000  
  20165474.560   105970287.659          97.028          46.000  
  21445111.757   112694836.121        3172.169          42.000  
  23402229.384   122979533.797        2748.369          40.000  
  23272864.148   122299734.590        2083.790          44.000  
  26195936.144   137660574.769       -2576.550          31.000  
  20496587.320   107710281.052       -1035.724          46.000  
  23375526.457   122839230.901       -1483.244          43.000  
  22347178.907   117435193.722       -2695.337          43.000  
  22639277.620   118970215.946        1047.135          44.000  
 23 12 19 10 58 46.9970000  0 14G 5G13E25G23G15G22G24G17E 2E 5G14E 3
                                G30E 8
  21645506.515   113747895.104       -3070.272          44.000  
  19130431.953   100531091.492        -632.615          46.000  
  23427846.128   123114151.002        -763.572          44.000  
  22475133.161   118107621.584        2688.524          42.000  
  19428288.585   102096349.339        1602.455          45.000  
  20165456.840   105970191.200          96.360          46.000  
  21444508.163   112691664.473        3171.590          42.000  
  23401706.646   122976786.088        2747.549          40.000  
  23272467.653   122297651.284        2083.032          43.000  
  26196426.311   137663152.054       -2577.828          31.000  
  20496784.377   107711317.380       -1036.707          46.000  
  23375808.540   122840714.699       -1483.924          43.000  
  22347691.821   117437889.325       -2695.771          43.000  
  22639078.251   118969169.077        1046.781          44.000  
 23 12 19 10 58 47.9970000  0 14G 5G13E25G23G15G22G24G17E 2E 5G14E 3
                                G30E 8
  21646090.757   113750965.866       -3071.091          44.000  
  19130552.525   100531724.795        -633.753          46.000  
  23427991.479   123114915.383        -764.668          44.000  
  22474621.424   118104933.633        2687.471          42.000  
  19427983.843   102094747.540        1601.433          45.000  
  20165438.639   105970095.756          94.959          46.000  
  21443904.926   112688493.466        3170.697          42.000  
  23401184.212   122974038.940        2746.649          40.000  
  23272071.192   122295568.693        2082.342          43.000  
  26196917.134   137665729.678       -2577.841          31.000  
  20496981.782   107712354.655       -1037.722          46.000  
  23376091.164   122842199.110       -1484.820          43.000  
  22348205.119   117440585.426       -2696.410          43.000  
  22638879.458   118968122.850        1045.927          44.000  
 23 12 19 10 58 48.9970000  0 14G 5G13E25G23G15G22G24G17E 2E 5G14E 3
                                G30E 8
  21646675.148   113754037.113       -3071.693          43.000  
  19130673.036   100532358.727        -634.337          46.000  
  23428137.354   123115680.343        -765.296          44.000  
  22474110.037   118102246.311        2687.053          42.000  
  19427679.136   102093146.440        1600.704          45.000  
  20165420.892   105970001.088          94.033          46.000  
  21443301.847   112685322.875        3170.542          42.000  
  23400661.744   122971292.184        2746.526          40.000  
  23271675.072   122293486.657        2081.643          43.000  
  26197407.590   137668307.529       -2577.808          31.000  
  20497179.301   107713392.675       -1038.639          46.000  
  23376373.569   122843683.941       -1485.168          43.000  
  22348718.705   117443281.840       -2696.576          43.000  
  22638680.386   118967077.055        1045.564          44.000  
 23 12 19 10 58 49.9970000  0 14G 5G13E25G23G15G22G24G17E 2E 5G14E 3
                                G30E 8
  21647259.346   113757108.510       -3071.956          43.000  
  19130793.678   100532992.952        -634.569          46.000  
  23428283.325   123116445.533        -765.682          44.000  
  22473598.807   118099559.313        2686.494          42.000  
  19427374.490   102091545.696        1600.232          45.000  
  20165402.918   105969906.860          93.641          46.000  
  21442698.750   112682152.380        3169.916          42.000  
  23400139.154   122968545.461        2746.333          40.000  
  23271278.883   122291404.784        2081.633          43.000  
  26197898.002   137670885.285       -2577.652          30.000  
  20497377.248   107714431.090       -1038.833          46.000  
  23376655.888   122845168.841       -1485.231          43.000  
  22349231.899   117445978.189       -2696.674          43.000  
  22638481.035   118966031.357        1045.171          44.000  
 23 12 19 10 58 50.9970000  0 14G 5G13E25G23G15G22G24G17E 2E 5G14E 3
                                G30E 8
  21647843.876   113760180.350       -3072.335          44.000  
  19130914.486   100533627.778        -635.537          46.000  
  23428429.497   123117211.256        -766.503          44.000  
  22473087.393   118096872.910        2685.521          42.000  
  19427070.158   102089945.602        1599.378          45.000  
  20165385.259   105969813.391          92.727          46.000  
  21442095.408   112678982.271        3169.822          42.000  
  23399616.651   122965799.095        2745.769          40.000  
  23270883.094   122289323.442        2080.743          43.000  
  26198388.405   137673463.194       -2578.172          30.000  
  20497575.160   107715470.219       -1039.883          46.000  
  23376938.494   122846654.144       -1485.880          42.000  
  22349745.354   117448674.816       -2697.113          43.000  
  22638282.093   118964986.034        1044.687          44.000  
 23 12 19 10 58 51.9970000  0 14G 5G13E25G23G15G22G24G17E 2E 5G14E 3
                                G30E 8
  21648428.493   113763252.849       -3072.975          44.000  
  19131035.687   100534263.372        -636.150          46.000  
  23428575.800   123117977.710        -766.898          44.000  
  22472576.337   118094187.278        2685.368          42.000  
  19426765.827   102088346.358        1598.647          45.000  
  20165367.111   105969720.847          92.028          46.000  
  21441492.338   112675812.730        3169.001          41.000  
  23399094.025   122963053.242        2745.702          41.000  
  23270487.027   122287242.736        2080.221          43.000  
  26198878.704   137676041.455       -2578.884          31.000  
  20497773.071   107716510.254       -1040.740          46.000  
  23377221.257   122848139.987       -1486.321          42.000  
  22350258.643   117451371.877       -2697.344          43.000  
  22638083.257   118963941.301        1044.231          43.000  
 23 12 19 10 58 52.9970000  0 14G 5G13E25G23G15G22G24G17E 2E 5G14E 3
                                G30E 8
  21649012.875   113766325.663       -3073.050          44.000  
  19131156.521   100534899.429        -636.152          46.000  
  23428721.291   123118744.554        -766.746          44.000  
  22472065.534   118091502.126        2685.052          42.000  
  19426461.425   102086747.630        1598.470          45.000  
  20165349.460   105969628.907          91.656          45.000  
  21440889.110   112672643.415        3169.302          41.000  
  23398571.592   122960307.619        2745.776          41.000  
  23270091.221   122285162.390        2080.327          43.000  
  26199369.430   137678619.778       -2578.323          31.000  
  20497971.184   107717550.823       -1040.546          46.000  
  23377504.247   122849626.071       -1486.000          42.000  
  22350772.352   117454069.036       -2696.952          43.000  
  22637884.386   118962896.827        1044.622          43.000  
 23 12 19 10 58 53.9970000  0 14G 5G13E25G23G15G22G24G17E 2E 5G14E 3
                                G30E 8
  21649597.797   113769398.645       -3072.969          44.000  
  19131277.677   100535535.793        -636.319          46.000  
  23428867.245   123119511.673        -767.078          44.000  
  22471554.444   118088817.281        2685.006          42.000  
  19426157.477   102085149.266        1598.378          45.000  
  20165331.765   105969537.428          91.510          45.000  
  21440286.065   112669474.193        3169.369          41.000  
  23398049.630   122957562.065        2745.853          41.000  
  23269695.144   122283082.245        2080.124          43.000  
  26199860.200   137681197.928       -2577.547          31.000  
  20498169.348   107718591.836       -1040.969          46.000  
  23377787.115   122851112.247       -1486.000          42.000  
  22351285.685   117456766.190       -2697.014          43.000  
  22637685.654   118961852.446        1044.689          43.000  
 23 12 19 10 58 54.9970000  0 14G 5G13E25G23G15G22G24G17E 2E 5G14E 3
                                G30E 8
  21650182.772   113772472.099       -3073.820          44.000  
  19131398.843   100536172.763        -637.324          46.000  
  23429013.268   123120279.331        -768.058          44.000  
  22471043.920   118086133.088        2683.751          43.000  
  19425853.468   102083551.592        1597.282          45.000  
  20165314.306   105969446.730          90.102          45.000  
  21439683.256   112666305.409        3168.579          41.000  
  23397527.441   122954816.840        2745.215          41.000  
  23269299.286   122281002.617        2079.259          43.000  
  26200350.543   137683776.369       -2578.907          31.000  
  20498367.609   107719633.575       -1042.147          46.000  
  23378070.167   122852598.816       -1486.593          42.000  
  22351799.105   117459463.607       -2697.725          43.000  
  22637487.044   118960808.503        1043.702          43.000  
 23 12 19 10 58 55.9970000  0 14G 5G13E25G23G15G22G24G17E 2E 5G14E 3
                                G30E 8
  21650767.834   113775545.944       -3074.021          44.000  
  19131519.904   100536810.284        -637.758          46.000  
  23429159.134   123121047.483        -768.329          44.000  
  22470533.292   118083449.412        2683.327          42.000  
  19425549.642   102081954.510        1596.814          45.000  
  20165297.362   105969356.695          89.705          45.000  
  21439080.526   112663136.934        3168.150          41.000  
  23397005.740   122952071.932        2744.910          41.000  
  23268903.507   122278923.412        2079.042          43.000  
  26200841.391   137686354.937       -2580.154          30.000  
  20498566.053   107720675.965       -1042.777          46.000  
  23378353.113   122854085.717       -1487.095          42.000  
  22352312.333   117462161.225       -2697.594          43.000  
  22637288.522   118959764.881        1043.581          43.000  
 23 12 19 10 58 56.9970000  0 14G 5G13E25G23G15G22G24G17E 2E 5G14E 3
                                G30E 8
  21651352.958   113778619.941       -3073.963          44.000  
  19131641.061   100537448.066        -637.620          46.000  
  23429304.983   123121815.847        -768.188          44.000  
  22470022.629   118080766.018        2683.487          42.000  
  19425245.860   102080357.771        1596.656          45.000  
  20165279.851   105969267.104          89.477          45.000  
  21438477.682   112659968.497        3168.760          41.000  
  23396483.577   122949327.037        2745.217          41.000  
  23268507.928   122276844.373        2079.193          43.000  
  26201332.161   137688933.184       -2577.812          30.000  
  20498764.488   107721718.736       -1042.734          46.000  
  23378636.103   122855572.662       -1486.639          42.000  
  22352825.483   117464858.787       -2697.509          42.000  
  22637089.711   118958721.349        1043.602          43.000  
 23 12 19 10 58 57.9970000  0 14G 5G13E25G23G15G22G24G17E 2E 5G14E 3
                                G30E 8
  21651938.098   113781694.131       -3074.477          44.000  
  19131762.270   100538086.211        -638.333          46.000  
  23429451.190   123122584.514        -768.945          44.000  
  22469512.280   118078083.012        2682.681          42.000  
  19424942.305   102078761.441        1595.984          45.000  
  20165263.029   105969178.001          88.795          45.000  
  21437874.506   112656800.219        3168.042          41.000  
  23395961.537   122946582.250        2744.543          41.000  
  23268112.314   122274765.584        2078.670          43.000  
  26201823.018   137691511.480       -2578.136          31.000  
  20498962.941   107722761.967       -1043.503          46.000  
  23378919.382   122857059.741       -1487.057          42.000  
  22353338.528   117467556.355       -2697.718          42.000  
  22636891.110   118957677.943        1043.309          43.000  
 23 12 19 10 58 58.9970000  0 14G 5G13E25G23G15G22G24G17E 2E 5G14E 3
                                G30E 8
  21652523.361   113784768.774       -3074.727          44.000  
  19131883.881   100538724.960        -638.940          46.000  
  23429597.632   123123353.726        -769.326          44.000  
  22469001.782   118075400.596        2682.159          42.000  
  19424638.575   102077165.793        1595.280          45.000  
  20165245.832   105969089.665          87.998          45.000  
  21437271.348   112653632.346        3167.972          41.000  
  23395439.583   122943837.835        2744.200          41.000  
  23267717.311   122272687.307        2078.072          43.000  
  26202321.300   137694089.976       -2578.545          30.000  
  20499161.542   107723805.932       -1044.226          46.000  
  23379202.258   122858547.228       -1487.517          42.000  
  22353851.696   117470254.210       -2698.137          42.000  
  22636692.623   118956634.960        1042.815          43.000  
 23 12 19 10 58 59.9970000  0 14G 5G13E25G23G15G22G24G17E 2E 5G14E 3
                                G30E 8
  21653108.668   113787843.688       -3075.120          44.000  
  19132005.299   100539364.114        -639.586          46.000  
  23429743.900   123124123.276        -769.659          44.000  
  22468491.424   118072718.577        2681.934          42.000  
  19424335.038   102075570.590        1594.746          46.000  
  20165229.481   105969001.873          87.353          45.000  
  21436668.478   112650464.642        3167.581          41.000  
  23394917.447   122941093.551        2744.258          41.000  
  23267321.967   122270609.319        2077.894          43.000  
  26202816.049   137696668.437       -2578.857          30.000  
  20499360.151   107724850.403       -1044.774          46.000  
  23379485.187   122860034.894       -1487.758          42.000  
  22354365.159   117472952.113       -2698.186          42.000  
  22636493.664   118955592.158        1042.699          43.000  
 23 12 19 10 59  0.9970000  0 14G 5G13E25G23G15G22G24G17E 2E 5G14E 3
                                G30E 8
  21653694.131   113790918.961       -3075.413          45.000  
  19132126.857   100540003.780        -640.102          46.000  
  23429890.386   123124893.309        -770.390          44.000  
  22467981.215   118070037.120        2681.192          42.000  
  19424032.172   102073975.974        1594.288          45.000  
  20165212.912   105968914.754          86.635          45.000  
  21436065.529   112647297.273        3166.960          41.000  
  23394395.275   122938349.550        2743.597          41.000  
  23266926.423   122268531.741        2077.137          43.000  
  26203302.701   137699246.901       -2577.352          31.000  
  20499558.962   107725895.505       -1045.464          46.000  
  23379768.361   122861522.865       -1488.575          42.000  
  22354878.161   117475650.202       -2698.399          42.000  
  22636295.962   118954549.685        1042.238          43.000  
 23 12 19 10 59  1.9970000  0 14G 5G13E25G23G15G22G24G17E 2E 5G14E 3
                                G30E 8
  21654279.569   113793994.519       -3075.784          45.000  
  19132248.878   100540643.833        -640.504          46.000  
  23430037.107   123125663.671        -770.844          44.000  
  22467470.979   118067356.051        2680.666          42.000  
  19423728.869   102072381.812        1593.789          45.000  
  20165196.413   105968828.190          85.858          45.000  
  21435462.729   112644130.083        3166.589          41.000  
  23393873.461   122935605.674        2743.756          41.000  
  23266531.568   122266454.457        2076.901          43.000  
  26203790.260   137701825.490       -2578.783          31.000  
  20499757.519   107726941.109       -1046.096          46.000  
  23380051.656   122863010.987       -1488.316          42.000  
  22355391.607   117478348.326       -2698.369          43.000  
  22636097.475   118953507.407        1042.022          43.000  
 23 12 19 10 59  2.9970000  0 14G 5G13E25G23G15G22G24G17E 2E 5G14E 3
                                G30E 8
  21654865.006   113797070.580       -3075.999          45.000  
  19132370.506   100541284.549        -640.727          46.000  
  23430184.073   123126434.623        -770.872          44.000  
  22466960.735   118064675.646        2680.372          42.000  
  19423425.489   102070788.380        1593.411          45.000  
  20165179.948   105968742.420          85.735          45.000  
  21434859.999   112640963.326        3166.606          41.000  
  23393351.263   122932862.229        2743.696          41.000  
  23266136.539   122264377.717        2076.886          44.000  
  26204278.805   137704404.198       -2578.278          31.000  
  20499956.547   107727987.485       -1046.433          46.000  
  23380335.231   122864499.561       -1488.572          42.000  
  22355905.255   117481046.771       -2698.341          43.000  
  22635899.580   118952465.578        1042.013          43.000  
 23 12 19 10 59  3.9970000  0 14G 5G13E25G23G15G22G24G17E 2E 5G14E 3
                                G30E 8
  21655450.321   113800147.112       -3076.727          45.000  
  19132492.562   100541925.873        -641.534          45.000  
  23430331.012   123127206.149        -771.618          44.000  
  22466450.813   118061995.870        2679.487          42.000  
  19423122.352   102069195.613        1592.569          45.000  
  20165163.938   105968657.423          84.885          45.000  
  21434257.198   112637796.985        3166.130          40.000  
  23392828.891   122930119.140        2742.910          41.000  
  23265741.056   122262301.498        2076.065          44.000  
  26204765.980   137706983.156       -2578.235          31.000  
  20500155.593   107729034.588       -1047.452          46.000  
  23380618.535   122865988.522       -1488.826          42.000  
  22356419.172   117483745.505       -2698.764          43.000  
  22635701.564   118951424.172        1041.344          43.000  
 23 12 19 10 59  4.9970000  0 14G 5G13E25G23G15G22G24G17E 2E 5G14E 3
                                G30E 8
  21656036.081   113803223.831       -3077.028          45.000  
  19132614.530   100542567.515        -641.826          45.000  
  23430477.978   123127977.926        -771.764          44.000  
  22465940.944   118059316.406        2679.274          42.000  
  19422819.504   102067603.239        1592.104          45.000  
  20165148.041   105968572.902          84.270          46.000  
  21433654.302   112634630.742        3166.108          40.000  
  23392306.754   122927376.127        2743.010          41.000  
  23265345.931   122260225.467        2076.205          44.000  
  26205258.626   137709562.033       -2579.053          30.000  
  20500355.206   107730082.114       -1047.876          46.000  
  23380902.381   122867477.615       -1489.259          42.000  
  22356932.872   117486444.208       -2698.785          43.000  
  22635503.766   118950382.865        1041.303          43.000  
 23 12 19 10 59  5.9970000  0 14G 5G13E25G23G15G22G24G17E 2E 5G14E 3
                                G30E 8
  21656621.999   113806300.908       -3077.165          45.000  
  19132736.638   100543209.656        -642.070          45.000  
  23430624.595   123128750.155        -772.147          44.000  
  22465430.944   118056637.477        2678.798          42.000  
  19422516.594   102066011.423        1591.734          45.000  
  20165132.030   105968489.032          83.681          45.000  
  21433051.868   112631464.811        3165.842          41.000  
  23391784.129   122924633.372        2742.887          41.000  
  23264951.181   122258149.869        2075.643          44.000  
  26205748.907   137712140.935       -2578.585          31.000  
  20500554.488   107731130.257       -1048.293          46.000  
  23381185.790   122868966.969       -1489.178          42.000  
  22357446.606   117489143.090       -2698.930          43.000  
  22635305.828   118949341.880        1041.157          43.000  
 23 12 19 10 59  6.9970000  0 14G 5G13E25G23G15G22G24G17E 2E 5G14E 3
                                G30E 8
  21657207.811   113809378.388       -3077.800          45.000  
  19132858.789   100543852.364        -643.224          45.000  
  23430771.299   123129522.909        -773.291          44.000  
  22464921.284   118053959.117        2677.867          41.000  
  19422213.780   102064420.253        1590.541          45.000  
  20165116.133   105968405.879          82.530          45.000  
  21432449.137   112628299.204        3165.211          40.000  
  23391261.574   122921890.938        2741.870          41.000  
  23264556.029   122256074.729        2074.587          44.000  
  26206239.267   137714720.014       -2579.637          31.000  
  20500754.415   107732179.086       -1049.359          46.000  
  23381469.347   122870456.695       -1490.211          42.000  
  22357960.297   117491842.171       -2699.466          43.000  
  22635107.751   118948301.257        1040.261          43.000  
 23 12 19 10 59  7.9970000  0 14G 5G13E25G23G15G22G24G17E 2E 5G14E 3
                                G30E 8
  21657793.467   113812456.236       -3077.990          45.000  
  19132981.054   100544495.559        -643.320          45.000  
  23430918.116   123130296.064        -773.134          44.000  
  22464411.424   118051281.255        2677.365          41.000  
  19421911.281   102062829.608        1590.360          45.000  
  20165100.454   105968323.348          82.563          46.000  
  21431846.896   112625133.920        3164.987          41.000  
  23390739.515   122919148.726        2742.118          41.000  
  23264161.393   122253999.952        2074.843          44.000  
  26206729.095   137717299.117       -2578.477          31.000  
  20500953.906   107733228.496       -1049.554          46.000  
  23381752.939   122871946.655       -1489.848          42.000  
  22358473.935   117494541.425       -2699.207          43.000  
  22634909.725   118947260.907        1040.342          43.000  
 23 12 19 10 59  8.9970000  0 14G 5G13E25G23G15G22G24G17E 2E 5G14E 3
                                G30E 8
  21658379.349   113815534.466       -3078.407          45.000  
  19133103.415   100545139.299        -644.050          45.000  
  23431065.326   123131069.720        -774.078          44.000  
  22463901.502   118048603.938        2676.939          42.000  
  19421608.485   102061239.569        1589.822          45.000  
  20165085.080   105968241.538          81.394          45.000  
  21431244.601   112621968.919        3164.888          41.000  
  23390217.544   122916406.819        2741.979          41.000  
  23263766.590   122251925.627        2073.940          44.000  
  26207218.556   137719878.384       -2579.602          31.000  
  20501153.623   107734278.572       -1050.469          46.000  
  23382036.470   122873436.969       -1490.672          42.000  
  22358987.661   117497240.870       -2699.496          43.000  
  22634711.700   118946220.902        1039.832          43.000  
 23 12 19 10 59  9.9970000  0 14G 5G13E25G23G15G22G24G17E 2E 5G14E 3
                                G30E 8
  21658965.205   113818612.882       -3078.287          45.000  
  19133225.890   100545783.359        -644.189          45.000  
  23431212.440   123131843.647        -774.184          44.000  
  22463391.825   118045926.968        2676.512          41.000  
  19421305.627   102059649.924        1589.489          45.000  
  20165069.864   105968160.180          81.133          45.000  
  21430642.464   112618804.034        3164.940          41.000  
  23389695.225   122913664.997        2741.851          41.000  
  23263372.512   122249851.519        2073.839          44.000  
  26207710.704   137722457.562       -2579.667          31.000  
  20501353.751   107735329.084       -1050.903          46.000  
  23382319.844   122874927.374       -1490.504          42.000  
  22359500.549   117499940.289       -2699.297          42.000  
  22634513.702   118945181.033        1039.805          43.000  
 23 12 19 10 59 10.9970000  0 14G 5G13E25G23G15G22G24G17E 2E 5G14E 3
                                G30E 8
  21659550.939   113821691.714       -3078.841          45.000  
  19133348.547   100546427.952        -644.822          45.000  
  23431359.799   123132618.036        -774.466          45.000  
  22462882.968   118043250.532        2675.944          41.000  
  19421003.058   102058060.873        1588.916          45.000  
  20165054.106   105968079.515          80.531          45.000  
  21430040.624   112615639.501        3164.435          41.000  
  23389173.507   122910923.472        2741.495          41.000  
  23262978.015   122247777.826        2073.651          44.000  
  26208200.767   137725036.828       -2579.438          31.000  
  20501553.513   107736380.224       -1051.383          46.000  
  23382603.759   122876418.102       -1490.856          42.000  
  22360013.943   117502639.939       -2699.664          42.000  
  22634316.235   118944141.483        1039.549          43.000  
 23 12 19 10 59 11.9970000  0 14G 5G13E25G23G15G22G24G17E 2E 5G14E 3
                                G30E 8
  21660136.586   113824770.849       -3079.253          45.000  
  19133471.039   100547073.000        -645.255          45.000  
  23431507.489   123133392.834        -774.844          45.000  
  22462373.518   118040574.553        2675.637          41.000  
  19420700.733   102056472.341        1588.228          45.000  
  20165039.047   105967999.467          79.780          45.000  
  21429438.565   112612475.192        3164.326          41.000  
  23388651.832   122908182.143        2741.545          41.000  
  23262583.614   122245704.500        2073.066          44.000  
  26208691.799   137727616.115       -2579.677          31.000  
  20501753.562   107737431.942       -1051.930          46.000  
  23382887.308   122877909.062       -1490.969          42.000  
  22360527.346   117505339.680       -2699.904          42.000  
  22634118.140   118943102.187        1039.321          43.000  
 23 12 19 10 59 12.9970000  0 14G 5G13E25G23G15G22G24G17E 2E 5G14E 3
                                G30E 8
  21660722.835   113827850.420       -3079.391          45.000  
  19133594.159   100547718.616        -645.554          45.000  
  23431655.074   123134168.171        -775.427          45.000  
  22461864.399   118037899.172        2675.211          41.000  
  19420398.548   102054884.451        1587.810          45.000  
  20165023.638   105967920.121          79.253          45.000  
  21428836.637   112609311.263        3163.941          41.000  
  23388130.289   122905441.155        2741.217          41.000  
  23262189.623   122243631.640        2072.782          44.000  
  26209182.464   137730195.539       -2579.240          31.000  
  20501953.681   107738484.357       -1052.656          46.000  
  23383170.455   122879400.400       -1491.458          42.000  
  22361040.609   117508039.681       -2700.169          42.000  
  22633920.228   118942063.271        1038.997          43.000  
 23 12 19 10 59 13.9970000  0 14G 5G13E25G23G15G22G24G17E 2E 5G14E 3
                                G30E 8
  21661308.769   113830930.089       -3079.843          45.000  
  19133717.139   100548364.450        -646.076          45.000  
  23431802.694   123134943.642        -775.566          45.000  
  22461355.062   118035224.003        2675.040          41.000  
  19420096.493   102053296.826        1587.373          45.000  
  20165008.831   105967841.155          78.624          45.000  
  21428234.910   112606147.342        3163.824          42.000  
  23387608.589   122902700.114        2740.929          41.000  
  23261795.126   122241558.887        2072.515          44.000  
  26209675.808   137732774.809       -2578.933          31.000  
  20502154.106   107739537.080       -1052.960          46.000  
  23383454.205   122880891.712       -1491.379          42.000  
  22361554.038   117510739.513       -2699.664          42.000  
  22633722.919   118941024.371        1038.852          43.000  
 23 12 19 10 59 14.9970000  0 14G 5G13E25G23G15G22G24G17E 2E 5G14E 3
                                G30E 8
  21661894.355   113834009.840       -3080.265          44.000  
  19133840.303   100549010.525        -646.329          45.000  
  23431950.567   123135719.305        -775.826          45.000  
  22460846.083   118032549.107        2674.842          41.000  
  19419794.561   102051709.518        1587.008          45.000  
  20164993.990   105967762.593          77.990          45.000  
  21427633.392   112602983.436        3163.709          42.000  
  23387086.871   122899959.089        2740.868          41.000  
  23261400.428   122239486.269        2072.325          44.000  
  26210164.885   137735353.850       -2578.621          31.000  
  20502354.495   107740590.156       -1053.319          46.000  
  23383737.910   122882383.055       -1491.421          42.000  
  22362067.755   117513439.294       -2700.167          42.000  
  22633525.356   118939985.511        1038.669          43.000  
 23 12 19 10 59 15.9970000  0 14G 5G13E25G23G15G22G24G17E 2E 5G14E 3
                                G30E 8
  21662480.586   113837090.129       -3080.596          44.000  
  19133963.283   100549657.282        -647.115          46.000  
  23432098.580   123136495.607        -776.692          45.000  
  22460337.287   118029874.909        2673.692          41.000  
  19419492.436   102050122.963        1586.182          45.000  
  20164978.904   105967684.851          77.378          45.000  
  21427031.866   112599820.028        3163.018          42.000  
  23386565.266   122897218.483        2740.385          41.000  
  23261005.957   122237414.239        2071.641          44.000  
  26210654.643   137737933.218       -2580.100          31.000  
  20502554.850   107741644.053       -1054.462          46.000  
  23384021.799   122883874.874       -1492.137          42.000  
  22362581.455   117516139.387       -2700.274          42.000  
  22633327.767   118938947.142        1038.055          43.000  
 23 12 19 10 59 16.9970000  0 14G 5G13E25G23G15G22G24G17E 2E 5G14E 3
                                G30E 8
  21663066.687   113840171.047       -3080.922          44.000  
  19134086.683   100550304.820        -647.655          46.000  
  23432246.383   123137272.608        -776.993          45.000  
  22459828.517   118027201.477        2673.666          41.000  
  19419190.862   102048537.250        1585.597          45.000  
  20164964.648   105967608.058          76.685          45.000  
  21426430.479   112596657.166        3162.803          42.000  
  23386043.941   122894478.410        2740.291          41.000  
  23260611.381   122235342.878        2071.233          44.000  
  26211145.902   137740512.907       -2580.162          30.000  
  20502755.597   107742698.808       -1054.817          46.000  
  23384305.679   122885367.236       -1492.349          42.000  
  22363095.608   117518839.934       -2700.607          42.000  
  22633130.187   118937909.339        1037.730          44.000  
 23 12 19 10 59 17.9970000  0 14G 5G13E25G23G15G22G24G17E 2E 5G14E 3
                                G30E 8
  21663652.840   113843252.346       -3081.529          44.000  
  19134210.239   100550952.868        -648.370          46.000  
  23432394.614   123138050.088        -777.744          44.000  
  22459319.887   118024528.598        2672.415          41.000  
  19418889.060   102046952.112        1584.740          45.000  
  20164949.928   105967531.912          76.055          45.000  
  21425829.092   112593494.627        3162.498          42.000  
  23385522.398   122891738.624        2739.474          41.000  
  23260217.129   122233271.928        2070.777          44.000  
  26211637.579   137743092.596       -2578.924          30.000  
  20502956.065   107743754.198       -1055.551          45.000  
  23384589.455   122886859.921       -1492.961          42.000  
  22363609.726   117521540.662       -2700.997          42.000  
  22632932.555   118936871.855        1037.320          43.000  
 23 12 19 10 59 18.9970000  0 14G 5G13E25G23G15G22G24G17E 2E 5G14E 3
                                G30E 8
  21664238.923   113846334.095       -3082.049          44.000  
  19134333.638   100551601.514        -648.779          46.000  
  23432542.950   123138828.120        -778.380          45.000  
  22458811.213   118021856.318        2672.101          41.000  
  19418587.381   102045367.647        1584.346          45.000  
  20164935.776   105967456.559          75.060          45.000  
  21425227.199   112590332.504        3161.893          42.000  
  23385001.099   122888999.180        2739.498          41.000  
  23259823.120   122231201.500        2070.094          44.000  
  26212132.214   137745672.666       -2580.441          30.000  
  20503156.786   107744810.316       -1056.354          45.000  
  23384873.492   122888352.983       -1493.230          42.000  
  22364123.819   117524241.653       -2701.155          42.000  
  22632735.044   118935834.786        1036.816          43.000  
 23 12 19 10 59 19.9970000  0 14G 5G13E25G23G15G22G24G17E 2E 5G14E 3
                                G30E 8
  21664825.320   113849416.082       -3082.146          44.000  
  19134457.194   100552250.570        -649.282          46.000  
  23432691.599   123139606.473        -778.545          44.000  
  22458302.321   118019184.432        2671.940          41.000  
  19418285.754   102043783.631        1583.682          45.000  
  20164921.415   105967381.721          74.656          45.000  
  21424625.481   112587170.538        3161.784          42.000  
  23384479.913   122886259.871        2739.394          41.000  
  23259429.347   122229131.322        2070.155          44.000  
  26212615.166   137748252.530       -2579.688          30.000  
  20503357.822   107745866.924       -1056.804          45.000  
  23385157.817   122889846.215       -1493.028          42.000  
  22364637.745   117526942.670       -2700.894          43.000  
  22632537.691   118934797.890        1036.832          43.000  
 23 12 19 10 59 20.9970000  0 14G 5G13E25G23G15G22G24G17E 2E 5G14E 3
                                G30E 8
  21665411.813   113852498.295       -3082.604          44.000  
  19134580.585   100552899.974        -649.616          45.000  
  23432840.136   123140385.132        -779.125          44.000  
  22457794.118   118016512.927        2671.357          41.000  
  19417984.127   102042200.037        1583.155          45.000  
  20164907.262   105967307.408          73.852          46.000  
  21424024.085   112584008.736        3161.275          43.000  
  23383958.492   122883520.702        2738.702          41.000  
  23259035.278   122227061.412        2069.811          44.000  
  26213112.140   137750832.408       -2579.778          29.000  
  20503558.988   107746924.012       -1057.550          45.000  
  23385442.020   122891339.602       -1493.535          42.000  
  22365152.212   117529643.738       -2701.256          43.000  
  22632340.888   118933761.166        1036.366          44.000  
 23 12 19 10 59 21.9970000  0 14G 5G13E25G23G15G22G24G17E 2E 5G14E 3
                                G30E 8
  21665998.655   113855581.174       -3083.341          44.000  
  19134704.237   100553550.214        -650.862          45.000  
  23432988.297   123141164.540        -779.768          44.000  
  22457285.863   118013842.272        2670.040          41.000  
  19417683.102   102040617.321        1582.250          45.000  
  20164893.677   105967234.052          72.523          46.000  
  21423422.559   112580847.514        3160.646          43.000  
  23383436.957   122880782.090        2738.100          41.000  
  23258640.999   122224992.220        2068.895          44.000  
  26213594.743   137753412.653       -2580.449          29.000  
  20503760.302   107747982.024       -1058.768          46.000  
  23385726.127   122892833.591       -1494.447          42.000  
  22365666.898   117532345.267       -2701.922          43.000  
  22632143.377   118932725.045        1035.852          44.000  
 23 12 19 10 59 22.9970000  0 14G 5G13E25G23G15G22G24G17E 2E 5G14E 3
                                G30E 8
  21666585.419   113858664.630       -3083.627          44.000  
  19134828.378   100554201.150        -651.244          45.000  
  23433137.034   123141944.627        -780.323          44.000  
  22456777.913   118011172.315        2669.683          41.000  
  19417382.103   102039035.380        1581.795          45.000  
  20164879.761   105967161.549          72.238          46.000  
  21422821.172   112577686.804        3160.744          43.000  
  23382915.597   122878043.964        2737.744          41.000  
  23258247.671   122222923.644        2068.486          44.000  
  26214087.974   137755993.231       -2581.142          29.000  
  20503961.913   107749040.857       -1059.100          46.000  
  23386010.635   122894328.055       -1494.469          42.000  
  22366181.182   117535047.182       -2701.890          43.000  
  22631946.050   118931689.439        1035.586          44.000  
 23 12 19 10 59 23.9970000  0 14G 5G13E25G23G15G22G24G17E 2E 5G14E 3
                                G30E 8
  21667172.104   113861748.409       -3083.943          44.000  
  19134952.292   100554852.565        -651.765          45.000  
  23433285.439   123142725.107        -780.532          44.000  
  22456270.234   118008502.835        2669.255          41.000  
  19417081.314   102037453.973        1581.210          45.000  
  20164866.193   105967089.683          71.594          45.000  
  21422219.689   112574526.366        3160.393          43.000  
  23382394.882   122875306.013        2738.132          40.000  
  23257854.203   122220855.429        2068.033          44.000  
  26214574.267   137758573.738       -2580.266          29.000  
  20504163.978   107750100.262       -1059.689          46.000  
  23386294.803   122895822.773       -1494.667          42.000  
  22366695.361   117537749.211       -2702.183          43.000  
  22631749.203   118930654.106        1035.305          44.000  
 23 12 19 10 59 24.9970000  0 14G 5G13E25G23G15G22G24G17E 2E 5G14E 3
                                G30E 8
  21667759.146   113864832.519       -3084.080          44.000  
  19135076.415   100555504.425        -652.005          46.000  
  23433433.748   123143506.007        -780.999          44.000  
  22455762.346   118005833.824        2668.956          41.000  
  19416780.507   102035873.096        1580.990          45.000  
  20164853.053   105967018.414          71.066          46.000  
  21421618.023   112571366.167        3160.379          43.000  
  23381873.531   122872568.333        2737.853          40.000  
  23257460.884   122218787.565        2067.812          44.000  
  26215064.976   137761154.441       -2580.972          29.000  
  20504365.842   107751160.249       -1060.111          46.000  
  23386579.320   122897317.761       -1495.125          42.000  
  22367209.750   117540451.363       -2702.145          43.000  
  22631552.312   118929619.037        1035.140          44.000  
 23 12 19 10 59 25.9970000  0 14G 5G13E25G23G15G22G24G17E 2E 5G14E 3
                                G30E 8
  21668346.032   113867916.711       -3084.335          44.000  
  19135200.390   100556156.527        -652.361          46.000  
  23433582.354   123144287.079        -781.299          44.000  
  22455254.352   118003165.083        2668.449          41.000  
  19416479.831   102034292.516        1580.361          45.000  
  20164839.058   105966947.562          70.197          45.000  
  21421016.566   112568206.009        3160.104          43.000  
  23381352.467   122869830.628        2737.449          40.000  
  23257067.783   122216719.837        2067.622          44.000  
  26215552.117   137763734.835       -2580.366          29.000  
  20504567.462   107752220.574       -1060.688          46.000  
  23386864.012   122898812.739       -1495.130          42.000  
  22367723.798   117543153.406       -2702.015          43.000  
  22631355.343   118928584.009        1034.773          44.000  
 23 12 19 10 59 26.9970000  0 14G 5G13E25G23G15G22G24G17E 2E 5G14E 3
                                G30E 8
  21668933.389   113871001.315       -3084.948          44.000  
  19135324.715   100556809.190        -653.078          46.000  
  23433731.222   123145068.660        -781.948          44.000  
  22454746.691   118000496.893        2667.714          41.000  
  19416179.434   102032712.569        1579.458          45.000  
  20164825.735   105966877.385          69.618          45.000  
  21420415.110   112565046.204        3159.180          43.000  
  23380831.325   122867093.240        2736.860          40.000  
  23256674.455   122214652.567        2066.800          44.000  
  26216045.626   137766315.434       -2580.523          29.000  
  20504769.588   107753281.592       -1061.743          46.000  
  23387148.573   122900308.069       -1495.548          42.000  
  22368237.838   117545855.675       -2702.325          43.000  
  22631158.993   118927549.323        1034.522          44.000  
 23 12 19 10 59 27.9970000  0 14G 5G13E25G23G15G22G24G17E 2E 5G14E 3
                                G30E 8
  21669520.999   113874086.162       -3084.860          44.000  
  19135449.143   100557462.223        -653.077          46.000  
  23433879.593   123145850.563        -781.937          44.000  
  22454239.160   117997829.096        2667.680          41.000  
  19415878.863   102031133.056        1579.400          46.000  
  20164812.586   105966807.750          69.451          45.000  
  21419813.801   112561886.552        3159.845          43.000  
  23380310.375   122864355.971        2737.120          40.000  
  23256281.188   122212585.567        2067.048          44.000  
  26216538.996   137768895.971       -2580.186          29.000  
  20504971.661   107754343.060       -1061.364          46.000  
  23387433.099   122901803.562       -1495.206          42.000  
  22368752.000   117548557.990       -2702.121          43.000  
  22630962.024   118926514.830        1034.636          44.000  
 23 12 19 10 59 28.9970000  0 14G 5G13E25G23G15G22G24G17E 2E 5G14E 3
                                G30E 8
  21670108.495   113877171.354       -3085.008          44.000  
  19135573.729   100558115.763        -653.573          46.000  
  23434028.164   123146632.906        -782.303          44.000  
  22453731.777   117995161.805        2667.532          41.000  
  19415578.527   102029554.103        1578.921          46.000  
  20164798.783   105966738.765          68.925          45.000  
  21419212.292   112558727.191        3159.809          43.000  
  23379789.486   122861618.966        2737.153          40.000  
  23255888.201   122210518.970        2066.656          44.000  
  26217030.124   137771476.622       -2580.713          28.000  
  20505173.883   107755405.168       -1062.208          46.000  
  23387717.825   122903299.345       -1495.623          42.000  
  22369265.927   117551260.475       -2702.182          43.000  
  22630765.273   118925480.640        1034.348          44.000  
 23 12 19 10 59 29.9970000  0 14G 5G13E25G23G15G22G24G17E 2E 5G14E 3
                                G30E 8
  21670695.582   113880256.617       -3085.385          44.000  
  19135698.394   100558769.506        -653.899          46.000  
  23434176.822   123147415.398        -782.548          44.000  
  22453224.517   117992494.755        2666.734          41.000  
  19415278.566   102027975.432        1578.467          46.000  
  20164785.678   105966670.144          68.375          45.000  
  21418611.028   112555567.831        3159.522          43.000  
  23379268.527   122858881.929        2736.912          40.000  
  23255494.960   122208452.472        2066.356          44.000  
  26217524.550   137774057.004       -2580.598          28.000  
  20505376.088   107756467.588       -1062.745          46.000  
  23388002.604   122904795.123       -1495.947          42.000  
  22369779.678   117553962.795       -2702.272          42.000  
  22630568.321   118924446.448        1034.061          44.000  
 23 12 19 10 59 30.9970000  0 14G 5G13E25G23G15G22G24G17E 2E 5G14E 3
                                G30E 8
  21671282.633   113883342.486       -3086.287          45.000  
  19135823.049   100559423.969        -654.764          46.000  
  23434325.332   123148198.570        -783.451          44.000  
  22452717.283   117989828.424        2666.075          41.000  
  19414978.501   102026397.548        1577.637          46.000  
  20164772.599   105966602.396          67.800          45.000  
  21418010.217   112552409.006        3158.507          43.000  
  23378747.848   122856145.366        2736.489          40.000  
  23255101.588   122206386.585        2065.694          44.000  
  26218017.902   137776637.712       -2580.779          28.000  
  20505578.397   107757530.834       -1063.497          46.000  
  23388287.182   122906291.389       -1496.428          42.000  
  22370293.840   117556665.525       -2702.746          42.000  
  22630371.500   118923412.789        1033.318          44.000  
 23 12 19 10 59 31.9970000  0 14G 5G13E25G23G15G22G24G17E 2E 5G14E 3
                                G30E 8
  21671870.261   113886428.894       -3086.553          45.000  
  19135947.626   100560079.144        -655.327          46.000  
  23434474.889   123148982.378        -783.915          44.000  
  22452209.726   117987162.823        2665.392          41.000  
  19414678.733   102024820.440        1576.818          46.000  
  20164759.538   105966535.522          66.602          45.000  
  21417409.196   112549250.662        3158.143          43.000  
  23378227.256   122853409.261        2736.152          40.000  
  23254708.601   122204321.325        2065.203          44.000  
  26218511.063   137779218.705       -2581.201          27.000  
  20505780.776   107758594.917       -1064.446          46.000  
  23388572.048   122907788.166       -1496.933          42.000  
  22370807.714   117559368.640       -2703.230          42.000  
  22630174.749   118922379.634        1033.075          44.000  
 23 12 19 10 59 32.9970000  0 14G 5G13E25G23G15G22G24G17E 2E 5G14E 3
                                G30E 8
  21672457.687   113889515.676       -3087.067          45.000  
  19136072.299   100560734.811        -655.680          46.000  
  23434623.714   123149766.640        -784.479          44.000  
  22451703.006   117984497.722        2664.903          42.000  
  19414378.868   102023243.894        1576.317          46.000  
  20164747.366   105966469.286          66.140          45.000  
  21416808.054   112546092.605        3158.043          43.000  
  23377706.463   122850673.433        2735.762          40.000  
  23254315.753   122202256.444        2064.772          44.000  
  26219003.150   137781799.753       -2581.073          27.000  
  20505983.626   107759659.593       -1064.918          46.000  
  23388857.062   122909285.227       -1497.324          42.000  
  22371321.780   117562071.899       -2703.341          42.000  
  22629978.224   118921346.767        1032.891          44.000  
 23 12 19 10 59 33.9970000  0 14G 5G13E25G23G15G22G24G17E 2E 5G14E 3
                                G30E 8
  21673045.140   113892602.562       -3087.265          45.000  
  19136197.129   100561390.738        -656.070          46.000  
  23434772.669   123150551.086        -784.617          44.000  
  22451195.947   117981832.902        2664.528          42.000  
  19414078.986   102021667.668        1575.937          46.000  
  20164735.072   105966403.466          65.540          45.000  
  21416207.033   112542934.589        3157.832          43.000  
  23377186.210   122847937.588        2736.068          40.000  
  23253922.739   122200191.719        2064.784          44.000  
  26219495.796   137784380.644       -2580.559          27.000  
  20506186.258   107760724.635       -1065.280          47.000  
  23389141.946   122910782.282       -1497.048          42.000  
  22371836.021   117564775.061       -2702.743          41.000  
  22629781.560   118920313.966        1032.737          44.000  
 23 12 19 10 59 34.9970000  0 14G 5G13E25G23G15G22G24G17E 2E 5G14E 3
                                G30E 8
  21673632.488   113895689.801       -3087.378          45.000  
  19136322.134   100562047.182        -656.495          46.000  
  23434921.824   123151336.006        -785.245          44.000  
  22450689.332   117979168.604        2663.984          42.000  
  19413779.104   102020092.018        1575.364          46.000  
  20164722.465   105966338.293          64.928          45.000  
  21415606.161   112539776.904        3157.535          42.000  
  23376665.985   122845202.054        2735.333          41.000  
  23253530.065   122198127.404        2064.176          44.000  
  26219985.536   137786961.621       -2580.670          27.000  
  20506389.238   107761790.311       -1066.035          46.000  
  23389426.725   122912279.676       -1497.359          42.000  
  22372350.157   117567478.402       -2703.393          42.000  
  22629585.324   118919281.490        1032.239          44.000  
 23 12 19 10 59 35.9970000  0 14G 5G13E25G23G15G22G24G17E 2E 5G14E 3
                                G30E 8
  21674220.037   113898777.417       -3087.889          45.000  
  19136447.462   100562704.125        -657.158          46.000  
  23435071.573   123152121.358        -785.622          44.000  
  22450182.420   117976504.813        2663.485          42.000  
  19413478.978   102018516.927        1575.074          46.000  
  20164710.511   105966273.781          64.297          45.000  
  21415005.385   112536619.480        3157.499          43.000  
  23376145.837   122842466.738        2735.480          41.000  
  23253137.235   122196063.489        2063.903          44.000  
  26220480.704   137789542.707       -2580.927          27.000  
  20506592.097   107762856.573       -1066.339          46.000  
  23389711.573   122913777.352       -1497.859          42.000  
  22372864.886   117570181.887       -2703.246          42.000  
  22629388.930   118918249.282        1032.334          44.000  
 23 12 19 10 59 36.9970000  0 14G 5G13E25G23G15G22G24G17E 2E 5G14E 3
                                G30E 8
  21674807.778   113901865.122       -3088.048          45.000  
  19136572.815   100563361.311        -657.693          46.000  
  23435221.567   123152906.896        -785.937          44.000  
  22449675.937   117973841.281        2663.000          42.000  
  19413179.096   102016942.161        1574.371          46.000  
  20164698.401   105966209.664          63.597          45.000  
  21414404.452   112533462.119        3157.010          43.000  
  23375625.699   122839731.438        2735.087          41.000  
  23252744.465   122193999.713        2063.445          44.000  
  26220969.327   137792123.581       -2580.436          27.000  
  20506795.139   107763923.213       -1067.174          46.000  
  23389996.762   122915275.042       -1498.139          42.000  
  22373379.344   117572885.301       -2703.477          42.000  
  22629192.781   118917217.143        1031.943          44.000  
 23 12 19 10 59 37.9970000  0 14G 5G13E25G23G15G22G24G17E 2E 5G14E 3
                                G30E 8
  21675395.693   113904953.190       -3087.887          45.000  
  19136697.759   100564018.992        -657.700          46.000  
  23435371.255   123153692.880        -785.954          44.000  
  22449169.366   117971178.255        2663.061          42.000  
  19412879.066   102015367.954        1574.312          46.000  
  20164686.413   105966146.199          63.595          45.000  
  21413803.589   112530305.040        3157.325          43.000  
  23375105.796   122836996.391        2735.236          41.000  
  23252351.809   122191936.332        2063.557          44.000  
  26221457.898   137794704.580       -2580.545          27.000  
  20506998.321   107764990.450       -1067.269          46.000  
  23390281.951   122916773.016       -1497.811          42.000  
  22373893.925   117575588.861       -2702.908          42.000  
  22628996.457   118916185.297        1032.134          44.000  
 23 12 19 10 59 38.9970000  0 14G 5G13E25G23G15G22G24G17E 2E 5G14E 3
                                G30E 8
  21675983.198   113908041.556       -3088.743          45.000  
  19136822.833   100564677.126        -658.411          46.000  
  23435520.899   123154479.246        -786.674          44.000  
  22448662.437   117968515.705        2662.205          42.000  
  19412579.594   102013794.266        1573.182          46.000  
  20164674.887   105966083.346          62.248          45.000  
  21413202.839   112527148.200        3156.525          43.000  
  23374585.901   122834261.565        2734.397          41.000  
  23251958.691   122189873.296        2062.533          44.000  
  26221942.186   137797285.579       -2581.361          27.000  
  20507201.407   107766058.246       -1068.181          46.000  
  23390567.350   122918271.228       -1498.656          42.000  
  22374408.392   117578292.550       -2704.066          42.000  
  22628799.985   118915153.701        1031.279          44.000  
 23 12 19 10 59 39.9970000  0 14G 5G13E25G23G15G22G24G17E 2E 5G14E 3
                                G30E 8
  21676570.424   113911130.572       -3089.012          44.000  
  19136948.326   100565336.064        -658.967          46.000  
  23435670.465   123155266.385        -787.467          44.000  
  22448155.796   117965853.963        2661.483          41.000  
  19412280.139   102012221.432        1572.824          46.000  
  20164663.108   105966021.423          61.872          45.000  
  21412602.211   112523991.942        3156.389          43.000  
  23374065.658   122831527.253        2734.453          41.000  
  23251566.113   122187810.961        2062.022          44.000  
  26222431.961   137799866.973       -2581.745          27.000  
  20507404.702   107767126.957       -1068.981          46.000  
  23390852.338   122919770.010       -1498.867          42.000  
  22374923.086   117580996.696       -2704.280          42.000  
  22628603.836   118914122.720        1030.879          44.000  
 23 12 19 10 59 40.9970000  0 14G 5G13E25G23G15G22G24G17E 2E 5G14E 3
                                G30E 8
  21677158.540   113914219.945       -3089.531          44.000  
  19137073.759   100565995.512        -659.763          46.000  
  23435820.423   123156053.952        -788.063          44.000  
  22447649.041   117963192.724        2661.015          41.000  
  19411980.798   102010649.192        1571.800          45.000  
  20164650.919   105965960.185          60.743          45.000  
  21412001.260   112520836.001        3156.112          43.000  
  23373545.606   122828793.255        2733.757          41.000  
  23251173.937   122185749.033        2061.560          44.000  
  26222923.560   137802448.438       -2581.914          27.000  
  20507608.119   107768196.288       -1069.691          46.000  
  23391137.535   122921269.095       -1499.327          42.000  
  22375437.789   117583700.998       -2704.492          42.000  
  22628408.202   118913092.037        1030.414          44.000  
 23 12 19 10 59 41.9970000  0 14G 5G13E25G23G15G22G24G17E 2E 5G14E 3
                                G30E 8
  21677746.098   113917309.452       -3089.941          44.000  
  19137199.391   100566655.224        -660.370          46.000  
  23435970.050   123156841.726        -788.215          44.000  
  22447142.296   117960531.770        2660.627          41.000  
  19411681.492   102009077.260        1571.345          45.000  
  20164639.323   105965899.343          60.204          45.000  
  21411400.807   112517680.124        3155.461          42.000  
  23373025.721   122826059.253        2733.748          41.000  
  23250781.534   122183687.252        2061.278          44.000  
  26223416.223   137805029.709       -2581.042          27.000  
  20507811.388   107769265.981       -1070.277          46.000  
  23391422.960   122922768.214       -1499.471          42.000  
  22375952.353   117586405.223       -2704.604          42.000  
  22628212.105   118912061.408        1030.194          44.000  
 23 12 19 10 59 42.9970000  0 14G 5G13E25G23G15G22G24G17E 2E 5G14E 3
                                G30E 8
  21678333.786   113920399.320       -3090.180          44.000  
  19137324.920   100567315.440        -660.581          46.000  
  23436120.183   123157629.966        -788.581          44.000  
  22446635.777   117957871.357        2660.394          41.000  
  19411382.343   102007505.918        1571.198          45.000  
  20164628.094   105965839.178          59.689          45.000  
  21410799.996   112514524.532        3155.303          42.000  
  23372505.408   122823325.544        2733.562          41.000  
  23250389.035   122181625.893        2060.925          44.000  
  26223906.775   137807611.134       -2581.677          28.000  
  20508014.822   107770336.313       -1070.685          46.000  
  23391708.210   122924267.648       -1499.783          42.000  
  22376466.855   117589109.632       -2704.432          42.000  
  22628015.921   118911031.107        1029.932          44.000  
 23 12 19 10 59 43.9970000  0 14G 5G13E25G23G15G22G24G17E 2E 5G14E 3
                                G30E 8
  21678921.894   113923489.668       -3090.699          44.000  
  19137450.762   100567976.276        -661.152          46.000  
  23436270.020   123158418.756        -789.097          44.000  
  22446129.730   117955211.588        2659.368          41.000  
  19411083.395   102005935.262        1570.250          45.000  
  20164616.734   105965779.766          59.040          45.000  
  21410199.412   112511369.343        3155.158          42.000  
  23371985.409   122820592.196        2733.417          41.000  
  23249996.920   122179565.039        2060.648          44.000  
  26224399.447   137810192.689       -2581.666          28.000  
  20508218.213   107771407.365       -1071.252          46.000  
  23391993.879   122925767.456       -1500.000          42.000  
  22376981.383   117591814.298       -2704.884          42.000  
  22627819.623   118910001.204        1029.828          44.000  
 23 12 19 10 59 44.9970000  0 14G 5G13E25G23G15G22G24G17E 2E 5G14E 3
                                G30E 8
  21679509.948   113926580.273       -3090.925          44.000  
  19137576.595   100568637.511        -661.533          46.000  
  23436420.467   123159207.890        -789.511          44.000  
  22445623.935   117952552.210        2658.724          41.000  
  19410784.734   102004365.064        1569.724          45.000  
  20164605.505   105965720.921          58.165          45.000  
  21409598.767   112508214.352        3154.737          42.000  
  23371465.296   122817859.011        2733.027          41.000  
  23249604.779   122177504.476        2060.420          44.000  
  26224893.733   137812774.248       -2581.427          28.000  
  20508421.892   107772478.927       -1071.985          46.000  
  23392279.373   122927267.471       -1500.275          42.000  
  22377496.112   117594519.042       -2705.011          42.000  
  22627623.300   118908971.521        1029.340          44.000  
 23 12 19 10 59 45.9970000  0 14G 5G13E25G23G15G22G24G17E 2E 5G14E 3
                                G30E 8
  21680097.733   113929671.227       -3091.159          44.000  
  19137702.472   100569299.267        -662.093          46.000  
  23436570.940   123159997.498        -789.834          44.000  
  22445117.530   117949893.378        2658.333          41.000  
  19410485.803   102002795.455        1569.288          45.000  
  20164594.729   105965662.745          57.552          45.000  
  21408998.409   112505059.675        3154.487          42.000  
  23370945.027   122815126.102        2732.775          41.000  
  23249212.568   122175444.354        2059.766          44.000  
  26225389.284   137815355.903       -2581.566          28.000  
  20508626.060   107773551.114       -1072.529          46.000  
  23392564.850   122928767.776       -1500.387          42.000  
  22378010.440   117597223.963       -2705.116          41.000  
  22627427.430   118907942.153        1029.146          44.000  
 23 12 19 10 59 46.9970000  0 14G 5G13E25G23G15G22G24G17E 2E 5G14E 3
                                G30E 8
  21680685.831   113932762.479       -3091.286          44.000  
  19137828.463   100569961.468        -662.452          46.000  
  23436721.116   123160787.473        -789.970          44.000  
  22444611.630   117947234.986        2658.262          41.000  
  19410187.256   102001226.345        1568.848          45.000  
  20164583.788   105965605.130          57.313          45.000  
  21408397.799   112501905.218        3154.476          42.000  
  23370424.827   122812393.382        2732.723          41.000  
  23248820.522   122173384.546        2059.771          44.000  
  26225878.562   137817937.644       -2582.223          27.000  
  20508830.027   107774623.849       -1072.822          46.000  
  23392850.658   122930268.306       -1500.539          42.000  
  22378524.672   117599928.989       -2705.200          41.000  
  22627231.769   118906913.022        1028.947          44.000  
 23 12 19 10 59 47.9970000  0 14G 5G13E25G23G15G22G24G17E 2E 5G14E 3
                                G30E 8
  21681274.261   113935853.974       -3091.666          44.000  
  19137954.489   100570624.045        -663.014          46.000  
  23436871.703   123161577.770        -790.387          44.000  
  22444105.661   117944577.019        2657.615          41.000  
  19409888.674   101999657.690        1568.233          45.000  
  20164572.593   105965548.073          56.788          45.000  
  21407797.904   112498750.955        3153.910          42.000  
  23369904.741   122809660.822        2732.233          41.000  
  23248428.983   122171325.017        2059.448          44.000  
  26226373.119   137820519.218       -2581.542          27.000  
  20509034.177   107775697.088       -1073.575          46.000  
  23393136.371   122931768.995       -1500.701          42.000  
  22379039.340   117602634.036       -2705.029          41.000  
  22627035.917   118905884.068        1028.853          44.000  
 23 12 19 10 59 48.9970000  0 14G 5G13E25G23G15G22G24G17E 2E 5G14E 3
                                G30E 8
  21681862.648   113938945.995       -3092.164          44.000  
  19138080.505   100571287.275        -663.577          46.000  
  23437022.447   123162368.696        -791.199          44.000  
  22443600.155   117941919.705        2656.629          41.000  
  19409590.398   101998089.754        1567.473          45.000  
  20164562.036   105965491.828          55.831          45.000  
  21407197.887   112495597.124        3153.419          42.000  
  23369385.082   122806928.678        2731.806          40.000  
  23248037.077   122169266.060        2058.801          44.000  
  26226863.400   137823101.110       -2582.002          27.000  
  20509238.676   107776771.081       -1074.336          46.000  
  23393421.952   122933270.146       -1501.269          42.000  
  22379554.208   117605339.434       -2705.938          41.000  
  22626840.125   118904855.590        1028.333          44.000  
 23 12 19 10 59 49.9970000  0 14G 5G13E25G23G15G22G24G17E 2E 5G14E 3
                                G30E 8
  21682451.148   113942038.659       -3092.740          44.000  
  19138206.897   100571951.313        -664.203          46.000  
  23437172.693   123163160.342        -791.767          44.000  
  22443094.875   117939263.188        2656.312          41.000  
  19409292.418   101996522.679        1566.793          45.000  
  20164551.950   105965436.536          55.025          45.000  
  21406598.202   112492443.909        3153.147          42.000  
  23368864.673   122804197.071        2731.325          40.000  
  23247645.756   122167207.803        2058.152          44.000  
  26227355.191   137825683.349       -2582.134          28.000  
  20509443.576   107777845.992       -1075.095          46.000  
  23393707.926   122934771.868       -1501.994          42.000  
  22380069.470   117608045.249       -2705.740          42.000  
  22626644.796   118903827.711        1027.760          44.000  
 23 12 19 10 59 50.9970000  0 14G 5G13E25G23G15G22G24G17E 2E 5G14E 3
                                G30E 8
  21683039.499   113945131.957       -3093.478          44.000  
  19138333.315   100572616.113        -665.030          46.000  
  23437323.542   123163952.707        -792.684          44.000  
  22442589.447   117936607.473        2655.280          41.000  
  19408994.473   101994956.448        1565.828          45.000  
  20164541.471   105965382.157          54.154          45.000  
  21405998.089   112489291.233        3152.492          42.000  
  23368344.831   122801466.011        2730.958          40.000  
  23247254.164   122165150.197        2057.373          44.000  
  26227844.556   137828265.986       -2582.974          28.000  
  20509648.145   107778921.776       -1076.146          46.000  
  23393994.119   122936274.142       -1502.361          42.000  
  22380584.626   117610751.527       -2706.488          42.000  
  22626449.319   118902800.386        1027.163          44.000  
 23 12 19 10 59 51.9970000  0 14G 5G13E25G23G15G22G24G17E 2E 5G14E 3
                                G30E 8
  21683627.990   113948225.700       -3094.085          44.000  
  19138459.917   100573281.525        -665.977          46.000  
  23437474.276   123164745.609        -793.416          44.000  
  22442084.141   117933952.366        2654.773          41.000  
  19408696.510   101993390.888        1564.959          45.000  
  20164531.088   105965328.546          53.012          45.000  
  21405398.534   112486138.967        3151.682          43.000  
  23367825.128   122798735.311        2730.229          41.000  
  23246863.088   122163093.095        2056.610          44.000  
  26228332.490   137830848.713       -2582.979          28.000  
  20509853.107   107779998.281       -1077.021          46.000  
  23394279.901   122937776.797       -1502.995          42.000  
  22381099.923   117613458.033       -2706.699          42.000  
  22626253.850   118901773.473        1026.501          44.000  
 23 12 19 10 59 52.9970000  0 14G 5G13E25G23G15G22G24G17E 2E 5G14E 3
                                G30E 8
  21684216.778   113951319.861       -3094.709          44.000  
  19138586.553   100573947.483        -666.649          46.000  
  23437625.614   123165539.020        -794.047          44.000  
  22441579.254   117931297.835        2653.700          41.000  
  19408398.809   101991825.944        1564.151          45.000  
  20164521.499   105965275.630          52.077          46.000  
  21404798.962   112482987.031        3151.272          43.000  
  23367305.775   122796004.912        2729.681          41.000  
  23246471.662   122161036.443        2056.021          44.000  
  26228821.262   137833431.655       -2583.131          28.000  
  20510058.217   107781075.441       -1077.932          46.000  
  23394566.145   122939279.811       -1503.761          42.000  
  22381615.184   117616164.779       -2707.333          42.000  
  22626058.565   118900746.924        1025.934          44.000  
 23 12 19 10 59 53.9970000  0 14G 5G13E25G23G15G22G24G17E 2E 5G14E 3
                                G30E 8
  21684805.583   113954414.362       -3094.606          44.000  
  19138713.364   100574613.929        -666.604          46.000  
  23437776.654   123166332.852        -793.869          44.000  
  22441074.183   117928643.798        2653.807          41.000  
  19408100.917   101990261.551        1564.134          45.000  
  20164511.230   105965223.352          52.154          46.000  
  21404199.338   112479835.384        3151.523          43.000  
  23366786.177   122793274.761        2730.044          41.000  
  23246080.410   122158980.173        2056.124          44.000  
  26229311.788   137836014.662       -2583.370          28.000  
  20510263.353   107782153.194       -1077.898          46.000  
  23394852.120   122940783.073       -1503.424          42.000  
  22382130.506   117618871.664       -2706.939          42.000  
  22625863.332   118899720.648        1026.289          44.000  
 23 12 19 10 59 54.9970000  0 14G 5G13E25G23G15G22G24G17E 2E 5G14E 3
                                G30E 8
  21685394.354   113957509.093       -3095.090          44.000  
  19138840.131   100575280.761        -667.300          46.000  
  23437927.694   123167127.018        -794.505          44.000  
  22440569.191   117925990.151        2653.223          41.000  
  19407803.923   101988697.612        1563.515          46.000  
  20164500.995   105965171.620          51.257          46.000  
  21403599.565   112476683.907        3151.394          43.000  
  23366266.737   122790544.751        2729.838          41.000  
  23245688.880   122156924.186        2055.663          44.000  
  26229803.395   137838597.559       -2582.793          28.000  
  20510468.628   107783231.448       -1078.655          46.000  
  23395138.530   122942286.498       -1503.717          42.000  
  22382645.584   117621578.591       -2707.140          42.000  
  22625667.767   118898694.569        1025.806          44.000  
 23 12 19 10 59 55.9970000  0 14G 5G13E25G23G15G22G24G17E 2E 5G14E 3
                                G30E 8
  21685983.386   113960603.973       -3094.622          44.000  
  19138967.055   100575947.900        -667.182          46.000  
  23438079.057   123167921.427        -794.451          44.000  
  22440064.208   117923336.843        2653.289          41.000  
  19407506.536   101987134.049        1563.549          46.000  
  20164491.450   105965120.343          50.951          45.000  
  21402999.818   112473532.543        3151.385          43.000  
  23365747.104   122787814.840        2729.785          41.000  
  23245297.777   122154868.422        2055.622          44.000  
  26230291.713   137841180.376       -2582.557          27.000  
  20510673.729   107784310.126       -1078.843          46.000  
  23395424.766   122943790.021       -1503.352          42.000  
  22383160.488   117624285.513       -2707.099          41.000  
  22625472.273   118897668.592        1026.057          44.000  
 23 12 19 10 59 56.9970000  0 14G 5G13E25G23G15G22G24G17E 2E 5G14E 3
                                G30E 8
  21686572.793   113963699.055       -3094.968          44.000  
  19139093.909   100576615.361        -667.411          46.000  
  23438229.888   123168716.118        -794.810          44.000  
  22439559.286   117920683.878        2652.930          42.000  
  19407209.437   101985570.880        1563.153          46.000  
  20164482.018   105965069.529          50.732          45.000  
  21402400.360   112470381.304        3150.975          43.000  
  23365227.890   122785084.996        2729.593          41.000  
  23244906.761   122152812.870        2055.558          44.000  
  26230782.710   137843763.111       -2582.383          27.000  
  20510879.328   107785389.219       -1079.172          46.000  
  23395710.793   122945293.653       -1503.640          42.000  
  22383675.793   117626992.362       -2706.509          42.000  
  22625277.013   118896642.747        1025.903          44.000  
 23 12 19 10 59 57.9970000  0 14G 5G13E25G23G15G22G24G17E 2E 5G14E 3
                                G30E 8
  21687161.677   113966794.430       -3095.615          44.000  
  19139220.764   100577283.264        -668.283          45.000  
  23438381.321   123169511.160        -795.258          44.000  
  22439054.547   117918031.353        2652.423          41.000  
  19406912.374   101984008.203        1562.598          46.000  
  20164471.984   105965019.303          49.884          45.000  
  21401800.735   112467230.254        3151.156          43.000  
  23364708.293   122782355.325        2729.641          41.000  
  23244515.431   122150757.640        2055.022          44.000  
  26231273.576   137846345.899       -2583.022          27.000  
  20511084.865   107786468.856       -1079.868          46.000  
  23395997.133   122946797.499       -1503.790          42.000  
  22384190.906   117629699.354       -2706.770          42.000  
  22625081.649   118895617.125        1025.547          43.000  
 23 12 19 10 59 58.9970000  0 14G 5G13E25G23G15G22G24G17E 2E 5G14E 3
                                G30E 8
  21687750.892   113969890.140       -3096.326          44.000  
  19139347.539   100577951.626        -668.799          45.000  
  23438532.842   123170306.625        -795.807          44.000  
  22438549.826   117915379.329        2651.373          41.000  
  19406615.196   101982446.075        1561.606          46.000  
  20164462.081   105964969.704          49.066          45.000  
  21401201.608   112464079.508        3150.277          43.000  
  23364188.756   122779625.898        2729.246          41.000  
  23244124.520   122148702.784        2054.520          44.000  
  26231765.603   137848928.667       -2582.992          27.000  
  20511290.542   107787549.088       -1080.809          46.000  
  23396283.404   122948301.605       -1504.222          42.000  
  22384706.054   117632406.457       -2707.405          42.000  
  22624886.408   118894591.787        1024.964          43.000  
 23 12 19 10 59 59.9970000  0 14G 5G13E25G23G15G22G24G17E 2E 5G14E 3
                                G30E 8
  21688339.732   113972986.007       -3095.990          44.000  
  19139474.664   100578620.335        -668.992          45.000  
  23438683.882   123171102.387        -796.162          44.000  
  22438044.991   117912727.631        2651.430          41.000  
  19406317.888   101980884.345        1561.361          46.000  
  20164452.841   105964920.595          48.685          45.000  
  21400602.097   112460928.871        3150.543          43.000  
  23363669.071   122776896.562        2729.185          40.000  
  23243733.513   122146648.167        2054.241          44.000  
  26232257.734   137851511.349       -2582.198          27.000  
  20511496.315   107788629.747       -1080.886          46.000  
  23396569.369   122949805.830       -1504.290          42.000  
  22385221.079   117635113.552       -2707.161          42.000  
  22624691.340   118893566.580        1025.066          43.000  
 23 12 19 11  0  0.9970000  0 14G 5G13E25G23G15G22G24G17E 2E 5G14E 3
                                G30E 8
  21688928.887   113976082.236       -3096.561          44.000  
  19139601.929   100579289.522        -669.579          45.000  
  23438835.175   123171898.555        -796.410          44.000  
  22437540.680   117910076.456        2650.501          41.000  
  19406020.798   101979323.181        1560.924          46.000  
  20164443.933   105964872.121          48.103          45.000  
  21400002.665   112457778.526        3150.042          43.000  
  23363149.543   122774167.475        2728.936          40.000  
  23243342.908   122144593.932        2053.951          44.000  
  26232748.268   137854094.137       -2582.837          27.000  
  20511702.141   107789711.030       -1081.740          46.000  
  23396855.474   122951310.335       -1504.720          42.000  
  22385736.262   117637820.817       -2707.602          42.000  
  22624496.631   118892541.679        1024.556          43.000  
 23 12 19 11  0  1.9970000  0 14G 5G13E25G23G15G22G24G17E 2E 5G14E 3
                                G30E 8
  21689518.416   113979178.914       -3096.745          44.000  
  19139729.341   100579959.310        -669.889          45.000  
  23438986.914   123172695.287        -796.847          44.000  
  22437036.229   117907425.883        2650.624          41.000  
  19405723.961   101977762.668        1560.443          46.000  
  20164434.571   105964824.403          47.543          45.000  
  21399402.849   112454628.572        3149.833          42.000  
  23362630.242   122771438.736        2729.003          40.000  
  23242952.450   122142540.197        2053.683          44.000  
  26233241.123   137856677.094       -2583.193          26.000  
  20511908.350   107790792.993       -1082.091          46.000  
  23397141.571   122952815.206       -1504.770          42.000  
  22386251.375   117640528.313       -2707.287          42.000  
  22624302.157   118891517.160        1024.665          43.000  
 23 12 19 11  0  2.9970000  0 14G 5G13E25G23G15G22G24G17E 2E 5G14E 3
                                G30E 8
  21690108.059   113982275.823       -3097.110          44.000  
  19139857.164   100580629.496        -670.330          45.000  
  23439138.425   123173492.354        -797.367          44.000  
  22436531.918   117904775.742        2649.926          41.000  
  19405427.125   101976202.635        1559.701          46.000  
  20164425.645   105964777.223          46.975          45.000  
  21398803.120   112451478.802        3149.668          42.000  
  23362110.828   122768710.185        2728.179          40.000  
  23242561.984   122140486.761        2053.224          44.000  
  26233733.996   137859259.968       -2582.936          26.000  
  20512114.446   107791875.468       -1082.538          46.000  
  23397427.528   122954320.261       -1505.125          42.000  
  22386766.575   117643235.891       -2707.466          42.000  
  22624107.238   118890492.857        1023.992          43.000  
 23 12 19 11  0  3.9970000  0 14G 5G13E25G23G15G22G24G17E 2E 5G14E 3
                                G30E 8
  21690697.492   113985372.991       -3097.164          44.000  
  19139984.970   100581300.089        -670.494          45.000  
  23439289.771   123174289.762        -797.308          44.000  
  22436027.650   117902126.006        2649.764          41.000  
  19405130.331   101974643.059        1559.482          46.000  
  20164416.728   105964730.624          46.390          45.000  
  21398203.722   112448329.230        3149.474          42.000  
  23361591.588   122765981.773        2728.410          40.000  
  23242171.073   122138433.622        2053.215          44.000  
  26234222.951   137861842.891       -2582.918          26.000  
  20512320.882   107792958.476       -1083.040          46.000  
  23397714.156   122955825.521       -1505.148          42.000  
  22387281.819   117645943.504       -2707.553          42.000  
  22623911.979   118889468.744        1024.199          43.000  
 23 12 19 11  0  4.9970000  0 14G 5G13E25G23G15G22G24G17E 2E 5G14E 3
                                G30E 8
  21691287.257   113988470.518       -3097.771          44.000  
  19140112.592   100581971.191        -671.334          45.000  
  23439441.405   123175087.622        -798.051          44.000  
  22435523.679   117899476.791        2649.078          41.000  
  19404833.555   101973084.067        1558.701          46.000  
  20164408.492   105964684.670          45.542          45.000  
  21397604.316   112445179.948        3148.900          42.000  
  23361072.234   122763253.643        2728.097          40.000  
  23241780.424   122136380.898        2052.482          44.000  
  26234716.923   137864425.867       -2582.763          26.000  
  20512527.108   107794042.106       -1084.294          46.000  
  23398000.191   122957331.059       -1505.599          42.000  
  22387797.290   117648651.300       -2707.970          42.000  
  22623716.798   118888444.943        1023.687          43.000  
 23 12 19 11  0  5.9970000  0 14G 5G13E25G23G15G22G24G17E 2E 5G14E 3
                                G30E 8
  21691876.865   113991568.402       -3098.415          44.000  
  19140240.467   100582642.790        -672.024          46.000  
  23439593.544   123175885.927        -798.925          44.000  
  22435019.822   117896828.097        2648.325          41.000  
  19404537.076   101971525.631        1557.972          46.000  
  20164399.627   105964639.363          44.713          45.000  
  21397004.979   112442030.961        3148.604          42.000  
  23360553.073   122760525.758        2727.556          40.000  
  23241389.897   122134328.554        2051.897          44.000  
  26235205.765   137867008.919       -2582.890          26.000  
  20512733.440   107795126.303       -1084.579          46.000  
  23398286.314   122958836.889       -1506.388          42.000  
  22388312.246   117651359.240       -2708.002          42.000  
  22623522.010   118887421.451        1023.014          43.000  
 23 12 19 11  0  6.9970000  0 14G 5G13E25G23G15G22G24G17E 2E 5G14E 3
                                G30E 8
  21692466.692   113994666.665       -3098.601          44.000  
  19140368.560   100583314.917        -672.651          46.000  
  23439746.225   123176684.701        -799.102          44.000  
  22434516.051   117894179.955        2648.007          41.000  
  19404240.405   101969967.801        1557.607          46.000  
  20164391.146   105964594.743          44.027          45.000  
  21396405.861   112438882.317        3148.244          42.000  
  23360034.086   122757798.162        2727.541          40.000  
  23240999.378   122132276.657        2051.552          44.000  
  26235696.343   137869592.092       -2583.031          26.000  
  20512939.745   107796211.175       -1085.432          46.000  
  23398572.899   122960343.003       -1506.186          42.000  
  22388827.307   117654067.382       -2707.983          41.000  
  22623327.222   118886398.280        1023.007          43.000  
 23 12 19 11  0  7.9970000  0 14G 5G13E25G23G15G22G24G17E 2E 5G14E 3
                                G30E 8
  21693056.125   113997765.250       -3098.295          44.000  
  19140496.558   100583987.513        -672.599          46.000  
  23439898.269   123177483.893        -799.121          44.000  
  22434012.307   117891532.277        2647.918          41.000  
  19403943.699   101968410.495        1557.420          46.000  
  20164383.154   105964550.736          44.059          46.000  
  21395806.568   112435733.912        3148.838          42.000  
  23359515.239   122755070.816        2727.678          40.000  
  23240608.764   122130225.102        2051.787          44.000  
  26236188.622   137872175.366       -2583.001          25.000  
  20513146.041   107797296.609       -1085.475          46.000  
  23398859.737   122961849.401       -1506.169          42.000  
  22389342.315   117656775.647       -2708.028          41.000  
  22623132.399   118885375.395        1022.938          43.000  
 23 12 19 11  0  8.9970000  0 14G 5G13E25G23G15G22G24G17E 2E 5G14E 3
                                G30E 8
  21693645.192   114000863.887       -3098.889          44.000  
  19140624.250   100584660.306        -673.259          46.000  
  23440050.400   123178283.207        -799.784          44.000  
  22433508.589   117888884.840        2646.945          41.000  
  19403647.386   101966853.467        1556.302          46.000  
  20164375.537   105964507.089          42.951          46.000  
  21395207.371   112432585.494        3148.140          42.000  
  23358996.374   122752343.446        2727.022          40.000  
  23240218.525   122128173.666        2050.952          44.000  
  26236681.992   137874758.292       -2583.034          26.000  
  20513352.626   107798382.349       -1086.351          46.000  
  23399146.548   122963355.760       -1506.604          42.000  
  22389857.271   117659483.786       -2708.459          41.000  
  22622937.655   118884352.478        1022.509          43.000  
 23 12 19 11  0  9.9970000  0 14G 5G13E25G23G15G22G24G17E 2E 5G14E 3
                                G30E 8
  21694235.097   114003962.969       -3099.163          44.000  
  19140752.622   100585333.692        -673.457          46.000  
  23440202.540   123179083.066        -799.965          44.000  
  22433004.819   117886237.981        2646.888          41.000  
  19403351.430   101965297.078        1556.235          46.000  
  20164367.745   105964464.165          42.702          46.000  
  21394608.288   112429437.496        3148.032          42.000  
  23358477.614   122749616.423        2726.977          41.000  
  23239828.015   122126122.705        2050.810          44.000  
  26237175.702                       -2583.303          26.000  
  20513559.332   107799468.784       -1086.702          46.000  
  23399433.526   122964862.505       -1506.826          42.000  
  22390371.904   117662192.181       -2708.482          41.000  
  22622743.198   118883329.974        1022.577          43.000  
 23 12 19 11  0 10.9970000  0 15G 5G13E25G23G15G22G24G17E 2E 5G14E 3
                                G30G18E 8
  21694824.574   114007062.321       -3099.432          44.000  
  19140881.091   100586007.499        -674.052          46.000  
  23440354.976   123179883.274        -800.276          44.000  
  22432500.804   117883591.556        2646.129          41.000  
  19403054.951   101963741.183        1555.624          46.000  
  20164359.561   105964421.814          41.862          46.000  
  21394009.143   112426289.671        3147.726          41.000  
  23357958.845   122746889.567        2726.776          41.000  
  23239437.592   122124072.059        2050.511          44.000  
  26237669.151                       -2583.658          26.000  
  20513766.144   107800555.747       -1087.385          46.000  
  23399719.806   122966369.435       -1507.004          42.000  
  22390887.279   117664900.610       -2708.238          41.000  
  24219986.427   127276887.6842      -1999.380          34.000  
  22622548.410   118882307.681        1022.420          43.000  
 23 12 19 11  0 11.9970000  0 15G 5G13E25G23G15G22G24G17E 2E 5G14E 3
                                G30G18E 8
  21695414.365   114010161.835       -3099.631          44.000  
  19141009.542   100586681.600        -674.202          46.000  
  23440507.613   123180683.728        -800.416          44.000  
  22431997.165   117880945.464        2645.868          41.000  
  19402758.803   101962185.654        1555.432          46.000  
  20164351.185   105964379.913          41.728          46.000  
  21393410.200   112423141.947        3148.056          41.000  
  23357440.164   122744162.775        2726.770          41.000  
  23239046.969   122122021.611        2050.392          44.000  
  26238161.701                       -2583.149          26.000  
  20513972.615   107801643.107       -1087.489          46.000  
  23400006.486   122967876.462       -1507.268          42.000  
  22391402.584   117667609.051       -2708.676          41.000  
  24220366.867   127278887.9852      -1999.969          34.000  
  22622354.172   118881285.516        1021.959          43.000  
 23 12 19 11  0 12.9970000  0 15G 5G13E25G23G15G22G24G17E 2E 5G14E 3
                                G30G18E 8
  21696003.999   114013261.654       -3100.241          44.000  
  19141137.993   100587356.170        -674.902          46.000  
  23440659.927   123181484.595        -801.191          44.000  
  22431493.211   117878299.844        2645.381          41.000  
  19402462.673   101960630.656        1554.855          46.000  
  20164343.594   105964338.621          41.004          46.000  
  21392810.924   112419994.494        3147.223          41.000  
  23356921.639   122741436.226        2726.116          41.000  
  23238657.219   122119971.530        2049.822          44.000  
  26238654.364                       -2583.061          26.000  
  20514179.679   107802731.061       -1088.279          46.000  
  23400293.106   122969383.739       -1507.592          42.000  
  22391917.635   117670317.562       -2708.406          41.000  
  24220746.104   127280888.6482      -2000.427          34.000  
  22622159.820   118880263.587        1021.702          43.000  
 23 12 19 11  0 13.9970000  0 15G 5G13E25G23G15G22G24G17E 2E 5G14E 3
                                G30G18E 8
  21696593.965   114016362.083       -3100.372          44.000  
  19141266.296   100588031.487        -675.558          46.000  
  23440812.102   123182286.145        -801.388          44.000  
  22430989.990   117875655.004        2644.853          41.000  
  19402166.961   101959076.487        1554.216          46.000  
  20164336.256   105964298.237          40.509          46.000  
  21392211.989   112416847.549        3147.063          41.000  
  23356403.158   122738710.152        2726.278          41.000  
  23238267.154   122117922.085        2049.760          44.000  
  26239149.200                       -2583.306          26.000  
  20514386.508   107803819.865       -1088.896          46.000  
  23400580.415   122970891.538       -1507.947          42.000  
  22392433.542   117673026.506       -2708.586          41.000  
  24221127.636   127282889.9292      -2000.726          34.000  
  22621965.512   118879242.215        1021.536          43.000  
 23 12 19 11  0 14.9970000  0 15G 5G13E25G23G15G22G24G17E 2E 5G14E 3
                                G30G18E 8
  21697184.323   114019462.846       -3100.809          44.000  
  19141395.043   100588707.295        -675.932          46.000  
  23440964.791   123183088.133        -802.079          44.000  
  22430486.840   117873010.635        2644.399          41.000  
  19401871.119   101957522.866        1553.542          46.000  
  20164328.666   105964258.500          39.655          46.000  
  21391613.229   112413700.908        3146.557          41.000  
  23355884.843   122735984.343        2726.022          42.000  
  23237877.273   122115873.048        2048.993          44.000  
  26239638.853                       -2582.122          26.000  
  20514593.764   107804909.250       -1089.418          46.000  
  23400867.306   122972399.584       -1507.988          42.000  
  22392949.528   117675735.587       -2709.044          42.000  
  24221506.506   127284891.6142      -2001.904          34.000  
  22621770.636   118878221.132        1021.073          43.000  
 23 12 19 11  0 15.9970000  0 15G 5G13E25G23G15G22G24G17E 2E 5G14E 3
                                G30G18E 8
  21697774.472   114022563.816       -3101.169          44.000  
  19141523.425   100589383.463        -676.490          46.000  
  23441117.341   123183890.419        -802.603          44.000  
  22429983.942   117870366.688        2643.554          41.000  
  19401575.504   101955969.686        1552.621          45.000  
  20164320.909   105964219.266          38.847          45.000  
  21391014.800   112410554.426        3146.384          41.000  
  23355365.987   122733258.650        2725.592          42.000  
  23237487.635   122113824.264        2048.193          44.000  
  26240133.462                       -2584.097          27.000  
  20514801.421   107805999.140       -1090.446          46.000  
  23401153.978   122973907.805       -1508.587          42.000  
  22393465.374   117678444.696       -2709.232          42.000  
  24221888.718   127286893.5282      -2002.286          34.000  
  22621576.424   118877200.223        1020.430          43.000  
 23 12 19 11  0 16.9970000  0 15G 5G13E25G23G15G22G24G17E 2E 5G14E 3
                                G30G18E 8
  21698364.813   114025665.298       -3101.803          44.000  
  19141652.225   100590060.308        -677.350          46.000  
  23441269.620   123184693.315        -803.390          44.000  
  22429481.088   117867723.392        2642.946          41.000  
  19401279.810   101954417.213        1552.028          45.000  
  20164313.205   105964180.857          37.762          45.000  
  21390416.170   112407408.405        3145.617          41.000  
  23354847.611   122730533.373        2725.008          42.000  
  23237097.893   122111776.031        2047.767          44.000  
  26240623.289   137895425.6301      -2583.575          27.000  
  20515008.992   107807089.777       -1091.215          46.000  
  23401440.955   122975416.468       -1508.923          42.000  
  22393980.975   117681154.117       -2709.441          42.000  
  24222269.988   127288895.9762      -2002.372          34.000  
  22621382.334   118876179.774        1020.106          43.000  
 23 12 19 11  0 17.9970000  0 15G 5G13E25G23G15G22G24G17E 2E 5G14E 3
                                G30G18E 8
  21698955.014   114028767.087       -3102.001          44.000  
  19141781.286   100590737.608        -677.589          46.000  
  23441422.345   123185496.607        -803.723          44.000  
  22428978.425   117865080.584        2642.565          42.000  
  19400984.378   101952865.267        1551.647          45.000  
  20164305.937   105964143.052          37.364          45.000  
  21389817.418   112404262.629        3145.583          41.000  
  23354329.226   122727808.330        2724.954          42.000  
  23236708.082   122109728.152        2047.646          44.000  
  26241114.042   137898009.329       -2583.838          27.000  
  20515216.562   107808180.982       -1091.514          46.000  
  23401728.343   122976925.368       -1509.063          42.000  
  22394496.690   117683863.675       -2709.982          42.000  
  24222651.258   127290898.7862      -2002.723          35.000  
  22621188.122   118875159.577        1020.008          43.000  
 23 12 19 11  0 18.9970000  0 15G 5G13E25G23G15G22G24G17E 2E 5G14E 3
                                G30G18E 8
  21699545.364   114031869.224       -3102.356          44.000  
  19141910.130   100591415.367        -678.236          46.000  
  23441575.278   123186300.327        -804.242          44.000  
  22428475.929   117862438.279        2641.850          42.000  
  19400689.059   101951313.873        1550.936          45.000  
  20164299.009   105964105.868          36.625          45.000  
  21389218.788   112401117.119        3145.103          41.000  
  23353810.963   122725083.505        2724.573          42.000  
  23236318.602   122107680.664        2047.031          44.000  
  26241603.739   137900593.059       -2584.318          27.000  
  20515424.542   107809272.774       -1092.240          46.000  
  23402015.670   122978434.523       -1509.368          42.000  
  22395012.510   117686573.336       -2709.802          42.000  
  24223032.545   127292902.0242      -2004.548          34.000  
  22620993.831   118874139.663        1019.582          43.000  
 23 12 19 11  0 19.9970000  0 15G 5G13E25G23G15G22G24G17E 2E 5G14E 3
                                G30G18E 8
  21700135.652   114034972.017       -3103.151          44.000  
  19142039.131   100592093.945        -678.835          46.000  
  23441728.107   123187104.774        -804.702          44.000  
  22427973.118   117859796.774        2641.202          42.000  
  19400394.028   101949763.347        1550.117          45.000  
  20164291.802   105964069.637          36.006          45.000  
  21388620.560   112397972.202        3144.896          41.000  
  23353292.509   122722359.245        2724.210          42.000  
  23235929.427   122105633.865        2046.377          44.000  
  26242098.330   137903177.125       -2583.701          27.000  
  20515632.662   107810365.469       -1092.955          46.000  
  23402303.197   122979944.274       -1509.868          42.000  
  22395528.408   117689283.476       -2710.206          42.000  
  24223413.850   127294905.8592      -2003.798          34.000  
  22620799.898   118873120.351        1019.245          43.000  
 23 12 19 11  0 20.9970000  0 15G 5G13E25G23G15G22G24G17E 2E 5G14E 3
                                G30G18E 8
  21700726.394   114038074.970       -3103.092          44.000  
  19142168.210   100592772.859        -679.121          46.000  
  23441881.512   123187909.507        -805.037          44.000  
  22427470.639   117857155.609        2641.097          42.000  
  19400099.146   101948213.221        1549.933          45.000  
  20164284.351   105964033.907          35.431          45.000  
  21388022.305   112394827.424        3144.561          41.000  
  23352774.028   122719635.095        2723.845          41.000  
  23235540.287   122103587.300        2046.310          44.000  
  26242587.573   137905761.190       -2584.409          27.000  
  20515840.992   107811458.602       -1093.149          46.000  
  23402590.759   122981454.128       -1509.860          42.000  
  22396044.272   117691993.603       -2710.163          42.000  
  24223795.704   127296909.9742      -2004.420          34.000  
  22620605.939   118872101.184        1019.052          43.000  
 23 12 19 11  0 21.9970000  0 15G 5G13E25G23G15G22G24G17E 2E 5G14E 3
                                G30G18E 8
  21701317.137   114041178.206       -3103.535          44.000  
  19142297.385   100593452.176        -679.717          45.000  
  23442034.664   123188714.584        -805.452          44.000  
  22426968.047   117854514.915        2640.104          42.000  
  19399804.499   101946663.583        1549.017          45.000  
  20164277.519   105963998.728          34.554          45.000  
  21387424.217   112391682.837        3144.228          42.000  
  23352255.381   122716911.099        2723.670          41.000  
  23235150.885   122101541.042        2045.924          44.000  
  26243075.891   137908345.218       -2584.507          27.000  
  20516049.304   107812552.274       -1094.276          46.000  
  23402878.600   122982964.187       -1510.434          42.000  
  22396560.257   117694703.817       -2710.593          42.000  
  24224177.262   127298914.3642      -2004.564          34.000  
  22620412.407   118871082.227        1018.651          43.000  
 23 12 19 11  0 22.9970000  0 15G 5G13E25G23G15G22G24G17E 2E 5G14E 3
                                G30G18E 8
  21701907.905   114044281.771       -3103.543          44.000  
  19142426.726   100594131.971        -679.905          45.000  
  23442187.711   123189520.084        -805.548          44.000  
  22426465.428   117851874.677        2640.068          41.000  
  19399509.660   101945114.482        1549.006          45.000  
  20164270.696   105963964.180          34.232          45.000  
  21386826.119   112388538.530        3144.407          42.000  
  23351736.551   122714187.348        2723.716          41.000  
  23234761.178   122099495.163        2045.825          44.000  
  26243569.209   137910929.256       -2584.562          27.000  
  20516257.677   107813646.514       -1094.386          46.000  
  23403166.162   122984474.506       -1510.252          42.000  
  22397076.007   117697414.143       -2710.097          42.000  
  24224559.090   127300919.1382      -2004.725          34.000  
  22620218.701   118870063.546        1018.713          43.000  
 23 12 19 11  0 23.9970000  0 15G 5G13E25G23G15G22G24G17E 2E 5G14E 3
                                G30G18E 8
  21702498.769   114047385.898       -3104.447          44.000  
  19142556.128   100594812.473        -680.737          45.000  
  23442340.907   123190326.234        -806.375          44.000  
  22425962.923   117849235.185        2639.184          42.000  
  19399215.449   101943566.179        1547.924          45.000  
  20164264.484   105963930.477          33.284          45.000  
  21386227.899   112385394.731        3143.586          42.000  
  23351218.131   122711464.070        2722.899          41.000  
  23234371.777   122097449.889        2044.994          44.000  
  26244063.172   137913513.599       -2584.707          27.000  
  20516465.858   107814741.564       -1095.284          46.000  
  23403453.951   122985985.313       -1510.917          42.000  
  22397592.036   117700124.865       -2711.058          42.000  
  24224940.683   127302924.5222      -2005.886          33.000  
  22620024.890   118869045.379        1018.010          43.000  
 23 12 19 11  0 24.9970000  0 15G 5G13E25G23G15G22G24G17E 2E 5G14E 3
                                G30G18E 8
  21703089.660   114050490.254       -3104.675          44.000  
  19142686.124   100595493.363        -681.288          46.000  
  23442494.599   123191132.723        -806.764          44.000  
  22425460.802   117846596.081        2638.837          42.000  
  19398921.125   101942018.313        1547.702          46.000  
  20164258.245   105963897.315          32.908          45.000  
  21385629.540   112382251.096        3143.522          42.000  
  23350699.659   122708740.920        2723.255          41.000  
  23233982.532   122095404.902        2044.849          44.000  
  26244553.811   137916097.884       -2584.394          27.000  
  20516674.301   107815837.122       -1095.695          46.000  
  23403741.243   122987496.295       -1511.042          42.000  
  22398107.943   117702835.603       -2710.737          42.000  
  24225322.328   127304930.1822      -2006.202          33.000  
  22619831.376   118868027.396        1017.943          43.000  
 23 12 19 11  0 25.9970000  0 15G 5G13E25G23G15G22G24G17E 2E 5G14E 3
                                G30G18E 8
  21703680.559   114053595.084       -3104.775          44.000  
  19142815.779   100596174.865        -681.526          46.000  
  23442648.048   123191939.767        -807.183          44.000  
  22424958.715   117843957.634        2638.282          42.000  
  19398626.687   101940471.141        1547.058          46.000  
  20164252.024   105963864.932          32.321          45.000  
  21385031.565   112379107.872        3143.433          42.000  
  23350181.475   122706018.170        2722.911          41.000  
  23233593.392   122093360.446        2044.268          44.000  
  26245045.218   137918682.399       -2584.331          27.000  
  20516882.587   107816933.409       -1096.486          46.000  
  23404028.578   122989007.678       -1511.394          42.000  
  22398624.059   117705546.624       -2710.874          43.000  
  24225703.685   127306936.3322      -2006.469          33.000  
  22619637.426   118867009.843        1017.641          43.000  
 23 12 19 11  0 26.9970000  0 15G 5G13E25G23G15G22G24G17E 2E 5G14E 3
                                G30G18E 8
  21704271.694   114056700.305       -3105.490          45.000  
  19142945.329   100596856.909        -682.132          46.000  
  23442801.915   123192747.278        -807.671          44.000  
  22424456.891   117841319.723        2637.709          42.000  
  19398332.424   101938924.564        1546.395          46.000  
  20164245.882   105963833.235          31.363          45.000  
  21384433.336   112375964.997        3142.769          42.000  
  23349663.090   122703295.726        2722.220          41.000  
  23233204.244   122091316.407        2043.817          44.000  
  26245541.276   137921267.029       -2584.411          27.000  
  20517091.221   107818030.331       -1097.131          46.000  
  23404315.984   122990519.389       -1511.790          42.000  
  22399139.879   117708257.860       -2711.440          43.000  
  24226085.199   127308942.9002      -2006.586          33.000  
  22619443.728   118865992.623        1017.073          43.000  
 23 12 19 11  0 27.9970000  0 15G 5G13E25G23G15G22G24G17E 2E 5G14E 3
                                G30G18E 8
  21704863.012   114059805.740       -3105.939          45.000  
  19143075.473   100597539.304        -682.727          46.000  
  23442956.027   123193555.094        -808.100          44.000  
  22423954.647   117838682.200        2636.817          42.000  
  19398038.214   101937378.427        1545.541          46.000  
  20164240.114   105963802.035          30.646          45.000  
  21383835.248   112372822.263        3142.596          42.000  
  23349144.810   122700573.382        2721.829          41.000  
  23232815.261   122089272.625        2043.439          44.000  
  26246033.677   137923851.569       -2584.645          27.000  
  20517299.882   107819127.731       -1097.958          46.000  
  23404603.868   122992031.223       -1512.303          42.000  
  22399655.926   117710969.087       -2711.530          43.000  
  24226466.687   127310949.7312      -2007.209          33.000  
  22619250.371   118864975.564        1016.679          43.000  
 23 12 19 11  0 28.9970000  0 15G 5G13E25G23G15G22G24G17E 2E 5G14E 3
                                G30G18E 8
  21705454.086   114062911.422       -3105.836          45.000  
  19143205.416   100598222.091        -682.751          46.000  
  23443109.798   123194363.242        -808.289          44.000  
  22423453.111   117836045.067        2637.302          42.000  
  19397743.968   101935832.737        1545.628          45.000  
  20164234.338   105963771.383          30.398          45.000  
  21383237.264   112369679.724        3142.276          42.000  
  23348626.905   122697851.168        2722.141          41.000  
  23232426.322   122087229.145        2043.461          44.000  
  26246526.305   137926436.090       -2584.344          27.000  
  20517508.465   107820225.607       -1097.908          46.000  
  23404891.404   122993543.241       -1512.142          42.000  
  22400172.382   117713680.374       -2711.271          43.000  
  24226848.454   127312956.8162      -2006.562          33.000  
  22619056.962   118863958.696        1016.832          43.000  
 23 12 19 11  0 29.9970000  0 15G 5G13E25G23G15G22G24G17E 2E 5G14E 3
                                G30G18E 8
  21706044.994   114066017.403       -3106.008          44.000  
  19143335.211   100598905.341        -683.353          46.000  
  23443263.700   123195171.796        -808.796          44.000  
  22422951.495   117833408.423        2636.656          42.000  
  19397449.819   101934287.575        1545.095          45.000  
  20164228.920   105963741.330          29.994          45.000  
  21382639.402   112366537.427        3142.047          42.000  
  23348108.677   122695129.198        2721.867          41.000  
  23232037.749   122085186.004        2043.042          44.000  
  26247018.393   137929020.653       -2584.398          28.000  
  20517717.091   107821324.068       -1098.564          46.000  
  23405178.757   122995055.483       -1512.239          42.000  
  22400688.673   117716391.755       -2711.084          43.000  
  24227229.994   127314964.3422      -2008.119          32.000  
  22618863.308   118862942.084        1016.577          43.000  
 23 12 19 11  0 30.9970000  0 15G 5G13E25G23G15G22G24G17E 2E 5G14E 3
                                G30G18E 8
  21706635.954   114069123.705       -3106.383          44.000  
  19143465.695   100599589.033        -683.656          46.000  
  23443417.384   123195980.732        -808.838          44.000  
  22422449.967   117830772.256        2636.038          42.000  
  19397155.835   101932742.954        1544.480          45.000  
  20164223.964   105963711.894          29.695          45.000  
  21382041.741   112363395.374        3142.157          41.000  
  23347590.580   122692407.445        2721.747          41.000  
  23231648.941   122083143.228        2042.833          44.000  
  26247513.796   137931605.262       -2585.050          28.000  
  20517926.293   107822423.088       -1099.089          46.000  
  23405466.703   122996567.991       -1512.555          42.000  
  22401205.235   117719103.291       -2711.575          43.000  
  24227611.735   127316972.144       -2007.973          32.000  
  22618670.082   118861925.741        1016.366          43.000  
 23 12 19 11  0 31.9970000  0 15G 5G13E25G23G15G22G24G17E 2E 5G14E 3
                                G30G18E 8
  21707227.220   114072230.279       -3106.954          45.000  
  19143596.031   100600273.183        -684.517          46.000  
  23443571.400   123196790.060        -809.619          44.000  
  22421948.404   117828136.551        2635.172          42.000  
  19396861.877   101931198.821        1543.426          45.000  
  20164218.537   105963683.071          28.180          45.000  
  21381443.922   112360253.579        3141.255          41.000  
  23347072.492   122689685.910        2720.977          41.000  
  23231260.516   122081100.794        2042.069          44.000  
  26248004.330   137934189.828       -2584.522          27.000  
  20518135.146   107823522.661       -1100.031          46.000  
  23405754.405   122998080.691       -1512.827          42.000  
  22401721.621   117721814.896       -2711.939          44.000  
  24227993.537   127318980.252       -2008.505          32.000  
  22618476.794   118860909.635        1015.803          43.000  
 23 12 19 11  0 32.9970000  0 15G 5G13E25G23G15G22G24G17E 2E 5G14E 3
                                G30G18E 8
  21707818.329   114075337.150       -3106.844          44.000  
  19143726.419   100600957.779        -684.774          46.000  
  23443725.180   123197599.795        -810.013          44.000  
  22421447.321   117825501.309        2634.989          43.000  
  19396568.094   101929655.207        1543.375          45.000  
  20164213.198   105963654.829          27.889          45.000  
  21380846.008   112357112.011        3141.312          42.000  
  23346554.648   122686964.559        2721.378          41.000  
  23230871.987   122079058.703        2042.001          44.000  
  26248495.179   137936774.466       -2584.306          27.000  
  20518344.278   107824622.780       -1100.428          46.000  
  23406042.002   122999593.665       -1513.327          42.000  
  22402237.956   117724526.619       -2711.581          43.000  
  24228375.331   127320988.694       -2008.122          32.000  
  22618283.463   118859893.784        1015.687          43.000  
 23 12 19 11  0 33.9970000  0 15G 5G13E25G23G15G22G24G17E 2E 5G14E 3
                                G30G18E 8
  21708409.612   114078444.508       -3107.609          44.000  
  19143856.676   100601643.003        -685.501          46.000  
  23443879.658   123198410.073        -810.563          44.000  
  22420946.526   117822866.714        2634.305          43.000  
  19396274.424   101928112.295        1542.744          45.000  
  20164207.954   105963627.364          27.107          45.000  
  21380248.146   112353970.855        3141.012          41.000  
  23346036.891   122684243.616        2720.771          41.000  
  23230483.641   122077017.143        2041.229          44.000  
  26248988.618   137939359.311       -2584.371          26.000  
  20518553.585   107825723.643       -1101.318          46.000  
  23406329.974   123001107.022       -1513.697          42.000  
  22402754.177   117727238.616       -2712.118          43.000  
  24228757.386   127322997.744       -2009.125          30.000  
  22618090.342   118858878.355        1015.247          43.000  
 23 12 19 11  0 34.9970000  0 15G 5G13E25G23G15G22G24G17E 2E 5G14E 3
                                G30G18E 8
  21709000.764   114081552.119       -3107.885          44.000  
  19143987.291   100602328.645        -685.980          46.000  
  23444034.311   123199220.713        -810.883          44.000  
  22420445.234   117820232.547        2633.709          43.000  
  19395980.920   101926569.876        1541.945          45.000  
  20164202.474   105963600.463          26.529          45.000  
  21379650.267   112350829.922        3140.531          41.000  
  23345519.501   122681522.849        2720.436          41.000  
  23230095.095   122074975.886        2040.940          44.000  
  26249478.010   137941944.177       -2585.393          26.000  
  20518763.336   107826825.014       -1101.697          46.000  
  23406618.077   123002620.569       -1513.759          42.000  
  22403270.337   117729950.695       -2712.183          43.000  
  24229133.988   127325006.999       -2009.258          30.000  
  22617897.028   118857863.154        1014.879          43.000  
 23 12 19 11  0 35.9970000  0 15G 5G13E25G23G15G22G24G17E 2E 5G14E 3
                                G30G18E 8
  21709591.943   114084659.949       -3107.879          44.000  
  19144117.801   100603014.661        -686.230          46.000  
  23444188.754   123200031.676        -811.133          44.000  
  22419944.186   117817598.785        2633.635          42.000  
  19395687.661   101925027.884        1541.744          45.000  
  20164197.265   105963574.099          26.119          45.000  
  21379052.797   112347689.151        3140.788          42.000  
  23345002.303   122678802.193        2720.689          41.000  
  23229706.705   122072934.912        2040.896          44.000  
  26249965.857                       -2584.160          26.000  
  20518972.704   107827926.887       -1102.207          46.000  
  23406905.954   123004134.282       -1513.743          42.000  
  22403786.052   117732662.813       -2712.023          43.000  
  24229523.337   127327016.534       -2009.350          30.000  
  22617703.872   118856848.120        1015.046          43.000  
 23 12 19 11  0 36.9970000  0 15G 5G13E25G23G15G22G24G17E 2E 5G14E 3
                                G30G18E 8
  21710183.104   114087768.023       -3108.433          44.000  
  19144248.512   100603701.060        -686.704          46.000  
  23444343.276   123200842.981        -811.620          44.000  
  22419443.050   117814965.426        2633.140          42.000  
  19395394.244   101923486.359        1541.151          45.000  
  20164192.510   105963548.268          25.410          45.000  
  21378455.389   112344548.575        3140.214          42.000  
  23344484.694   122676081.715        2720.433          42.000  
  23229318.202   122070894.230        2040.460          43.000  
  26250454.428                       -2584.261          26.000  
  20519182.490   107829029.248       -1102.882          46.000  
  23407194.458   123005648.192       -1514.288          42.000  
  22404301.645   117735374.997       -2712.419          43.000  
  24229906.771   127329026.375       -2010.130          31.000  
  22617510.715   118855833.296        1014.647          43.000  
 23 12 19 11  0 37.9970000  0 15G 5G13E25G23G15G22G24G17E 2E 5G14E 3
                                G30G18E 8
  21710775.024   114090876.529       -3108.654          44.000  
  19144379.284   100604388.054        -687.354          46.000  
  23444497.553   123201654.799        -812.255          44.000  
  22418942.011   117812332.679        2632.526          42.000  
  19395100.784   101921945.491        1540.524          45.000  
  20164188.043   105963523.187          24.553          45.000  
  21377857.990   112341408.381        3139.684          42.000  
  23343967.435   122673361.582        2719.894          42.000  
  23228929.577   122068854.035        2039.882          43.000  
  26250944.151                       -2584.926          25.000  
  20519392.774   107830132.309       -1103.652          45.000  
  23407482.657   123007162.426       -1514.299          42.000  
  22404817.369   117738087.402       -2712.731          42.000  
  24230290.815   127331036.712       -2010.826          30.000  
  22617317.419   118854818.850        1014.259          43.000  
 23 12 19 11  0 38.9970000  0 15G 5G13E25G23G15G22G24G17E 2E 5G14E 3
                                G30G18E 8
  21711366.316   114093985.382       -3109.218          44.000  
  19144510.221   100605075.511        -687.882          46.000  
  23444652.048   123202467.038        -812.628          44.000  
  22418441.094   117809700.409        2631.789          42.000  
  19394807.655   101920405.188        1539.868          45.000  
  20164183.689   105963498.734          23.779          45.000  
  21377260.381   112338268.444        3139.689          42.000  
  23343449.923   122670641.708        2719.433          42.000  
  23228541.362   122066814.217        2039.302          43.000  
  26251431.090                       -2584.400          25.000  
  20519602.805   107831235.941       -1104.034          46.000  
  23407770.847   123008676.964       -1514.830          42.000  
  22405333.372   117740799.954       -2712.631          42.000  
  24230673.149   127333047.378       -2011.062          31.000  
  22617124.612   118853804.693        1013.680          43.000  
 23 12 19 11  0 39.9970000  0 15G 5G13E25G23G15G22G24G17E 2E 5G14E 3
                                G30G18E 8
  21711957.887   114097094.666       -3109.731          44.000  
  19144641.237   100605763.576        -688.558          46.000  
  23444806.919   123203279.821        -813.225          44.000  
  22417940.491   117807068.778        2631.067          42.000  
  19394514.989   101918865.539        1538.993          45.000  
  20164179.021   105963475.015          23.120          45.000  
  21376662.912   112335128.919        3138.852          42.000  
  23342932.585   122667922.177        2719.126          42.000  
  23228153.243   122064774.886        2038.990          43.000  
  26251923.126                       -2586.284          25.000  
  20519812.888   107832340.276       -1104.841          46.000  
  23408059.378   123010191.858       -1514.988          42.000  
  22405849.165   117743512.760       -2713.041          42.000  
  24231054.820   127335058.540       -2011.283          32.000  
  22616931.900   118852790.920        1013.517          43.000  
 23 12 19 11  0 40.9970000  0 15G 5G13E25G23G15G22G24G17E 2E 5G14E 3
                                G30G18E 8
  21712549.641   114100204.317       -3109.824          44.000  
  19144772.210   100606452.168        -688.904          46.000  
  23444961.755   123204093.065        -813.422          44.000  
  22417440.228   117804437.683        2630.533          42.000  
  19394222.314   101917326.490        1538.541          45.000  
  20164174.519   105963451.988          22.452          45.000  
  21376065.364   112331989.709        3138.781          42.000  
  23342415.631   122665202.957        2718.881          42.000  
  23227764.836   122062736.003        2038.369          43.000  
  26252413.564                       -2584.930          25.000  
  20520023.111   107833445.264       -1105.479          46.000  
  23408347.830   123011707.086       -1515.762          42.000  
  22406365.360   117746225.758       -2713.264          42.000  
  24231438.673   127337070.119       -2011.990          32.000  
  22616739.180   118851777.499        1013.210          43.000  
 23 12 19 11  0 41.9970000  0 15G 5G13E25G23G15G22G24G17E 2E 5G14E 3
                                G30G18E 8
  21713141.369   114103314.301       -3110.128          44.000  
  19144903.087   100607141.221        -689.419          46.000  
  23445116.948   123204906.712        -813.914          44.000  
  22416939.756   117801807.036        2630.449          42.000  
  19393929.787   101915787.956        1538.016          45.000  
  20164169.301   105963429.553          21.947          45.000  
  21375468.287   112328850.737        3138.837          42.000  
  23341898.310   122662483.928        2719.072          42.000  
  23227377.093   122060697.455        2038.315          43.000  
  26252902.842                       -2591.911          24.000  
  20520233.936   107834550.788       -1105.793          46.000  
  23408636.125   123013222.539       -1515.701          42.000  
  22406881.747   117748938.871       -2713.586          43.000  
  24231817.491   127339082.018       -2011.787          31.000  
  22616546.094   118850764.324        1012.992          43.000  
 23 12 19 11  0 42.9970000  0 15G 5G13E25G23G15G22G24G17E 2E 5G14E 3
                                G30G18E 8
  21713733.429   114106424.588       -3110.601          44.000  
  19145034.225   100607830.731        -689.882          46.000  
  23445271.915   123205720.773        -814.441          44.000  
  22416439.624   117799176.917        2629.665          42.000  
  19393636.955   101914249.958        1537.638          45.000  
  20164164.747   105963407.727          21.277          45.000  
  21374871.132   112325712.056        3138.337          42.000  
  23341380.458   122659765.165        2718.577          42.000  
  23226989.419   122058659.275        2038.151          43.000  
  26253392.573                       -2586.874          23.000  
  20520444.508   107835656.916       -1106.588          46.000  
  23408924.569   123014738.249       -1516.108          42.000  
  22407398.160   117751652.100       -2713.635          43.000  
  24232198.831   127341094.320       -2013.075          31.000  
  22616353.827   118849751.425        1012.598          43.000  
 23 12 19 11  0 43.9970000  0 15G 5G13E25G23G15G22G24G17E 2E 5G14E 3
                                G30G18E 8
  21714325.506   114109535.312       -3110.928          45.000  
  19145165.782   100608520.834        -690.493          46.000  
  23445426.856   123206535.355        -814.893          44.000  
  22415939.239   117796547.389        2629.181          42.000  
  19393344.332   101912712.628        1536.915          45.000  
  20164160.664   105963386.664          20.574          45.000  
  21374273.942   112322573.737        3138.120          42.000  
  23340862.788   122657046.734        2717.984          42.000  
  23226601.544   122056621.599        2037.450          43.000  
  26253888.116                       -2584.940          23.000  
  20520655.332   107836763.720       -1107.119          46.000  
  23409212.994   123016254.313       -1516.292          42.000  
  22407914.494   117754365.573       -2713.924          43.000  
  24232583.582   127343107.101       -2013.656          31.000  
  22616161.072   118848738.916        1012.214          43.000  
 23 12 19 11  0 44.9970000  0 15G 5G13E25G23G15G22G24G17E 2E 5G14E 3
                                G30G18E 8
  21714917.321   114112646.056       -3111.153          45.000  
  19145296.956   100609211.104        -690.921          46.000  
  23445581.936   123207350.038        -815.009          44.000  
  22415438.801   117793918.050        2628.825          43.000  
  19393051.570   101911175.530        1536.515          45.000  
  20164156.624   105963365.919          20.039          45.000  
  21373676.682   112319435.382        3137.991          42.000  
  23340345.058   122654328.241        2718.096          42.000  
  23226213.922   122054583.976        2037.273          43.000  
  26254382.088                       -2587.072          24.000  
  20520866.297   107837870.808       -1107.550          46.000  
  23409501.307   123017770.333       -1516.414          42.000  
  22408430.724   117757078.852       -2713.424          43.000  
  24232966.439   127345119.846       -2012.856          31.000  
  22615968.666   118847726.371        1012.334          43.000  
 23 12 19 11  0 45.9970000  0 15G 5G13E25G23G15G22G24G17E 2E 5G14E 3
                                G30G18E 8
  21715509.390   114115757.484       -3111.703          45.000  
  19145428.199   100609902.209        -691.379          46.000  
  23445737.234   123208165.521        -815.708          44.000  
  22414938.870   117791289.567        2628.364          43.000  
  19392759.095   101909639.332        1535.993          45.000  
  20164152.916   105963346.137          19.416          45.000  
  21373079.632   112316297.663        3137.549          42.000  
  23339827.877   122651610.340        2717.825          42.000  
  23225826.580   122052547.098        2036.730          43.000  
  26254876.688                       -2581.316          25.000  
  20521077.095   107838978.828       -1108.254          46.000  
  23409789.515   123019286.975       -1516.814          42.000  
  22408947.512   117759792.645       -2713.839          43.000  
  24233349.088   127347133.401       -2013.889          31.000  
  22615776.364   118846714.468        1011.902          43.000  
 23 12 19 11  0 46.9970000  0 15G 5G13E25G23G15G22G24G17E 2E 5G14E 3
                                G30G18E 8
  21716101.738   114118869.172       -3111.717          45.000  
  19145559.817   100610593.719        -691.616          46.000  
  23445892.270   123208981.335        -815.845          44.000  
  22414438.572   117788661.521        2628.049          42.000  
  19392466.883   101908103.621        1535.708          45.000  
  20164149.661   105963326.934          18.928          45.000  
  21372482.756   112313160.147        3137.489          42.000  
  23339310.556   122648892.616        2717.798          42.000  
  23225439.324   122050510.528        2036.589          43.000  
  26255369.893                       -2585.090          25.000  
  20521288.069   107840087.368       -1108.552          46.000  
  23410078.613   123020803.814       -1516.720          42.000  
  22409464.571   117762506.502       -2713.624          43.000  
  24233732.260   127349147.224       -2013.172          31.000  
  22615583.793   118845702.789        1011.680          43.000  
 23 12 19 11  0 47.9970000  0 15G 5G13E25G23G15G22G24G17E 2E 5G14E 3
                                G30G18E 8
  21716694.076   114121981.031       -3111.683          45.000  
  19145691.252   100611285.576        -691.798          46.000  
  23446047.595   123209797.443        -816.085          44.000  
  22413938.379   117786033.816        2627.792          42.000  
  19392174.705   101906568.323        1535.325          45.000  
  20164146.337   105963308.232          18.642          45.000  
  21371885.539   112310022.760        3137.674          42.000  
  23338793.254   122646175.003        2717.816          42.000  
  23225052.008   122048474.200        2036.422          43.000  
  26255862.678                       -2585.425          25.000  
  20521499.399   107841196.360       -1109.028          46.000  
  23410367.274   123022320.785       -1516.933          42.000  
  22409981.403   117765220.344       -2713.512          43.000  
  24234115.650   127351161.323       -2015.165          31.000  
  22615390.846   118844691.248        1011.562          43.000  
 23 12 19 11  0 48.9970000  0 15G 5G13E25G23G15G22G24G17E 2E 5G14E 3
                                G30G18E 8
  21717286.302   114125092.847       -3111.919          45.000  
  19145822.818   100611977.524        -692.467          46.000  
  23446202.457   123210613.577        -816.408          44.000  
  22413438.300   117783406.245        2627.268          42.000  
  19391882.248   101905033.190        1534.799          45.000  
  20164142.751   105963289.760          17.839          45.000  
  21371288.236   112306885.271        3137.367          41.000  
  23338276.038   122643457.248        2717.829          42.000  
  23224664.465   122046437.863        2035.940          44.000  
  26256357.322                       -2584.676          26.000  
  20521710.294   107842305.558       -1109.664          46.000  
  23410655.604   123023837.619       -1517.100          42.000  
  22410498.557   117767933.958       -2713.676          44.000  
  24234498.926   127353175.317       -2014.228          31.000  
  22615198.745   118843679.610        1011.260          43.000  
 23 12 19 11  0 49.9970000  0 15G 5G13E25G23G15G22G24G17E 2E 5G14E 3
                                G30G18E 8
  21717878.475   114128205.085       -3112.404          45.000  
  19145954.436   100612670.036        -692.778          46.000  
  23446357.903   123211430.233        -816.983          44.000  
  22412938.203   117780779.252        2626.835          42.000  
  19391589.966   101903498.690        1534.111          45.000  
  20164139.383   105963272.002          17.430          45.000  
  21370691.194   112303748.135        3136.898          41.000  
  23337758.770   122640739.818        2717.191          42.000  
  23224277.349   122044401.986        2035.669          44.000  
  26256850.954                       -2586.871          26.000  
  20521921.389   107843415.414       -1110.066          46.000  
  23410943.855   123025354.807       -1517.318          42.000  
  22411014.988   117770647.789       -2714.038          44.000  
  24234882.561   127355189.776       -2013.896          31.000  
  22615006.182   118842668.327        1011.022          43.000  
 23 12 19 11  0 50.9970000  0 15G 5G13E25G23G15G22G24G17E 2E 5G14E 3
                                G30G18E 8
  21718470.736   114131317.664       -3113.007          45.000  
  19146086.526   100613363.057        -693.407          46.000  
  23446513.105   123212247.315        -817.515          44.000  
  22412438.097   117778152.791        2625.859          42.000  
  19391298.093   101901964.766        1533.238          45.000  
  20164135.937   105963254.899          16.623          45.000  
  21370094.117   112300611.318        3136.220          41.000  
  23337241.912   122638022.661        2716.693          42.000  
  23223889.850   122042366.516        2035.179          44.000  
  26257346.208                       -2584.336          26.000  
  20522132.930   107844525.893       -1110.875          46.000  
  23411232.831   123026872.269       -1517.702          42.000  
  22411531.392   117773361.778       -2714.330          43.000  
  24235263.211   127357204.664       -2014.834          31.000  
  22614813.488   118841657.362        1010.539          43.000  
 23 12 19 11  0 51.9970000  0 15G 5G13E25G23G15G22G24G17E 2E 5G14E 3
                                G30G18E 8
  21719063.362   114134430.931       -3113.497          45.000  
  19146218.423   100614056.921        -694.163          46.000  
  23446668.718   123213065.179        -818.133          44.000  
  22411938.314   117775527.177        2625.289          42.000  
  19391006.291   101900431.740        1532.594          45.000  
  20164132.525   105963238.798          15.648          45.000  
  21369497.416   112297475.105        3135.978          41.000  
  23336725.028   122635306.103        2716.308          42.000  
  23223502.577   122040331.782        2034.660          44.000  
  26257840.503                       -2585.867          26.000  
  20522344.182   107845637.308       -1111.655          46.000  
  23411521.876   123028390.363       -1518.018          42.000  
  22412047.849   117776076.262       -2714.450          43.000  
  24235651.531   127359220.332       -2016.109          31.000  
  22614621.605   118840647.033        1010.147          43.000  
 23 12 19 11  0 52.9970000  0 15G 5G13E25G23G15G22G24G17E 2E 5G14E 3
                                G30G18E 8
  21719656.120   114137544.530       -3113.528          45.000  
  19146350.739   100614751.260        -694.376          46.000  
  23446824.531   123213883.466        -818.239          44.000  
  22411438.670   117772902.071        2624.993          42.000  
  19390714.506   101898899.258        1532.410          45.000  
  20164129.611   105963223.316          15.343          45.000  
  21368900.601   112294339.168        3135.938          41.000  
  23336208.300   122632589.809        2716.276          42.000  
  23223115.749   122038297.438        2034.291          44.000  
  26258330.008                       -2585.035          25.000  
  20522555.923   107846749.327       -1112.372          46.000  
  23411810.887   123029908.730       -1518.196          42.000  
  22412564.105   117778790.896       -2714.580          43.000  
  24236034.528   127361236.270       -2015.275          32.000  
  22614429.373   118839636.988        1010.103          43.000  
 23 12 19 11  0 53.9970000  0 15G 5G13E25G23G15G22G24G17E 2E 5G14E 3
                                G30G18E 8
  21720248.677   114140658.613       -3114.264          45.000  
  19146483.021   100615446.244        -695.360          46.000  
  23446980.265   123214702.341        -819.140          44.000  
  22410938.835   117770277.606        2624.312          42.000  
  19390423.061   101897367.499        1531.434          45.000  
  20164126.679   105963208.634          14.300          45.000  
  21368303.725   112291203.691        3135.165          41.000  
  23335691.652   122629873.890        2715.747          42.000  
  23222728.686   122036263.627        2033.542          44.000  
  26258824.189                       -2585.539          26.000  
  20522767.507   107847862.062       -1113.011          46.000  
  23412100.569   123031427.521       -1519.161          42.000  
  22413080.466   117781505.823       -2715.056          43.000  
  24236416.670   127363252.773       -2016.374          32.000  
  22614236.845   118838627.391        1009.424          43.000  
 23 12 19 11  0 54.9970000  0 15G 5G13E25G23G15G22G24G17E 2E 5G14E 3
                                G30G18E 8
  21720841.321   114143773.056       -3114.698          45.000  
  19146615.250   100616141.712        -695.865          46.000  
  23447136.113   123215521.647        -819.670          44.000  
  22410439.305   117767653.691        2623.445          42.000  
  19390131.913   101895836.323        1530.665          45.000  
  20164124.114   105963194.590          13.600          45.000  
  21367707.058   112288068.499        3134.901          41.000  
  23335175.204   122627158.241        2715.564          42.000  
  23222341.745   122034230.209        2033.171          44.000  
  26259314.200                       -2584.789          26.000  
  20522979.422   107848975.424       -1113.750          46.000  
  23412389.684   123032946.584       -1519.404          42.000  
  22413597.070   117784220.901       -2715.123          43.000  
  24236800.758   127365269.687       -2017.597          31.000  
  22614044.954   118837618.089        1009.104          43.000  
 23 12 19 11  0 55.9970000  0 15G 5G13E25G23G15G22G24G17E 2E 5G14E 3
                                G30G18E 8
  21721434.254   114146887.707       -3114.666          45.000  
  19146747.601   100616837.550        -695.904          46.000  
  23447292.101   123216341.258        -819.741          44.000  
  22409939.732   117765030.152        2623.335          42.000  
  19389840.590   101894305.560        1530.499          45.000  
  20164121.444   105963181.072          13.481          45.000  
  21367110.470   112284933.447        3135.157          41.000  
  23334658.721   122624442.736        2715.707          42.000  
  23221954.551   122032197.075        2032.996          44.000  
  26259805.633                       -2586.512          25.000  
  20523191.277   107850089.250       -1114.005          46.000  
  23412678.695   123034465.794       -1519.142          42.000  
  22414113.684   117786936.003       -2714.641          43.000  
  24237187.089   127367286.810       -2017.111          32.000  
  22613853.220   118836608.965        1009.019          43.000  
 23 12 19 11  0 56.9970000  0 15G 5G13E25G23G15G22G24G17E 2E 5G14E 3
                                G30G18E 8
  21722026.994   114150002.692       -3115.023          46.000  
  19146880.083   100617533.877        -696.486          46.000  
  23447448.184   123217161.300        -820.275          44.000  
  22409440.210   117762407.116        2622.777          42.000  
  19389549.625   101892775.372        1530.022          45.000  
  20164118.975   105963168.199          12.598          45.000  
  21366513.656   112281798.704        3134.690          41.000  
  23334142.072   122621727.476        2715.105          42.000  
  23221567.802   122030164.306        2032.736          44.000  
  26260297.354                       -2586.107          25.000  
  20523403.419   107851203.673       -1114.694          46.000  
  23412967.618   123035985.272       -1519.549          42.000  
  22414630.725   117789651.253       -2715.158          43.000  
  24237572.014   127369304.312       -2017.653          32.000  
  22613661.407   118835600.124        1008.770          43.000  
 23 12 19 11  0 57.9970000  0 15G 5G13E25G23G15G22G24G17E 2E 5G14E 3
                                G30G18E 8
  21722619.926   114153117.955       -3115.315          45.000  
  19147012.731   100618230.623        -697.010          46.000  
  23447604.503   123217981.701        -820.655          44.000  
  22408941.038   117759784.517        2622.227          42.000  
  19389258.512   101891245.673        1529.361          45.000  
  20164116.794   105963155.883          11.919          45.000  
  21365917.041   112278664.162        3134.440          41.000  
  23333625.249   122619012.401        2714.824          42.000  
  23221180.799   122028131.874        2031.958          43.000  
  26260787.182                       -2586.429          25.000  
  20523615.273   107852318.608       -1115.312          46.000  
  23413256.716   123037504.970       -1519.977          42.000  
  22415147.470   117792366.587       -2715.631          43.000  
  24237955.369   127371322.147       -2017.890          32.000  
  22613469.140   118834591.500        1008.561          43.000  
 23 12 19 11  0 58.9970000  0 15G 5G13E25G23G15G22G24G17E 2E 5G14E 3
                                G30G18E 8
  21723212.588   114156233.432       -3115.590          45.000  
  19147145.858   100618927.739        -697.177          46.000  
  23447761.005   123218802.418        -820.748          44.000  
  22408442.006   117757162.303        2622.227          42.000  
  19388967.652   101889716.412        1529.052          45.000  
  20164114.613   105963144.084          11.580          45.000  
  21365320.541   112275529.791        3134.425          42.000  
  23333108.295   122616297.466        2714.938          42.000  
  23220794.382   122026099.698        2032.135          43.000  
  26261279.836                       -2584.711          25.000  
  20523827.730   107853434.029       -1115.519          46.000  
  23413545.866   123039024.802       -1519.733          42.000  
  22415664.162   117795081.921       -2715.322          44.000  
  24238339.492   127373340.236       -2018.646          32.000  
  22613277.485   118833583.057        1008.477          43.000  
 23 12 19 11  0 59.9970000  0 15G 5G13E25G23G15G22G24G17E 2E 5G14E 3
                                G30G18E 8
  21723805.311   114159349.345       -3116.307          45.000  
  19147278.506   100619625.476        -698.307          46.000  
  23447917.324   123219623.670        -821.634          44.000  
  22407943.121   117754540.738        2620.945          42.000  
  19388676.704   101888187.836        1528.066          45.000  
  20164112.789   105963133.054          10.460          45.000  
  21364724.240   112272395.826        3133.475          42.000  
  23332591.856   122613582.913        2714.147          42.000  
  23220407.423   122024068.042        2031.150          43.000  
  26261770.990                       -2586.419          24.000  
  20524040.038   107854550.181       -1116.730          46.000  
  23413835.592   123040545.037       -1520.673          42.000  
  22416181.273   117797797.545       -2715.909          44.000  
  24238723.598   127375358.806       -2019.745          31.000  
  22613085.584   118832575.032        1007.600          43.000  
 23 12 19 11  1  0.9970000  0 15G 5G13E25G23G15G22G24G17E 2E 5G14E 3
                                G30G18E 8
  21724398.313   114162465.552       -3116.452          45.000  
  19147411.477   100620323.622        -698.561          46.000  
  23448073.478   123220445.309        -822.030          44.000  
  22407444.499   117751919.615        2620.668          42.000  
  19388385.818   101886659.758        1527.682          45.000  
  20164111.088   105963122.582          10.285          45.000  
  21364128.211   112269262.080        3133.626          42.000  
  23332075.373   122610868.544        2714.180          42.000  
  23220020.884   122022036.701        2030.983          43.000  
  26262262.598                       -2587.218          24.000  
  20524252.573   107855666.830       -1116.960          46.000  
  23414124.847   123042065.485       -1520.852          42.000  
  22416698.349   117800513.237       -2715.827          44.000  
  24239107.424   127377377.692       -2019.316          31.000  
  22612893.711   118831567.226        1007.610          43.000  
 23 12 19 11  1  1.9970000  0 15G 5G13E25G23G15G22G24G17E 2E 5G14E 3
                                G30G18E 8
  21724991.201   114165582.147       -3116.724          45.000  
  19147544.448   100621022.326        -698.889          46.000  
  23448229.849   123221267.432        -822.323          44.000  
  22406945.772   117749299.056        2620.412          42.000  
  19388095.219   101885132.294        1527.261          45.000  
  20164109.561   105963112.845           9.278          45.000  
  21363531.963   112266128.683        3133.259          42.000  
  23331558.699   122608154.507        2713.890          42.000  
  23219634.571   122020005.816        2030.900          43.000  
  26262751.745                       -2587.577          24.000  
  20524465.134   107856784.171       -1117.537          46.000  
  23414413.910   123043586.250       -1520.828          42.000  
  22417215.347   117803229.147       -2715.922          44.000  
  24239491.442   127379396.972       -2018.562          31.000  
  22612701.968   118830559.792        1007.239          43.000  
 23 12 19 11  1  2.9970000  0 15G 5G13E25G23G15G22G24G17E 2E 5G14E 3
                                G30G18E 8
  21725584.238   114168699.079       -3117.219          45.000  
  19147677.349   100621721.530        -699.668          46.000  
  23448386.125   123222089.985        -822.873          44.000  
  22406447.271   117746679.023        2619.660          42.000  
  19387805.013   101883605.399        1526.538          45.000  
  20164107.598   105963103.724           8.657          45.000  
  21362936.038   112262995.585        3132.786          42.000  
  23331042.399   122605440.717        2713.320          42.000  
  23219248.144   122017975.333        2030.104          43.000  
  26263245.961                       -2586.558          24.000  
  20524677.093   107857902.100       -1118.296          45.000  
  23414703.034   123045107.293       -1521.138          42.000  
  22417731.891   117805945.207       -2716.410          44.000  
  24239875.661   127381416.704       -2019.636          31.000  
  22612510.321   118829552.645        1006.772          43.000  
 23 12 19 11  1  3.9970000  0 15G 5G13E25G23G15G22G24G17E 2E 5G14E 3
                                G30G18E 8
  21726177.310   114171816.484       -3117.626          45.000  
  19147810.572   100622421.353        -700.100          46.000  
  23448542.697   123222913.100        -823.349          44.000  
  22405948.832   117744059.624        2619.261          42.000  
  19387514.694   101882079.194        1525.916          45.000  
  20164105.922   105963095.384           8.057          45.000  
  21362339.947   112259862.886        3132.711          42.000  
  23330526.143   122602727.321        2713.172          42.000  
  23218861.840   122015945.368        2029.820          43.000  
  26263738.712                       -2586.225          23.000  
  20524890.073   107859020.758       -1118.850          45.000  
  23414992.803   123046628.750       -1521.486          42.000  
  22418248.950   117808661.532       -2716.366          44.000  
  24240260.107   127383436.849       -2019.600          31.000  
  22612318.647   118828545.917        1006.516          43.000  
 23 12 19 11  1  4.9970000  0 15G 5G13E25G23G15G22G24G17E 2E 5G14E 3
                                G30G18E 8
  21726770.478   114174934.063       -3117.568          45.000  
  19147943.665   100623121.511        -700.289          46.000  
  23448699.391   123223736.496        -823.531          44.000  
  22405450.384   117741440.594        2618.831          42.000  
  19387224.453   101880553.397        1525.539          46.000  
  20164104.273   105963087.533           7.596          45.000  
  21361743.813   112256730.331        3132.670          42.000  
  23330009.826   122600014.016        2713.338          42.000  
  23218475.632   122013915.637        2029.714          43.000  
  26264231.715                       -2587.183          23.000  
  20525102.512   107860139.854       -1119.279          45.000  
  23415282.102   123048150.333       -1521.636          42.000  
  22418766.095   117811377.857       -2716.367          44.000  
  24240643.314   127385457.305       -2019.762          31.000  
  22612126.861   118827539.339        1006.552          43.000  
 23 12 19 11  1  5.9970000  0 15G 5G13E25G23G15G22G24G17E 2E 5G14E 3
                                G30G18E 8
  21727363.759   114178051.949       -3118.301          45.000  
  19148077.116   100623822.118        -701.086          46.000  
  23448855.989   123224560.289        -824.445          44.000  
  22404952.276   117738822.027        2618.101          42.000  
  19386934.448   101879028.112        1524.764          46.000  
  20164102.441   105963080.278           6.669          45.000  
  21361147.801   112253598.017        3131.730          42.000  
  23329493.300   122597300.927        2712.789          42.000  
  23218089.633   122011886.259        2029.031          44.000  
  26264724.248                       -2587.423          23.000  
  20525315.326   107861259.501       -1120.175          45.000  
  23415571.985   123049672.150       -1522.427          42.000  
  22419283.049   117814094.284       -2716.766          44.000  
  24241024.296   127387478.090       -2021.204          31.000  
  22611936.078   118826533.007        1005.873          43.000  
 23 12 19 11  1  6.9970000  0 15G 5G13E25G23G15G22G24G17E 2E 5G14E 3
                                G30G18E 8
  21727956.587   114181170.002       -3118.186          45.000  
  19148210.488   100624523.043        -701.194          46.000  
  23449012.247   123225384.332        -824.358          44.000  
  22404453.950   117736203.802        2617.966          42.000  
  19386644.391   101877503.238        1524.556          46.000  
  20164100.993   105963073.494           6.260          45.000  
  21360551.789   112250465.819        3132.005          42.000  
  23328977.131   122594587.951        2712.770          41.000  
  23217703.390   122009857.102        2028.940          44.000  
  26265217.827                       -2586.525          24.000  
  20525528.472   107862379.579       -1120.317          45.000  
  23415861.545   123051194.064       -1522.128          42.000  
  22419799.986   117816810.695       -2716.465          44.000  
  24241415.355   127389499.111       -2021.238          31.000  
  22611744.422   118825526.804        1006.111          43.000  
 23 12 19 11  1  7.9970000  0 15G 5G13E25G23G15G22G24G17E 2E 5G14E 3
                                G30G18E 8
  21728549.728   114184288.318       -3118.667          45.000  
  19148343.990   100625224.380        -701.483          46.000  
  23449169.465   123226208.718        -824.487          44.000  
  22403955.947   117733586.015        2617.426          42.000  
  19386354.508   101875978.829        1524.243          46.000  
  20164099.719   105963067.266           5.913          45.000  
  21359955.855   112247333.840        3131.611          42.000  
  23328460.945   122591875.141        2712.385          41.000  
  23217317.382   122007828.262        2028.538          44.000  
  26265710.255                       -2585.844          24.000  
  20525741.539   107863500.183       -1120.988          45.000  
  23416151.000   123052716.168       -1522.507          42.000  
  22420317.027   117819527.192       -2716.661          44.000  
  24241800.830   127391520.348       -2021.938          31.000  
  22611552.504   118824520.817        1005.844          43.000  
 23 12 19 11  1  8.9970000  0 15G 5G13E25G23G15G22G24G17E 2E 5G14E 3
                                G30G18E 8
  21729143.184   114187406.934       -3118.590          45.000  
  19148477.162   100625926.204        -702.071          46.000  
  23449326.805   123227033.534        -824.880          44.000  
  22403457.831   117730968.721        2617.025          42.000  
  19386064.642   101874454.978        1523.647          46.000  
  20164098.279   105963061.674           5.320          45.000  
  21359360.166   112244202.111        3131.605          42.000  
  23327944.697   122589162.553        2712.731          41.000  
  23216931.183   122005799.786        2028.337          44.000  
  26266203.625                       -2586.247          24.000  
  20525954.929   107864621.361       -1121.619          45.000  
  23416440.814   123054238.512       -1522.288          42.000  
  22420833.589   117822243.799       -2716.585          44.000  
  24242183.295   127393541.931       -2021.396          31.000  
  22611361.049   118823515.109        1005.603          43.000  
 23 12 19 11  1  9.9970000  0 15G 5G13E25G23G15G22G24G17E 2E 5G14E 3
                                G30G18E 8
  21729736.422   114190525.827       -3119.293          45.000  
  19148610.839   100626628.449        -702.545          46.000  
  23449483.769   123227858.724        -825.705          44.000  
  22402960.046   117728351.872        2616.374          42.000  
  19385774.934   101872931.626        1523.020          46.000  
  20164096.874   105963056.650           4.669          45.000  
  21358764.171   112241070.608        3131.318          42.000  
  23327428.747   122586450.181        2712.152          41.000  
  23216545.036   122003771.638        2027.738          44.000  
  26266695.189                       -2586.811          23.000  
  20526168.441   107865743.053       -1122.223          45.000  
  23416730.505   123055761.107       -1523.017          42.000  
  22421349.923   117824960.500       -2717.031          43.000  
  24242568.823   127395563.880       -2021.999          31.000  
  22611169.420   118822509.632        1005.151          43.000  
 23 12 19 11  1 10.9970000  0 15G 5G13E25G23G15G22G24G17E 2E 5G14E 3
                                G30G18E 8
  21730330.095   114193645.126       -3119.200          45.000  
  19148744.298   100627331.230        -702.650          46.000  
  23449640.848   123228684.367        -825.414          44.000  
  22402462.191   117725735.580        2616.455          42.000  
  19385485.173   101871408.883        1522.807          46.000  
  20164095.679   105963052.320           4.339          45.000  
  21358168.237   112237939.457        3131.238          42.000  
  23326912.596   122583738.105        2712.216          41.000  
  23216159.272   122001743.933        2027.869          43.000  
  26267186.150                       -2585.743          23.000  
  20526382.023   107866865.387       -1122.217          45.000  
  23417020.021   123057283.992       -1522.617          42.000  
  22421866.502   117827677.404       -2716.664          43.000  
  24242953.871   127397586.259       -2022.339          32.000  
  22610978.226   118821504.483        1005.503          43.000  
 23 12 19 11  1 11.9970000  0 15G 5G13E25G23G15G22G24G17E 2E 5G14E 3
                                G30G18E 8
  21730923.499   114196764.818       -3120.157          45.000  
  19148878.194   100628034.572        -703.832          46.000  
  23449798.057   123229510.521        -826.410          44.000  
  22401964.145   117723119.876        2615.327          42.000  
  19385195.613   101869886.768        1521.445          46.000  
  20164095.112   105963048.679           3.227          45.000  
  21357572.452   112234808.630        3130.539          42.000  
  23326396.497   122581026.343        2711.601          41.000  
  23215773.326   121999716.674        2026.996          43.000  
  26267678.875                       -2587.700          23.000  
  20526595.884   107867988.396       -1123.469          46.000  
  23417309.974   123058807.217       -1523.350          42.000  
  22422383.124   117830394.506       -2717.262          43.000  
  24243339.076   127399609.051       -2022.828          32.000  
  22610787.260   118820499.701        1004.484          43.000  
 23 12 19 11  1 12.9970000  0 15G 5G13E25G23G15G22G24G17E 2E 5G14E 3
                                G30G18E 8
  21731517.365   114199884.876       -3120.253          45.000  
  19149012.212   100628738.434        -704.180          46.000  
  23449955.274   123230337.146        -826.855          44.000  
  22401466.438   117720504.711        2614.893          42.000  
  19384906.358   101868365.233        1521.220          46.000  
  20164094.711   105963045.722           2.702          45.000  
  21356976.693   112231678.145        3130.185          43.000  
  23325880.136   122578314.888        2711.206          41.000  
  23215387.432   121997689.860        2026.555          43.000  
  26268171.494                       -2585.944          22.000  
  20526809.876   107869112.038       -1124.150          46.000  
  23417600.224   123060330.773       -1523.841          42.000  
  22422899.886   117833111.791       -2717.177          42.000  
  24243724.080   127401632.261       -2022.756          31.000  
  22610595.630   118819495.244        1004.374          43.000  
 23 12 19 11  1 13.9970000  0 15G 5G13E25G23G15G22G24G17E 2E 5G14E 3
                                G30G18E 8
  21732111.274   114203005.325       -3120.626          45.000  
  19149146.325   100629442.840        -704.894          45.000  
  23450112.666   123231164.241        -827.263          44.000  
  22400969.116   117717890.120        2614.318          42.000  
  19384617.051   101866844.324        1520.666          46.000  
  20164094.344   105963043.470           1.962          45.000  
  21356381.265   112228547.992        3129.973          43.000  
  23325364.334   122575603.742        2711.238          41.000  
  23215001.773   121995663.476        2026.156          43.000  
  26268662.893                       -2587.114          22.000  
  20527023.946   107870236.310       -1124.531          46.000  
  23417890.621   123061854.622       -1523.930          42.000  
  22423416.884   117835829.291       -2717.535          43.000  
  24244109.520   127403655.930       -2024.542          31.000  
  22610404.891   118818491.148        1004.075          43.000  
 23 12 19 11  1 14.9970000  0 15G 5G13E25G23G15G22G24G17E 2E 5G14E 3
                                G30G18E 8
  21732705.402   114206126.083       -3120.942          45.000  
  19149280.282   100630147.704        -705.110          46.000  
  23450270.294   123231991.743        -827.602          44.000  
  22400471.872   117715275.997        2613.946          42.000  
  19384327.464   101865323.953        1520.021          46.000  
  20164093.934   105963041.812           1.422          45.000  
  21355785.811   112225418.107        3129.806          43.000  
  23324848.113   122572892.832        2710.877          42.000  
  23214615.670   121993637.445        2026.155          43.000  
  26269155.695                       -2585.987          22.000  
  20527238.340   107871361.167       -1125.105          46.000  
  23418180.548   123063378.747       -1524.268          42.000  
  22423934.073   117838546.888       -2717.714          43.000  
  24244494.612   127405679.881       -2023.901          31.000  
  22610213.523   118817487.309        1003.747          43.000  
 23 12 19 11  1 15.9970000  0 15G 5G13E25G23G15G22G24G17E 2E 5G14E 3
                                G30G18E 8
  21733299.058   114209247.041       -3120.933          45.000  
  19149414.710   100630852.922        -705.222          46.000  
  23450428.193   123232819.551        -827.869          44.000  
  22399974.750   117712662.265        2613.616          42.000  
  19384038.175   101863804.020        1519.595          46.000  
  20164093.951   105963040.682           0.847          45.000  
  21355190.035   112222288.361        3129.693          43.000  
  23324332.162   122570182.049        2710.858          42.000  
  23214229.950   121991611.696        2025.770          43.000  
  26269646.291                       -2586.525          21.000  
  20527452.533   107872486.477       -1125.570          46.000  
  23418470.579   123064902.994       -1524.338          42.000  
  22424451.054   117841264.511       -2717.676          43.000  
  24244877.740   127407704.090       -2023.749          31.000  
  22610022.827   118816483.641        1003.593          43.000  
 23 12 19 11  1 16.9970000  0 15G 5G13E25G23G15G22G24G17E 2E 5G14E 3
                                G30G18E 8
  21733892.906   114212368.330       -3121.835          45.000  
  19149549.242   100631558.640        -706.146          46.000  
  23450585.602   123233647.767        -828.694          44.000  
  22399477.192   117710049.041        2612.739          43.000  
  19383749.103   101862284.625        1518.968          46.000  
  20164093.917   105963040.168           0.070          45.000  
  21354594.834   112219158.894        3129.237          43.000  
  23323816.211   122567471.509        2710.211          41.000  
  23213844.527   121989586.320        2024.950          43.000  
  26270138.370                       -2587.439          22.000  
  20527666.577   107873612.374       -1126.311          46.000  
  23418760.471   123066427.512       -1524.853          42.000  
  22424968.575   117843982.250       -2717.758          43.000  
  24245265.082   127409728.724       -2024.678          31.000  
  22609831.765   118815480.263        1002.935          43.000  
 23 12 19 11  1 17.9970000  0 15G 5G13E25G23G15G22G24G17E 2E 5G14E 3
                                G30G18E 8
  21734486.999   114215489.582       -3121.387          45.000  
  19149683.617   100632264.470        -705.896          46.000  
  23450743.440   123234476.053        -828.254          44.000  
  22398980.053   117707435.959        2612.813          42.000  
  19383459.892   101860765.435        1519.086          46.000  
  20164093.690   105963039.927           0.294          45.000  
  21353999.328   112216029.345        3129.535          43.000  
  23323300.200   122564760.860        2710.586          42.000  
  23213459.445   121987560.958        2025.378          43.000  
  26270631.103                       -2587.274          22.000  
  20527880.647   107874738.506       -1126.300          46.000  
  23419050.930   123067951.929       -1524.386          42.000  
  22425485.729   117846699.786       -2717.551          43.000  
  24245649.083   127411753.330       -2024.985          31.000  
  22609640.632   118814476.802        1003.450          43.000  
 23 12 19 11  1 18.9970000  0 15G 5G13E25G23G15G22G24G17E 2E 5G14E 3
                                G30G18E 8
  21735081.231   114218611.399       -3121.870          45.000  
  19149818.290   100632971.028        -706.766          46.000  
  23450901.198   123235305.013        -829.290          44.000  
  22398483.367   117704823.630        2612.256          43.000  
  19383170.759   101859247.046        1518.184          46.000  
  20164093.803   105963040.570          -0.887          45.000  
  21353403.926   112212900.332        3128.948          43.000  
  23322784.319   122562050.692        2710.340          42.000  
  23213074.379   121985536.247        2024.462          43.000  
  26271121.724                       -2588.117          22.000  
  20528094.875   107875865.478       -1127.343          46.000  
  23419341.057   123069476.857       -1524.820          42.000  
  22426002.971   117849417.705       -2717.778          43.000  
  24246032.944   127413778.513       -2024.293          31.000  
  22609449.814   118813473.886        1002.633          43.000  
 23 12 19 11  1 19.9970000  0 15G 5G13E25G23G15G22G24G17E 2E 5G14E 3
                                G30G18E 8
  21735675.586   114221733.581       -3121.903          45.000  
  19149952.770   100633678.108        -707.172          46.000  
  23451059.236   123236134.407        -829.539          44.000  
  22397986.333   117702211.835        2611.546          43.000  
  19382881.792   101857729.235        1517.734          46.000  
  20164094.161   105963041.889          -1.655          45.000  
  21352808.551   112209771.627        3128.609          43.000  
  23322268.552   122559340.819        2709.930          41.000  
  23212688.791   121983511.947        2023.915          43.000  
  26271611.246                       -2586.729          22.000  
  20528309.234   107876993.062       -1127.844          45.000  
  23419631.324   123071002.094       -1525.309          42.000  
  22426520.763   117852135.787       -2717.996          43.000  
  24246415.471   127415804.118       -2025.365          30.000  
  22609258.804   118812471.268        1002.504          43.000  
 23 12 19 11  1 20.9970000  0 15G 5G13E25G23G15G22G24G17E 2E 5G14E 3
                                G30G18E 8
  21736269.966   114224856.340       -3123.050          45.000  
  19150087.669   100634385.897        -708.257          46.000  
  23451217.239   123236964.466        -830.349          44.000  
  22397489.368   117699600.768        2610.620          43.000  
  19382593.166   101856212.215        1516.646          46.000  
  20164094.588   105963044.065          -2.657          45.000  
  21352213.385   112206643.424        3128.002          43.000  
  23321752.619   122556631.427        2709.059          41.000  
  23212302.975   121981488.234        2023.431          43.000  
  26272102.854                       -2589.224          22.000  
  20528523.801   107878121.458       -1128.739          45.000  
  23419921.774   123072527.816       -1525.869          42.000  
  22427038.066   117854854.249       -2718.580          43.000  
  24246799.768   127417830.359       -2026.259          30.000  
  22609068.483   118811469.172        1001.940          43.000  
 23 12 19 11  1 21.9970000  0 15G 5G13E25G23G15G22G24G17E 2E 5G14E 3
                                G30G18E 8
  21736864.373   114227979.424       -3123.516          45.000  
  19150222.585   100635094.179        -708.676          46.000  
  23451375.225   123237794.955        -830.814          44.000  
  22396992.769   117696990.227        2610.298          43.000  
  19382304.461   101854695.752        1516.038          46.000  
  20164095.251   105963046.881          -3.203          45.000  
  21351617.836   112203515.524        3127.519          43.000  
  23321236.947   122553922.309        2708.687          41.000  
  23211917.927   121979464.932        2022.961          43.000  
  26272597.576                       -2587.297          22.000  
  20528738.727   107879250.449       -1129.209          45.000  
  23420212.469   123074053.816       -1526.215          42.000  
  22427555.046   117857572.871       -2718.692          43.000  
  24247188.681   127419856.945       -2026.557          30.000  
  22608877.569   118810467.378        1001.433          43.000  
 23 12 19 11  1 22.9970000  0 15G 5G13E25G23G15G22G24G17E 2E 5G14E 3
                                G30G18E 8
  21737458.989   114231102.825       -3123.718          45.000  
  19150357.597   100635802.923        -709.093          46.000  
  23451533.175   123238625.836        -830.979          44.000  
  22396496.276   117694380.181        2609.549          43.000  
  19382015.860   101853179.820        1515.763          46.000  
  20164096.054   105963050.301          -3.713          45.000  
  21351022.740   112200387.872        3127.620          43.000  
  23320721.319   122551213.410        2708.679          41.000  
  23211532.888   121977441.975        2022.940          43.000  
  26273090.248                       -2587.679          22.000  
  20528953.679   107880380.019       -1129.761          45.000  
  23420503.207   123075580.063       -1526.307          42.000  
  22428072.375   117860291.603       -2718.876          43.000  
  24247577.079   127421883.900       -2027.281          29.000  
  22608686.515   118809465.845        1001.571          43.000  
 23 12 19 11  1 23.9970000  0 15G 5G13E25G23G15G22G24G17E 2E 5G14E 3
                                G30G18E 8
  21738053.562   114234226.329       -3123.802          45.000  
  19150492.505   100636511.937        -709.391          46.000  
  23451692.147   123239456.954        -831.579          44.000  
  22395999.643   117691770.415        2609.283          43.000  
  19381727.548   101851664.244        1515.115          46.000  
  20164096.944   105963054.163          -4.450          45.000  
  21350427.382   112197260.302        3127.370          43.000  
  23320205.744   122548504.548        2708.648          41.000  
  23211147.596   121975419.224        2022.356          43.000  
  26273583.226                       -2590.953          21.000  
  20529168.744   107881509.979       -1130.524          45.000  
  23420793.657   123077106.367       -1526.614          42.000  
  22428589.983   117863010.265       -2718.847          43.000  
  24247963.410   127423910.975       -2027.515          29.000  
  22608496.090   118808464.406        1000.990          43.000  
 23 12 19 11  1 24.9970000  0 15G 5G13E25G23G15G22G24G17E 2E 5G14E 3
                                G30G18E 8
  21738648.309   114237350.125       -3124.288          45.000  
  19150627.735   100637221.372        -709.978          46.000  
  23451850.394   123240288.410        -831.819          44.000  
  22395503.236   117689161.084        2608.730          43.000  
  19381439.383   101850149.146        1514.591          46.000  
  20164097.738   105963058.575          -5.200          45.000  
  21349832.059   112194132.924        3127.032          43.000  
  23319690.247   122545795.878        2708.362          41.000  
  23210762.662   121973396.775        2022.133          43.000  
  26274075.645                       -2589.708          21.000  
  20529384.176   107882640.426       -1130.822          46.000  
  23421083.837   123078632.872       -1526.886          43.000  
  22429107.060   117865729.011       -2719.136          43.000  
  24248352.166   127425938.360       -2027.756          29.000  
  22608305.481   118807463.173        1000.903          43.000  
