     2.10           OBSERVATION DATA    M (MIXED)           RINEX VERSION / TYPE
RTKCONV 2.4.2                           20231219 145118 UTC PGM / RUN BY / DATE 
log: C:\Users\adminlocal\Desktop\verniquet\verniquet\micro  COMMENT             
format: u-blox                                              COMMENT             
                                                            MARKER NAME         
                                                            MARKER NUMBER       
                                                            OBSERVER / AGENCY   
                                                            REC # / TYPE / VERS 
                                                            ANT # / TYPE        
  4201938.1155   178626.8327  4779118.3295                  APPROX POSITION XYZ 
        0.0000        0.0000        0.0000                  ANTENNA: DELTA H/E/N
     1     1                                                WAVELENGTH FACT L1/2
     4    C1    L1    D1    S1                              # / TYPES OF OBSERV 
  2023    12    19    11    45   31.9970000     GPS         TIME OF FIRST OBS   
  2023    12    19    12    46    9.9960000     GPS         TIME OF LAST OBS    
                                                            END OF HEADER       
 23 12 19 11 45 31.9970000  0 19G 5G13E25G23G15G22G24G17E 2E30G14E 3
                                G12G30G10E 8E 7G19E18
  23461015.172   123288431.220       -3597.332          35.000  
  19819953.539   104154544.782       -1938.452          46.000  
  24121183.885   126757648.074       -1778.803          41.000  
  21461436.462   112780619.252        1011.294          44.000  
  19013196.495    99915020.258        -106.462          47.000  
  20562055.084   108054324.872       -1526.360          47.000  
  19980158.815   104996464.195        2255.212          46.000  
  22179565.447   116554424.094        1694.844          42.000  
  22458815.591   118021879.521         931.798          45.000  
  25398759.792   133471371.628        3099.754          39.000  
  21446000.383   112699470.640       -2430.240          44.000  
  24356565.108   127994602.988       -2182.363          39.000  
  23905973.222   125626651.773        4203.296          29.000  
  23864836.681   125410474.422       -2953.419          42.000  
  23764918.383   124885507.389        2985.810          42.000  
  22309593.474   117237712.318         140.239          43.000  
  24660297.307   129590757.518        2532.268          41.000  
  23088181.349   121329220.414        3273.536          41.000  
  29377038.725   154377376.013        3513.079          34.000  
 23 12 19 11 45 32.9970000  0 19G 5G13E25G23G15G22G24G17E 2E30G14E 3
                                G12G30G10E 8E 7G19E18
  23461699.692   123292028.013       -3596.969          35.000  
  19820322.132   104156482.907       -1938.336          46.000  
  24121522.498   126759426.403       -1778.405          41.000  
  21461244.030   112779607.764        1010.843          44.000  
  19013217.060    99915126.542        -106.704          47.000  
  20562345.133   108055850.957       -1526.461          47.000  
  19979729.452   104994208.821        2255.164          46.000  
  22179242.845   116552728.910        1694.734          42.000  
  22458638.366   118020947.204         931.796          45.000  
  25398169.338   133468271.104        3100.350          39.000  
  21446462.971   112701900.629       -2430.368          44.000  
  24356980.580   127996784.507       -2182.022          39.000  
  23905173.418   125622447.189        4204.515          29.000  
  23865398.456   125413427.276       -2953.056          42.000  
  23764349.777   124882521.119        2986.192          42.000  
  22309566.723   117237571.603         140.307          43.000  
  24659815.568   129588224.571        2532.546          41.000  
  23087558.569   121325946.430        3274.062          41.000  
  29376369.945   154373862.027        3514.084          34.000  
 23 12 19 11 45 33.9970000  0 19G 5G13E25G23G15G22G24G17E 2E30G14E 3
                                G12G30G10E 8E 7G19E18
  23462383.984   123295624.932       -3597.174          35.000  
  19820691.038   104158421.586       -1939.355          46.000  
  24121860.945   126761205.146       -1778.778          41.000  
  21461051.964   112778597.034        1010.142          43.000  
  19013237.538    99915233.581        -107.639          47.000  
  20562635.566   108057377.643       -1527.141          47.000  
  19979300.325   104991953.946        2254.291          46.000  
  22178920.304   116551034.337        1694.098          42.000  
  22458461.002   118020015.375         931.940          45.000  
  25397579.556   133465170.878        3100.328          39.000  
  21446925.149   112704331.089       -2430.937          44.000  
  24357395.486   127998966.329       -2181.537          40.000  
  23904371.126   125618242.855        4203.555          29.000  
  23865959.960   125416380.286       -2953.257          42.000  
  23763781.641   124879535.370        2985.183          42.000  
  22309540.059   117237431.333         140.412          43.000  
  24659333.445   129585691.850        2532.917          41.000  
  23086935.936   121322672.771        3273.438          41.000  
  29375701.331   154370347.839        3513.946          34.000  
 23 12 19 11 59 19.9970000  0 17G12G13E25G23G15G22G24G17E 2E30G14E 3
                                G 5G10E 8G30E 7
  23249638.538   122177678.0731       4118.155          40.000  
  20153982.440   105909886.4651      -2297.942          46.000  
  24420022.563   128328094.0861      -2011.048          43.000  
  21347444.572   112181594.2041        430.552          44.000  
  19073158.768   100230115.8341       -655.622          47.000  
  20834314.673   109485051.6831      -1923.167          47.000  
  19650973.257   103266564.6221       1917.392          45.000  
  21947388.738   115334319.9211       1242.497          41.000  
  22340673.542   117401032.9391        567.163          44.000  
  24923553.378   130974166.4901       2927.399          41.000  
  21853144.780   114839057.5291      -2730.924          44.000  
  24715595.678   129881314.423       -2372.438          40.000  
  24029256.376   126274566.8141      -3603.168          42.000  
  23322560.974   122560917.8791       2614.132          41.000  
  22312201.584   117251398.2951       -177.222          43.000  
  24333588.635                       -2992.131          23.000  
  24272927.323   127555051.2091       2375.656          43.000  
 23 12 19 11 59 20.9970000  0 17G12G13E25G23G15G22G24G17E 2E30G14E 3
                                G 5G10E 8G30E 7
  23248854.587   122173560.098        4114.318          40.000  
  20154419.498   105912184.624       -2302.357          46.000  
  24420405.534   128330105.430       -2014.759          43.000  
  21347362.792   112181164.076         425.970          44.000  
  19073283.702   100230771.816        -660.157          47.000  
  20834680.743   109486975.177       -1927.576          47.000  
  19650608.599   103264647.464        1913.427          45.000  
  21947152.358   115333077.421        1238.265          41.000  
  22340565.717   117400466.225         563.233          44.000  
  24922995.974   130971239.378        2923.736          41.000  
  21853664.579   114841788.617       -2735.040          44.000  
  24716047.507   129883687.174       -2376.180          40.000  
  24029942.169   126278169.961       -3606.840          42.000  
  23322063.294   122558303.924        2609.829          41.000  
  22312235.612   117251575.677        -181.006          43.000  
  24334159.502                       -2998.931          23.000  
  24272475.170   127552675.667        2372.284          43.000  
 23 12 19 11 59 21.9970000  0 17G12G13E25G23G15G22G24G17E 2E30G14E 3
                                G 5G10E 8G30E 7
  23248071.020   122169443.023        4116.308          40.000  
  20154857.167   105914483.938       -2300.221          47.000  
  24420788.567   128332117.830       -2013.394          43.000  
  21347281.151   112180735.389         427.709          44.000  
  19073408.672   100231429.201        -658.263          47.000  
  20835047.215   109488899.842       -1925.397          47.000  
  19650244.509   103262731.493        1915.163          46.000  
  21946915.977   115331836.249        1240.523          40.000  
  22340458.145   117399900.749         564.489          44.000  
  24922438.876   130968313.301        2925.096          41.000  
  21854184.290   114844520.783       -2733.007          44.000  
  24716499.014   129886060.937       -2374.556          40.000  
  24030628.102   126281773.819       -3604.403          42.000  
  23321566.076   122555691.199        2611.974          41.000  
  22312269.544   117251754.223        -179.569          43.000  
  24334731.677                       -3002.429          23.000  
  24272023.620   127550301.168        2373.369          43.000  
 23 12 19 11 59 22.9970000  0 17G12G13E25G23G15G22G24G17E 2E30G14E 3
                                G 5G10E 8G30E 7
  23247286.519   122165320.965        4121.638          40.000  
  20155293.990   105916778.547       -2295.084          46.000  
  24421170.631   128334125.328       -2008.031          43.000  
  21347198.786   112180302.288         432.596          44.000  
  19073532.796   100232082.119        -653.397          47.000  
  20835412.771   109490819.843       -1920.357          47.000  
  19649878.823   103260810.813        1920.459          46.000  
  21946678.898   115330590.538        1245.254          40.000  
  22340349.588   117399330.555         569.518          44.000  
  24921881.219   130965382.278        2930.550          41.000  
  21854703.120   114847248.132       -2727.640          44.000  
  24716950.094   129888429.761       -2369.524          40.000  
  24031312.875   126285372.512       -3598.704          42.000  
  23321068.300   122553073.863        2616.692          41.000  
  22312302.594   117251928.012        -174.444          43.000  
  24335299.053                       -2985.474          23.000  
  24271571.135   127547921.672        2379.028          43.000  
 23 12 19 11 59 23.9970000  0 17G12G13E25G23G15G22G24G17E 2E30G14E 3
                                G 5G10E 8G30E 7
  23246501.765   122161198.651        4122.625          40.000  
  20155730.725   105919073.198       -2294.306          47.000  
  24421552.930   128336132.691       -2006.961          43.000  
  21347116.500   112179869.524         432.961          44.000  
  19073656.875   100232735.321        -652.907          47.000  
  20835778.196   109492739.924       -1919.749          47.000  
  19649513.380   103258890.176        1920.946          46.000  
  21946442.099   115329345.026        1245.574          40.000  
  22340241.135   117398760.422         570.185          44.000  
  24921323.877   130962451.120        2931.410          41.000  
  21855222.028   114849975.452       -2727.005          44.000  
  24717401.243   129890798.445       -2368.562          40.000  
  24031997.543   126288970.811       -3597.791          42.000  
  23320570.105   122550456.618        2617.433          41.000  
  22312335.540   117252101.813        -173.533          43.000  
  24335865.959                       -2987.337          23.000  
  24271118.363   127545542.045        2379.640          43.000  
 23 12 19 11 59 24.9970000  0 17G12G13E25G23G15G22G24G17E 2E30G14E 3
                                G 5G10E 8G30E 7
  23245717.195   122157076.389        4122.243          39.000  
  20156167.722   105921368.187       -2295.567          47.000  
  24421934.758   128338140.245       -2007.742          43.000  
  21347034.135   112179437.382         431.593          44.000  
  19073781.260   100233389.111        -654.363          47.000  
  20836143.813   109494660.359       -1920.962          47.000  
  19649148.007   103256969.865        1919.980          46.000  
  21946204.881   115328099.968        1244.609          40.000  
  22340132.699   117398190.629         569.636          44.000  
  24920766.002   130959520.090        2930.732          41.000  
  21855741.128   114852703.006       -2727.810          44.000  
  24717852.122   129893167.233       -2369.114          40.000  
  24032682.202   126292568.970       -3598.300          42.000  
  23320072.232   122547839.758        2616.291          41.000  
  22312368.643   117252275.918        -174.326          43.000  
  24336432.803                       -2994.610          23.000  
  24270665.425   127543162.515        2379.223          43.000  
 23 12 19 11 59 25.9970000  0 17G12G13E25G23G15G22G24G17E 2E30G14E 3
                                G 5G10E 8G30E 7
  23244932.092   122152951.048        4126.897          39.000  
  20156603.943   105923660.326       -2290.400          46.000  
  24422315.635   128340144.829       -2003.251          43.000  
  21346951.220   112179002.699         436.361          44.000  
  19073905.113   100234040.291        -649.541          47.000  
  20836508.697   109496577.982       -1916.087          47.000  
  19648782.085   103255046.744        1924.772          46.000  
  21945967.313   115326852.244        1249.355          41.000  
  22340023.827   117397618.069         573.794          44.000  
  24920208.267   130956586.071        2935.433          41.000  
  21856259.854   114855427.635       -2723.000          44.000  
  24718302.206   129895533.037       -2364.337          40.000  
  24033365.972   126296163.840       -3592.902          42.000  
  23319573.697   122545220.128        2621.332          41.000  
  22312401.328   117252447.199        -169.849          43.000  
  24337000.711                       -2983.952          23.000  
  24270212.147   127540779.980        2383.853          43.000  
 23 12 19 11 59 26.9970000  0 17G12G13E25G23G15G22G24G17E 2E30G14E 3
                                G 5G10E 8G30E 7
  23244146.457   122148824.133        4127.000          39.000  
  20157040.190   105925951.224       -2291.329          47.000  
  24422697.036   128342147.976       -2003.312          43.000  
  21346867.886   112178567.067         435.192          44.000  
  19074028.966   100234690.470        -650.510          47.000  
  20836873.302   109498494.376       -1916.691          47.000  
  19648415.761   103253122.376        1923.929          45.000  
  21945729.633   115325603.424        1248.662          41.000  
  22339914.405   117397044.235         573.505          44.000  
  24919649.711   130953650.579        2935.354          41.000  
  21856778.029   114858150.926       -2723.454          44.000  
  24718751.733   129897897.350       -2364.434          40.000  
  24034049.610   126299757.004       -3593.220          42.000  
  23319074.856   122542599.332        2620.580          41.000  
  22312433.986   117252617.160        -170.183          43.000  
  24337567.521                       -2988.131          22.000  
  24269758.642   127538395.948        2383.896          43.000  
 23 12 19 11 59 27.9970000  0 17G12G13E25G23G15G22G24G17E 2E30G14E 3
                                G 5G10E 8G30E 7
  23243361.136   122144697.518        4126.852          39.000  
  20157476.166   105928242.659       -2291.320          46.000  
  24423078.559   128344151.494       -2003.323          43.000  
  21346785.102   112178132.231         434.937          44.000  
  19074152.802   100235341.436        -651.000          47.000  
  20837238.195   109500411.357       -1916.921          47.000  
  19648049.542   103251198.529        1923.975          45.000  
  21945492.414   115324355.315        1248.101          42.000  
  22339805.560   117396470.977         573.399          44.000  
  24919091.060   130950715.453        2935.291          41.000  
  21857296.475   114860874.660       -2723.435          44.000  
  24719201.878   129900262.036       -2364.641          40.000  
  24034733.728   126303350.263       -3592.956          42.000  
  23318576.417   122539979.120        2620.292          42.000  
  22312466.426   117252787.657        -170.538          43.000  
  24338133.981                       -2981.796          22.000  
  24269304.832   127536012.274        2383.897          43.000  
 23 12 19 11 59 28.9970000  0 17G12G13E25G23G15G22G24G17E 2E30G14E 3
                                G 5G10E 8G30E 7
  23242575.868   122140570.928        4126.235          39.000  
  20157912.159   105930534.428       -2292.220          46.000  
  24423459.802   128346155.182       -2003.895          43.000  
  21346702.668   112177698.026         433.674          44.000  
  19074276.864   100235992.958        -652.022          47.000  
  20837602.817   109502328.681       -1917.723          47.000  
  19647683.507   103249275.024        1923.006          45.000  
  21945255.022   115323107.656        1247.253          42.000  
  22339696.478   117395898.052         572.625          44.000  
  24918532.793   130947780.455        2934.681          41.000  
  21857814.746   114863598.630       -2724.417          44.000  
  24719652.016   129902626.810       -2364.771          40.000  
  24035417.629   126306943.371       -3593.184          42.000  
  23318078.161   122537359.354        2619.081          42.000  
  22312498.813   117252958.427        -170.894          43.000  
  24338703.774                       -2984.870          21.000  
  24268851.091   127533628.710        2383.397          43.000  
 23 12 19 11 59 29.9970000  0 17G12G13E25G23G15G22G24G17E 2E30G14E 3
                                G 5G10E 8G30E 7
  23241790.625   122136444.438        4126.225          39.000  
  20158348.345   105932826.582       -2292.818          46.000  
  24423841.133   128348159.119       -2004.435          43.000  
  21346620.320   112177264.510         432.754          44.000  
  19074400.874   100236645.126        -652.949          47.000  
  20837967.439   109504246.433       -1918.347          47.000  
  19647317.122   103247351.907        1922.617          45.000  
  21945018.074   115321860.583        1246.226          42.000  
  22339587.292   117395325.553         571.945          44.000  
  24917974.482   130944845.633        2934.471          41.000  
  21858333.018   114866322.900       -2724.818          44.000  
  24720102.092   129904991.821       -2365.605          40.000  
  24036101.189   126310536.447       -3593.590          42.000  
  23317579.966   122534740.036        2618.568          42.000  
  22312531.253   117253129.597        -171.729          43.000  
  24339274.736                       -2987.431          22.000  
  24268397.700   127531245.328        2382.990          43.000  
 23 12 19 11 59 30.9970000  0 17G12G13E25G23G15G22G24G17E 2E30G14E 3
                                G 5G10E 8G30E 7
  23241005.479   122132318.195        4126.091          39.000  
  20158784.810   105935119.237       -2292.628          46.000  
  24424222.473   128350163.397       -2004.269          43.000  
  21346538.164   112176831.779         432.585          44.000  
  19074524.771   100237298.045        -653.149          46.000  
  20838332.463   109506164.716       -1918.247          47.000  
  19646950.981   103245429.341        1922.345          45.000  
  21944780.943   115320614.143        1246.345          42.000  
  22339478.621   117394753.594         571.819          44.000  
  24917416.171   130941911.161        2934.537          41.000  
  21858851.717   114869047.608       -2724.916          44.000  
  24720552.508   129907357.124       -2365.117          40.000  
  24036785.220   126314129.569       -3593.147          42.000  
  23317081.605   122532121.316        2618.836          41.000  
  22312563.929   117253301.240        -171.775          43.000  
  24339844.059                       -2979.148          22.000  
  24267944.317   127528862.262        2383.126          43.000  
 23 12 19 11 59 31.9970000  0 17G12G13E25G23G15G22G24G17E 2E30G14E 3
                                G 5G10E 8G30E 7
  23240220.254   122128192.329        4126.099          39.000  
  20159221.231   105937412.597       -2293.525          46.000  
  24424603.909   128352168.203       -2005.042          43.000  
  21346456.305   112176400.048         431.339          45.000  
  19074649.234   100237951.890        -654.136          47.000  
  20838697.574   109508083.715       -1919.235          47.000  
  19646585.391   103243507.425        1921.772          45.000  
  21944543.855   115319368.558        1245.312          41.000  
  22339369.601   117394182.329         571.139          44.000  
  24916857.677   130938977.175        2933.953          41.000  
  21859370.381   114871772.889       -2725.293          44.000  
  24721002.532   129909722.936       -2365.997          40.000  
  24037468.736   126317722.898       -3593.095          42.000  
  23316583.245   122529503.376        2617.632          41.000  
  22312596.596   117253473.524        -172.576          42.000  
  24340415.719                       -2992.639          23.000  
  24267490.542   127526479.662        2382.428          43.000  
 23 12 19 11 59 32.9970000  0 17G12G13E25G23G15G22G24G17E 2E30G14E 3
                                G 5G10E 8G30E 7
  23239435.082   122124066.634        4125.519          38.000  
  20159657.844   105939706.361       -2294.161          47.000  
  24424985.292   128354173.265       -2005.509          43.000  
  21346374.420   112175968.999         430.530          45.000  
  19074774.056   100238606.396        -655.026          47.000  
  20839062.955   109510003.173       -1919.944          47.000  
  19646219.861   103241585.936        1921.025          45.000  
  21944306.838   115318123.546        1244.367          41.000  
  22339261.017   117393611.494         570.390          44.000  
  24916299.278   130936043.416        2933.354          41.000  
  21859889.124   114874498.499       -2725.849          44.000  
  24721452.861   129912088.932       -2366.290          41.000  
  24038152.566   126321316.209       -3593.556          42.000  
  23316085.233   122526885.880        2617.192          41.000  
  22312629.289   117253646.214        -173.215          42.000  
  24340989.360                       -2985.824          24.000  
  24267037.159   127524097.282        2381.986          43.000  
 23 12 19 11 59 33.9970000  0 17G12G13E25G23G15G22G24G17E 2E30G14E 3
                                G 5G10E 8G30E 7
  23238649.831   122119941.166        4125.627          38.000  
  20160094.545   105942000.657       -2294.528          47.000  
  24425367.199   128356178.661       -2005.341          43.000  
  21346292.710   112175538.776         429.880          45.000  
  19074899.025   100239261.665        -655.759          47.000  
  20839428.660   109511923.172       -1920.184          47.000  
  19645854.279   103239664.979        1920.874          45.000  
  21944070.012   115316879.203        1243.928          42.000  
  22339152.311   117393041.215         570.136          44.000  
  24915741.238   130933109.976        2933.544          41.000  
  21860408.154   114877224.544       -2726.187          44.000  
  24721902.945   129914455.270       -2366.386          41.000  
  24038836.275   126324909.585       -3593.598          42.000  
  23315587.238   122524268.976        2616.765          41.000  
  22312662.130   117253819.391        -173.368          42.000  
  24341562.373                       -2986.610          25.000  
  24266584.169   127521715.198        2382.180          43.000  
 23 12 19 11 59 34.9970000  0 17G12G13E25G23G15G22G24G17E 2E30G14E 3
                                G 5G10E 8G30E 7
  23237864.518   122115815.822        4125.484          38.000  
  20160531.193   105944295.351       -2294.909          47.000  
  24425748.695   128358184.339       -2005.848          43.000  
  21346210.894   112175109.244         429.114          44.000  
  19075023.934   100239917.577        -656.205          47.000  
  20839794.207   109513843.608       -1920.650          47.000  
  19645488.662   103237744.443        1920.360          45.000  
  21943833.440   115315635.412        1243.539          41.000  
  22339043.613   117392471.365         569.533          44.000  
  24915182.848   130930176.769        2933.196          41.000  
  21860927.394   114879950.893       -2726.412          44.000  
  24722353.144   129916821.816       -2366.599          41.000  
  24039520.009   126328502.918       -3593.163          42.000  
  23315089.349   122521652.538        2616.056          41.000  
  22312695.215   117253992.946        -173.683          42.000  
  24342135.324                       -2988.495          25.000  
  24266131.239   127519333.342        2381.879          43.000  
 23 12 19 11 59 35.9970000  0 17G12G13E25G23G15G22G24G17E 2E30G14E 3
                                G 5G10E 8G30E 7
  23237079.259   122111690.746        4125.270          38.000  
  20160968.033   105946590.587       -2295.333          47.000  
  24426130.680   128360190.379       -2006.009          43.000  
  21346129.288   112174680.531         428.524          44.000  
  19075148.790   100240574.275        -656.962          47.000  
  20840159.675   109515764.619       -1921.242          47.000  
  19645123.106   103235824.437        1919.859          45.000  
  21943596.989   115314392.336        1242.697          41.000  
  22338935.614   117391902.060         569.162          44.000  
  24914624.660   130927243.895        2932.887          41.000  
  21861446.512   114882677.698       -2726.892          44.000  
  24722803.542   129919188.717       -2367.273          41.000  
  24040203.726   126332096.346       -3593.487          42.000  
  23314591.738   122519036.701        2615.649          41.000  
  22312727.978   117254167.017        -174.117          42.000  
  24342707.255                       -2987.900          25.000  
  24265678.005   127516951.790        2381.586          43.000  
 23 12 19 11 59 36.9970000  0 17G12G13E25G23G15G22G24G17E 2E30G14E 3
                                G 5G10E 8G30E 7
  23236294.278   122107565.753        4124.937          38.000  
  20161404.864   105948886.171       -2295.954          46.000  
  24426512.640   128362196.609       -2006.432          43.000  
  21346047.813   112174252.481         427.440          44.000  
  19075273.961   100241231.558        -657.642          47.000  
  20840525.310   109517685.980       -1921.621          47.000  
  19644757.576   103233904.791        1919.360          45.000  
  21943360.495   115313149.744        1242.349          42.000  
  22338827.300   117391333.130         568.713          44.000  
  24914067.055   130924311.180        2932.520          41.000  
  21861965.516   114885404.759       -2727.316          44.000  
  24723253.522   129921555.725       -2367.082          40.000  
  24040887.583   126335689.648       -3593.248          42.000  
  23314093.858   122516421.287        2614.940          41.000  
  22312760.654   117254341.410        -174.656          42.000  
  24343277.022                       -2987.597          25.000  
  24265224.561   127514570.400        2381.054          43.000  
 23 12 19 11 59 37.9970000  0 17G12G13E25G23G15G22G24G17E 2E30G14E 3
                                G 5G10E 8G30E 7
  23235509.324   122103440.890        4124.711          38.000  
  20161841.774   105951182.200       -2296.436          46.000  
  24426894.058   128364203.118       -2006.729          43.000  
  21345966.635   112173825.123         427.081          44.000  
  19075399.428   100241889.529        -658.329          47.000  
  20840891.154   109519607.821       -1922.111          47.000  
  19644392.186   103231985.588        1918.839          45.000  
  21943124.088   115311907.747        1241.768          42.000  
  22338718.786   117390764.663         568.246          44.000  
  24913508.954   130921378.716        2932.358          41.000  
  21862484.652   114888132.149       -2727.550          44.000  
  24723703.974   129923922.997       -2367.449          40.000  
  24041571.492   126339282.953       -3593.320          42.000  
  23313596.108   122513806.381        2614.920          41.000  
  22312793.992   117254516.215        -174.943          42.000  
  24343846.981                       -2988.649          25.000  
  24264771.082   127512189.223        2380.989          43.000  
 23 12 19 11 59 38.9970000  0 17G12G13E25G23G15G22G24G17E 2E30G14E 3
                                G 5G10E 8G30E 7
  23234724.334   122099315.959        4124.787          38.000  
  20162278.736   105953478.418       -2296.563          46.000  
  24427275.834   128366209.656       -2006.555          43.000  
  21345885.456   112173398.274         426.530          44.000  
  19075524.799   100242547.934        -658.763          47.000  
  20841256.762   109521529.885       -1922.375          47.000  
  19644027.023   103230066.578        1918.679          45.000  
  21942887.821   115310666.124        1241.197          42.000  
  22338610.586   117390196.408         567.929          44.000  
  24912950.774   130918446.263        2932.295          42.000  
  21863003.883   114890859.665       -2727.908          44.000  
  24724154.582   129926290.268       -2367.501          40.000  
  24042255.374   126342875.988       -3592.978          42.000  
  23313098.558   122511191.754        2614.371          41.000  
  22312827.357   117254691.190        -175.231          42.000  
  24344415.414                       -2986.475          25.000  
  24264317.752   127509808.043        2380.959          43.000  
 23 12 19 11 59 39.9970000  0 17G12G13E25G23G15G22G24G17E 2E30G14E 3
                                G 5G10E 8G30E 7
  23233939.249   122095191.228        4124.929          38.000  
  20162715.637   105955775.091       -2296.665          46.000  
  24427657.845   128368216.512       -2006.969          43.000  
  21345804.383   112172972.157         426.197          44.000  
  19075649.987   100243207.045        -659.192          47.000  
  20841622.649   109523452.441       -1922.728          47.000  
  19643661.982   103228148.024        1918.815          45.000  
  21942651.711   115309425.108        1240.961          42.000  
  22338502.438   117389628.639         567.740          44.000  
  24912393.422   130915514.074        2932.201          42.000  
  21863523.149   114893587.538       -2727.644          44.000  
  24724604.806   129928657.819       -2367.630          40.000  
  24042939.065   126346469.050       -3592.736          42.000  
  23312600.852   122508577.640        2613.935          41.000  
  22312860.338   117254866.592        -175.203          42.000  
  24344980.993                       -2986.491          24.000  
  24263864.430   127507427.117        2381.079          43.000  
 23 12 19 11 59 40.9970000  0 17G12G13E25G23G15G22G24G17E 2E30G14E 3
                                G 5G10E 8G30E 7
  23233154.190   122091066.344        4124.981          38.000  
  20163152.730   105958071.932       -2297.313          46.000  
  24428039.542   128370223.352       -2007.134          43.000  
  21345723.510   112172546.488         425.603          45.000  
  19075775.550   100243866.550        -659.779          47.000  
  20841988.545   109525375.168       -1923.107          47.000  
  19643296.705   103226229.647        1918.219          45.000  
  21942415.601   115308184.401        1240.371          42.000  
  22338394.587   117389061.045         567.521          44.000  
  24911835.399   130912581.857        2931.901          42.000  
  21864042.232   114896315.470       -2728.158          44.000  
  24725055.371   129931025.299       -2367.803          40.000  
  24043622.756   126350061.813       -3593.051          42.000  
  23312103.556   122505963.752        2613.469          41.000  
  22312893.310   117255042.149        -175.952          42.000  
  24345546.458                       -2987.390          24.000  
  24263411.195   127505046.127        2380.892          43.000  
 23 12 19 11 59 41.9970000  0 17G12G13E25G23G15G22G24G17E 2E30G14E 3
                                G 5G10E 8G30E 7
  23232369.305   122086941.800        4124.478          38.000  
  20163589.701   105960369.375       -2297.844          46.000  
  24428422.051   128372230.655       -2007.780          43.000  
  21345642.689   112172121.758         424.165          44.000  
  19075900.895   100244526.924        -660.919          47.000  
  20842354.808   109527298.552       -1923.867          47.000  
  19642931.821   103224311.887        1917.309          45.000  
  21942179.517   115306944.461        1239.354          42.000  
  22338287.059   117388494.093         566.518          44.000  
  24911277.490   130909650.054        2931.518          42.000  
  21864561.672   114899043.933       -2728.832          44.000  
  24725505.333   129933393.182       -2368.049          40.000  
  24044306.578   126353654.728       -3593.435          42.000  
  23311606.233   122503350.587        2612.520          41.000  
  22312926.597   117255218.275        -176.675          42.000  
  24346111.008                       -2983.899          22.000  
  24262958.214   127502665.583        2379.969          43.000  
 23 12 19 11 59 42.9970000  0 17G12G13E25G23G15G22G24G17E 2E30G14E 3
                                G 5G10E 8G30E 7
  23231584.621   122082817.805        4123.939          38.000  
  20164026.960   105962667.608       -2298.507          46.000  
  24428803.661   128374238.575       -2008.023          43.000  
  21345561.973   112171698.090         423.373          44.000  
  19076026.737   100245188.324        -661.552          47.000  
  20842720.800   109529222.748       -1924.458          47.000  
  19642566.946   103222394.919        1916.870          45.000  
  21941943.834   115305705.483        1238.806          42.000  
  22338178.955   117387927.944         566.023          44.000  
  24910719.659   130906718.862        2931.169          42.000  
  21865080.947   114901773.092       -2729.104          44.000  
  24725955.968   129935761.692       -2368.231          40.000  
  24044990.513   126357247.976       -3593.310          42.000  
  23311109.120   122500738.268        2612.003          41.000  
  22312960.057   117255395.160        -177.001          42.000  
  24346677.546                       -2990.806          22.000  
  24262505.520   127500285.585        2380.005          43.000  
 23 12 19 11 59 43.9970000  0 17G12G13E25G23G15G22G24G17E 2E30G14E 3
                                G 5G10E 8G30E 7
  23230800.059   122078693.908        4123.637          39.000  
  20164464.315   105964966.261       -2298.865          46.000  
  24429186.083   128376246.774       -2008.536          43.000  
  21345481.109   112171275.126         422.569          44.000  
  19076152.989   100245850.386        -662.490          47.000  
  20843087.037   109531147.398       -1924.965          47.000  
  19642202.411   103220478.391        1916.189          45.000  
  21941708.186   115304467.095        1238.060          42.000  
  22338071.593   117387362.260         565.155          44.000  
  24910162.194   130903787.895        2930.868          42.000  
  21865600.318   114904502.585       -2729.583          44.000  
  24726407.021   129938130.437       -2368.997          40.000  
  24045674.230   126360841.222       -3593.546          42.000  
  23310612.077   122498126.448        2611.467          41.000  
  22312993.850   117255572.447        -177.471          42.000  
  24347243.335                       -2986.439          21.000  
  24262052.836   127497905.827        2379.636          43.000  
 23 12 19 11 59 44.9970000  0 17G12G13E25G23G15G22G24G17E 2E30G14E 3
                                G 5G10E 8G30E 7
  23230015.236   122074570.061        4124.039          39.000  
  20164901.687   105967265.241       -2299.462          46.000  
  24429568.530   128378255.125       -2008.768          43.000  
  21345400.419   112170852.792         421.697          44.000  
  19076279.102   100246512.995        -663.083          47.000  
  20843453.448   109533072.406       -1925.546          47.000  
  19641837.631   103218562.196        1915.542          45.000  
  21941472.495   115303229.161        1237.319          42.000  
  22337964.457   117386796.901         564.720          44.000  
  24909604.267   130900857.070        2930.367          41.000  
  21866119.750   114907232.325       -2730.217          44.000  
  24726857.786   129940499.288       -2369.281          40.000  
  24046357.973   126364434.322       -3593.366          42.000  
  23310114.920   122495515.045        2610.746          41.000  
  22313027.747   117255750.060        -178.146          42.000  
  24347809.394                       -2988.646          21.000  
  24261600.037   127495526.187        2379.227          43.000  
 23 12 19 11 59 45.9970000  0 17G12G13E25G23G15G22G24G17E 2E30G14E 3
                                G 5G10E 8G30E 7
  23229230.753   122070446.441        4123.524          39.000  
  20165339.339   105969564.688       -2299.669          46.000  
  24429950.263   128380263.771       -2008.411          43.000  
  21345320.488   112170431.199         421.300          45.000  
  19076405.319   100247176.310        -663.494          47.000  
  20843819.850   109534997.893       -1925.626          47.000  
  19641473.061   103216646.455        1915.631          45.000  
  21941237.153   115301991.853        1237.093          42.000  
  22337857.208   117386232.015         564.884          44.000  
  24909046.820   130897926.527        2930.501          41.000  
  21866639.095   114909962.418       -2730.103          44.000  
  24727308.665   129942868.407       -2369.191          40.000  
  24047041.568   126368027.441       -3592.963          42.000  
  23309618.252   122492904.177        2610.772          41.000  
  22313061.888   117255928.057        -177.822          42.000  
  24348377.320                       -2985.535          21.000  
  24261147.265   127493146.790        2379.455          43.000  
 23 12 19 11 59 46.9970000  0 17G12G13E25G23G15G22G24G17E 2E30G14E 3
                                G 5G10E 8G30E 7
  23228445.929   122066322.740        4123.568          39.000  
  20165776.973   105971864.367       -2299.954          46.000  
  24430332.257   128382272.502       -2008.761          43.000  
  21345240.470   112170010.121         420.724          45.000  
  19076531.694   100247840.109        -664.147          47.000  
  20844186.051   109536923.645       -1926.055          47.000  
  19641108.954   103214730.947        1915.225          45.000  
  21941001.845   115300754.939        1236.521          42.000  
  22337749.828   117385667.396         564.426          44.000  
  24908489.006   130894995.991        2930.578          41.000  
  21867158.657   114912692.658       -2730.444          44.000  
  24727759.544   129945237.563       -2369.384          40.000  
  24047725.302   126371620.314       -3592.733          43.000  
  23309121.610   122490293.606        2610.049          41.000  
  22313095.977   117256106.305        -178.403          42.000  
  24348943.169                       -2980.800          21.000  
  24260694.493   127490767.413        2379.366          43.000  
 23 12 19 11 59 47.9970000  0 17G12G13E25G23G15G22G24G17E 2E30G14E 3
                                G 5G10E 8G30E 7
  23227661.376   122062199.208        4123.518          39.000  
  20166214.580   105974164.491       -2300.135          46.000  
  24430714.687   128384281.506       -2009.115          43.000  
  21345160.435   112169589.798         420.069          45.000  
  19076658.042   100248504.585        -664.701          47.000  
  20844552.689   109538849.865       -1926.300          47.000  
  19640744.716   103212815.899        1914.867          45.000  
  21940766.485   115299518.618        1235.935          42.000  
  22337642.466   117385103.243         563.983          44.000  
  24907931.140   130892065.731        2930.321          41.000  
  21867677.985   114915423.240       -2730.389          44.000  
  24728210.632   129947606.954       -2369.588          40.000  
  24048409.002   126375213.198       -3592.782          43.000  
  23308624.671   122487683.511        2610.025          41.000  
  22313129.996   117256284.954        -179.012          42.000  
  24349509.385                       -2999.271          20.000  
  24260241.957   127488388.282        2379.141          43.000  
 23 12 19 11 59 48.9970000  0 17G12G13E25G23G15G22G24G17E 2E30G14E 3
                                G 5G10E 8G30E 7
  23226876.779   122058075.656        4124.092          39.000  
  20166652.354   105976464.868       -2300.268          46.000  
  24431096.847   128386290.619       -2009.131          43.000  
  21345080.164   112169169.994         419.827          45.000  
  19076784.556   100249169.555        -665.007          47.000  
  20844919.371   109540776.373       -1926.441          47.000  
  19640380.346   103210901.102        1914.987          45.000  
  21940531.195   115298282.712        1236.219          42.000  
  22337534.780   117384539.362         563.898          44.000  
  24907373.675   130889135.545        2930.327          41.000  
  21868197.530   114918153.992       -2730.509          44.000  
  24728661.694   129949976.413       -2369.400          40.000  
  24049092.998   126378805.895       -3592.201          42.000  
  23308127.602   122485073.784        2609.920          41.000  
  22313164.094   117256463.830        -178.882          42.000  
  24350074.598                       -2987.433          20.000  
  24259788.914   127486009.225        2379.061          43.000  
 23 12 19 11 59 49.9970000  0 17G12G13E25G23G15G22G24G17E 2E30G14E 3
                                G 5G10E 8G30E 7
  23226092.008   122053952.314        4123.282          39.000  
  20167090.215   105978765.708       -2301.024          46.000  
  24431479.443   128388300.029       -2009.544          43.000  
  21345000.373   112168750.981         418.548          45.000  
  19076911.446   100249835.239        -666.053          47.000  
  20845286.052   109542703.369       -1927.211          47.000  
  19640016.500   103208986.789        1914.183          45.000  
  21940296.080   115297047.442        1234.766          42.000  
  22337427.287   117383975.965         563.195          44.000  
  24906816.219   130886205.626        2929.817          41.000  
  21868717.197   114920885.118       -2731.451          44.000  
  24729112.869   129952346.119       -2369.641          40.000  
  24049776.514   126382398.620       -3592.793          43.000  
  23307630.585   122482464.587        2608.772          41.000  
  22313198.358   117256643.143        -179.468          42.000  
  24350647.331                       -2986.396          20.000  
  24259336.526   127483630.399        2378.731          43.000  
 23 12 19 11 59 50.9970000  0 17G12G13E25G23G15G22G24G17E 2E30G14E 3
                                G 5G10E 8G30E 7
  23225307.228   122049828.695        4123.590          39.000  
  20167528.041   105981066.552       -2300.737          46.000  
  24431861.934   128390309.269       -2009.077          43.000  
  21344920.887   112168332.238         418.628          45.000  
  19077038.570   100250501.169        -666.058          47.000  
  20845652.533   109544630.401       -1927.276          46.000  
  19639652.184   103207072.484        1914.268          45.000  
  21940061.235   115295812.334        1234.788          42.000  
  22337319.872   117383412.588         563.572          44.000  
  24906258.781   130883275.522        2930.073          41.000  
  21869236.708   114923616.151       -2730.992          44.000  
  24729563.696   129954715.659       -2369.449          40.000  
  24050460.135   126385990.873       -3592.227          43.000  
  23307133.960   122479855.473        2609.023          41.000  
  22313232.132   117256822.441        -179.336          42.000  
  24351216.261                       -2993.323          21.000  
  24258883.422   127481251.370        2379.153          43.000  
 23 12 19 11 59 51.9970000  0 17G12G13E25G23G15G22G24G17E 2E30G14E 3
                                G 5G10E 8G30E 7
  23224522.762   122045705.117        4123.058          39.000  
  20167965.902   105983367.752       -2301.896          46.000  
  24432244.050   128392318.705       -2010.124          43.000  
  21344841.628   112167914.117         417.435          45.000  
  19077165.521   100251167.680        -667.179          47.000  
  20846019.546   109546557.791       -1927.982          46.000  
  19639288.155   103205158.519        1913.299          45.000  
  21939826.407   115294577.717        1233.944          42.000  
  22337212.989   117382849.606         562.217          44.000  
  24905701.552   130880345.552        2929.513          41.000  
  21869756.245   114926347.434       -2731.867          44.000  
  24730014.897   129957085.308       -2369.994          40.000  
  24051143.896   126389583.037       -3592.678          43.000  
  23306637.615   122477246.745        2608.120          41.000  
  22313266.387   117257002.047        -180.233          42.000  
  24351785.103                       -2989.558          21.000  
  24258430.406   127478872.492        2378.250          43.000  
 23 12 19 11 59 52.9970000  0 17G12G13E25G23G15G22G24G17E 2E30G14E 3
                                G 5G10E 8G30E 7
  23223737.808   122041582.250        4122.624          39.000  
  20168403.876   105985669.920       -2302.965          46.000  
  24432626.472   128394328.947       -2010.960          43.000  
  21344762.483   112167497.283         415.919          45.000  
  19077292.733   100251835.414        -668.505          48.000  
  20846386.541   109548486.200       -1929.019          46.000  
  19638924.152   103203245.529        1912.214          45.000  
  21939591.859   115293344.245        1232.869          42.000  
  22337106.238   117382287.575         561.564          44.000  
  24905143.947   130877416.393        2928.519          41.000  
  21870275.991   114929079.589       -2732.697          44.000  
  24730465.758   129959455.762       -2371.064          40.000  
  24051827.508   126393175.675       -3593.001          43.000  
  23306141.505   122474639.080        2606.835          41.000  
  22313300.886   117257182.604        -181.099          42.000  
  24352355.062                       -2981.530          21.000  
  24257977.939   127476494.371        2377.544          43.000  
 23 12 19 11 59 53.9970000  0 17G12G13E25G23G15G22G24G17E 2E30G14E 3
                                G 5G10E 8G30E 7
  23222953.080   122037459.619        4122.335          39.000  
  20168842.051   105987972.596       -2302.897          46.000  
  24433009.164   128396339.536       -2010.847          43.000  
  21344683.390   112167081.239         415.544          45.000  
  19077420.172   100252503.901        -668.992          48.000  
  20846753.450   109550415.146       -1929.274          46.000  
  19638560.664   103201333.062        1912.100          46.000  
  21939357.153   115292111.442        1232.285          42.000  
  22336999.460   117381726.110         561.213          44.000  
  24904586.640   130874487.539        2928.625          41.000  
  21870795.859   114931812.188       -2732.977          43.000  
  24730916.986   129961826.530       -2371.041          40.000  
  24052511.024   126396768.430       -3593.039          43.000  
  23305645.343   122472032.008        2606.701          41.000  
  22313335.150   117257363.655        -181.374          42.000  
  24352924.515                       -2985.870          21.000  
  24257525.438   127474116.558        2377.714          43.000  
 23 12 19 11 59 54.9970000  0 17G12G13E25G23G15G22G24G17E 2E30G14E 3
                                G 5G10E 8G30E 7
  23222168.423   122033337.215        4122.719          38.000  
  20169280.418   105990275.788       -2303.266          46.000  
  24433391.472   128398350.495       -2010.932          43.000  
  21344604.706   112166666.007         415.024          45.000  
  19077547.759   100253173.154        -669.447          48.000  
  20847120.777   109552344.634       -1929.544          46.000  
  19638196.844   103199421.118        1911.993          46.000  
  21939122.945   115290879.307        1231.947          43.000  
  22336892.891   117381165.176         560.957          44.000  
  24904029.585   130871559.027        2928.510          41.000  
  21871315.526   114934545.202       -2733.082          44.000  
  24731368.284   129964197.607       -2371.050          40.000  
  24053194.811   126400361.198       -3592.608          43.000  
  23305149.103   122469425.511        2606.488          41.000  
  22313369.727   117257545.184        -181.413          42.000  
  24353491.525                       -2988.664          21.000  
  24257073.294   127471739.062        2377.653          43.000  
 23 12 19 11 59 55.9970000  0 17G12G13E25G23G15G22G24G17E 2E30G14E 3
                                G 5G10E 8G30E 7
  23221383.791   122029214.773        4122.783          38.000  
  20169718.689   105992579.220       -2303.441          46.000  
  24433774.321   128400361.523       -2011.033          43.000  
  21344526.154   112166251.294         414.692          45.000  
  19077675.713   100253842.876        -669.770          48.000  
  20847488.112   109554274.385       -1929.737          46.000  
  19637833.138   103197509.416        1911.813          46.000  
  21938888.737   115289647.558        1231.637          43.000  
  22336786.314   117380604.497         560.752          44.000  
  24903472.653   130868630.569        2928.341          41.000  
  21871835.630   114937278.353       -2733.207          44.000  
  24731819.110   129966568.727       -2370.827          40.000  
  24053878.554   126403953.749       -3592.304          43.000  
  23304653.063   122466819.340        2606.017          41.000  
  22313404.593   117257726.931        -181.696          42.000  
  24354060.192                       -2990.202          21.000  
  24256621.002   127469361.602        2377.482          43.000  
 23 12 19 11 59 56.9970000  0 17G12G13E25G23G15G22G24G17E 2E30G14E 3
                                G 5G10E 8G30E 7
  23220599.351   122025092.513        4122.221          38.000  
  20170157.152   105994883.093       -2304.002          46.000  
  24434157.074   128402372.835       -2011.342          43.000  
  21344447.532   112165837.331         413.641          45.000  
  19077803.239   100254513.311        -670.762          48.000  
  20847855.056   109556204.617       -1930.320          46.000  
  19637469.397   103195598.165        1911.200          45.000  
  21938654.547   115288416.425        1230.982          43.000  
  22336680.060   117380044.290         560.061          44.000  
  24902915.197   130865702.335        2928.457          41.000  
  21872355.969   114940011.865       -2733.629          44.000  
  24732270.949   129968940.110       -2371.573          40.000  
  24054562.009   126407546.297       -3592.665          43.000  
  23304156.822   122464213.683        2605.511          41.000  
  22313439.581   117257909.118        -182.220          42.000  
  24354631.111                       -2984.075          21.000  
  24256168.605   127466984.381        2377.256          43.000  
 23 12 19 11 59 57.9970000  0 17G12G13E25G23G15G22G24G17E 2E30G14E 3
                                G 5G10E 8G30E 7
  23219814.955   122020970.265        4122.407          38.000  
  20170595.466   105997187.254       -2304.067          46.000  
  24434539.495   128404384.281       -2011.369          43.000  
  21344368.893   112165423.937         413.367          45.000  
  19077931.210   100255184.264        -671.172          48.000  
  20848222.138   109558135.160       -1930.588          46.000  
  19637105.377   103193687.224        1910.918          45.000  
  21938420.365   115287185.742        1230.688          43.000  
  22336573.570   117379484.387         559.911          44.000  
  24902358.378   130862774.251        2928.028          41.000  
  21872875.977   114942745.567       -2733.721          43.000  
  24732721.801   129971311.564       -2371.310          40.000  
  24055245.901   126411138.661       -3592.382          43.000  
  23303660.800   122461608.397        2605.096          40.000  
  22313474.429   117258091.545        -182.415          42.000  
  24355200.172                       -2987.792          21.000  
  24255716.400   127464607.247        2377.326          43.000  
 23 12 19 11 59 58.9970000  0 17G12G13E25G23G15G22G24G17E 2E30G14E 3
                                G 5G10E 8G30E 7
  23219030.254   122016848.099        4122.208          38.000  
  20171033.755   105999491.791       -2304.757          46.000  
  24434922.711   128406395.935       -2011.813          43.000  
  21344290.533   112165011.225         412.406          45.000  
  19078059.077   100255855.828        -672.010          48.000  
  20848589.291   109560066.105       -1931.274          46.000  
  19636741.880   103191776.643        1910.282          45.000  
  21938186.366   115285955.583        1229.987          43.000  
  22336466.871   117378924.880         559.204          44.000  
  24901801.140   130859846.297        2927.831          41.000  
  21873396.229   114945479.552       -2734.230          43.000  
  24733173.160   129973683.200       -2371.865          40.000  
  24055929.295   126414730.955       -3592.327          43.000  
  23303165.057   122459003.536        2604.746          41.000  
  22313509.425   117258274.323        -182.982          42.000  
  24355771.029                       -2990.423          21.000  
  24255264.343   127462230.256        2376.954          43.000  
 23 12 19 11 59 59.9970000  0 17G12G13E25G23G15G22G24G17E 2E30G14E 3
                                G 5G10E 8G30E 7
  23218245.823   122012726.186        4122.053          38.000  
  20171472.226   106001796.846       -2305.087          46.000  
  24435305.839   128408407.945       -2011.979          43.000  
  21344212.330   112164599.314         411.696          46.000  
  19078186.873   100256528.157        -672.448          48.000  
  20848956.653   109561997.589       -1931.498          46.000  
  19636378.540   103189866.592        1910.052          45.000  
  21937952.289   115284726.110        1229.393          43.000  
  22336360.887   117378365.910         558.938          44.000  
  24901243.972   130856918.706        2927.621          41.000  
  21873916.429   114948213.961       -2734.409          43.000  
  24733624.440   129976055.155       -2371.791          40.000  
  24056612.803   126418323.316       -3592.345          43.000  
  23302669.601   122456399.284        2604.097          41.000  
  22313544.500   117258457.600        -183.354          42.000  
  24356342.951                       -2991.971          21.000  
  24254812.051   127459853.612        2376.617          43.000  
 23 12 19 12  0  0.9970000  0 17G12G13E25G23G15G22G24G17E 2E30G14E 3
                                G 5G10E 8G30E 7
  23217461.096   122008603.986        4122.179          38.000  
  20171910.742   106004101.884       -2305.542          45.000  
  24435688.453   128410419.789       -2012.224          43.000  
  21344134.275   112164187.670         410.955          46.000  
  19078314.914   100257200.726        -673.191          48.000  
  20849324.146   109563929.095       -1931.838          46.000  
  19636014.913   103187956.539        1909.654          45.000  
  21937718.499   115283496.783        1228.788          43.000  
  22336254.388   117377806.958         558.585          44.000  
  24900686.586   130853990.906        2927.411          40.000  
  21874436.847   114950948.280       -2734.910          43.000  
  24734075.641   129978426.912       -2372.139          40.000  
  24057296.127   126421915.187       -3592.074          43.000  
  23302174.120   122453795.090        2603.533          41.000  
  22313579.584   117258640.829        -183.696          42.000  
  24356914.306                       -2972.990          21.000  
  24254359.654   127457476.733        2376.551          43.000  
 23 12 19 12  0  1.9970000  0 17G12G13E25G23G15G22G24G17E 2E30G14E 3
                                G 5G10E 8G30E 7
  23216676.830   122004482.371        4121.271          39.000  
  20172349.606   106006407.758       -2305.937          46.000  
  24436071.764   128412432.306       -2012.686          43.000  
  21344055.897   112163777.165         410.224          45.000  
  19078443.086   100257874.350        -673.795          48.000  
  20849691.804   109565861.469       -1932.583          46.000  
  19635651.355   103186047.310        1909.057          45.000  
  21937485.016   115282268.449        1227.988          43.000  
  22336148.186   117377248.855         557.994          44.000  
  24900128.964   130851063.747        2927.070          41.000  
  21874957.465   114953683.311       -2735.214          43.000  
  24734527.122   129980799.282       -2372.374          41.000  
  24057979.530   126425507.445       -3592.204          43.000  
  23301678.953   122451191.779        2603.314          41.000  
  22313614.633   117258824.873        -184.290          42.000  
  24357484.719                       -2986.862          20.000  
  24253907.720   127455100.485        2376.213          43.000  
 23 12 19 12  0  2.9970000  0 17G12G13E25G23G15G22G24G17E 2E30G14E 3
                                G 5G10E 8G30E 7
  23215892.356   122000360.523        4121.723          39.000  
  20172788.173   106008713.705       -2306.081          45.000  
  24436454.386   128414444.729       -2012.579          43.000  
  21343977.755   112163367.020         409.742          45.000  
  19078571.319   100258548.309        -674.109          48.000  
  20850059.376   109567793.933       -1932.703          46.000  
  19635287.928   103184138.180        1908.941          45.000  
  21937251.191   115281040.336        1227.922          43.000  
  22336041.949   117376690.843         557.885          44.000  
  24899571.587   130848136.473        2927.311          40.000  
  21875477.892   114956418.343       -2735.262          43.000  
  24734978.865   129983171.548       -2372.249          41.000  
  24058662.907   126429099.316       -3591.702          42.000  
  23301183.558   122448588.657        2603.175          41.000  
  22313649.568   117259008.974        -184.458          42.000  
  24358052.619                       -2989.726          20.000  
  24253455.218   127452724.100        2376.357          43.000  
 23 12 19 12  0  3.9970000  0 17G12G13E25G23G15G22G24G17E 2E30G14E 3
                                G 5G10E 8G30E 7
  23215108.195   121996239.057        4120.911          39.000  
  20173226.994   106011020.308       -2307.324          46.000  
  24436837.532   128416457.641       -2013.499          43.000  
  21343899.918   112162957.812         408.406          45.000  
  19078699.386   100259223.158        -675.475          48.000  
  20850427.017   109569727.069       -1933.596          46.000  
  19634924.492   103182229.690        1907.824          45.000  
  21937017.393   115279813.030        1226.562          43.000  
  22335936.105   117376133.511         556.808          44.000  
  24899014.454   130845209.644        2926.326          40.000  
  21875998.624   114959153.926       -2736.298          43.000  
  24735430.677   129985544.256       -2373.298          41.000  
  24059346.519   126432691.388       -3592.200          42.000  
  23300688.059   122445986.238        2601.739          41.000  
  22313684.442   117259193.683        -185.314          42.000  
  24358622.168                       -2988.686          19.000  
  24253003.214   127450348.164        2375.446          43.000  
 23 12 19 12  0  4.9970000  0 17G12G13E25G23G15G22G24G17E 2E30G14E 3
                                G 5G10E 8G30E 7
  23214323.939   121992117.976        4121.083          39.000  
  20173666.111   106013327.560       -2307.402          46.000  
  24437220.782   128418471.058       -2013.477          43.000  
  21343822.195   112162549.557         408.106          45.000  
  19078827.741   100259898.918        -675.995          47.000  
  20850795.077   109571660.909       -1933.980          46.000  
  19634561.309   103180321.883        1907.671          45.000  
  21936783.944   115278586.563        1226.168          43.000  
  22335830.592   117375576.863         556.526          44.000  
  24898457.120   130842283.315        2926.203          40.000  
  21876519.111   114961890.070       -2736.113          43.000  
  24735882.376   129987917.433       -2373.111          41.000  
  24060029.957   126436283.646       -3592.210          42.000  
  23300193.293   122443384.570        2601.582          41.000  
  22313719.456   117259379.031        -185.409          42.000  
  24359194.509                       -2996.775          19.000  
  24252551.201   127447972.686        2375.413          43.000  
 23 12 19 12  0  5.9970000  0 17G12G13E25G23G15G22G24G17E 2E30G14E 3
                                G 5G10E 8G30E 7
  23213539.744   121987996.923        4121.540          39.000  
  20174105.342   106015635.138       -2307.749          46.000  
  24437604.094   128420484.633       -2013.742          43.000  
  21343744.437   112162141.914         407.209          45.000  
  19078956.480   100260575.235        -676.691          47.000  
  20851162.945   109573595.086       -1934.248          46.000  
  19634198.336   103178414.392        1907.330          45.000  
  21936550.460   115277360.549        1225.944          43.000  
  22335724.023   117375020.553         556.214          44.000  
  24897899.743   130839357.095        2926.231          40.000  
  21877039.835   114964626.451       -2736.476          43.000  
  24736333.734   129990290.729       -2373.394          40.000  
  24060713.360   126439875.780       -3592.061          42.000  
  23299698.414   122440783.316        2601.015          41.000  
  22313754.662   117259564.673        -185.899          42.000  
  24359765.201                       -2986.985          19.000  
  24252099.458   127445597.331        2375.079          43.000  
 23 12 19 12  0  6.9970000  0 17G12G13E25G23G15G22G24G17E 2E30G14E 3
                                G 5G10E 8G30E 7
  23212755.636   121983876.058        4120.742          39.000  
  20174544.459   106017943.138       -2308.377          46.000  
  24437987.336   128422498.471       -2014.002          43.000  
  21343666.879   112161734.985         406.629          45.000  
  19079085.001   100261252.226        -677.339          47.000  
  20851530.935   109575529.720       -1934.868          46.000  
  19633835.433   103176507.348        1906.614          45.000  
  21936317.334   115276135.149        1224.950          43.000  
  22335618.485   117374464.691         555.571          44.000  
  24897342.740   130836431.120        2925.858          40.000  
  21877560.915   114967363.162       -2737.026          43.000  
  24736785.747   129992664.257       -2373.849          41.000  
  24061397.155   126443467.871       -3592.099          43.000  
  23299203.500   122438182.520        2600.840          41.000  
  22313789.920   117259750.734        -186.506          42.000  
  24360335.212                       -2992.614          19.000  
  24251647.332   127443222.189        2375.020          43.000  
 23 12 19 12  0  7.9970000  0 17G12G13E25G23G15G22G24G17E 2E30G14E 3
                                G 5G10E 8G30E 7
  23211971.414   121979755.137        4120.890          39.000  
  20174983.803   106020251.393       -2308.382          46.000  
  24438370.490   128424512.410       -2014.094          43.000  
  21343589.470   112161328.608         406.002          45.000  
  19079213.670   100261929.711        -677.689          47.000  
  20851899.109   109577464.639       -1935.033          46.000  
  19633472.337   103174600.560        1906.719          45.000  
  21936084.400   115274910.148        1224.809          43.000  
  22335512.492   117373909.106         555.529          44.000  
  24896785.895   130833505.212        2925.900          40.000  
  21878081.709   114970100.035       -2737.007          43.000  
  24737237.211   129995037.832       -2373.527          40.000  
  24062080.942   126447059.766       -3591.733          43.000  
  23298708.917   122435582.088        2600.348          41.000  
  22313825.204   117259937.000        -186.293          42.000  
  24360903.557                       -2985.811          19.000  
  24251195.677   127440847.109        2374.976          43.000  
 23 12 19 12  0  8.9970000  0 17G12G13E25G23G15G22G24G17E 2E30G14E 3
                                G 5G10E 8G30E 7
  23211186.992   121975634.440        4120.221          39.000  
  20175423.113   106022560.121       -2308.993          46.000  
  24438754.028   128426526.647       -2014.347          43.000  
  21343512.113   112160922.978         405.322          45.000  
  19079342.950   100262607.911        -678.522          47.000  
  20852267.029   109579400.053       -1935.828          46.000  
  19633109.460   103172694.252        1905.962          45.000  
  21935851.370   115273685.765        1224.077          43.000  
  22335407.058   117373354.017         554.827          44.000  
  24896228.954   130830579.593        2925.340          40.000  
  21878602.589   114972837.289       -2737.431          43.000  
  24737689.110   129997411.695       -2374.000          40.000  
  24062764.493   126450651.694       -3592.066          43.000  
  23298214.081   122432982.195        2599.463          41.000  
  22313860.925   117260123.729        -186.855          42.000  
  24361471.762                       -2981.350          18.000  
  24250743.620   127438472.282        2374.737          43.000  
 23 12 19 12  0  9.9970000  0 17G12G13E25G23G15G22G24G17E 2E30G14E 3
                                G 5G10E 8G30E 7
  23210402.640   121971513.831        4120.385          39.000  
  20175862.466   106024869.218       -2309.249          46.000  
  24439137.375   128428541.098       -2014.402          43.000  
  21343434.792   112160518.027         404.684          45.000  
  19079472.021   100263286.742        -679.125          47.000  
  20852635.499   109581335.864       -1935.888          46.000  
  19632746.714   103170788.316        1905.846          45.000  
  21935618.706   115272461.937        1223.427          43.000  
  22335301.397   117372799.315         554.573          44.000  
  24895672.161   130827654.147        2925.583          40.000  
  21879123.582   114975574.809       -2737.457          43.000  
  24738140.460   129999785.715       -2373.859          40.000  
  24063447.852   126454243.518       -3591.775          43.000  
  23297719.559   122430382.704        2599.400          41.000  
  22313896.384   117260310.803        -187.158          42.000  
  24362037.376                       -2968.967          18.000  
  24250291.860   127436097.631        2374.664          44.000  
 23 12 19 12  0 10.9970000  0 17G12G13E25G23G15G22G24G17E 2E30G14E 3
                                G 5G10E 8G30E 7
  23209618.514   121967393.322        4120.561          39.000  
  20176301.975   106027178.707       -2309.594          46.000  
  24439520.398   128430555.782       -2014.587          43.000  
  21343357.635   112160113.755         403.900          45.000  
  19079601.161   100263966.189        -679.516          47.000  
  20853004.118   109583272.104       -1936.391          46.000  
  19632383.740   103168882.783        1905.578          44.000  
  21935386.051   115271238.631        1223.253          43.000  
  22335195.779   117372245.031         554.177          44.000  
  24895115.429   130824728.911        2925.264          40.000  
  21879644.742   114978312.639       -2737.805          43.000  
  24738592.246   130002159.938       -2374.202          40.000  
  24064131.316   126457835.276       -3591.542          43.000  
  23297224.846   122427783.693        2598.834          41.000  
  22313931.825   117260498.229        -187.421          42.000  
  24362604.107                       -2979.701          17.000  
  24249840.117   127433723.159        2374.437          44.000  
 23 12 19 12  0 11.9970000  0 17G12G13E25G23G15G22G24G17E 2E30G14E 3
                                G 5G10E 8G30E 7
  23208834.249   121963272.440        4120.657          39.000  
  20176741.232   106029488.092       -2309.774          46.000  
  24439904.024   128432570.203       -2014.713          43.000  
  21343280.497   112159709.658         403.455          45.000  
  19079730.389   100264645.781        -680.183          47.000  
  20853372.684   109585208.244       -1936.561          46.000  
  19632021.142   103166977.144        1905.155          44.000  
  21935153.056   115270015.380        1222.825          43.000  
  22335090.214   117371690.653         553.970          44.000  
  24894558.593   130821803.376        2925.241          40.000  
  21880165.544   114981050.268       -2737.988          43.000  
  24739043.710   130004533.850       -2374.274          40.000  
  24064814.780   126461426.461       -3591.290          43.000  
  23296729.896   122425184.635        2598.847          41.000  
  22313967.389   117260685.538        -187.571          42.000  
  24363169.922                       -2979.701          15.000  
  24249388.296   127431348.380        2374.450          43.000  
 23 12 19 12  0 12.9970000  0 17G12G13E25G23G15G22G24G17E 2E30G14E 3
                                G 5G10E 8G30E 7
  23208050.027   121959151.846        4120.084          38.000  
  20177180.856   106031798.007       -2310.335          46.000  
  24440287.222   128434585.014       -2015.356          43.000  
  21343203.602   112159306.398         402.648          44.000  
  19079859.712   100265326.168        -681.132          47.000  
  20853741.154   109587144.967       -1937.240          46.000  
  19631658.422   103165072.063        1904.378          44.000  
  21934920.191   115268792.856        1221.852          43.000  
  22334984.832   117371136.851         553.225          44.000  
  24894001.748   130818878.212        2924.660          40.000  
  21880686.572   114983788.353       -2738.767          43.000  
  24739495.260   130006908.119       -2374.764          40.000  
  24065497.982   126465017.770       -3591.518          43.000  
  23296235.488   122422586.247        2597.848          41.000  
  22314003.083   117260873.367        -188.249          42.000  
  24363736.146                       -2979.701          15.000  
  24248936.580   127428973.942        2373.991          44.000  
 23 12 19 12  0 13.9970000  0 17G12G13E25G23G15G22G24G17E 2E30G14E 3
                                G 5G10E 8G30E 7
  23207266.024   121955031.854        4119.947          39.000  
  20177620.793   106034108.856       -2311.286          46.000  
  24440670.760   128436600.572       -2015.879          43.000  
  21343126.499   112158904.355         401.437          44.000  
  19079989.280   100266007.717        -682.153          47.000  
  20854109.624   109589082.648       -1938.138          45.000  
  19631295.841   103163167.892        1903.931          45.000  
  21934687.667   115267571.395        1220.900          43.000  
  22334879.712   117370583.993         552.349          44.000  
  24893445.060   130815953.753        2924.271          40.000  
  21881207.828   114986527.262       -2739.344          43.000  
  24739947.134   130009283.119       -2375.525          40.000  
  24066181.394   126468609.516       -3592.044          43.000  
  23295741.315   122419988.838        2597.061          41.000  
  22314039.057   117261062.097        -189.201          42.000  
  24364301.813                       -2984.043          13.000  
  24248484.811   127426600.225        2373.408          44.000  
 23 12 19 12  0 14.9970000  0 17G12G13E25G23G15G22G24G17E 2E30G14E 3
                                G 5G10E 8G30E 7
  23206482.204   121950912.083        4119.649          39.000  
  20178060.451   106036420.163       -2311.396          46.000  
  24441054.107   128438616.425       -2015.901          43.000  
  21343050.075   112158503.056         401.066          44.000  
  19080119.136   100266689.962        -682.597          47.000  
  20854478.687   109591020.809       -1938.362          46.000  
  19630933.130   103161264.214        1903.459          44.000  
  21934455.344   115266350.570        1220.606          42.000  
  22334774.470   117370031.606         552.283          44.000  
  24892889.113   130813029.601        2924.060          40.000  
  21881729.240   114989266.535       -2739.369          43.000  
  24740399.007   130011658.355       -2375.214          40.000  
  24066865.067   126472201.272       -3591.763          43.000  
  23295247.387   122417391.971        2596.582          41.000  
  22314074.708   117261251.253        -189.292          42.000  
  24364866.475                       -2984.043          11.000  
  24248033.558   127424226.772        2373.291          43.000  
 23 12 19 12  0 15.9970000  0 16G12G13E25G23G15G22G24G17E 2E30G14E 3
                                G 5G10E 8E 7
  23205698.035   121946792.214        4120.259          38.000  
  20178500.406   106038731.670       -2311.478          46.000  
  24441437.767   128440632.332       -2015.953          43.000  
  21342973.966   112158102.257         400.741          44.000  
  19080248.966   100267372.647        -682.821          48.000  
  20854847.489   109592959.198       -1938.493          46.000  
  19630570.480   103159360.731        1903.436          44.000  
  21934222.898   115265130.100        1220.457          42.000  
  22334669.306   117369479.459         552.010          44.000  
  24892332.661   130810105.435        2924.327          40.000  
  21882250.609   114992005.905       -2739.348          43.000  
  24740850.758   130014033.604       -2375.101          40.000  
  24067548.505   126475792.748       -3591.162          43.000  
  23294753.336   122414795.367        2596.778          41.000  
  22314111.065   117261440.579        -189.431          42.000  
  24247581.832   127421853.289        2373.662          43.000  
 23 12 19 12  0 16.9970000  0 16G12G13E25G23G15G22G24G17E 2E30G14E 3
                                G 5G10E 8E 7
  23204913.970   121942672.464        4119.811          38.000  
  20178940.658   106041043.556       -2311.895          46.000  
  24441821.288   128442648.442       -2016.286          43.000  
  21342897.674   112157702.115         400.020          44.000  
  19080378.882   100268055.944        -683.377          47.000  
  20855216.351   109594897.985       -1939.014          46.000  
  19630208.353   103157457.606        1902.952          44.000  
  21933990.810   115263910.158        1219.722          42.000  
  22334564.221   117368927.682         551.558          44.000  
  24891775.920   130807181.474        2923.886          40.000  
  21882771.585   114994745.551       -2739.613          43.000  
  24741302.893   130016409.016       -2375.499          40.000  
  24068232.309   126479384.184       -3591.329          43.000  
  23294259.172   122412199.213        2596.246          41.000  
  22314146.969   117261630.261        -189.908          42.000  
  24247129.977   127419479.993        2373.424          44.000  
 23 12 19 12  0 17.9970000  0 16G12G13E25G23G15G22G24G17E 2E30G14E 3
                                G 5G10E 8E 7
  23204129.941   121938552.641        4120.020          39.000  
  20179380.438   106043355.616       -2312.127          46.000  
  24442205.167   128444664.566       -2016.359          43.000  
  21342821.765   112157302.451         399.298          44.000  
  19080509.131   100268739.692        -684.280          47.000  
  20855585.310   109596836.974       -1939.010          46.000  
  19629846.496   103155554.686        1902.942          44.000  
  21933758.382   115262690.559        1219.333          42.000  
  22334459.240   117368376.121         551.265          44.000  
  24891219.546   130804257.496        2923.531          40.000  
  21883292.789   114997485.290       -2739.788          43.000  
  24741755.229   130018784.428       -2375.366          40.000  
  24068915.939   126482975.346       -3591.150          43.000  
  23293765.043   122409603.327        2595.655          41.000  
  22314183.457   117261820.089        -189.997          42.000  
  24246678.696   127417106.675        2373.115          44.000  
 23 12 19 12  0 18.9970000  0 16G12G13E25G23G15G22G24G17E 2E30G14E 3
                                G 5G10E 8E 7
  23203346.190   121934432.760        4120.168          41.000  
  20179821.039   106045667.953       -2312.451          46.000  
  24442589.098   128446680.804       -2016.387          43.000  
  21342746.040   112156903.349         398.920          44.000  
  19080639.240   100269423.927        -684.344          47.000  
  20855954.182   109598776.277       -1939.409          45.000  
  19629484.718   103153652.050        1902.742          45.000  
  21933526.154   115261471.384        1219.067          42.000  
  22334354.557   117367824.834         551.307          44.000  
  24890663.251   130801333.566        2923.781          40.000  
  21883814.131   115000225.218       -2739.978          43.000  
  24742207.548   130021159.912       -2375.476          40.000  
  24069599.054   126486566.277       -3590.645          43.000  
  23293270.740   122407007.773        2595.654          41.000  
  22314219.815   117262010.167        -190.007          42.000  
  24246227.076   127414733.421        2373.247          44.000  
 23 12 19 12  0 19.9970000  0 16G12G13E25G23G15G22G24G17E 2E30G14E 3
                                G 5G10E 8E 7
  23202562.161   121930313.013        4119.781          41.000  
  20180261.282   106047980.670       -2312.954          46.000  
  24442972.732   128448697.265       -2016.566          43.000  
  21342670.359   112156504.924         398.061          44.000  
  19080769.314   100270108.806        -685.271          47.000  
  20856323.332   109600715.983       -1939.931          46.000  
  19629122.766   103151749.807        1901.914          45.000  
  21933294.250   115260252.769        1218.359          42.000  
  22334249.611   117367273.978         550.658          44.000  
  24890106.676   130798409.876        2923.329          40.000  
  21884335.247   115002965.441       -2740.490          43.000  
  24742659.552   130023535.588       -2375.795          40.000  
  24070282.343   126490157.187       -3590.913          42.000  
  23292776.680   122404412.710        2594.783          41.000  
  22314256.068   117262200.604        -190.522          42.000  
  24245775.185   127412360.346        2372.913          44.000  
 23 12 19 12  0 20.9970000  0 17G12G13E25G23G15G22G24G17E 2E30G14E 3
                                G 5G10E 8G30E 7
  23201778.201   121926193.427        4119.506          41.000  
  20180701.507   106050293.820       -2313.296          46.000  
  24443356.131   128450713.992       -2016.688          43.000  
  21342594.642   112156107.234         397.257          44.000  
  19080899.789   100270794.355        -685.924          47.000  
  20856692.649   109602656.154       -1940.374          45.000  
  19628760.962   103149848.007        1901.473          45.000  
  21933062.232   115259034.740        1217.913          42.000  
  22334144.665   117366723.570         550.204          44.000  
  24889550.573   130795486.405        2923.381          40.000  
  21884856.817   115005705.987       -2740.631          43.000  
  24743111.861   130025911.478       -2375.823          40.000  
  24070965.502   126493748.066       -3590.878          42.000  
  23292282.822   122401818.122        2594.227          41.000  
  22314292.355   117262391.468        -191.030          42.000  
  24368269.722                       -2984.043          11.000  
  24245323.757   127409987.501        2372.693          44.000  
 23 12 19 12  0 21.9970000  0 17G12G13E25G23G15G22G24G17E 2E30G14E 3
                                G 5G10E 8G30E 7
  23200994.259   121922073.915        4119.271          41.000  
  20181141.680   106052607.305       -2313.668          46.000  
  24443740.184   128452730.923       -2017.432          43.000  
  21342519.292   112155710.151         396.666          45.000  
  19081030.351   100271480.490        -686.612          47.000  
  20857062.009   109604596.680       -1940.737          45.000  
  19628399.568   103147946.543        1901.191          45.000  
  21932830.554   115257817.244        1216.981          42.000  
  22334040.086   117366173.526         549.702          44.000  
  24888994.443   130792563.099        2923.136          40.000  
  21885378.421   115008446.782       -2741.085          43.000  
  24743564.162   130028287.533       -2376.407          40.000  
  24071648.783   126497338.811       -3590.658          42.000  
  23291788.928   122399223.956        2593.857          41.000  
  22314328.887   117262582.628        -191.393          42.000  
  24368836.007                       -2984.043          12.000  
  24244872.477   127407614.795        2372.501          44.000  
 23 12 19 12  0 22.9970000  0 17G12G13E25G23G15G22G24G17E 2E30G14E 3
                                G 5G10E 8G30E 7
  23200210.308   121917954.614        4119.458          41.000  
  20181582.342   106054921.300       -2314.118          46.000  
  24444124.141   128454748.155       -2017.084          43.000  
  21342443.890   112155313.873         396.115          45.000  
  19081160.643   100272167.364        -686.988          47.000  
  20857431.517   109606537.728       -1940.964          46.000  
  19628038.182   103146045.598        1900.823          45.000  
  21932599.120   115256600.385        1216.809          42.000  
  22333935.638   117365623.993         549.580          44.000  
  24888438.435   130789640.106        2923.102          39.000  
  21885900.217   115011187.989       -2741.205          43.000  
  24744016.254   130030663.872       -2376.212          40.000  
  24072331.968   126500929.627       -3590.636          42.000  
  23291295.445   122396630.364        2593.568          41.000  
  22314365.585   117262774.260        -191.469          42.000  
  24369405.574                       -2984.043          11.000  
  24244421.101   127405242.379        2372.496          44.000  
 23 12 19 12  0 23.9970000  0 17G12G13E25G23G15G22G24G17E 2E30G14E 3
                                G 5G19G10E 8E 7
  23199426.374   121913835.205        4119.654          41.000  
  20182022.707   106057235.442       -2314.261          46.000  
  24444507.976   128456765.401       -2017.150          43.000  
  21342368.793   112154918.046         395.686          45.000  
  19081291.319   100272854.642        -687.484          47.000  
  20857800.956   109608478.975       -1941.343          46.000  
  19627676.972   103144144.808        1900.606          45.000  
  21932367.713   115255383.857        1216.304          42.000  
  22333830.902   117365074.653         549.245          44.000  
  24887882.489   130786717.079        2923.042          40.000  
  21886421.883   115013929.243       -2741.067          43.000  
  24744468.459   130033040.180       -2376.242          40.000  
  24073015.388   126504520.126       -3590.405          42.000  
  22551761.848                        3040.695          28.000  
  23290801.865   122394036.998        2593.216          41.000  
  22314402.065   117262966.046        -191.801          42.000  
  24243969.664   127402869.923        2372.703          44.000  
 23 12 19 12  0 24.9970000  0 17G12G13E25G23G15G22G24G17E 2E30G14E 3
                                G 5G19G10E 8E 7
  23198642.467   121909716.185        4118.640          41.000  
  20182463.543   106059550.220       -2315.213          46.000  
  24444891.881   128458783.145       -2018.205          43.000  
  21342293.853   112154523.166         394.178          45.000  
  19081422.248   100273542.813        -688.739          47.000  
  20858170.473   109610420.888       -1942.491          46.000  
  19627315.909   103142244.679        1899.630          45.000  
  21932136.271   115254168.131        1215.146          42.000  
  22333726.515   117364525.981         548.197          44.000  
  24887326.699   130783794.522        2922.167          40.000  
  21886943.645   115016671.071       -2742.036          43.000  
  24744920.446   130035416.934       -2377.031          40.000  
  24073699.009   126508110.828       -3591.073          42.000  
  22551182.527   118507264.0123       3039.556          28.000  
  23290308.207   122391444.336        2592.259          41.000  
  22314438.806   117263158.440        -192.649          42.000  
  24243518.296   127400497.911        2371.794          44.000  
 23 12 19 12  0 25.9970000  0 17G12G13E25G23G15G22G24G17E 2E30G14E 3
                                G 5G19G10E 8E 7
  23197858.978   121905597.480        4118.486          41.000  
  20182904.466   106061865.614       -2315.615          46.000  
  24445275.768   128460801.311       -2018.243          43.000  
  21342219.009   112154129.178         393.394          45.000  
  19081553.343   100274231.829        -689.595          47.000  
  20858540.365   109612363.436       -1942.905          46.000  
  19626954.576   103140345.158        1899.135          46.000  
  21931904.846   115252953.161        1214.749          42.000  
  22333621.892   117363977.933         547.712          44.000  
  24886771.049   130780872.389        2921.800          40.000  
  21887465.868   115019413.402       -2742.478          43.000  
  24745372.834   130037794.117       -2377.672          40.000  
  24074382.045   126511701.663       -3591.039          42.000  
  22550603.284   118504224.7202       3038.853          28.000  
  23289814.794   122388852.390        2591.344          41.000  
  22314475.731   117263351.425        -193.166          42.000  
  24243067.121   127398126.312        2371.453          44.000  
 23 12 19 12  0 26.9970000  0 17G12G13E25G23G15G22G24G17E 2E30G14E 3
                                G 5G19G10E 8E 7
  23197075.280   121901478.979        4118.432          41.000  
  20183345.389   106064181.477       -2316.017          47.000  
  24445660.004   128462819.794       -2018.619          43.000  
  21342144.348   112153735.946         392.806          45.000  
  19081684.543   100274921.563        -690.224          47.000  
  20858910.118   109614306.478       -1943.264          46.000  
  19626593.741   103138446.114        1898.666          46.000  
  21931674.032   115251738.821        1213.906          42.000  
  22333517.487   117363430.367         547.535          44.000  
  24886214.902   130777950.524        2921.888          40.000  
  21887987.586   115022156.111       -2742.753          43.000  
  24745825.065   130040171.534       -2377.382          40.000  
  24075065.396   126515292.486       -3590.678          42.000  
  22550019.889   118501185.7712       3038.567          28.000  
  23289321.825   122386260.967        2591.188          41.000  
  22314512.577   117263544.857        -193.642          42.000  
  24242615.928   127395754.963        2371.242          44.000  
 23 12 19 12  0 27.9970000  0 17G12G13E25G23G15G22G24G17E 2E30G14E 3
                                G 5G19G10E 8E 7
  23196291.591   121897360.604        4118.151          41.000  
  20183786.278   106066497.734       -2316.688          47.000  
  24446044.023   128464838.506       -2018.935          43.000  
  21342069.670   112153343.407         391.872          45.000  
  19081815.742   100275611.941        -690.963          47.000  
  20859280.315   109616249.927       -1943.934          46.000  
  19626232.661   103136547.469        1898.220          46.000  
  21931443.009   115250525.040        1213.368          42.000  
  22333413.493   117362883.219         546.891          44.000  
  24885659.026   130775028.859        2921.547          40.000  
  21888509.915   115024899.121       -2743.395          43.000  
  24746277.567   130042549.190       -2378.142          41.000  
  24075748.476   126518883.265       -3590.872          42.000  
  22549437.496   118498147.1452       3038.145          28.000  
  23288828.813   122383670.019        2590.636          41.000  
  22314549.528   117263738.644        -194.133          42.000  
  24242164.657   127393383.817        2370.888          44.000  
 23 12 19 12  0 28.9970000  0 17G12G13E25G23G15G22G24G17E 2E30G14E 3
                                G 5G19G10E 8E 7
  23195507.858   121893242.157        4118.479          41.000  
  20184227.018   106068814.191       -2316.752          47.000  
  24446428.146   128466857.272       -2018.805          43.000  
  21341995.227   112152951.362         391.463          45.000  
  19081947.369   100276302.755        -691.042          47.000  
  20859650.347   109618193.635       -1944.163          46.000  
  19625871.424   103134649.048        1898.050          46.000  
  21931212.003   115249311.632        1212.931          42.000  
  22333309.350   117362336.321         546.720          44.000  
  24885103.446   130772107.246        2921.492          41.000  
  21889032.008   115027642.242       -2743.325          43.000  
  24746730.190   130044926.832       -2377.649          40.000  
  24076431.626   126522473.805       -3590.455          42.000  
  22548856.893   118495108.6142       3038.195          28.000  
  23288335.958   122381079.367        2590.245          41.000  
  22314586.016   117263932.628        -194.237          43.000  
  24241713.316   127391012.676        2370.975          44.000  
 23 12 19 12  0 29.9970000  0 17G12G13E25G23G15G22G24G17E 2E30G14E 3
                                G 5G19G10E 8E 7
  23194724.334   121889123.806        4118.328          41.000  
  20184667.924   106071131.002       -2316.919          47.000  
  24446812.347   128468876.230       -2019.127          43.000  
  21341921.116   112152559.953         391.242          45.000  
  19082078.507   100276994.179        -691.532          47.000  
  20860020.117   109620137.699       -1944.375          46.000  
  19625510.353   103132750.988        1897.883          46.000  
  21930981.005   115248098.742        1212.498          42.000  
  22333205.416   117361789.793         546.329          44.000  
  24884547.700   130769185.788        2921.271          40.000  
  21889554.136   115030385.620       -2743.535          43.000  
  24747182.840   130047304.648       -2378.282          41.000  
  24077115.002   126526064.254       -3590.652          42.000  
  22548282.755   118492070.3712       3037.902          28.000  
  23287843.111   122378489.145        2590.099          41.000  
  22314622.871   117264126.935        -194.655          43.000  
  24241261.992   127388641.670        2370.983          44.000  
 23 12 19 12  0 30.9970000  0 17G12G13E25G23G15G22G24G17E 2E30G14E 3
                                G 5G19G10E 8E 7
  23193940.322   121885005.558        4117.969          41.000  
  20185108.629   106073448.194       -2317.524          46.000  
  24447196.732   128470895.402       -2019.251          43.000  
  21341846.822   112152169.236         390.230          45.000  
  19082210.291   100277686.243        -692.634          47.000  
  20860390.071   109622082.173       -1944.745          46.000  
  19625149.334   103130853.308        1897.546          46.000  
  21930750.069   115246886.399        1211.867          42.000  
  22333101.587   117361243.658         546.047          44.000  
  24883991.893   130766264.508        2921.243          40.000  
  21890076.185   115033129.283       -2743.712          43.000  
  24747635.412   130049682.620       -2378.166          41.000  
  24077798.161   126529654.612       -3590.445          43.000  
  22547706.993   118489032.4242       3037.616          29.000  
  23287350.282   122375899.392        2589.276          41.000  
  22314659.927   117264321.602        -194.915          43.000  
  24240810.747   127386270.875        2370.658          44.000  
 23 12 19 12  0 31.9970000  0 17G12G13E25G23G15G22G24G17E 2E30G14E 3
                                G 5G19G10E 8E 7
  23193156.458   121880887.227        4118.716          39.000  
  20185549.378   106075765.592       -2317.300          46.000  
  24447581.160   128472914.634       -2019.302          43.000  
  21341772.170   112151779.016         389.974          45.000  
  19082341.875   100278378.732        -692.661          47.000  
  20860760.216   109624026.893       -1945.059          46.000  
  19624788.263   103128955.866        1897.566          46.000  
  21930519.351   115245674.384        1212.083          42.000  
  22332997.584   117360697.758         545.864          44.000  
  24883436.339   130763343.290        2921.069          40.000  
  21890598.279   115035873.063       -2743.716          43.000  
  24748088.411   130052060.630       -2378.239          41.000  
  24078481.695   126533244.763       -3589.933          41.000  
  22547132.672   118485994.5352       3038.185          29.000  
  23286857.479   122373309.930        2589.138          41.000  
  22314697.061   117264516.434        -194.693          43.000  
  24240359.493   127383900.052        2370.904          44.000  
 23 12 19 12  0 32.9970000  0 17G12G13E25G23G15G22G24G17E 2E30G14E 3
                                G 5G19G10E 8E 7
  23192372.542   121876768.738        4118.905          41.000  
  20185990.188   106078083.125       -2317.514          46.000  
  24447965.004   128474933.824       -2018.989          43.000  
  21341697.945   112151389.195         389.710          45.000  
  19082473.798   100279071.608        -692.981          47.000  
  20861130.248   109625971.740       -1944.766          46.000  
  19624427.087   103127058.543        1897.443          46.000  
  21930288.877   115244462.696        1211.868          42.000  
  22332893.267   117360152.012         545.784          44.000  
  24882880.148   130760421.998        2921.306          41.000  
  21891120.468   115038616.877       -2743.689          44.000  
  24748541.008   130054438.546       -2377.728          41.000  
  24079164.818   126536834.557       -3589.754          41.000  
  22546555.663   118482956.7682       3037.455          29.000  
  23286364.938   122370720.639        2589.732          41.000  
  22314734.369   117264711.391        -194.906          43.000  
  24239908.195   127381529.179        2370.946          44.000  
 23 12 19 12  0 33.9970000  0 17G12G13E25G23G15G22G24G17E 2E30G14E 3
                                G 5G19G10E 8E 7
  23191588.818   121872650.402        4117.954          39.000  
  20186431.495   106080401.021       -2318.151          47.000  
  24448349.476   128476953.223       -2019.710          43.000  
  21341623.729   112151000.062         388.628          45.000  
  19082605.722   100279765.092        -694.091          46.000  
  20861500.585   109627917.003       -1945.591          46.000  
  19624066.103   103125161.604        1896.661          46.000  
  21930058.482   115243251.524        1210.656          41.000  
  22332789.682   117359606.670         544.760          44.000  
  24882324.324   130757500.862        2920.766          41.000  
  21891642.726   115041360.975       -2744.198          43.000  
  24748993.239   130056816.613       -2378.446          41.000  
  24079848.125   126540424.231       -3589.741          41.000  
  22545980.652   118479919.2272       3036.820          29.000  
  23285872.100   122368131.813        2588.553          41.000  
  22314771.931   117264906.703        -195.896          43.000  
  24239457.212   127379158.456        2370.405          44.000  
 23 12 19 12  0 34.9970000  0 17G12G13E25G23G15G22G24G17E 2E30G14E 3
                                G 5G19G10E 8E 7
  23190805.242   121868532.692        4117.452          39.000  
  20186872.480   106082719.840       -2319.085          47.000  
  24448733.625   128478973.379       -2020.254          43.000  
  21341549.836   112150612.138         387.470          45.000  
  19082738.065   100280459.731        -694.995          47.000  
  20861871.001   109629863.223       -1946.632          46.000  
  19623705.023   103123265.602        1895.549          46.000  
  21929827.895   115242041.447        1209.765          41.000  
  22332686.246   117359062.247         544.085          44.000  
  24881768.334   130754580.480        2920.177          41.000  
  21892165.177   115044105.908       -2745.243          44.000  
  24749445.976   130059195.424       -2379.074          40.000  
  24080531.092   126544014.385       -3589.976          40.000  
  22545403.407   118476882.5012       3036.635          29.000  
  23285379.716   122365543.969        2587.540          41.000  
  22314809.554   117265102.882        -196.326          43.000  
  24239006.385   127376788.460        2370.018          43.000  
 23 12 19 12  0 35.9970000  0 17G12G13E25G23G15G22G24G17E 2E30G14E 3
                                G 5G19G10E 8E 7
  23190021.876   121864415.054        4117.577          40.000  
  20187313.543   106085039.005       -2319.359          47.000  
  24449118.140   128480993.731       -2020.445          43.000  
  21341475.917   112150224.836         386.944          45.000  
  19082870.233   100281154.972        -695.383          47.000  
  20862241.478   109631809.797       -1946.693          46.000  
  19623344.135   103121369.940        1895.495          46.000  
  21929597.823   115240831.873        1209.291          42.000  
  22332582.723   117358518.206         543.906          44.000  
  24881212.605   130751660.259        2920.207          40.000  
  21892687.715   115046851.072       -2745.190          44.000  
  24749898.722   130061574.404       -2379.158          40.000  
  24081213.971   126547604.433       -3589.936          41.000  
  22544826.730   118473846.0892       3036.218          29.000  
  23284887.437   122362956.562        2587.187          41.000  
  22314847.011   117265299.405        -196.555          43.000  
  24238555.306   127374418.620        2369.878          43.000  
 23 12 19 12  0 36.9970000  0 17G12G13E25G23G15G22G24G17E 2E30G14E 3
                                G 5G19G10E 8E 7
  23189238.370   121860297.643        4117.680          39.000  
  20187754.614   106087358.663       -2319.789          47.000  
  24449503.188   128483014.406       -2020.548          43.000  
  21341402.234   112149838.332         386.314          45.000  
  19083002.863   100281850.946        -695.965          47.000  
  20862611.789   109633756.894       -1947.262          46.000  
  19622982.985   103119474.791        1895.068          46.000  
  21929367.802   115239622.952        1208.548          42.000  
  22332479.304   117357974.672         543.554          44.000  
  24880656.162   130748740.346        2919.926          40.000  
  21893210.114   115049596.647       -2745.462          44.000  
  24750351.425   130063953.670       -2379.156          39.000  
  24081897.427   126551194.523       -3590.030          41.000  
  22544251.597   118470810.0812       3035.686          29.000  
  23284395.297   122360369.735        2586.704          41.000  
  22314884.703   117265496.394        -196.910          44.000  
  24238104.436   127372049.060        2369.847          43.000  
 23 12 19 12  0 37.9970000  0 17G12G13E25G23G15G22G24G17E 2E30G14E 3
                                G 5G19G10E 8E 7
  23188455.248   121856180.166        4116.924          40.000  
  20188195.887   106089678.512       -2320.428          47.000  
  24449887.546   128485035.117       -2021.185          43.000  
  21341328.707   112149452.318         385.336          45.000  
  19083135.458   100282547.364        -697.054          47.000  
  20862982.501   109635704.204       -1947.822          46.000  
  19622622.019   103117579.843        1894.307          46.000  
  21929138.097   115238414.380        1208.180          42.000  
  22332376.156   117357431.373         542.773          44.000  
  24880100.329   130745820.428        2919.460          40.000  
  21893732.512   115052342.323       -2746.275          44.000  
  24750804.205   130066332.938       -2379.631          39.000  
  24082580.699   126554784.344       -3590.264          41.000  
  22543678.584   118467774.1222       3035.894          29.000  
  23283903.332   122357783.182        2585.969          41.000  
  22314921.950   117265693.567        -197.737          44.000  
  24237653.208   127369679.501        2369.300          43.000  
 23 12 19 12  0 38.9970000  0 17G12G13E25G23G15G22G24G17E 2E30G14E 3
                                G 5G19G10E 8E 7
  23187671.628   121852062.714        4117.055          40.000  
  20188637.212   106091998.662       -2320.578          47.000  
  24450272.088   128487055.960       -2021.153          43.000  
  21341255.268   112149066.896         385.010          45.000  
  19083268.054   100283244.319        -697.498          47.000  
  20863353.222   109637651.849       -1948.156          46.000  
  19622261.279   103115685.190        1894.433          46.000  
  21928908.364   115237206.274        1207.545          42.000  
  22332273.121   117356888.378         542.760          44.000  
  24879544.626   130742900.631        2919.458          40.000  
  21894255.068   115055088.189       -2746.201          44.000  
  24751256.951   130068712.295       -2379.718          39.000  
  24083263.883   126558373.970       -3589.811          41.000  
  22543104.359   118464738.4332       3035.621          29.000  
  23283411.122   122355197.005        2585.918          41.000  
  22314959.800   117265891.012        -197.874          44.000  
  24237202.129   127367310.042        2369.171          43.000  
 23 12 19 12  0 39.9970000  0 17G12G13E25G23G15G22G24G17E 2E30G14E 3
                                G 5G19G10E 8E 7
  23186888.105   121847945.220        4117.256          40.000  
  20189078.624   106094319.042       -2320.596          47.000  
  24450656.674   128489076.876       -2021.139          43.000  
  21341181.942   112148682.009         384.484          45.000  
  19083400.937   100283941.767        -697.872          47.000  
  20863723.804   109639599.743       -1948.221          46.000  
  19621900.286   103113790.804        1893.991          46.000  
  21928678.414   115235998.557        1207.336          42.000  
  22332169.929   117356345.648         542.417          44.000  
  24878988.837   130739980.895        2919.308          40.000  
  21894777.737   115057834.208       -2746.261          44.000  
  24751709.811   130071091.724       -2379.668          39.000  
  24083946.937   126561963.399       -3589.375          41.000  
  22542530.290   118461702.9092       3034.970          29.000  
  23282919.183   122352611.170        2585.324          41.000  
  22314997.519   117266088.670        -198.156          44.000  
  24236751.555   127364940.619        2369.177          43.000  
 23 12 19 12  0 40.9970000  0 17G12G13E25G23G15G22G24G17E 2E30G14E 3
                                G 5G19G10E 8E 7
  23186104.442   121843827.832        4116.970          40.000  
  20189520.097   106096639.812       -2321.167          46.000  
  24451041.329   128491098.008       -2021.593          43.000  
  21341108.957   112148297.772         383.547          45.000  
  19083534.013   100284639.801        -698.706          47.000  
  20864094.734   109641548.034       -1948.763          46.000  
  19621539.782   103111896.811        1893.368          45.000  
  21928448.734   115234791.381        1206.740          40.000  
  22332066.912   117355803.309         541.962          44.000  
  24878433.554   130737061.299        2919.153          41.000  
  21895300.266   115060580.486       -2746.643          44.000  
  24752162.495   130073471.341       -2380.100          41.000  
  24084629.494   126565552.748       -3589.663          41.000  
  22541949.564   118458667.6672       3033.766          29.000  
  23282427.523   122350025.779        2584.722          41.000  
  22315034.984   117266286.684        -198.575          43.000  
  24236300.555   127362571.356        2368.847          44.000  
 23 12 19 12  0 41.9970000  0 17G12G13E25G23G15G22G24G17E 2E30G14E 3
                                G 5G19G10E 8E 7
  23185320.822   121839710.677        4117.300          40.000  
  20189961.474   106098961.100       -2321.624          46.000  
  24451426.272   128493119.508       -2021.857          43.000  
  21341035.945   112147914.366         382.992          45.000  
  19083667.036   100285338.604        -699.000          47.000  
  20864465.656   109643496.900       -1949.275          46.000  
  19621179.767   103110003.339        1892.928          45.000  
  21928219.159   115233584.878        1206.151          40.000  
  22331964.086   117355261.538         541.355          44.000  
  24877878.165   130734142.102        2918.986          41.000  
  21895823.135   115063327.228       -2747.298          44.000  
  24752615.468   130075851.245       -2379.887          41.000  
  24085312.827   126569142.185       -3589.653          41.000  
  22541376.491   118455632.7672       3034.469          29.000  
  23281935.663   122347440.975        2584.425          42.000  
  22315072.441   117266485.196        -198.939          43.000  
  24235849.763   127360202.433        2368.702          44.000  
 23 12 19 12  0 42.9970000  0 17G12G13E25G23G15G22G24G17E 2E30G14E 3
                                G 5G19G10E 8E 7
  23184537.229   121835593.690        4117.103          40.000  
  20190403.034   106101282.807       -2321.819          46.000  
  24451810.988   128495141.249       -2021.583          43.000  
  21340962.959   112147531.665         382.320          45.000  
  19083800.408   100286038.094        -699.559          47.000  
  20864836.552   109645446.191       -1949.445          46.000  
  19620819.638   103108110.274        1892.757          45.000  
  21927989.558   115232378.973        1205.815          41.000  
  22331860.781   117354720.186         541.202          44.000  
  24877323.214   130731223.114        2918.858          41.000  
  21896345.927   115066074.268       -2747.341          44.000  
  24753068.554   130078231.389       -2380.310          41.000  
  24085995.811   126572731.561       -3589.240          41.000  
  22540805.057   118452598.295        3034.416          29.000  
  23281443.933   122344856.660        2584.217          42.000  
  22315109.785   117266684.088        -198.889          42.000  
  24235398.684   127357833.718        2368.791          44.000  
 23 12 19 12  0 43.9970000  0 17G12G13E25G23G15G22G24G17E 2E30G14E 3
                                G 5G19G10E 8E 7
  23183753.906   121831476.771        4116.994          40.000  
  20190844.978   106103604.865       -2322.354          46.000  
  24452195.800   128497163.217       -2022.212          43.000  
  21340890.271   112147149.608         381.722          45.000  
  19083933.509   100286738.182        -700.461          47.000  
  20865207.639   109647395.869       -1950.033          46.000  
  19620459.439   103106217.579        1892.523          45.000  
  21927760.393   115231173.567        1205.077          41.000  
  22331757.938   117354179.214         540.857          44.000  
  24876767.843   130728304.290        2918.822          41.000  
  21896868.657   115068821.577       -2747.468          44.000  
  24753521.379   130080611.676       -2380.589          41.000  
  24086678.856   126576320.836       -3589.277          41.000  
  22540243.003   118449564.080        3034.027          29.000  
  23280952.422   122342272.812        2583.538          42.000  
  22315147.634   117266883.329        -199.339          42.000  
  24234948.189   127355465.162        2368.463          44.000  
 23 12 19 12  0 44.9970000  0 17G12G13E25G23G15G22G24G17E 2E30G14E 3
                                G 5G19G10E 8E 7
  23182970.618   121827360.060        4116.838          40.000  
  20191286.783   106105927.378       -2322.615          45.000  
  24452580.691   128499185.448       -2022.104          43.000  
  21340817.922   112146768.302         380.951          45.000  
  19084066.960   100287438.960        -701.155          47.000  
  20865578.579   109649346.029       -1950.203          46.000  
  19620099.258   103104325.363        1892.119          45.000  
  21927531.010   115229968.803        1204.536          41.000  
  22331654.833   117353638.728         540.363          44.000  
  24876212.089   130725385.748        2918.546          41.000  
  21897391.622   115071569.252       -2747.637          44.000  
  24753974.386   130082992.236       -2380.771          40.000  
  24087361.962   126579910.097       -3589.072          41.000  
  22539662.574   118446530.187        3033.911          28.000  
  23280460.884   122339689.476        2583.574          42.000  
  22315185.423   117267083.006        -199.689          42.000  
  24234497.441   127353096.862        2368.173          44.000  
 23 12 19 12  0 45.9970000  0 16G12G13E25G23G15G22G24G17E 2E30G14E 3
                                G 5G10E 8E 7
  23182187.278   121823243.311        4116.595          40.000  
  20191728.797   106108250.139       -2322.921          45.000  
  24452965.651   128501207.792       -2022.441          43.000  
  21340745.277   112146387.524         380.427          45.000  
  19084200.402   100288140.224        -701.656          47.000  
  20865949.562   109651296.470       -1950.716          46.000  
  19619739.156   103102433.408        1891.505          45.000  
  21927301.985   115228764.445        1203.821          41.000  
  22331552.436   117353098.520         539.960          44.000  
  24875656.552   130722467.271        2918.315          41.000  
  21897914.780   115074317.077       -2748.153          44.000  
  24754427.350   130085372.822       -2380.755          41.000  
  24088045.077   126583499.196       -3589.325          41.000  
  23279969.538   122337106.484        2582.803          42.000  
  22315223.124   117267282.903        -200.044          42.000  
  24234046.693   127350728.603        2368.129          43.000  
 23 12 19 12  0 46.9970000  0 16G12G13E25G23G15G22G24G17E 2E30G14E 3
                                G 5G10E 8E 7
  23181403.981   121819126.739        4116.782          40.000  
  20192170.671   106110573.362       -2323.271          45.000  
  24453350.734   128503230.417       -2022.762          43.000  
  21340673.181   112146007.514         379.871          45.000  
  19084334.000   100288842.194        -702.090          47.000  
  20866320.850   109653247.379       -1950.899          46.000  
  19619379.306   103100541.914        1891.314          45.000  
  21927072.820   115227560.686        1203.743          41.000  
  22331449.793   117352558.789         539.525          44.000  
  24875101.382   130719549.052        2918.392          41.000  
  21898437.510   115077065.253       -2748.114          44.000  
  24754880.297   130087753.695       -2381.082          40.000  
  24088728.236   126587088.260       -3588.803          41.000  
  23279478.114   122334524.029        2582.268          42.000  
  22315261.095   117267483.232        -200.467          42.000  
  24233596.225   127348360.601        2367.960          43.000  
 23 12 19 12  0 47.9970000  0 16G12G13E25G23G15G22G24G17E 2E30G14E 3
                                G 5G10E 8E 7
  23180620.580   121815010.233        4116.592          40.000  
  20192612.842   106112896.900       -2323.564          45.000  
  24453735.764   128505253.212       -2022.669          43.000  
  21340601.173   112145628.119         379.169          45.000  
  19084467.608   100289544.744        -702.723          47.000  
  20866692.382   109655198.656       -1951.355          46.000  
  19619019.282   103098650.747        1891.014          45.000  
  21926844.091   115226357.431        1202.993          41.000  
  22331347.465   117352019.398         539.186          44.000  
  24874546.012   130716630.997        2918.037          41.000  
  21898960.475   115079813.671       -2748.432          44.000  
  24755333.645   130090134.669       -2380.734          40.000  
  24089411.229   126590677.220       -3588.841          41.000  
  23278986.812   122331941.967        2581.966          42.000  
  22315299.285   117267683.855        -200.601          42.000  
  24233145.398   127345992.735        2367.676          43.000  
 23 12 19 12  0 48.9970000  0 16G12G13E25G23G15G22G24G17E 2E30G14E 3
                                G 5G10E 8E 7
  23179837.292   121810893.853        4116.426          40.000  
  20193054.978   106115220.816       -2323.856          45.000  
  24454120.420   128507276.219       -2023.185          43.000  
  21340529.540   112145249.387         378.664          45.000  
  19084601.259   100290247.906        -703.377          47.000  
  20867063.671   109657150.318       -1951.607          46.000  
  19618659.737   103096759.974        1890.725          45.000  
  21926615.458   115225154.716        1202.739          41.000  
  22331244.980   117351480.412         538.821          44.000  
  24873990.475   130713713.123        2917.767          41.000  
  21899483.563   115082562.357       -2748.589          44.000  
  24755786.356   130092515.848       -2381.347          40.000  
  24090094.370   126594266.097       -3588.757          40.000  
  23278495.666   122329360.340        2581.661          42.000  
  22315337.458   117267884.845        -201.062          42.000  
  24232694.310   127343625.035        2367.574          43.000  
 23 12 19 12  0 49.9970000  0 16G12G13E25G23G15G22G24G17E 2E30G14E 3
                                G 5G10E 8E 7
  23179053.978   121806777.309        4116.270          40.000  
  20193497.246   106117544.861       -2324.345          46.000  
  24454505.337   128509299.183       -2023.084          43.000  
  21340457.837   112144871.078         377.792          45.000  
  19084734.745   100290951.425        -703.991          47.000  
  20867434.627   109659102.140       -1952.110          46.000  
  19618300.010   103094869.341        1890.354          45.000  
  21926386.921   115223952.290        1201.965          41.000  
  22331142.137   117350941.563         538.425          44.000  
  24873435.375   130710795.168        2917.906          41.000  
  21900006.895   115085311.086       -2748.978          44.000  
  24756239.329   130094896.935       -2381.175          40.000  
  24090777.406   126597854.634       -3588.678          40.000  
  23278004.486   122326778.933        2581.090          42.000  
  22315375.508   117268085.922        -201.313          42.000  
  24232243.728   127341257.234        2367.724          43.000  
 23 12 19 12  0 50.9970000  0 16G12G13E25G23G15G22G24G17E 2E30G14E 3
                                G 5G10E 8E 7
  23178270.899   121802660.989        4115.945          41.000  
  20193939.818   106119869.418       -2325.281          45.000  
  24454890.349   128511322.495       -2023.792          43.000  
  21340385.889   112144493.567         376.730          45.000  
  19084868.675   100291655.696        -704.926          47.000  
  20867806.195   109661054.496       -1952.865          46.000  
  19617940.326   103092979.210        1889.697          45.000  
  21926158.114   115222750.515        1201.116          41.000  
  22331039.600   117350403.257         537.689          44.000  
  24872880.598   130707877.571        2916.939          41.000  
  21900530.018   115088060.224       -2749.536          44.000  
  24756692.677   130097278.334       -2381.826          40.000  
  24091460.373   126601443.200       -3588.784          40.000  
  23277513.490   122324198.121        2580.193          42.000  
  22315414.282   117268287.492        -202.215          42.000  
  24231792.867   127338889.776        2366.986          43.000  
 23 12 19 12  0 51.9970000  0 16G12G13E25G23G15G22G24G17E 2E30G14E 3
                                G 5G10E 8E 7
  23177488.021   121798545.195        4115.839          41.000  
  20194382.408   106122194.729       -2325.255          45.000  
  24455275.362   128513346.425       -2023.890          43.000  
  21340314.649   112144117.122         376.333          46.000  
  19085002.902   100292360.999        -705.489          47.000  
  20868177.719   109663007.655       -1953.179          46.000  
  19617580.747   103091089.877        1889.382          45.000  
  21925929.595   115221549.699        1200.695          41.000  
  22330937.394   117349865.738         537.543          44.000  
  24872325.611   130704960.529        2917.072          41.000  
  21901052.887   115090810.029       -2749.623          44.000  
  24757145.728   130099660.313       -2381.819          41.000  
  24092143.531   126605032.117       -3588.893          40.000  
  23277022.632   122321618.161        2579.954          42.000  
  22315452.664   117268489.817        -202.354          42.000  
  24231342.747   127336522.879        2367.102          43.000  
 23 12 19 12  0 52.9970000  0 16G12G13E25G23G15G22G24G17E 2E30G14E 3
                                G 5G10E 8E 7
  23176705.257   121794429.525        4115.761          41.000  
  20194824.797   106124520.471       -2325.854          45.000  
  24455660.558   128515370.609       -2024.299          43.000  
  21340243.251   112143741.398         375.397          46.000  
  19085137.216   100293066.959        -706.150          47.000  
  20868549.670   109664961.258       -1953.821          46.000  
  19617221.351   103089200.964        1888.850          46.000  
  21925701.320   115220349.446        1200.062          41.000  
  22330835.485   117349328.666         536.900          44.000  
  24871770.868   130702043.737        2916.713          41.000  
  21901575.984   115093560.176       -2750.174          44.000  
  24757599.085   130102042.520       -2382.220          41.000  
  24092826.655   126608620.970       -3588.719          40.000  
  23276531.828   122319038.680        2579.380          42.000  
  22315491.089   117268692.532        -202.900          42.000  
  24230892.261   127334156.204        2366.604          43.000  
 23 12 19 12  0 53.9970000  0 16G12G13E25G23G15G22G24G17E 2E30G14E 3
                                G 5G10E 8E 7
  23175922.606   121790313.776        4115.734          41.000  
  20195267.570   106126846.372       -2325.833          46.000  
  24456045.789   128517394.784       -2023.972          43.000  
  21340171.915   112143366.118         375.098          46.000  
  19085271.705   100293773.337        -706.497          47.000  
  20868921.325   109666915.042       -1953.836          46.000  
  19616862.164   103087312.228        1888.691          46.000  
  21925472.984   115219149.535        1199.827          41.000  
  22330733.087   117348791.769         536.940          44.000  
  24871215.864   130699126.924        2916.689          41.000  
  21902099.691   115096310.387       -2750.416          44.000  
  24758052.511   130104424.707       -2382.350          41.000  
  24093509.403   126612209.527       -3588.486          40.000  
  23276041.110   122316459.453        2578.914          42.000  
  22315529.995   117268895.396        -202.923          42.000  
  24230441.400   127331789.505        2366.580          43.000  
 23 12 19 12  0 54.9970000  0 16G12G13E25G23G15G22G24G17E 2E30G14E 3
                                G 5G10E 8E 7
  23175139.580   121786198.004        4115.797          41.000  
  20195710.300   106129172.546       -2326.364          45.000  
  24456431.012   128519419.087       -2024.625          43.000  
  21340100.692   112142991.410         374.412          46.000  
  19085406.168   100294480.227        -707.268          47.000  
  20869293.302   109668869.104       -1954.196          46.000  
  19616502.786   103085423.765        1887.975          46.000  
  21925244.682   115217950.050        1199.128          41.000  
  22330630.977   117348255.190         536.114          44.000  
  24870661.104   130696210.192        2916.617          41.000  
  21902623.154   115099060.767       -2750.790          44.000  
  24758506.208   130106806.930       -2382.457          41.000  
  24094192.274   126615797.905       -3588.713          40.000  
  23275550.506   122313880.582        2578.403          42.000  
  22315568.813   117269098.490        -203.443          42.000  
  24229990.896   127329422.859        2366.371          43.000  
 23 12 19 12  0 55.9970000  0 16G12G13E25G23G15G22G24G17E 2E30G14E 3
                                G 5G10E 8E 7
  23174356.781   121782082.697        4114.730          41.000  
  20196152.924   106131499.449       -2327.686          46.000  
  24456816.269   128521443.941       -2025.492          43.000  
  21340029.486   112142617.733         372.801          46.000  
  19085540.997   100295188.076        -708.657          47.000  
  20869665.001   109670823.939       -1955.334          46.000  
  19616143.817   103083536.035        1887.211          46.000  
  21925016.765   115216751.461        1197.906          41.000  
  22330528.788   117347719.334         535.180          44.000  
  24870106.353   130693294.002        2915.678          41.000  
  21903146.730   115101811.770       -2751.678          44.000  
  24758959.730   130109189.710       -2383.337          41.000  
  24094875.127   126619386.529       -3588.896          40.000  
  23275059.911   122311302.499        2577.584          42.000  
  22315607.971   117269302.298        -204.353          42.000  
  24229540.960   127327056.731        2365.635          43.000  
 23 12 19 12  0 56.9970000  0 16G12G13E25G23G15G22G24G17E 2E30G14E 3
                                G 5G10E 8E 7
  23173573.920   121777967.598        4115.139          42.000  
  20196595.907   106133826.830       -2327.740          46.000  
  24457201.648   128523469.123       -2025.359          43.000  
  21339958.525   112142244.823         372.162          45.000  
  19085676.088   100295896.660        -709.056          47.000  
  20870037.432   109672779.296       -1955.854          46.000  
  19615784.674   103081648.821        1886.628          46.000  
  21924788.604   115215553.530        1197.325          41.000  
  22330426.417   117347184.012         534.839          44.000  
  24869551.794   130690378.126        2915.546          41.000  
  21903670.420   115104563.175       -2751.712          44.000  
  24759413.270   130111572.770       -2383.358          41.000  
  24095557.937   126622975.210       -3588.932          40.000  
  23274569.734   122308724.978        2577.016          42.000  
  22315646.623   117269506.587        -204.614          42.000  
  24229091.032   127324690.909        2365.588          43.000  
 23 12 19 12  0 57.9970000  0 16G12G13E25G23G15G22G24G17E 2E30G14E 3
                                G 5G10E 8E 7
  23172791.103   121773852.716        4114.533          41.000  
  20197039.081   106136154.681       -2328.546          46.000  
  24457586.905   128525494.603       -2026.029          43.000  
  21339887.511   112141872.644         371.545          45.000  
  19085811.231   100296605.950        -710.016          47.000  
  20870409.933   109674735.122       -1956.420          46.000  
  19615425.959   103079762.053        1886.196          46.000  
  21924560.712   115214356.194        1196.807          41.000  
  22330324.821   117346649.155         534.252          44.000  
  24868996.964   130687462.508        2915.162          41.000  
  21904193.926   115107314.939       -2752.136          44.000  
  24759867.229   130113956.093       -2383.698          41.000  
  24096240.729   126626563.873       -3589.135          41.000  
  23274079.391   122306148.005        2576.211          42.000  
  22315685.267   117269711.305        -205.230          42.000  
  24228640.703   127322325.330        2365.204          43.000  
 23 12 19 12  0 58.9970000  0 16G12G13E25G23G15G22G24G17E 2E30G14E 3
                                G 5G10E 8E 7
  23172008.077   121769737.790        4115.027          41.000  
  20197482.291   106138482.778       -2328.224          46.000  
  24457972.276   128527520.161       -2025.399          43.000  
  21339816.393   112141501.033         371.329          45.000  
  19085946.523   100297315.731        -709.842          47.000  
  20870782.356   109676691.218       -1956.183          46.000  
  19615067.156   103077875.551        1886.560          46.000  
  21924333.066   115213159.287        1197.009          41.000  
  22330223.130   117346114.580         534.429          44.000  
  24868442.065   130684546.972        2915.462          41.000  
  21904717.721   115110066.872       -2751.998          44.000  
  24760320.804   130116339.463       -2383.314          41.000  
  24096923.477   126630152.336       -3588.428          40.000  
  23273589.407   122303571.365        2576.562          42.000  
  22315724.416   117269916.236        -205.098          42.000  
  24228190.758   127319959.806        2365.586          43.000  
 23 12 19 12  0 59.9970000  0 16G12G13E25G23G15G22G24G17E 2E30G14E 3
                                G 5G10E 8E 7
  23171224.964   121765622.820        4114.924          41.000  
  20197925.526   106140811.086       -2328.523          46.000  
  24458357.734   128529545.796       -2025.821          43.000  
  21339745.432   112141129.927         370.688          45.000  
  19086081.744   100298025.979        -710.379          47.000  
  20871154.612   109678647.567       -1956.580          46.000  
  19614708.415   103075989.296        1886.060          46.000  
  21924105.253   115211962.767        1196.268          41.000  
  22330121.570   117345580.243         533.882          44.000  
  24867887.593   130681631.470        2915.159          42.000  
  21905241.140   115112818.914       -2752.235          44.000  
  24760774.178   130118722.879       -2383.639          41.000  
  24097606.139   126633740.581       -3588.383          40.000  
  23273099.160   122300995.022        2576.157          42.000  
  22315763.313   117270121.372        -205.289          42.000  
  24227740.481   127317594.314        2365.321          42.000  
 23 12 19 12  1  0.9970000  0 16G12G13E25G23G15G22G24G17E 2E30G14E 3
                                G 5G10E 8E 7
  23170441.606   121761508.003        4114.936          41.000  
  20198368.613   106143139.814       -2328.894          46.000  
  24458743.331   128531571.668       -2025.908          43.000  
  21339674.898   112140759.529         370.109          45.000  
  19086217.254   100298736.903        -711.157          47.000  
  20871527.288   109680604.359       -1956.893          46.000  
  19614350.014   103074103.464        1885.446          46.000  
  21923877.711   115210766.823        1195.777          41.000  
  22330020.018   117345046.342         533.666          44.000  
  24867332.973   130678716.177        2915.275          42.000  
  21905765.031   115115571.284       -2752.645          44.000  
  24761227.683   130121106.491       -2383.847          41.000  
  24098288.966   126637328.755       -3588.176          40.000  
  23272609.045   122298419.185        2575.719          42.000  
  22315802.392   117270326.904        -205.606          42.000  
  24227290.553   127315229.029        2365.067          42.000  
 23 12 19 12  1  1.9970000  0 16G12G13E25G23G15G22G24G17E 2E30G14E 3
                                G 5G10E 8E 7
  23169658.519   121757393.111        4115.279          41.000  
  20198812.058   106145468.759       -2328.818          46.000  
  24459128.955   128533597.615       -2025.796          43.000  
  21339604.242   112140389.632         370.129          45.000  
  19086352.816   100299448.255        -711.339          47.000  
  20871899.728   109682561.375       -1956.737          46.000  
  19613991.254   103072217.835        1885.887          46.000  
  21923650.247   115209571.238        1195.962          41.000  
  22329918.310   117344512.698         533.698          44.000  
  24866778.178   130675800.939        2915.454          41.000  
  21906288.965   115118323.755       -2752.085          44.000  
  24761681.109   130123490.132       -2383.494          41.000  
  24098971.548   126640916.695       -3587.586          41.000  
  23272118.921   122295843.632        2575.685          42.000  
  22315841.507   117270532.616        -205.416          42.000  
  24226840.434   127312863.759        2365.456          42.000  
 23 12 19 12  1  2.9970000  0 16G12G13E25G23G15G22G24G17E 2E30G14E 3
                                G 5G10E 8E 7
  23168875.405   121753278.341        4114.742          41.000  
  20199255.224   106147798.065       -2329.372          46.000  
  24459514.474   128535623.740       -2026.113          43.000  
  21339533.987   112140020.414         368.960          45.000  
  19086488.614   100300160.219        -712.210          47.000  
  20872272.229   109684518.790       -1957.474          46.000  
  19613632.373   103070332.608        1885.113          46.000  
  21923422.993   115208376.219        1194.941          42.000  
  22329816.523   117343979.408         533.165          44.000  
  24866222.912   130672885.864        2914.990          41.000  
  21906812.707   115121076.512       -2752.728          44.000  
  24762134.344   130125873.925       -2383.881          41.000  
  24099654.253   126644504.532       -3587.879          41.000  
  23271629.102   122293268.522        2574.800          43.000  
  22315880.918   117270738.683        -206.182          42.000  
  24226390.244   127310498.640        2365.209          42.000  
 23 12 19 12  1  3.9970000  0 16G12G13E25G23G15G22G24G17E 2E30G14E 3
                                G 5G10E 8E 7
  23168092.292   121749163.467        4115.190          41.000  
  20199698.521   106150127.569       -2329.325          46.000  
  24459899.897   128537649.905       -2025.935          43.000  
  21339463.803   112139651.673         368.739          45.000  
  19086624.490   100300872.627        -712.347          48.000  
  20872644.992   109686476.416       -1957.544          46.000  
  19613273.370   103068447.582        1885.188          46.000  
  21923195.669   115207181.568        1194.836          42.000  
  22329715.085   117343446.364         533.304          44.000  
  24865667.725   130669970.822        2915.270          41.000  
  21907336.475   115123829.363       -2752.691          44.000  
  24762588.049   130128257.723       -2383.406          41.000  
  24100336.731   126648092.120       -3587.370          40.000  
  23271139.248   122290693.701        2575.073          43.000  
  22315919.780   117270944.923        -206.069          42.000  
  24225940.439   127308133.532        2365.325          43.000  
 23 12 19 12  1  4.9970000  0 16G12G13E25G23G15G22G24G17E 2E30G14E 3
                                G 5G10E 8E 7
  23167309.109   121745048.575        4115.005          41.000  
  20200141.817   106152457.290       -2329.943          46.000  
  24460285.747   128539676.139       -2026.407          43.000  
  21339393.757   112139283.449         367.898          45.000  
  19086760.104   100301585.520        -713.245          47.000  
  20873017.851   109688434.292       -1958.010          46.000  
  19612914.890   103066562.782        1884.657          46.000  
  21922968.616   115205987.312        1193.687          42.000  
  22329613.551   117342913.566         532.528          44.000  
  24865112.354   130667055.785        2915.005          41.000  
  21907860.296   115126582.346       -2753.060          44.000  
  24763041.642   130130641.569       -2384.004          41.000  
  24101019.375   126651679.462       -3587.365          40.000  
  23270649.638   122288119.206        2574.094          43.000  
  22315959.418   117271151.355        -206.659          42.000  
  24225490.049   127305768.446        2364.993          43.000  
 23 12 19 12  1  5.9970000  0 16G12G13E25G23G15G22G24G17E 2E30G14E 3
                                G 5G10E 8E 7
  23166526.362   121740934.275        4113.908          41.000  
  20200585.184   106154787.884       -2331.126          46.000  
  24460671.746   128541703.069       -2027.312          43.000  
  21339323.956   112138916.387         366.450          45.000  
  19086896.268   100302299.515        -714.630          48.000  
  20873390.701   109690393.071       -1959.303          46.000  
  19612556.349   103064678.864        1883.433          46.000  
  21922741.510   115204794.066        1192.760          42.000  
  22329512.662   117342381.650         531.496          44.000  
  24864557.629   130664141.463        2914.012          41.000  
  21908384.587   115129336.092       -2754.063          44.000  
  24763495.862   130133026.087       -2384.953          41.000  
  24101701.905   126655267.230       -3588.042          40.000  
  23270159.985   122285545.664        2573.029          43.000  
  22315999.039   117271358.631        -207.655          42.000  
  24225040.330   127303404.037        2363.980          43.000  
 23 12 19 12  1  6.9970000  0 16G12G13E25G23G15G22G24G17E 2E30G14E 3
                                G 5G10E 8E 7
  23165743.641   121736820.069        4113.965          42.000  
  20201028.733   106157118.808       -2331.365          46.000  
  24461057.344   128543730.185       -2027.376          43.000  
  21339254.487   112138549.954         365.975          45.000  
  19087032.267   100303014.101        -714.946          47.000  
  20873763.429   109692352.198       -1959.424          46.000  
  19612197.512   103062795.278        1883.373          46.000  
  21922514.666   115203601.347        1192.529          43.000  
  22329412.035   117341850.085         531.387          45.000  
  24864002.110   130661227.284        2914.050          42.000  
  21908908.801   115132090.080       -2754.115          44.000  
  24763950.309   130135410.709       -2384.908          41.000  
  24102384.279   126658854.910       -3588.026          41.000  
  23269670.550   122282972.546        2572.816          42.000  
  22316038.581   117271566.225        -207.689          42.000  
  24224590.289   127301039.761        2364.092          43.000  
 23 12 19 12  1  7.9970000  0 16G12G13E25G23G15G22G24G17E 2E30G14E 3
                                G 5G10E 8E 7
  23164960.824   121732706.044        4113.725          42.000  
  20201472.388   106159450.225       -2331.968          46.000  
  24461443.185   128545757.631       -2027.887          43.000  
  21339185.027   112138184.301         365.037          45.000  
  19087168.701   100303729.418        -716.004          47.000  
  20874136.061   109694311.849       -1960.139          46.000  
  19611839.180   103060912.217        1882.522          46.000  
  21922287.778   115202409.261        1191.479          43.000  
  22329311.461   117341319.045         530.541          45.000  
  24863447.062   130658313.396        2913.451          41.000  
  21909432.979   115134844.470       -2754.726          44.000  
  24764403.998   130137795.632       -2385.159          41.000  
  24103066.731   126662442.592       -3588.391          41.000  
  23269180.889   122280399.994        2571.930          42.000  
  22316078.019   117271774.291        -208.401          42.000  
  24224140.388   127298675.776        2363.576          43.000  
 23 12 19 12  1  8.9970000  0 16G12G13E25G23G15G22G24G17E 2E30G14E 3
                                G 5G10E 8E 7
  23164178.060   121728592.162        4113.742          42.000  
  20201916.225   106161782.047       -2332.167          46.000  
  24461828.888   128547785.313       -2028.012          43.000  
  21339115.959   112137819.339         364.574          45.000  
  19087305.101   100304445.363        -716.232          47.000  
  20874509.007   109696271.916       -1960.333          46.000  
  19611480.779   103059029.543        1882.466          46.000  
  21922061.065   115201217.752        1191.179          43.000  
  22329210.477   117340788.434         530.286          44.000  
  24862892.608   130655399.733        2913.767          40.000  
  21909957.184   115137599.156       -2755.071          44.000  
  24764857.564   130140180.765       -2385.423          41.000  
  24103749.531   126666030.199       -3587.654          41.000  
  23268691.392   122277827.912        2571.801          42.000  
  22316117.683   117271982.741        -208.734          42.000  
  24223690.530   127296311.974        2363.599          43.000  
 23 12 19 12  1  9.9970000  0 16G12G13E25G23G15G22G24G17E 2E30G14E 3
                                G 5G10E 8E 7
  23163395.278   121724478.336        4113.994          42.000  
  20202360.063   106164114.190       -2332.365          46.000  
  24462214.616   128549813.148       -2027.927          43.000  
  21339046.245   112137455.013         363.987          45.000  
  19087441.422   100305161.904        -716.908          48.000  
  20874881.831   109698232.334       -1960.444          46.000  
  19611122.552   103057147.227        1882.202          46.000  
  21921834.404   115200026.723        1190.875          43.000  
  22329109.169   117340258.162         530.149          44.000  
  24862337.516   130652486.245        2913.352          40.000  
  21910481.484   115140354.075       -2754.810          44.000  
  24765311.566   130142566.035       -2385.376          41.000  
  24104432.114   126669617.669       -3587.504          42.000  
  23268201.731   122275256.231        2571.474          42.000  
  22316157.112   117272191.507        -208.783          42.000  
  24223240.698   127293948.325        2363.498          42.000  
 23 12 19 12  1 10.9970000  0 16G12G13E25G23G15G22G24G17E 2E30G14E 3
                                G 5G10E 8E 7
  23162612.723   121720364.654        4113.395          42.000  
  20202803.656   106166446.718       -2332.837          46.000  
  24462600.475   128551841.218       -2028.412          43.000  
  21338976.941   112137091.358         363.157          45.000  
  19087578.118   100305879.060        -717.637          48.000  
  20875255.073   109700193.174       -1961.382          46.000  
  19610764.509   103055265.295        1881.669          46.000  
  21921607.507   115198836.248        1189.934          43.000  
  22329008.115   117339728.304         529.562          44.000  
  24861783.236   130649572.922        2912.886          40.000  
  21911005.567   115143109.282       -2755.504          44.000  
  24765765.717   130144951.483       -2385.701          41.000  
  24105114.845   126673205.035       -3587.474          42.000  
  23267712.269   122272685.006        2570.783          42.000  
  22316196.924   117272400.618        -209.411          42.000  
  24222791.067   127291584.838        2363.379          42.000  
 23 12 19 12  1 11.9970000  0 16G12G13E25G23G15G22G24G17E 2E30G14E 3
                                G 5G10E 8E 7
  23161830.246   121716250.795        4113.914          42.000  
  20203247.485   106168779.354       -2332.815          46.000  
  24462986.256   128553869.228       -2028.125          43.000  
  21338907.847   112136728.100         362.906          45.000  
  19087714.649   100306596.570        -717.733          48.000  
  20875628.124   109702154.128       -1961.161          46.000  
  19610406.395   103053383.494        1881.640          46.000  
  21921381.030   115197646.052        1189.710          43.000  
  22328907.794   117339198.573         529.619          44.000  
  24861228.991   130646659.530        2913.143          40.000  
  21911529.972   115145864.510       -2755.520          45.000  
  24766219.544   130147336.855       -2385.558          41.000  
  24105797.445   126676792.081       -3586.853          42.000  
  23267223.253   122270113.992        2570.604          43.000  
  22316236.746   117272609.821        -209.366          42.000  
  24222341.009   127289221.280        2363.501          42.000  
 23 12 19 12  1 12.9970000  0 16G12G13E25G23G15G22G24G17E 2E30G14E 3
                                G 5G10E 8E 7
  23161047.334   121712137.214        4113.422          42.000  
  20203691.384   106171112.527       -2333.659          46.000  
  24463372.333   128555897.596       -2028.559          43.000  
  21338838.884   112136365.678         361.792          44.000  
  19087851.537   100307314.863        -718.855          48.000  
  20876001.367   109704115.655       -1962.001          46.000  
  19610048.352   103051502.239        1880.745          46.000  
  21921154.604   115196456.530        1189.062          43.000  
  22328807.054   117338669.406         528.773          44.000  
  24860674.711   130643746.490        2912.847          40.000  
  21912054.595   115148620.159       -2755.973          45.000  
  24766673.529   130149722.545       -2385.874          41.000  
  24106480.072   126680379.213       -3587.598          41.000  
  23266734.246   122267543.579        2570.156          42.000  
  22316276.794   117272819.529        -209.895          42.000  
  24221891.552   127286858.065        2362.789          42.000  
 23 12 19 12  1 13.9970000  0 16G12G13E25G23G15G22G24G17E 2E30G14E 3
                                G 5G10E 8E 7
  23160264.561   121708023.962        4112.531          42.000  
  20204135.465   106173446.286       -2334.713          46.000  
  24463758.384   128557926.415       -2029.504          43.000  
  21338769.938   112136004.133         360.744          45.000  
  19087988.530   100308033.991        -720.087          48.000  
  20876374.767   109706077.792       -1962.983          46.000  
  19609690.421   103049621.580        1879.748          46.000  
  21920928.275   115195267.783        1187.873          43.000  
  22328706.218   117338140.848         527.869          44.000  
  24860120.431   130640833.859        2911.750          41.000  
  21912579.227   115151376.316       -2756.964          45.000  
  24767127.628   130152108.655       -2386.990          41.000  
  24107162.646   126683966.454       -3587.959          41.000  
  23266245.474   122264973.859        2568.776          42.000  
  22316316.790   117273029.827        -211.059          42.000  
  24221441.354   127284495.220        2362.122          42.000  
 23 12 19 12  1 14.9970000  0 16G12G13E25G23G15G22G24G17E 2E30G14E 3
                                G 5G10E 8E 7
  23159481.700   121703910.559        4113.624          42.000  
  20204579.434   106175780.178       -2333.933          46.000  
  24464144.296   128559955.199       -2028.738          43.000  
  21338701.097   112135643.024         360.846          45.000  
  19088125.514   100308753.501        -719.763          48.000  
  20876748.254   109708040.086       -1962.302          46.000  
  19609332.779   103047741.065        1880.512          46.000  
  21920702.094   115194079.321        1188.226          43.000  
  22328606.036   117337612.450         528.482          44.000  
  24859566.622   130637921.174        2912.831          41.000  
  21913104.069   115154132.488       -2756.137          45.000  
  24767581.438   130154494.679       -2385.920          41.000  
  24107845.281   126687553.354       -3587.000          42.000  
  23265756.475   122262404.342        2569.497          42.000  
  22316356.830   117273240.233        -210.526          42.000  
  24220991.915   127282132.332        2362.913          42.000  
 23 12 19 12  1 15.9970000  0 16G12G13E25G23G15G22G24G17E 2E30G14E 3
                                G 5G10E 8E 7
  23158699.154   121699797.427        4112.750          42.000  
  20205023.568   106178114.602       -2334.887          46.000  
  24464530.138   128561984.340       -2029.372          43.000  
  21338632.910   112135282.731         359.820          45.000  
  19088262.385   100309473.773        -720.826          48.000  
  20877121.810   109710002.950       -1963.479          46.000  
  19608974.928   103045861.092        1879.416          46.000  
  21920476.219   115192891.556        1187.276          43.000  
  22328505.392   117337084.606         527.366          44.000  
  24859013.014   130635008.851        2911.818          40.000  
  21913628.893   115156889.121       -2757.099          45.000  
  24768035.213   130156881.040       -2386.886          41.000  
  24108527.785   126691140.329       -3587.380          42.000  
  23265267.983   122259835.480        2568.196          42.000  
  22316397.087   117273451.137        -211.352          42.000  
  24220542.135   127279769.766        2362.087          42.000  
 23 12 19 12  1 16.9970000  0 16G12G13E25G23G15G22G24G17E 2E30G14E 3
                                G 5G10E 8E 7
  23157916.590   121695684.723        4112.536          42.000  
  20205468.243   106180449.719       -2335.375          46.000  
  24464916.398   128564014.026       -2029.820          43.000  
  21338564.471   112134923.413         359.012          45.000  
  19088399.631   100310194.990        -721.512          48.000  
  20877495.219   109711966.491       -1963.613          46.000  
  19608617.329   103043981.803        1879.211          46.000  
  21920250.273   115191704.648        1186.585          42.000  
  22328404.460   117336557.486         526.884          44.000  
  24858458.952   130632097.013        2911.914          41.000  
  21914153.560   115159646.330       -2757.184          45.000  
  24768489.800   130159267.898       -2386.810          41.000  
  24109210.368   126694727.528       -3587.186          41.000  
  23264779.237   122257267.321        2568.044          42.000  
  22316437.990   117273662.707        -211.842          42.000  
  24220092.871   127277407.677        2362.011          42.000  
 23 12 19 12  1 17.9970000  0 16G12G13E25G23G15G22G24G17E 2E30G14E 3
                                G 5G10E 8E 7
  23157133.538   121691572.223        4112.583          42.000  
  20205912.761   106182785.299       -2335.390          45.000  
  24465302.859   128566044.012       -2029.962          43.000  
  21338496.057   112134564.897         358.171          45.000  
  19088536.973   100310916.921        -721.979          48.000  
  20877869.072   109713930.573       -1964.324          46.000  
  19608259.983   103042103.023        1878.817          46.000  
  21920024.249   115190518.376        1186.233          42.000  
  22328304.531   117336030.857         526.493          44.000  
  24857905.135   130629185.500        2911.434          41.000  
  21914678.366   115162403.926       -2757.476          45.000  
  24768944.099   130161655.040       -2387.278          41.000  
  24109893.238   126698314.745       -3586.885          41.000  
  23264290.735   122254699.754        2567.682          41.000  
  22316478.458   117273874.735        -212.185          42.000  
  24219643.257   127275045.889        2361.719          42.000  
 23 12 19 12  1 18.9970000  0 16G12G13E25G23G15G22G24G17E 2E30G14E 3
                                G 5G10E 8E 7
  23156351.192   121687459.885        4112.316          42.000  
  20206357.297   106185121.318       -2336.240          45.000  
  24465688.745   128568074.272       -2030.306          43.000  
  21338427.652   112134207.081         357.419          44.000  
  19088674.384   100311639.540        -723.020          48.000  
  20878242.795   109715895.095       -1964.792          46.000  
  19607902.376   103040224.684        1878.235          46.000  
  21919798.766   115189332.694        1185.394          44.000  
  22328204.105   117335504.679         526.111          44.000  
  24857351.605   130626274.197        2911.087          41.000  
  21915203.260   115165161.849       -2758.024          44.000  
  24769398.503   130164042.393       -2387.585          41.000  
  24110576.048   126701901.972       -3587.146          40.000  
  23263802.077   122252132.702        2567.123          42.000  
  22316519.186   117274087.179        -212.548          42.000  
  24219194.054   127272684.329        2361.660          42.000  
 23 12 19 12  1 19.9970000  0 16G12G13E25G23G15G22G24G17E 2E30G14E 3
                                G 5G10E 8E 7
  23155568.655   121683347.572        4111.917          42.000  
  20206802.164   106187457.641       -2336.625          45.000  
  24466075.319   128570104.665       -2030.526          43.000  
  21338359.561   112133849.869         356.806          45.000  
  19088812.101   100312362.695        -723.478          48.000  
  20878616.954   109717859.935       -1965.163          46.000  
  19607545.039   103038346.652        1877.738          45.000  
  21919573.414   115188147.490        1184.833          43.000  
  22328104.543   117334978.822         525.618          44.000  
  24856797.779   130623363.019        2911.091          41.000  
  21915728.163   115167919.997       -2758.469          45.000  
  24769852.689   130166429.880       -2387.733          41.000  
  24111258.700   126705489.066       -3586.957          40.000  
  23263313.593   122249566.017        2566.455          43.000  
  22316559.392   117274299.897        -212.870          42.000  
  24218744.466   127270322.881        2361.267          42.000  
 23 12 19 12  1 20.9970000  0 16G12G13E25G23G15G22G24G17E 2E30G14E 3
                                G 5G10E 8E 7
  23154786.248   121679235.336        4112.400          42.000  
  20207247.145   106189794.305       -2336.719          45.000  
  24466461.659   128572135.262       -2030.443          43.000  
  21338291.776   112133493.305         356.411          45.000  
  19088949.915   100313086.454        -723.901          48.000  
  20878991.052   109719825.175       -1965.269          46.000  
  19607187.842   103036468.990        1877.686          45.000  
  21919348.202   115186962.795        1184.752          43.000  
  22328004.815   117334453.344         525.504          44.000  
  24856244.214   130620452.029        2911.027          41.000  
  21916253.222   115170678.386       -2758.424          45.000  
  24770306.734   130168817.499       -2387.503          41.000  
  24111941.178   126709076.033       -3586.905          39.000  
  23262825.231   122246999.806        2566.174          43.000  
  22316599.963   117274512.957        -213.041          42.000  
  24218295.071   127267961.590        2361.292          42.000  
 23 12 19 12  1 21.9970000  0 16G12G13E25G23G15G22G24G17E 2E30G14E 3
                                G 5G10E 8E 7
  23154003.885   121675123.222        4111.992          42.000  
  20207691.846   106192131.330       -2337.082          46.000  
  24466848.259   128574166.042       -2030.832          43.000  
  21338223.895   112133137.393         355.443          45.000  
  19089087.745   100313810.806        -724.697          48.000  
  20879365.123   109721790.767       -1965.708          46.000  
  19606830.305   103034591.701        1876.963          45.000  
  21919122.876   115185778.645        1183.736          43.000  
  22327904.825   117333928.252         524.854          44.000  
  24855690.327   130617541.215        2910.604          41.000  
  21916778.247   115173437.031       -2758.846          45.000  
  24770761.225   130171205.291       -2387.929          41.000  
  24112623.848   126712662.865       -3586.701          39.000  
  23262336.503   122244434.029        2565.478          42.000  
  22316640.692   117274726.337        -213.488          42.000  
  24217845.824   127265600.429        2361.051          42.000  
 23 12 19 12  1 22.9970000  0 16G12G13E25G23G15G22G24G17E 2E30G14E 3
                                G 5G10E 8E 7
  23153221.147   121671011.307        4111.866          42.000  
  20208136.731   106194468.845       -2338.107          46.000  
  24467234.834   128576197.147       -2031.333          43.000  
  21338156.301   112132782.240         354.477          44.000  
  19089225.445   100314535.891        -725.558          48.000  
  20879739.003   109723756.880       -1966.552          46.000  
  19606473.404   103032714.892        1876.489          45.000  
  21918897.689   115184595.120        1183.185          43.000  
  22327805.089   117333403.663         524.156          44.000  
  24855136.571   130614630.682        2910.073          41.000  
  21917302.958   115176196.069       -2759.146          45.000  
  24771215.437   130173593.357       -2388.268          41.000  
  24113306.614   126716249.733       -3587.029          39.000  
  23261848.211   122241868.833        2564.677          43.000  
  22316681.273   117274940.179        -214.275          42.000  
  24217396.646   127263239.563        2360.551          42.000  
 23 12 19 12  1 23.9970000  0 16G12G13E25G23G15G22G24G17E 2E30G14E 3
                                G 5G10E 8E 7
  23152438.583   121666899.402        4111.926          42.000  
  20208581.650   106196806.607       -2338.067          46.000  
  24467620.999   128578228.341       -2031.148          44.000  
  21338088.882   112132427.633         354.405          45.000  
  19089363.563   100315261.465        -725.751          48.000  
  20880113.048   109725723.271       -1966.530          46.000  
  19606116.050   103030838.353        1876.329          45.000  
  21918672.800   115183412.022        1182.939          43.000  
  22327705.430   117332879.346         524.202          44.000  
  24854582.526   130611720.218        2910.522          41.000  
  21917827.930   115178955.257       -2759.166          45.000  
  24771669.850   130175981.483       -2388.340          41.000  
  24113989.180   126719836.388       -3586.717          39.000  
  23261359.867   122239303.960        2564.654          43.000  
  22316722.097   117275154.263        -214.357          42.000  
  24216947.251   127260878.755        2360.734          42.000  
 23 12 19 12  1 24.9970000  0 16G12G13E25G23G15G22G24G17E 2E30G14E 3
                                G 5G10E 8E 7
  23151656.263   121662787.325        4111.916          42.000  
  20209026.395   106199144.463       -2337.961          46.000  
  24468007.617   128580259.485       -2031.117          43.000  
  21338021.682   112132073.450         353.938          45.000  
  19089501.568   100315987.391        -725.959          48.000  
  20880486.884   109727689.776       -1966.322          46.000  
  19605758.704   103028961.937        1876.491          45.000  
  21918447.980   115182229.198        1182.863          43.000  
  22327605.563   117332355.178         524.051          44.000  
  24854028.499   130608809.704        2910.772          41.000  
  21918353.024   115181714.466       -2759.069          45.000  
  24772124.087   130178369.518       -2387.903          41.000  
  24114671.701   126723422.697       -3586.183          39.000  
  23260871.610   122236739.287        2564.515          43.000  
  22316762.765   117275368.431        -214.397          42.000  
  24216498.292   127258517.861        2360.961          42.000  
 23 12 19 12  1 25.9970000  0 16G12G13E25G23G15G22G24G17E 2E30G14E 3
                                G 5G10E 8E 7
  23150873.586   121658675.249        4111.814          42.000  
  20209471.550   106201482.596       -2338.124          46.000  
  24468394.218   128582290.731       -2031.052          43.000  
  21337954.533   112131719.814         353.328          45.000  
  19089639.582   100316713.846        -726.710          48.000  
  20880861.314   109729656.611       -1967.094          46.000  
  19605401.882   103027085.810        1875.974          45.000  
  21918223.038   115181046.816        1182.287          43.000  
  22327505.782   117331831.280         524.009          44.000  
  24853474.577   130605899.268        2910.283          41.000  
  21918878.119   115184473.845       -2759.417          45.000  
  24772578.605   130180757.634       -2387.785          41.000  
  24115354.267   126727008.810       -3585.915          39.000  
  23260383.544   122234174.970        2564.112          43.000  
  22316803.607   117275582.827        -214.349          43.000  
  24216049.036   127256157.026        2361.117          42.000  
 23 12 19 12  1 26.9970000  0 16G12G13E25G23G15G22G24G17E 2E30G14E 3
                                G 5G10E 8E 7
  23150091.328   121654563.643        4111.442          42.000  
  20209916.583   106203821.480       -2339.321          46.000  
  24468780.618   128584322.573       -2032.189          43.000  
  21337887.542   112131367.220         352.051          45.000  
  19089777.936   100317441.287        -728.074          48.000  
  20881235.621   109731624.186       -1968.088          46.000  
  19605045.322   103025210.435        1874.869          45.000  
  21917997.921   115179865.348        1180.851          43.000  
  22327406.124   117331308.170         522.592          44.000  
  24852920.995   130602989.389        2909.336          40.000  
  21919403.039   115187233.880       -2760.541          45.000  
  24773032.537   130183146.303       -2389.126          41.000  
  24116036.692   126730595.223       -3587.121          39.000  
  23259895.846   122231611.474        2563.008          43.000  
  22316844.581   117275797.981        -215.650          43.000  
  24215599.815   127253796.768        2359.936          42.000  
 23 12 19 12  1 27.9970000  0 16G12G13E25G23G15G22G24G17E 2E30G14E 3
                                G 5G10E 8E 7
  23149308.956   121650452.351        4111.068          42.000  
  20210361.694   106206160.919       -2339.780          46.000  
  24469167.533   128586354.802       -2032.437          43.000  
  21337821.135   112131015.481         351.338          45.000  
  19089916.456   100318169.530        -728.804          48.000  
  20881610.006   109733592.350       -1968.473          46.000  
  19604688.657   103023335.649        1874.363          45.000  
  21917773.459   115178684.595        1180.425          43.000  
  22327306.710   117330785.632         522.196          44.000  
  24852366.881   130600079.885        2909.058          40.000  
  21919928.186   115189994.356       -2760.769          44.000  
  24773487.072   130185535.334       -2389.284          41.000  
  24116719.205   126734181.704       -3586.939          39.000  
  23259408.069   122229048.610        2562.282          43.000  
  22316885.458   117276013.646        -215.924          43.000  
  24215150.577   127251436.860        2359.626          42.000  
 23 12 19 12  1 28.9970000  0 16G12G13E25G23G15G22G24G17E 2E30G14E 3
                                G 5G10E 8E 7
  23148526.541   121646341.182        4111.047          42.000  
  20210807.329   106208500.763       -2339.929          46.000  
  24469554.186   128588387.284       -2032.645          43.000  
  21337754.624   112130664.448         350.744          45.000  
  19090055.019   100318898.426        -729.307          48.000  
  20881984.506   109735560.943       -1968.743          46.000  
  19604331.817   103021461.255        1874.198          45.000  
  21917549.067   115177504.417        1179.816          44.000  
  22327207.576   117330263.531         521.911          44.000  
  24851813.072   130597170.598        2909.030          40.000  
  21920453.507   115192755.157       -2761.049          44.000  
  24773941.571   130187924.563       -2389.334          41.000  
  24117401.622   126737768.116       -3586.284          39.000  
  23258920.701   122226486.221        2562.315          43.000  
  22316926.789   117276229.719        -216.278          43.000  
  24214701.809   127249077.162        2359.429          42.000  
 23 12 19 12  1 29.9970000  0 16G12G13E25G23G15G22G24G17E 2E30G14E 3
                                G 5G10E 8E 7
  23147744.640   121642230.120        4111.173          42.000  
  20211252.702   106210840.995       -2340.451          46.000  
  24469941.119   128590419.971       -2032.866          43.000  
  21337687.798   112130314.088         350.017          45.000  
  19090194.037   100319627.934        -729.808          48.000  
  20882359.109   109737529.944       -1969.239          46.000  
  19603975.222   103019587.253        1873.808          45.000  
  21917324.535   115176324.787        1179.266          44.000  
  22327108.144   117329741.826         521.589          44.000  
  24851259.202   130594261.518        2909.067          40.000  
  21920978.872   115195516.238       -2761.271          44.000  
  24774396.411   130190313.979       -2389.609          41.000  
  24118084.257   126741354.486       -3586.232          39.000  
  23258433.151   122223924.329        2561.615          42.000  
  22316968.050   117276446.140        -216.654          43.000  
  24214252.737   127246717.640        2359.438          42.000  
 23 12 19 12  1 30.9970000  0 16G12G13E25G23G15G22G24G17E 2E30G14E 3
                                G 5G10E 8E 7
  23146962.417   121638119.044        4111.376          42.000  
  20211698.111   106213181.455       -2340.596          46.000  
  24470327.876   128592452.751       -2032.997          43.000  
  21337621.505   112129964.266         349.489          45.000  
  19090332.766   100320357.948        -730.412          47.000  
  20882733.958   109739499.207       -1969.470          46.000  
  19603618.461   103017713.524        1873.424          45.000  
  21917100.230   115175145.564        1178.829          44.000  
  22327009.167   117329220.400         521.266          44.000  
  24850705.280   130591352.516        2908.708          40.000  
  21921504.106   115198277.463       -2761.313          44.000  
  24774850.998   130192703.458       -2389.739          41.000  
  24118766.491   126744940.630       -3585.933          39.000  
  23257945.854   122221362.752        2561.399          42.000  
  22317009.555   117276662.783        -216.788          43.000  
  24213804.074   127244358.167        2359.380          42.000  
 23 12 19 12  1 31.9970000  0 16G12G13E25G23G15G22G24G17E 2E30G14E 3
                                G 5G10E 8E 7
  23146180.158   121634007.957        4110.932          42.000  
  20212143.641   106215522.163       -2340.867          46.000  
  24470714.617   128594485.594       -2032.807          43.000  
  21337555.220   112129614.967         348.897          45.000  
  19090471.748   100321088.434        -730.777          48.000  
  20883108.858   109741468.711       -1969.696          46.000  
  19603261.910   103015840.022        1873.381          45.000  
  21916875.907   115173966.732        1178.628          44.000  
  22326909.735   117328699.229         520.991          44.000  
  24850151.977   130588443.546        2908.931          40.000  
  21922029.602   115201038.819       -2761.259          44.000  
  24775305.899   130195092.965       -2389.531          41.000  
  24119448.576   126748526.540       -3585.599          39.000  
  23257458.356   122218801.491        2561.031          42.000  
  22317050.327   117276879.656        -217.093          43.000  
  24213354.757   127241998.718        2359.442          43.000  
 23 12 19 12  1 32.9970000  0 16G12G13E25G23G15G22G24G17E 2E30G14E 3
                                G 5G10E 8E 7
  23145398.013   121629896.772        4111.078          42.000  
  20212588.997   106217863.054       -2341.031          46.000  
  24471101.279   128596518.462       -2032.872          44.000  
  21337488.996   112129266.145         348.831          45.000  
  19090610.469   100321819.337        -731.017          48.000  
  20883483.532   109743438.436       -1969.768          46.000  
  19602905.489   103013966.722        1873.322          45.000  
  21916651.541   115172788.267        1178.409          44.000  
  22326810.409   117328178.262         520.948          44.000  
  24849598.613   130585534.588        2908.963          40.000  
  21922554.888   115203800.281       -2761.557          44.000  
  24775760.364   130197482.462       -2389.604          41.000  
  24120130.793   126752112.208       -3585.633          39.000  
  23256970.936   122216240.494        2560.925          42.000  
  22317091.684   117277096.677        -217.043          43.000  
  24212905.999   127239639.275        2359.766          43.000  
 23 12 19 12  1 33.9970000  0 16G12G13E25G23G15G22G24G17E 2E30G14E 3
                                G 5G10E 8E 7
  23144615.685   121625785.906        4110.644          42.000  
  20213034.509   106220204.533       -2341.870          46.000  
  24471488.368   128598551.747       -2033.482          43.000  
  21337422.764   112128918.222         347.498          44.000  
  19090749.608   100322551.090        -732.264          47.000  
  20883858.258   109745408.774       -1970.719          46.000  
  19602549.086   103012094.028        1872.239          45.000  
  21916427.271   115171610.545        1177.327          44.000  
  22326711.527   117327657.919         520.150          44.000  
  24849045.424   130582626.022        2908.471          40.000  
  21923080.114   115206562.228       -2762.309          44.000  
  24776215.326   130199872.332       -2389.922          41.000  
  24120813.096   126755697.969       -3585.699          39.000  
  23256483.936   122213680.171        2560.080          43.000  
  22317133.102   117277314.253        -217.847          43.000  
  24212457.083   127237280.209        2358.901          43.000  
 23 12 19 12  1 34.9970000  0 16G12G13E25G23G15G22G24G17E 2E30G14E 3
                                G 5G10E 8E 7
  23143833.270   121621674.974        4111.210          42.000  
  20213479.900   106222546.209       -2341.644          46.000  
  24471875.423   128600585.084       -2033.024          44.000  
  21337356.916   112128570.785         347.429          44.000  
  19090889.061   100323283.287        -732.307          47.000  
  20884233.289   109747379.331       -1970.422          46.000  
  19602192.726   103010221.535        1872.541          45.000  
  21916203.332   115170433.212        1177.183          44.000  
  22326612.436   117327137.787         520.243          44.000  
  24848491.912   130579717.492        2908.688          40.000  
  21923605.584   115209324.264       -2761.925          44.000  
  24776670.000   130202262.241       -2389.871          41.000  
  24121495.094   126759283.479       -3585.127          39.000  
  23255996.647   122211120.147        2560.062          42.000  
  22317174.695   117277532.039        -217.792          43.000  
  24212008.272   127234921.172        2359.108          43.000  
 23 12 19 12  1 35.9970000  0 16G12G13E25G23G15G22G24G17E 2E30G14E 3
                                G 5G10E 8E 7
  23143051.046   121617564.167        4110.854          42.000  
  20213925.448   106224888.252       -2341.892          45.000  
  24472262.495   128602618.627       -2033.450          43.000  
  21337291.120   112128224.013         346.830          45.000  
  19091028.244   100324016.088        -732.817          47.000  
  20884608.512   109749350.287       -1970.842          46.000  
  19601836.515   103008349.426        1872.403          45.000  
  21915979.428   115169256.395        1176.983          44.000  
  22326513.737   117326618.067         519.740          44.000  
  24847938.321   130576809.134        2908.838          40.000  
  21924130.966   115212086.582       -2762.116          44.000  
  24777124.421   130204652.285       -2389.764          41.000  
  24122177.328   126762868.886       -3584.761          39.000  
  23255509.376   122208560.575        2559.600          42.000  
  22317216.768   117277750.160        -218.003          43.000  
  24211559.810   127232562.293        2359.120          43.000  
 23 12 19 12  1 36.9970000  0 16G12G13E25G23G15G22G24G17E 2E30G14E 3
                                G 5G10E 8E 7
  23142268.823   121613453.649        4110.619          42.000  
  20214371.275   106227230.863       -2342.750          45.000  
  24472649.672   128604652.570       -2033.805          43.000  
  21337225.324   112127878.116         345.634          45.000  
  19091167.733   100324749.722        -733.939          47.000  
  20884983.832   109751321.835       -1971.592          46.000  
  19601480.487   103006477.913        1871.433          45.000  
  21915755.804   115168080.342        1175.754          44.000  
  22326414.681   117326098.914         519.197          44.000  
  24847384.844   130573901.183        2908.085          40.000  
  21924656.732   115214849.367       -2762.670          44.000  
  24777579.052   130207042.718       -2390.354          41.000  
  24122859.579   126766454.439       -3585.459          39.000  
  23255022.297   122206001.667        2558.974          42.000  
  22317258.125   117277968.826        -218.842          43.000  
  24211111.157   127230203.786        2358.431          43.000  
 23 12 19 12  1 37.9970000  0 16G12G13E25G23G15G22G24G17E 2E30G14E 3
                                G 5G10E 8E 7
  23141486.390   121609343.036        4110.308          42.000  
  20214817.250   106229573.629       -2342.942          45.000  
  24473036.447   128606686.506       -2033.965          44.000  
  21337159.728   112127532.653         344.993          45.000  
  19091307.247   100325483.736        -734.464          47.000  
  20885359.046   109753293.565       -1971.908          46.000  
  19601124.258   103004606.567        1871.073          45.000  
  21915532.188   115166904.588        1175.371          44.000  
  22326315.843   117325579.950         518.824          44.000  
  24846831.593   130570993.202        2908.019          40.000  
  21925182.359   115217612.220       -2763.150          44.000  
  24778034.232   130209433.102       -2390.274          42.000  
  24123542.048   126770039.648       -3584.713          39.000  
  23254535.305   122203443.005        2558.306          42.000  
  22317299.813   117278187.630        -218.956          43.000  
  24210662.389   127227845.244        2358.327          43.000  
 23 12 19 12  1 38.9970000  0 16G12G13E25G23G15G22G24G17E 2E30G14E 3
                                G 5G10E 8E 7
  23140704.236   121605232.641        4110.321          42.000  
  20215262.981   106231916.899       -2343.514          45.000  
  24473423.449   128608720.783       -2034.338          44.000  
  21337093.731   112127187.999         344.119          44.000  
  19091447.006   100326218.509        -735.104          47.000  
  20885734.479   109755265.828       -1972.441          46.000  
  19600768.518   103002735.741        1870.469          45.000  
  21915308.790   115165729.521        1174.704          44.000  
  22326217.031   117325061.526         518.214          44.000  
  24846277.994   130568085.548        2907.515          40.000  
  21925708.073   115220375.473       -2763.532          44.000  
  24778488.723   130211823.815       -2390.965          42.000  
  24124224.413   126773624.942       -3585.380          39.000  
  23254048.670   122200884.924        2557.790          42.000  
  22317341.476   117278406.916        -219.528          43.000  
  24210213.831   127225486.994        2358.192          43.000  
 23 12 19 12  1 39.9970000  0 16G12G13E25G23G15G22G24G17E 2E30G14E 3
                                G 5G10E 8E 7
  23139921.821   121601122.711        4110.029          42.000  
  20215708.869   106234260.883       -2344.273          45.000  
  24473810.608   128610755.637       -2034.993          43.000  
  21337027.962   112126844.351         343.112          44.000  
  19091586.930   100326954.251        -736.141          47.000  
  20886109.999   109757238.838       -1973.339          46.000  
  19600412.647   103000865.640        1870.027          45.000  
  21915085.227   115164555.328        1173.875          44.000  
  22326117.993   117324543.826         517.605          44.000  
  24845724.953   130565178.423        2906.994          40.000  
  21926234.057   115223139.345       -2764.043          44.000  
  24778944.322   130214215.025       -2391.192          42.000  
  24124906.812   126777210.472       -3585.612          39.000  
  23253561.801   122198327.647        2557.166          42.000  
  22317383.278   117278626.908        -220.181          43.000  
  24209764.916   127223129.283        2357.752          43.000  
 23 12 19 12  1 40.9970000  0 16G12G13E25G23G15G22G24G17E 2E30G14E 3
                                G 5G10E 8E 7
  23139139.484   121597012.823        4109.920          42.000  
  20216154.861   106236605.171       -2344.550          45.000  
  24474198.448   128612790.601       -2035.059          44.000  
  21336962.497   112126501.277         342.844          44.000  
  19091726.811   100327690.539        -736.626          47.000  
  20886485.510   109759212.154       -1973.484          46.000  
  19600056.671   102998995.849        1869.757          45.000  
  21914861.689   115163381.598        1173.568          44.000  
  22326020.062   117324026.463         517.167          44.000  
  24845172.016   130562271.403        2906.821          40.000  
  21926760.042   115225903.423       -2764.182          44.000  
  24779399.476   130216606.359       -2391.496          41.000  
  24125589.299   126780795.863       -3585.744          39.000  
  23253075.184   122195770.762        2556.603          42.000  
  22317425.175   117278847.173        -220.447          43.000  
  24209316.498   127220771.667        2357.610          43.000  
 23 12 19 12  1 41.9970000  0 16G12G13E25G23G15G22G24G17E 2E30G14E 3
                                G 5G10E 8E 7
  23138357.679   121592903.099        4109.423          42.000  
  20216600.592   106238949.871       -2344.893          45.000  
  24474585.555   128614825.818       -2035.335          44.000  
  21336896.849   112126158.938         342.017          44.000  
  19091866.902   100328427.483        -737.310          47.000  
  20886861.126   109761185.913       -1973.939          46.000  
  19599700.975   102997126.496        1869.164          45.000  
  21914638.248   115162208.459        1173.064          44.000  
  22325921.276   117323509.529         516.744          44.000  
  24844619.106   130559364.626        2906.528          40.000  
  21927286.018   115228667.809       -2764.428          44.000  
  24779854.577   130218997.883       -2391.305          41.000  
  24126271.498   126784381.164       -3585.382          39.000  
  23252588.506   122193214.336        2556.400          42.000  
  22317467.222   117279067.827        -220.769          43.000  
  24208868.062   127218414.260        2357.498          43.000  
 23 12 19 12  1 42.9970000  0 16G12G13E25G23G15G22G24G17E 2E30G14E 3
                                G 5G10E 8E 7
  23137575.159   121588793.229        4109.917          42.000  
  20217046.751   106241294.702       -2344.848          45.000  
  24474972.653   128616861.021       -2035.202          44.000  
  21336831.184   112125817.032         341.708          43.000  
  19092007.036   100329164.806        -737.394          47.000  
  20887236.777   109763159.846       -1974.334          46.000  
  19599345.243   102995257.295        1869.017          45.000  
  21914414.999   115161035.631        1172.461          44.000  
  22325822.744   117322992.772         516.573          44.000  
  24844065.716   130556457.821        2906.672          40.000  
  21927812.020   115231432.254       -2764.480          44.000  
  24780309.566   130221389.384       -2391.499          42.000  
  24126953.758   126787966.125       -3584.533          39.000  
  23252101.959   122190658.193        2556.225          42.000  
  22317508.971   117279288.620        -220.836          43.000  
  24208419.234   127216056.829        2357.389          43.000  
 23 12 19 12  1 43.9970000  0 16G12G13E25G23G15G22G24G17E 2E30G14E 3
                                G 5G10E 8E 7
  23136792.848   121584683.476        4109.644          42.000  
  20217492.988   106243639.905       -2345.367          45.000  
  24475359.743   128618896.426       -2035.557          44.000  
  21336765.650   112125475.790         340.819          43.000  
  19092147.283   100329902.756        -738.367          47.000  
  20887612.585   109765134.154       -1974.608          47.000  
  19598989.503   102993388.473        1868.488          45.000  
  21914191.706   115159863.322        1172.139          44.000  
  22325724.455   117322476.405         516.038          44.000  
  24843512.431   130553551.171        2906.554          40.000  
  21928338.100   115234196.961       -2765.007          44.000  
  24780764.824   130223781.038       -2391.854          42.000  
  24127635.835   126791551.027       -3585.119          39.000  
  23251615.569   122188102.499        2555.307          42.000  
  22317551.402   117279509.745        -221.411          43.000  
  24207970.554   127213699.544        2357.005          43.000  
 23 12 19 12  1 44.9970000  0 16G12G13E25G23G15G22G24G17E 2E30G14E 3
                                G 5G10E 8E 7
  23136010.834   121580573.771        4109.844          42.000  
  20217939.225   106245985.418       -2345.536          45.000  
  24475747.408   128620931.983       -2035.501          44.000  
  21336700.342   112125135.132         340.746          43.000  
  19092287.592   100330641.244        -738.527          47.000  
  20887988.436   109767108.787       -1974.614          47.000  
  19598634.173   102991519.956        1868.580          45.000  
  21913968.832   115158691.498        1171.920          44.000  
  22325626.289   117321960.350         516.021          44.000  
  24842959.617   130550644.690        2906.404          40.000  
  21928864.189   115236961.863       -2764.570          44.000  
  24781220.554   130226172.802       -2391.598          42.000  
  24128317.772   126795135.748       -3584.492          39.000  
  23251129.232   122185547.160        2555.540          42.000  
  22317593.256   117279731.166        -221.566          43.000  
  24207522.301   127211342.367        2357.438          43.000  
 23 12 19 12  1 45.9970000  0 16G12G13E25G23G15G22G24G17E 2E30G14E 3
                                G 5G10E 8E 7
  23135228.681   121576463.932        4109.490          42.000  
  20218385.732   106248331.068       -2345.960          46.000  
  24476134.655   128622967.503       -2035.684          43.000  
  21336635.271   112124794.939         339.812          43.000  
  19092428.092   100331380.117        -739.299          47.000  
  20888364.445   109769083.592       -1975.097          47.000  
  19598278.389   102989651.620        1867.856          45.000  
  21913745.861   115157520.005        1171.051          44.000  
  22325528.044   117321444.484         515.564          44.000  
  24842406.584   130547738.160        2906.239          40.000  
  21929390.453   115239726.824       -2765.227          44.000  
  24781675.569   130228564.503       -2391.890          42.000  
  24129000.084   126798720.153       -3584.235          39.000  
  23250643.234   122182992.071        2554.740          42.000  
  22317635.075   117279952.689        -221.771          43.000  
  24207073.752   127208985.166        2356.875          43.000  
 23 12 19 12  1 46.9970000  0 16G12G13E25G23G15G22G24G17E 2E30G14E 3
                                G 5G10E 8E 7
  23134446.466   121572354.300        4109.586          42.000  
  20218832.205   106250677.169       -2346.323          46.000  
  24476521.631   128625003.348       -2035.891          43.000  
  21336570.644   112124455.486         339.105          44.000  
  19092569.055   100332119.696        -739.930          47.000  
  20888740.445   109771058.887       -1975.621          47.000  
  19597922.937   102987783.733        1867.692          45.000  
  21913522.891   115156349.108        1170.507          43.000  
  22325430.341   117320929.080         515.182          44.000  
  24841853.866   130544831.888        2906.165          40.000  
  21929916.699   115242492.151       -2765.549          44.000  
  24782130.836   130230956.474       -2392.018          42.000  
  24129682.457   126802304.577       -3584.302          39.000  
  23250156.993   122180437.532        2554.204          41.000  
  22317677.270   117280174.648        -222.132          43.000  
  24206625.404   127206628.184        2356.974          43.000  
 23 12 19 12  1 47.9970000  0 16G12G13E25G23G15G22G24G17E 2E30G14E 3
                                G 5G10E 8E 7
  23133664.408   121568244.870        4109.251          42.000  
  20219278.869   106253023.744       -2346.776          45.000  
  24476909.235   128627039.464       -2035.902          44.000  
  21336506.261   112124116.792         338.231          44.000  
  19092709.957   100332859.988        -740.648          47.000  
  20889116.357   109773034.663       -1975.897          47.000  
  19597567.380   102985916.352        1867.212          45.000  
  21913300.218   115155178.858        1169.949          43.000  
  22325333.073   117320414.165         514.771          44.000  
  24841300.878   130541925.907        2905.909          41.000  
  21930442.841   115245257.827       -2765.860          45.000  
  24782586.025   130233348.721       -2392.500          42.000  
  24130364.481   126805888.995       -3584.049          39.000  
  23249670.978   122177883.551        2553.531          41.000  
  22317719.883   117280397.067        -222.422          43.000  
  24206176.636   127204271.502        2356.640          43.000  
 23 12 19 12  1 48.9970000  0 16G12G13E25G23G15G22G24G17E 2E30G14E 3
                                G 5G10E 8E 7
  23132882.316   121564135.497        4109.133          42.000  
  20219725.551   106255370.655       -2347.341          45.000  
  24477296.752   128629075.773       -2036.512          43.000  
  21336442.001   112123778.725         337.424          44.000  
  19092851.138   100333600.865        -741.354          46.000  
  20889492.401   109775010.806       -1976.598          47.000  
  19597211.806   102984049.322        1866.445          46.000  
  21913077.344   115154009.118        1169.251          43.000  
  22325235.518   117319899.635         514.094          44.000  
  24840747.461   130539020.093        2905.396          40.000  
  21930969.235   115248023.758       -2766.267          45.000  
  24783041.380   130235741.098       -2392.671          42.000  
  24131046.514   126809473.291       -3584.494          39.000  
  23249185.303   122175329.984        2553.037          41.000  
  22317762.192   117280619.808        -222.985          43.000  
  24205728.009   127201914.950        2356.395          43.000  
 23 12 19 12  1 49.9970000  0 16G12G13E25G23G15G22G24G17E 2E30G14E 3
                                G 5G10E 8E 7
  23132100.057   121560026.766        4108.489          42.000  
  20220172.154   106257718.468       -2348.324          45.000  
  24477684.600   128631112.804       -2037.273          43.000  
  21336377.906   112123441.849         336.455          44.000  
  19092992.223   100334342.878        -742.367          46.000  
  20889868.601   109776987.852       -1977.279          47.000  
  19596856.720   102982183.164        1865.948          46.000  
  21912855.176   115152840.438        1168.261          43.000  
  22325138.207   117319386.015         513.317          44.000  
  24840194.804   130536114.976        2904.907          40.000  
  21931495.857   115250790.470       -2767.016          45.000  
  24783496.831   130238134.179       -2393.185          41.000  
  24131728.661   126813058.027       -3584.951          39.000  
  23248699.594   122172777.388        2552.332          41.000  
  22317804.884   117280843.424        -223.834          43.000  
  24205279.337   127199559.101        2355.694          43.000  
 23 12 19 12  1 50.9970000  0 16G12G13E25G23G15G22G24G17E 2E30G14E 3
                                G 5G10E 8E 7
  23131318.148   121555918.258        4108.342          42.000  
  20220619.264   106260066.751       -2348.554          45.000  
  24478072.205   128633150.156       -2037.487          43.000  
  21336313.899   112123105.767         335.750          44.000  
  19093133.395   100335085.622        -743.010          46.000  
  20890245.125   109778965.424       -1977.653          47.000  
  19596501.643   102980317.534        1865.465          46.000  
  21912632.730   115151672.415        1167.721          43.000  
  22325041.175   117318872.915         512.702          44.000  
  24839641.850   130533210.181        2904.766          40.000  
  21932022.391   115253557.589       -2767.303          45.000  
  24783951.993   130240527.549       -2393.403          41.000  
  24132410.694   126816642.757       -3584.491          38.000  
  23248214.138   122170225.389        2551.879          41.000  
  22317847.384   117281067.504        -224.275          43.000  
  24204830.989   127197203.555        2355.334          43.000  
 23 12 19 12  1 51.9970000  0 16G12G13E25G23G15G22G24G17E 2E30G14E 3
                                G 5G10E 8E 7
  23130536.230   121551809.631        4108.528          42.000  
  20221066.208   106262415.203       -2349.069          45.000  
  24478459.983   128635187.498       -2037.561          43.000  
  21336250.022   112122770.125         335.151          44.000  
  19093274.881   100335828.771        -743.675          46.000  
  20890621.299   109780943.172       -1978.243          47.000  
  19596146.583   102978452.060        1865.018          46.000  
  21912410.475   115150504.705        1167.235          43.000  
  22324943.733   117318359.970         512.536          44.000  
  24839088.888   130530305.357        2904.467          40.000  
  21932548.995   115256324.752       -2767.609          45.000  
  24784407.619   130242920.871       -2393.587          41.000  
  24133092.701   126820227.204       -3584.391          38.000  
  23247728.385   122167673.634        2551.173          41.000  
  22317889.927   117281291.720        -224.603          43.000  
  24204382.911   127194847.956        2355.289          43.000  
 23 12 19 12  1 52.9970000  0 16G12G13E25G23G15G22G24G17E 2E30G14E 3
                                G 5G10E 8E 7
  23129754.356   121547701.066        4108.438          42.000  
  20221513.256   106264763.951       -2349.031          45.000  
  24478847.265   128637225.003       -2037.628          43.000  
  21336185.997   112122435.097         334.566          44.000  
  19093416.472   100336572.473        -744.057          47.000  
  20890997.656   109782921.250       -1978.338          47.000  
  19595791.349   102976586.925        1864.836          46.000  
  21912188.194   115149337.498        1166.828          43.000  
  22324846.151   117317847.371         512.294          45.000  
  24838536.353   130527400.661        2904.515          40.000  
  21933075.834   115259092.126       -2767.527          45.000  
  24784862.886   130245314.324       -2393.699          41.000  
  24133774.856   126823811.494       -3584.046          38.000  
  23247242.963   122165122.266        2551.278          41.000  
  22317932.610   117281516.229        -224.919          43.000  
  24203934.597   127192492.478        2355.367          43.000  
 23 12 19 12  1 53.9970000  0 16G12G13E25G23G15G22G24G17E 2E30G14E 3
                                G 5G10E 8E 7
  23128972.481   121543592.501        4108.620          42.000  
  20221960.287   106267112.984       -2349.051          45.000  
  24479235.061   128639262.627       -2037.855          43.000  
  21336122.793   112122100.626         334.093          44.000  
  19093558.046   100337316.689        -744.228          46.000  
  20891373.962   109784899.622       -1978.389          47.000  
  19595436.368   102974722.057        1864.832          46.000  
  21911966.105   115148170.717        1166.701          43.000  
  22324748.273   117317335.070         512.235          44.000  
  24837983.696   130524496.069        2904.323          40.000  
  21933602.647   115261859.697       -2767.709          45.000  
  24785318.659   130247707.833       -2393.449          41.000  
  24134456.741   126827395.598       -3584.062          38.000  
  23246757.655   122162571.247        2550.997          41.000  
  22317975.233   117281740.993        -224.947          43.000  
  24203486.467   127190137.083        2355.213          43.000  
 23 12 19 12  1 54.9970000  0 16G12G13E25G23G15G22G24G17E 2E30G14E 3
                                G 5G10E 8E 7
  23128190.659   121539484.034        4108.165          42.000  
  20222407.248   106269462.337       -2349.833          45.000  
  24479622.700   128641300.408       -2038.352          43.000  
  21336059.684   112121766.787         333.237          44.000  
  19093699.471   100338061.502        -745.300          46.000  
  20891750.319   109786878.354       -1979.103          47.000  
  19595081.788   102972857.545        1864.037          46.000  
  21911744.121   115147004.452        1165.684          43.000  
  22324650.735   117316823.142         511.287          44.000  
  24837431.248   130521591.606        2904.105          40.000  
  21934129.539   115264627.479       -2768.165          45.000  
  24785774.110   130250101.496       -2394.127          41.000  
  24135138.896   126830979.553       -3584.315          38.000  
  23246272.173   122160020.674        2549.919          41.000  
  22318018.396   117281966.075        -225.667          43.000  
  24203038.328   127187781.827        2354.720          43.000  
 23 12 19 12  1 55.9970000  0 16G12G13E25G23G15G22G24G17E 2E30G14E 3
                                G 5G10E 8E 7
  23127408.994   121535375.700        4107.584          42.000  
  20222854.419   106271812.126       -2350.322          46.000  
  24480010.496   128643338.456       -2038.659          43.000  
  21335996.340   112121433.687         332.357          44.000  
  19093841.769   100338806.968        -746.129          47.000  
  20892127.200   109788857.543       -1979.752          47.000  
  19594726.738   102970993.489        1863.373          45.000  
  21911522.076   115145838.775        1164.894          43.000  
  22324553.206   117316311.667         511.041          44.000  
  24836878.853   130518687.395        2904.010          40.000  
  21934656.641   115267395.596       -2768.551          45.000  
  24786229.823   130252495.388       -2394.386          42.000  
  24135820.946   126834563.493       -3584.204          39.000  
  23245787.127   122157470.584        2549.581          41.000  
  22318061.541   117282191.563        -225.947          43.000  
  24202590.224   127185426.807        2354.787          43.000  
 23 12 19 12  1 56.9970000  0 16G12G13E25G23G15G22G24G17E 2E30G14E 3
                                G 5G10E 8E 7
  23126627.390   121531267.467        4107.907          42.000  
  20223301.423   106274162.260       -2350.285          46.000  
  24480398.860   128645376.686       -2038.446          43.000  
  21335933.484   112121101.208         332.044          44.000  
  19093983.753   100339553.015        -746.245          47.000  
  20892504.012   109790837.087       -1979.745          47.000  
  19594371.844   102969129.783        1863.624          44.000  
  21911300.196   115144673.604        1165.181          43.000  
  22324455.493   117315800.555         510.786          45.000  
  24836326.449   130515783.368        2904.096          40.000  
  21935183.759   115270163.976       -2768.553          45.000  
  24786685.221   130254889.440       -2394.110          42.000  
  24136502.997   126838147.305       -3584.113          38.000  
  23245301.740   122154920.948        2549.299          42.000  
  22318104.059   117282417.386        -226.004          43.000  
  24202142.190   127183071.927        2354.891          43.000  
 23 12 19 12  1 57.9970000  0 16G12G13E25G23G15G22G24G17E 2E30G14E 3
                                G 5G10E 8E 7
  23125845.385   121527159.290        4108.276          42.000  
  20223748.821   106276512.728       -2350.665          46.000  
  24480787.171   128647415.086       -2038.493          43.000  
  21335870.742   112120769.378         331.470          44.000  
  19094125.789   100340299.660        -747.031          47.000  
  20892880.701   109792816.989       -1979.989          47.000  
  19594017.316   102967266.419        1863.233          44.000  
  21911078.500   115143508.959        1164.262          43.000  
  22324358.182   117315289.793         510.667          44.000  
  24835774.088   130512879.486        2904.038          40.000  
  21935710.451   115272932.575       -2768.748          45.000  
  24787140.881   130257283.617       -2394.314          42.000  
  24137185.004   126841730.979       -3583.570          38.000  
  23244816.641   122152371.744        2548.960          42.000  
  22318146.873   117282643.517        -226.327          43.000  
  24201694.321   127180717.209        2354.577          43.000  
 23 12 19 12  1 58.9970000  0 16G12G13E25G23G15G22G24G17E 2E30G14E 3
                                G 5G10E 8E 7
  23125063.650   121523051.379        4108.218          42.000  
  20224196.140   106278863.700       -2350.891          46.000  
  24481175.098   128649453.835       -2038.331          43.000  
  21335808.034   112120438.329         331.159          44.000  
  19094268.104   100341047.052        -747.291          47.000  
  20893257.582   109794797.427       -1980.245          47.000  
  19593662.798   102965403.590        1863.094          44.000  
  21910856.969   115142344.978        1164.047          43.000  
  22324260.557   117314779.576         510.517          44.000  
  24835221.475   130509975.936        2904.063          40.000  
  21936237.604   115275701.593       -2768.781          45.000  
  24787596.410   130259678.098       -2394.101          42.000  
  24137867.063   126845314.703       -3583.209          38.000  
  23244331.979   122149823.119        2549.037          42.000  
  22318190.010   117282870.134        -226.381          43.000  
  24201246.304   127178362.778        2354.662          43.000  
 23 12 19 12  1 59.9970000  0 16G12G13E25G23G15G22G24G17E 2E30G14E 3
                                G 5G10E 8E 7
  23124281.880   121518943.444        4107.837          42.000  
  20224643.720   106281214.935       -2351.656          46.000  
  24481563.225   128651492.674       -2038.985          43.000  
  21335745.658   112120107.856         330.001          45.000  
  19094410.533   100341794.944        -748.343          47.000  
  20893634.541   109796778.144       -1981.108          47.000  
  19593308.035   102963541.024        1862.249          44.000  
  21910635.596   115141181.424        1163.188          43.000  
  22324163.350   117314269.642         509.702          44.000  
  24834668.477   130507072.467        2903.291          40.000  
  21936764.723   115278470.752       -2769.405          45.000  
  24788052.323   130262072.650       -2394.975          42.000  
  24138549.079   126848898.251       -3583.592          38.000  
  23243847.107   122147274.876        2547.793          43.000  
  22318232.780   117283096.993        -227.149          42.000  
  24200798.174   127176008.418        2354.119          43.000  
 23 12 19 12  2  0.9970000  0 16G12G13E25G23G15G22G24G17E 2E30G14E 3
                                G 5G10E 8E 7
  23123500.285   121514836.058        4107.227          41.000  
  20225091.292   106283566.960       -2352.423          46.000  
  24481951.336   128653532.181       -2040.005          43.000  
  21335683.536   112119778.478         328.892          45.000  
  19094553.249   100342543.882        -749.408          47.000  
  20894011.422   109798759.670       -1981.908          47.000  
  19592953.656   102961679.281        1861.372          44.000  
  21910414.667   115140018.839        1162.212          43.000  
  22324066.545   117313760.532         508.605          44.000  
  24834115.925   130504169.625        2902.311          40.000  
  21937291.702   115281240.641       -2770.105          45.000  
  24788508.245   130264467.804       -2395.399          42.000  
  24139231.225   126852482.118       -3583.871          38.000  
  23243362.576   122144727.486        2547.091          42.000  
  22318275.987   117283324.623        -228.057          42.000  
  24200350.297   127173654.679        2353.297          43.000  
 23 12 19 12  2  1.9970000  0 16G12G13E25G23G15G22G24G17E 2E30G14E 3
                                G 5G10E 8E 7
  23122718.934   121510728.928        4107.217          42.000  
  20225539.117   106285919.506       -2352.873          46.000  
  24482339.490   128655572.002       -2039.815          43.000  
  21335621.125   112119449.912         328.126          45.000  
  19094696.132   100343293.579        -750.144          47.000  
  20894388.513   109800741.739       -1982.418          47.000  
  19592599.582   102959818.075        1860.830          44.000  
  21910193.564   115138856.945        1161.623          43.000  
  22323969.932   117313251.946         508.513          44.000  
  24833562.910   130501267.085        2902.711          40.000  
  21937819.231   115284010.926       -2770.281          45.000  
  24788963.984   130266863.290       -2395.688          42.000  
  24139913.406   126856066.033       -3583.502          38.000  
  23242878.097   122142180.710        2546.480          42.000  
  22318319.133   117283552.758        -228.189          42.000  
  24199902.629   127171301.235        2353.467          43.000  
 23 12 19 12  2  2.9970000  0 16G12G13E25G23G15G22G24G17E 2E30G14E 3
                                G 5G10E 8E 7
  23121937.208   121506621.847        4106.741          42.000  
  20225986.776   106288272.345       -2352.949          46.000  
  24482727.417   128657611.962       -2039.892          43.000  
  21335559.046   112119121.919         327.840          45.000  
  19094838.848   100344043.806        -750.460          47.000  
  20894765.612   109802724.107       -1982.384          47.000  
  19592245.221   102957957.146        1860.871          44.000  
  21909972.758   115137695.509        1161.236          43.000  
  22323872.944   117312743.706         508.063          44.000  
  24833010.602   130498364.697        2902.438          40.000  
  21938346.585   115286781.418       -2770.570          45.000  
  24789419.749   130269258.842       -2395.456          42.000  
  24140595.439   126859649.801       -3583.588          38.000  
  23242393.792   122139634.304        2546.243          42.000  
  22318362.566   117283781.160        -228.319          42.000  
  24199454.769   127168947.910        2353.373          43.000  
 23 12 19 12  2  3.9970000  0 16G12G13E25G23G15G22G24G17E 2E30G14E 3
                                G 5G10E 8E 7
  23121155.543   121502514.974        4107.362          41.000  
  20226434.505   106290625.686       -2353.001          46.000  
  24483115.544   128659652.265       -2039.830          43.000  
  21335497.080   112118794.742         327.467          45.000  
  19094981.835   100344794.785        -750.730          47.000  
  20895142.834   109804707.009       -1982.527          46.000  
  19591891.199   102956096.758        1860.573          44.000  
  21909751.699   115136534.754        1161.078          43.000  
  22323776.191   117312235.971         508.034          44.000  
  24832457.700   130495462.616        2902.632          40.000  
  21938873.582   115289552.301       -2770.486          45.000  
  24789875.766   130271654.722       -2395.481          42.000  
  24141277.507   126863233.619       -3583.524          38.000  
  23241909.348   122137088.492        2546.165          42.000  
  22318406.201   117284010.053        -228.627          42.000  
  24199006.735   127166594.885        2353.417          43.000  
 23 12 19 12  2  4.9970000  0 16G12G13E25G23G15G22G24G17E 2E30G14E 3
                                G 5G10E 8E 7
  23120374.122   121498407.945        4106.778          41.000  
  20226882.130   106292979.107       -2353.708          46.000  
  24483503.864   128661692.484       -2040.441          43.000  
  21335435.149   112118467.928         326.366          45.000  
  19095125.119   100345546.096        -751.541          47.000  
  20895520.212   109806690.016       -1983.257          46.000  
  19591537.457   102954236.451        1860.033          44.000  
  21909530.727   115135374.241        1160.190          43.000  
  22323679.866   117311728.342         507.350          44.000  
  24831905.366   130492560.438        2901.981          40.000  
  21939400.884   115292323.160       -2770.975          45.000  
  24790331.488   130274050.474       -2395.866          42.000  
  24141959.174   126866817.042       -3583.607          38.000  
  23241424.921   122134542.854        2545.198          42.000  
  22318449.643   117284239.007        -229.306          42.000  
  24198559.128   127164241.760        2352.802          43.000  
 23 12 19 12  2  5.9970000  0 16G12G13E25G23G15G22G24G17E 2E30G14E 3
                                G 5G10E 8E 7
  23119592.570   121494301.055        4107.466          41.000  
  20227330.068   106295332.948       -2353.820          46.000  
  24483892.158   128663732.951       -2040.150          43.000  
  21335372.992   112118141.818         326.397          45.000  
  19095268.054   100346298.077        -751.987          48.000  
  20895897.451   109808673.466       -1983.230          46.000  
  19591183.715   102952376.574        1860.165          44.000  
  21909310.217   115134214.314        1160.054          43.000  
  22323583.148   117311221.161         507.315          44.000  
  24831352.971   130489658.496        2902.017          40.000  
  21939928.247   115295094.353       -2770.862          45.000  
  24790787.392   130276446.466       -2395.771          42.000  
  24142641.059   126870400.424       -3583.219          38.000  
  23240940.878   122131997.737        2545.150          42.000  
  22318493.015   117284468.353        -229.132          42.000  
  24198111.783   127161888.837        2353.145          43.000  
 23 12 19 12  2  6.9970000  0 16G12G13E25G23G15G22G24G17E 2E30G14E 3
                                G 5G10E 8E 7
  23118811.001   121490194.223        4106.653          41.000  
  20227778.076   106297687.067       -2354.548          46.000  
  24484280.495   128665773.564       -2041.037          44.000  
  21335311.070   112117816.313         325.065          45.000  
  19095411.538   100347050.593        -752.938          48.000  
  20896275.012   109810657.232       -1984.205          46.000  
  19590830.235   102950517.009        1859.388          45.000  
  21909089.602   115133054.859        1158.955          44.000  
  22323486.797   117310714.291         506.592          44.000  
  24830800.584   130486756.667        2901.530          40.000  
  21940455.217   115297865.743       -2771.758          45.000  
  24791243.375   130278842.532       -2396.220          42.000  
  24143323.249   126873983.607       -3583.167          38.000  
  23240456.486   122129452.994        2544.456          42.000  
  22318537.034   117284697.989        -230.149          42.000  
  24197663.757   127159536.032        2352.308          43.000  
 23 12 19 12  2  7.9970000  0 16G12G13E25G23G15G22G24G17E 2E30G14E 3
                                G 5G10E 8E 7
  23118029.450   121486087.661        4106.541          41.000  
  20228226.320   106300041.727       -2354.934          46.000  
  24484668.780   128667814.547       -2041.367          43.000  
  21335249.383   112117491.652         324.104          45.000  
  19095555.049   100347803.894        -753.741          48.000  
  20896652.347   109812641.570       -1984.746          46.000  
  19590476.807   102948658.021        1858.512          45.000  
  21908869.459   115131896.103        1158.386          44.000  
  22323390.463   117310208.004         505.895          44.000  
  24830248.651   130483855.199        2901.148          40.000  
  21940982.283   115300637.566       -2772.064          45.000  
  24791699.236   130281238.959       -2396.692          42.000  
  24144005.256   126877566.901       -3583.067          38.000  
  23239972.295   122126908.890        2543.678          42.000  
  22318580.694   117284928.130        -230.393          42.000  
  24197216.648   127157183.570        2352.183          43.000  
 23 12 19 12  2  8.9970000  0 16G12G13E25G23G15G22G24G17E 2E30G14E 3
                                G 5G10E 8E 7
  23117248.107   121481981.035        4106.654          41.000  
  20228674.389   106302396.567       -2354.858          46.000  
  24485057.143   128669855.550       -2041.140          44.000  
  21335187.269   112117167.447         323.960          45.000  
  19095698.603   100348557.618        -754.000          48.000  
  20897029.883   109814626.095       -1984.676          46.000  
  19590123.580   102946799.213        1858.593          45.000  
  21908649.246   115130737.705        1158.152          44.000  
  22323294.103   117309701.915         505.891          44.000  
  24829696.727   130480953.723        2901.472          40.000  
  21941509.577   115303409.473       -2771.876          45.000  
  24792155.498   130283635.366       -2396.504          42.000  
  24144686.826   126881149.924       -3583.084          38.000  
  23239488.252   122124365.038        2543.657          42.000  
  22318624.634   117285158.444        -230.374          42.000  
  24196768.901   127154831.092        2352.434          43.000  
 23 12 19 12  2  9.9970000  0 16G12G13E25G23G15G22G24G17E 2E30G14E 3
                                G 5G10E 8E 7
  23116466.669   121477874.778        4105.798          41.000  
  20229122.598   106304752.065       -2356.120          46.000  
  24485445.628   128671897.039       -2042.130          44.000  
  21335125.356   112116844.206         322.483          44.000  
  19095842.637   100349312.240        -755.133          48.000  
  20897407.313   109816611.317       -1985.809          46.000  
  19589770.204   102944941.076        1857.529          45.000  
  21908429.173   115129580.118        1156.982          44.000  
  22323197.585   117309196.504         504.672          44.000  
  24829144.855   130478052.752        2900.302          40.000  
  21942037.219   115306181.942       -2773.352          45.000  
  24792611.446   130286032.227       -2397.365          42.000  
  24145368.632   126884733.101       -3583.485          38.000  
  23239004.410   122121821.939        2542.456          42.000  
  22318668.521   117285389.388        -231.452          42.000  
  24196321.434   127152479.071        2351.448          43.000  
 23 12 19 12  2 10.9970000  0 16G12G13E25G23G15G22G24G17E 2E30G14E 3
                                G 5G10E 8E 7
  23115685.257   121473768.785        4105.961          41.000  
  20229571.034   106307108.083       -2356.305          46.000  
  24485834.506   128673938.879       -2041.665          44.000  
  21335063.582   112116521.776         322.052          44.000  
  19095986.497   100350067.639        -755.673          48.000  
  20897785.320   109818597.070       -1985.972          46.000  
  19589416.872   102943083.470        1857.414          45.000  
  21908209.274   115128423.235        1156.543          44.000  
  22323101.644   117308691.632         504.779          44.000  
  24828593.175   130475152.098        2900.518          40.000  
  21942564.591   115308954.825       -2773.067          45.000  
  24793067.917   130288429.408       -2397.165          42.000  
  24146050.386   126888316.348       -3583.053          38.000  
  23238520.638   122119279.444        2542.490          42.000  
  22318712.434   117285620.851        -231.597          42.000  
  24195873.757   127150127.381        2351.602          43.000  
 23 12 19 12  2 11.9970000  0 16G12G13E25G23G15G22G24G17E 2E30G14E 3
                                G 5G10E 8E 7
  23114903.749   121469663.118        4105.596          41.000  
  20230019.321   106309464.678       -2356.842          46.000  
  24486223.350   128675981.165       -2042.555          44.000  
  21335002.113   112116200.218         321.329          44.000  
  19096130.758   100350823.862        -756.588          48.000  
  20898163.283   109820583.432       -1986.648          46.000  
  19589063.775   102941226.472        1856.812          45.000  
  21907989.541   115127267.098        1155.858          44.000  
  22323005.677   117308187.376         504.016          44.000  
  24828041.050   130472251.867        2899.747          40.000  
  21943092.338   115311728.187       -2773.611          45.000  
  24793524.005   130290826.994       -2397.875          42.000  
  24146732.253   126891899.714       -3583.293          39.000  
  23238036.813   122116737.635        2541.479          42.000  
  22318756.505   117285852.870        -232.333          42.000  
  24195426.133   127147776.091        2351.019          43.000  
 23 12 19 12  2 12.9970000  0 16G12G13E25G23G15G22G24G17E 2E30G14E 3
                                G 5G10E 8E 7
  23114122.485   121465557.440        4105.804          41.000  
  20230467.861   106311821.532       -2357.001          46.000  
  24486611.538   128678023.534       -2042.417          44.000  
  21334940.776   112115879.225         320.776          44.000  
  19096274.731   100351580.585        -756.952          48.000  
  20898541.246   109822570.074       -1986.887          46.000  
  19588710.906   102939369.759        1856.547          45.000  
  21907769.755   115126111.405        1155.442          45.000  
  22322909.639   117307683.413         503.769          44.000  
  24827489.606   130469351.703        2900.211          40.000  
  21943619.884   115314501.705       -2773.428          45.000  
  24793980.581   130293224.634       -2397.648          42.000  
  24147414.164   126895482.895       -3583.041          38.000  
  23237552.779   122114196.160        2541.247          42.000  
  22318800.794   117286085.121        -232.293          42.000  
  24194978.570   127145424.865        2351.308          43.000  
 23 12 19 12  2 13.9970000  0 16G12G13E25G23G15G22G24G17E 2E30G14E 3
                                G 5G10E 8E 7
  23113341.379   121461451.678        4105.522          41.000  
  20230916.140   106314178.563       -2357.528          46.000  
  24487000.259   128680065.908       -2042.844          44.000  
  21334879.150   112115558.699         319.964          44.000  
  19096419.123   100352337.723        -757.740          48.000  
  20898919.192   109824556.908       -1987.298          46.000  
  19588357.740   102937513.218        1856.059          45.000  
  21907549.909   115124956.047        1154.707          44.000  
  22322813.934   117307179.635         503.276          44.000  
  24826937.743   130466451.537        2899.845          40.000  
  21944147.640   115317275.321       -2774.000          45.000  
  24794436.930   130295622.252       -2398.085          42.000  
  24148095.979   126899065.731       -3582.894          38.000  
  23237069.242   122111654.939        2540.790          42.000  
  22318844.602   117286317.528        -232.855          42.000  
  24194531.015   127143073.611        2350.857          43.000  
 23 12 19 12  2 14.9970000  0 16G12G13E25G23G15G22G24G17E 2E30G14E 3
                                G 5G10E 8E 7
  23112559.906   121457345.965        4105.676          41.000  
  20231364.881   106316535.887       -2357.649          46.000  
  24487388.911   128682108.419       -2042.665          43.000  
  21334817.752   112115238.753         319.730          44.000  
  19096563.349   100353095.412        -758.069          48.000  
  20899297.172   109826544.061       -1987.307          46.000  
  19588004.486   102935656.987        1856.240          45.000  
  21907330.176   115123801.144        1154.660          45.000  
  22322718.237   117306676.184         503.078          44.000  
  24826385.653   130463551.484        2900.104          40.000  
  21944675.055   115320049.110       -2773.945          44.000  
  24794893.114   130298019.980       -2397.935          42.000  
  24148778.030   126902648.457       -3582.982          39.000  
  23236585.636   122109114.118        2540.389          42.000  
  22318888.996   117286550.227        -232.929          42.000  
  24194083.635   127140722.460        2351.028          43.000  
 23 12 19 12  2 15.9970000  0 16G12G13E25G23G15G22G24G17E 2E30G14E 3
                                G 5G10E 8E 7
  23111778.590   121453240.360        4105.602          41.000  
  20231813.587   106318893.572       -2357.859          46.000  
  24487777.614   128684151.137       -2042.860          43.000  
  21334756.790   112114919.477         319.036          44.000  
  19096707.479   100353853.702        -758.503          48.000  
  20899675.423   109828531.605       -1987.625          46.000  
  19587651.215   102933801.154        1855.718          45.000  
  21907110.573   115122646.777        1154.267          45.000  
  22322622.461   117306173.112         502.940          44.000  
  24825833.415   130460651.638        2899.472          39.000  
  21945203.064   115322823.193       -2774.140          44.000  
  24795349.219   130300417.857       -2397.912          42.000  
  24149459.888   126906231.089       -3582.592          39.000  
  23236102.282   122106573.747        2540.260          42.000  
  22318933.503   117286783.260        -233.278          42.000  
  24193636.299   127138371.489        2350.811          43.000  
 23 12 19 12  2 16.9970000  0 16G12G13E25G23G15G22G24G17E 2E30G14E 3
                                G 5G10E 8E 7
  23110997.274   121449134.699        4105.528          41.000  
  20232262.293   106321251.478       -2358.155          46.000  
  24488166.300   128686193.902       -2042.826          43.000  
  21334695.984   112114600.722         318.461          44.000  
  19096851.687   100354612.460        -758.995          48.000  
  20900053.927   109830519.384       -1988.088          46.000  
  19587298.040   102931945.545        1855.413          45.000  
  21906891.023   115121492.815        1153.740          45.000  
  22322526.502   117305670.299         502.656          44.000  
  24825281.630   130457751.806        2899.862          39.000  
  21945730.811   115325597.378       -2774.336          44.000  
  24795805.630   130302815.780       -2398.153          42.000  
  24150141.747   126909813.460       -3582.215          39.000  
  23235618.527   122104033.705        2539.952          42.000  
  22318977.547   117287016.494        -233.425          42.000  
  24193188.788   127136020.534        2350.873          43.000  
 23 12 19 12  2 17.9970000  0 16G12G13E25G23G15G22G24G17E 2E30G14E 3
                                G 5G10E 8E 7
  23110215.835   121445029.128        4105.657          41.000  
  20232711.069   106323609.721       -2358.197          46.000  
  24488554.646   128688236.863       -2043.118          43.000  
  21334635.641   112114282.601         318.036          44.000  
  19096996.193   100355371.812        -759.511          48.000  
  20900432.370   109832507.529       -1988.201          46.000  
  19586944.804   102930090.302        1855.294          45.000  
  21906671.404   115120339.370        1153.178          45.000  
  22322431.207   117305167.857         502.198          44.000  
  24824729.732   130454852.155        2899.545          39.000  
  21946258.601   115328371.807       -2774.517          44.000  
  24796261.962   130305213.813       -2398.033          42.000  
  24150823.387   126913395.737       -3582.028          39.000  
  23235135.217   122101494.100        2539.598          42.000  
  22319022.193   117287250.051        -233.624          42.000  
  24192741.557   127133669.737        2350.859          43.000  
 23 12 19 12  2 18.9970000  0 16G12G13E25G23G15G22G24G17E 2E30G14E 3
                                G 5G10E 8E 7
  23109434.362   121440923.712        4105.002          41.000  
  20233159.697   106325968.376       -2359.268          46.000  
  24488943.699   128690280.067       -2043.912          43.000  
  21334575.229   112113965.198         316.732          44.000  
  19097141.204   100356131.812        -760.433          48.000  
  20900810.751   109834496.106       -1989.190          46.000  
  19586591.647   102928235.477        1854.417          45.000  
  21906452.517   115119186.488        1152.410          45.000  
  22322335.806   117304665.840         501.306          44.000  
  24824177.851   130451952.742        2898.727          40.000  
  21946786.653   115331146.548       -2775.334          44.000  
  24796718.023   130307612.099       -2398.846          42.000  
  24151505.063   126916977.976       -3582.478          39.000  
  23234652.003   122098955.002        2538.488          42.000  
  22319066.875   117287484.016        -234.679          42.000  
  24192294.255   127131319.155        2350.234          43.000  
 23 12 19 12  2 19.9970000  0 16G12G13E25G23G15G22G24G17E 2E30G14E 3
                                G 5G10E 8E 7
  23108653.212   121436818.723        4104.584          41.000  
  20233608.656   106328327.731       -2359.963          46.000  
  24489332.350   128692323.791       -2044.244          43.000  
  21334515.148   112113648.784         315.831          44.000  
  19097285.945   100356892.772        -761.659          48.000  
  20901189.334   109836485.411       -1989.895          46.000  
  19586238.463   102926381.374        1853.747          45.000  
  21906233.551   115118034.508        1151.238          45.000  
  22322240.101   117304164.554         500.681          44.000  
  24823626.215   130449053.839        2898.505          39.000  
  21947314.549   115333921.870       -2775.617          44.000  
  24797174.320   130310010.870       -2399.067          42.000  
  24152186.860   126920560.436       -3582.808          38.000  
  23234168.754   122096416.666        2537.492          42.000  
  22319111.599   117287718.652        -235.182          42.000  
  24191847.015   127128969.084        2349.763          43.000  
 23 12 19 12  2 20.9970000  0 16G12G13E25G23G15G22G24G17E 2E30G14E 3
                                G 5G10E 8E 7
  23107872.201   121432713.909        4104.443          41.000  
  20234057.685   106330687.504       -2360.026          46.000  
  24489721.551   128694367.767       -2044.077          43.000  
  21334455.634   112113333.078         315.354          45.000  
  19097430.991   100357654.374        -761.941          48.000  
  20901568.178   109838475.144       -1990.017          46.000  
  19585885.402   102924527.708        1853.288          45.000  
  21906014.708   115116883.108        1151.141          45.000  
  22322145.049   117303663.704         500.716          44.000  
  24823074.797   130446155.172        2898.520          40.000  
  21947842.618   115336697.542       -2775.827          44.000  
  24797630.887   130312409.863       -2399.115          42.000  
  24152868.570   126924142.817       -3582.213          39.000  
  23233685.741   122093878.831        2537.615          42.000  
  22319156.778   117287953.688        -235.248          42.000  
  24191400.097   127126619.234        2349.878          43.000  
 23 12 19 12  2 21.9970000  0 16G12G13E25G23G15G22G24G17E 2E30G14E 3
                                G 5G10E 8E 7
  23107091.199   121428609.266        4104.584          41.000  
  20234506.662   106333047.696       -2360.107          46.000  
  24490110.778   128696412.026       -2044.151          43.000  
  21334395.745   112113018.101         314.735          45.000  
  19097575.976   100358416.692        -762.876          48.000  
  20901946.848   109840465.333       -1990.286          46.000  
  19585532.349   102922674.490        1852.827          44.000  
  21905795.682   115115732.347        1150.551          45.000  
  22322050.556   117303163.322         500.220          44.000  
  24822523.091   130443256.760        2898.531          40.000  
  21948370.898   115339473.544       -2776.440          44.000  
  24798087.525   130314809.095       -2399.091          42.000  
  24153550.429   126927725.175       -3582.132          39.000  
  23233202.571   122091341.518        2537.197          42.000  
  22319201.416   117288189.126        -235.472          42.000  
  24190952.665   127124269.621        2349.770          44.000  
 23 12 19 12  2 22.9970000  0 16G12G13E25G23G15G22G24G17E 2E30G14E 3
                                G 5G10E 8E 7
  23106310.250   121424504.824        4104.076          41.000  
  20234955.883   106335408.376       -2360.783          46.000  
  24490499.656   128698456.613       -2044.882          43.000  
  21334336.388   112112703.906         313.707          45.000  
  19097720.865   100359179.705        -763.484          48.000  
  20902325.823   109842456.034       -1991.115          46.000  
  19585179.497   102920821.753        1852.576          44.000  
  21905576.760   115114582.195        1149.718          45.000  
  22321955.427   117302663.432         499.622          44.000  
  24821971.533   130440358.642        2898.068          40.000  
  21948899.203   115342249.913       -2776.790          44.000  
  24798544.197   130317208.604       -2399.776          42.000  
  24154232.139   126931307.567       -3582.568          38.000  
  23232719.863   122088804.786        2536.331          42.000  
  22319246.446   117288425.048        -236.178          42.000  
  24190505.337   127121920.300        2349.101          44.000  
 23 12 19 12  2 23.9970000  0 16G12G13E25G23G15G22G24G17E 2E30G14E 3
                                G 5G10E 8E 7
  23105529.352   121420400.395        4104.117          41.000  
  20235405.217   106337769.328       -2361.282          46.000  
  24490888.840   128700501.267       -2044.879          43.000  
  21334276.970   112112390.263         312.999          45.000  
  19097865.938   100359943.241        -764.121          48.000  
  20902704.597   109844447.000       -1991.536          46.000  
  19584826.435   102918969.297        1851.993          44.000  
  21905357.969   115113432.512        1149.029          45.000  
  22321860.366   117302163.819         499.321          44.000  
  24821419.949   130437460.607        2897.897          40.000  
  21949427.421   115345026.425       -2776.746          44.000  
  24799000.503   130319608.176       -2399.824          42.000  
  24154913.701   126934889.732       -3582.355          38.000  
  23232237.190   122086268.419        2535.721          42.000  
  22319291.293   117288661.188        -236.375          42.000  
  24190058.420   127119571.046        2348.965          44.000  
 23 12 19 12  2 24.9970000  0 16G12G13E25G23G15G22G24G17E 2E30G14E 3
                                G 5G10E 8E 7
  23104748.281   121416296.086        4104.438          41.000  
  20235854.639   106340130.648       -2361.283          46.000  
  24491277.884   128702546.169       -2044.954          43.000  
  21334217.621   112112077.304         312.662          45.000  
  19098011.429   100360707.400        -764.415          48.000  
  20903083.494   109846438.360       -1991.609          46.000  
  19584473.653   102917117.245        1851.915          44.000  
  21905139.240   115112283.340        1149.142          45.000  
  22321765.306   117301664.642         499.091          44.000  
  24820868.461   130434562.803        2897.793          40.000  
  21949955.997   115347803.230       -2776.718          44.000  
  24799456.913   130322007.940       -2399.772          42.000  
  24155595.638   126938471.833       -3582.309          38.000  
  23231754.700   122083732.495        2535.828          42.000  
  22319336.053   117288897.712        -236.700          42.000  
  24189611.101   127117221.987        2349.183          44.000  
 23 12 19 12  2 25.9970000  0 16G12G13E25G23G15G22G24G17E 2E30G14E 3
                                G 5G10E 8E 7
  23103966.843   121412190.390        4109.275          41.000  
  20236303.598   106342490.849       -2356.658          45.000  
  24491666.788   128704589.738       -2039.482          43.000  
  21334158.099   112111763.515         317.134          45.000  
  19098156.693   100361470.667        -759.860          48.000  
  20903461.928   109848428.618       -1986.817          46.000  
  19584120.748   102915264.084        1856.570          44.000  
  21904920.283   115111133.243        1153.475          45.000  
  22321670.063   117301164.326         504.276          44.000  
  24820316.781   130431663.675        2903.035          40.000  
  21950484.093   115350578.848       -2772.161          44.000  
  24799913.655   130324406.347       -2394.210          41.000  
  24156276.859   126942052.292       -3576.447          38.000  
  23231271.686   122081195.578        2540.296          42.000  
  22319380.621   117289133.068        -231.458          43.000  
  24189163.817   127114871.595        2354.458          43.000  
 23 12 19 12  2 26.9970000  0 16G12G13E25G23G15G22G24G17E 2E30G14E 3
                                G 5G10E 8E 7
  23103185.143   121408081.967        4108.262          41.000  
  20236752.234   106344848.566       -2357.676          46.000  
  24492054.846   128706630.706       -2040.849          43.000  
  21334097.983   112111447.537         315.843          45.000  
  19098301.565   100362231.716        -761.189          48.000  
  20903840.197   109850416.423       -1987.962          46.000  
  19583767.399   102913408.443        1855.436          44.000  
  21904701.117   115109980.838        1152.130          45.000  
  22321574.628   117300661.599         502.861          45.000  
  24819764.412   130428761.891        2901.929          40.000  
  21951011.595   115353351.855       -2773.250          44.000  
  24800368.975   130326802.132       -2395.564          41.000  
  24156957.549   126945629.831       -3577.200          38.000  
  23230788.656   122078656.236        2539.550          42.000  
  22319424.927   117289365.954        -232.882          43.000  
  24188716.411   127112518.549        2353.310          43.000  
 23 12 19 12  2 27.9970000  0 16G12G13E25G23G15G22G24G17E 2E30G14E 3
                                G 5G10E 8E 7
  23102403.355   121403973.845        4107.171          41.000  
  20237200.976   106347206.876       -2358.870          46.000  
  24492443.541   128708672.086       -2041.788          43.000  
  21334038.198   112111132.460         314.144          45.000  
  19098446.262   100362993.594        -762.510          48.000  
  20904218.613   109852404.831       -1988.895          46.000  
  19583414.363   102911553.420        1854.313          44.000  
  21904481.689   115108829.167        1151.027          45.000  
  22321479.079   117300159.465         501.368          44.000  
  24819212.453   130425860.528        2900.982          40.000  
  21951539.796   115356125.328       -2773.971          44.000  
  24800825.019   130329198.304       -2396.594          41.000  
  24157638.282   126949207.516       -3577.682          38.000  
  23230305.581   122076117.603        2538.017          41.000  
  22319469.521   117289599.397        -233.941          43.000  
  24188268.638   127110165.902        2352.207          43.000  
 23 12 19 12  2 28.9970000  0 16G12G13E25G23G15G22G24G17E 2E30G14E 3
                                G 5G10E 8E 7
  23101621.926   121399866.302        4107.382          43.000  
  20237649.690   106349566.010       -2359.336          46.000  
  24492832.140   128710714.141       -2042.222          43.000  
  21333978.449   112110818.497         313.699          45.000  
  19098591.273   100363756.553        -763.277          48.000  
  20904596.969   109854394.100       -1989.536          46.000  
  19583061.825   102909699.225        1854.029          44.000  
  21904262.663   115107678.514        1150.362          45.000  
  22321383.923   117299658.182         500.963          44.000  
  24818660.695   130422959.805        2900.760          39.000  
  21952067.779   115358899.558       -2774.249          44.000  
  24801281.028   130331595.096       -2397.232          41.000  
  24158319.128   126952785.593       -3578.123          39.000  
  23229822.655   122073579.867        2537.391          42.000  
  22319514.429   117289833.664        -234.514          43.000  
  24187821.075   127107813.875        2351.990          43.000  
 23 12 19 12  2 29.9970000  0 16G12G13E25G23G15G22G24G17E 2E30G14E 3
                                G 5G10E 8E 7
  23100840.514   121395758.963        4107.109          42.000  
  20238098.833   106351925.597       -2359.792          46.000  
  24493220.913   128712756.484       -2042.667          43.000  
  21333918.813   112110505.283         312.732          45.000  
  19098736.415   100364520.215        -764.080          47.000  
  20904975.708   109856383.833       -1989.991          46.000  
  19582708.912   102907845.510        1853.422          44.000  
  21904043.593   115106528.489        1149.721          45.000  
  22321288.785   117299157.390         500.481          44.000  
  24818108.753   130420059.350        2900.519          40.000  
  21952595.709   115361674.159       -2774.708          44.000  
  24801737.055   130333992.106       -2396.885          41.000  
  24159000.332   126956363.621       -3578.072          39.000  
  23229339.799   122071042.682        2536.661          41.000  
  22319559.625   117290068.346        -234.849          43.000  
  24187373.608   127105462.104        2351.710          43.000  
 23 12 19 12  2 30.9970000  0 16G12G13E25G23G15G22G24G17E 2E30G14E 3
                                G 5G10E 8E 7
  23100058.892   121391651.503        4107.150          42.000  
  20238547.888   106354285.305       -2360.257          47.000  
  24493609.739   128714798.756       -2042.435          43.000  
  21333859.447   112110192.483         312.244          45.000  
  19098881.627   100365284.232        -764.597          47.000  
  20905354.256   109858373.703       -1990.072          46.000  
  19582356.304   102905991.936        1853.253          45.000  
  21903824.723   115105378.757        1149.070          45.000  
  22321193.288   117298656.724         500.204          44.000  
  24817557.056   130417158.835        2900.399          41.000  
  21953123.822   115364448.748       -2774.875          44.000  
  24802193.125   130336389.082       -2397.401          41.000  
  24159681.388   126959941.290       -3577.692          39.000  
  23228856.829   122068505.693        2536.490          41.000  
  22319604.228   117290303.150        -235.341          43.000  
  24186926.106   127103110.274        2351.399          43.000  
 23 12 19 12  2 31.9970000  0 16G12G13E25G23G15G22G24G17E 2E30G14E 3
                                G 5G10E 8E 7
  23099277.306   121387544.296        4106.835          42.000  
  20238997.179   106356645.533       -2360.559          47.000  
  24493998.600   128716841.427       -2042.874          43.000  
  21333799.828   112109880.512         311.451          45.000  
  19099026.927   100366049.014        -765.250          47.000  
  20905733.109   109860364.129       -1990.783          46.000  
  19582004.159   102904138.903        1852.703          45.000  
  21903606.098   115104229.703        1148.585          44.000  
  22321098.167   117298156.624         499.692          44.000  
  24817005.332   130414258.678        2900.125          40.000  
  21953651.909   115367223.778       -2775.293          44.000  
  24802649.396   130338786.377       -2397.477          41.000  
  24160362.365   126963519.029       -3577.695          39.000  
  23228374.348   122065969.344        2535.857          41.000  
  22319649.267   117290538.444        -235.506          43.000  
  24186478.717   127100758.776        2351.185          43.000  
 23 12 19 12  2 32.9970000  0 16G12G13E25G23G15G22G24G17E 2E30G14E 3
                                G 5G10E 8E 7
  23098496.077   121383437.544        4106.854          42.000  
  20239446.243   106359006.496       -2361.057          47.000  
  24494387.373   128718884.636       -2043.269          42.000  
  21333740.786   112109569.559         310.694          45.000  
  19099172.418   100366814.772        -766.102          47.000  
  20906111.918   109862355.304       -1991.273          46.000  
  19581651.734   102902286.605        1852.252          45.000  
  21903387.325   115103081.558        1147.852          44.000  
  22321002.880   117297657.259         499.301          44.000  
  24816453.626   130411359.076        2899.636          41.000  
  21954180.197   115369999.418       -2775.692          45.000  
  24803106.024   130341184.213       -2397.997          41.000  
  24161043.648   126967097.051       -3577.899          39.000  
  23227891.640   122063433.815        2535.269          41.000  
  22319694.158   117290774.446        -235.971          43.000  
  24186031.320   127098407.804        2351.048          43.000  
 23 12 19 12  2 33.9970000  0 16G12G13E25G23G15G22G24G17E 2E30G14E 3
                                G 5G10E 8E 7
  23097714.787   121379330.990        4106.309          42.000  
  20239895.647   106361367.873       -2361.722          46.000  
  24494776.172   128720928.091       -2043.650          42.000  
  21333681.725   112109259.312         309.743          45.000  
  19099318.171   100367581.190        -766.690          47.000  
  20906490.911   109864346.904       -1991.965          46.000  
  19581299.790   102900434.744        1851.674          45.000  
  21903168.822   115101933.983        1147.227          44.000  
  22320907.506   117297158.343         498.613          44.000  
  24815901.833   130408459.711        2899.127          40.000  
  21954708.302   115372775.378       -2776.298          44.000  
  24803562.374   130343582.254       -2398.074          42.000  
  24161724.835   126970675.024       -3578.090          39.000  
  23227409.273   122060898.802        2534.537          41.000  
  22319739.676   117291010.866        -236.720          43.000  
  24185584.071   127096057.070        2350.333          43.000  
 23 12 19 12  2 34.9970000  0 16G12G13E25G23G15G22G24G17E 2E30G14E 3
                                G 5G10E 8E 7
  23096933.288   121375224.553        4106.398          42.000  
  20240345.243   106363729.634       -2361.903          46.000  
  24495164.981   128722971.788       -2043.723          42.000  
  21333622.848   112108949.766         309.370          44.000  
  19099464.072   100368348.260        -767.323          48.000  
  20906870.087   109866338.926       -1992.076          46.000  
  19580947.723   102898583.298        1851.385          45.000  
  21902950.433   115100786.998        1146.841          44.000  
  22320812.664   117296659.859         498.374          44.000  
  24815350.484   130405560.560        2899.000          40.000  
  21955236.825   115375551.638       -2776.344          44.000  
  24804018.601   130345980.502       -2398.249          42.000  
  24162405.699   126974252.909       -3577.556          39.000  
  23226927.341   122058364.266        2534.379          42.000  
  22319784.925   117291247.646        -236.770          44.000  
  24185136.778   127093706.521        2350.621          43.000  
 23 12 19 12  2 35.9970000  0 16G12G13E25G23G15G22G24G17E 2E30G14E 3
                                G 5G10E 8E 7
  23096152.033   121371118.289        4106.172          42.000  
  20240794.525   106366091.828       -2362.358          47.000  
  24495554.042   128725015.748       -2044.033          42.000  
  21333563.954   112108640.929         308.775          45.000  
  19099609.799   100369116.001        -768.042          47.000  
  20907249.315   109868331.404       -1992.667          46.000  
  19580595.900   102896732.293        1850.830          45.000  
  21902732.322   115099640.597        1146.290          44.000  
  22320718.014   117296161.828         497.761          44.000  
  24814798.726   130402661.665        2898.847          40.000  
  21955765.550   115378328.210       -2776.756          44.000  
  24804475.343   130348378.970       -2398.468          42.000  
  24163086.781   126977830.748       -3577.790          38.000  
  23226445.305   122055830.265        2533.621          41.000  
  22319830.540   117291484.847        -237.454          44.000  
  24184689.328   127091356.220        2350.235          43.000  
 23 12 19 12  2 36.9970000  0 16G12G13E25G23G15G22G24G17E 2E30G14E 3
                                G 5G10E 8E 7
  23095370.865   121367012.191        4106.123          42.000  
  20241244.086   106368454.457       -2362.822          47.000  
  24495943.252   128727059.983       -2044.189          42.000  
  21333505.382   112108332.846         307.864          45.000  
  19099756.067   100369884.413        -768.459          47.000  
  20907628.525   109870324.313       -1992.881          46.000  
  19580244.139   102894881.742        1850.199          46.000  
  21902514.116   115098494.828        1145.568          44.000  
  22320623.626   117295664.257         497.424          44.000  
  24814247.543   130399763.019        2898.673          40.000  
  21956293.951   115381105.130       -2777.085          44.000  
  24804932.041   130350777.689       -2398.687          42.000  
  24163767.618   126981408.559       -3577.654          39.000  
  23225963.269   122053296.766        2533.432          41.000  
  22319875.762   117291722.465        -237.659          44.000  
  24184242.114   127089006.170        2349.932          43.000  
 23 12 19 12  2 37.9970000  0 16G12G13E25G23G15G22G24G17E 2E30G14E 3
                                G 5G10E 8E 7
  23094589.506   121362906.478        4105.604          42.000  
  20241693.866   106370817.725       -2363.375          47.000  
  24496332.566   128729104.693       -2044.868          42.000  
  21333446.985   112108025.704         306.707          45.000  
  19099902.291   100370653.722        -769.586          47.000  
  20908008.050   109872317.912       -1993.769          46.000  
  19579892.351   102893031.843        1849.677          46.000  
  21902296.355   115097349.862        1144.608          44.000  
  22320528.862   117295167.345         496.654          44.000  
  24813696.448   130396864.847        2898.232          40.000  
  21956822.797   115383882.593       -2777.589          44.000  
  24805388.748   130353176.863       -2399.352          42.000  
  24164448.526   126984986.565       -3578.026          39.000  
  23225481.739   122050764.029        2532.739          41.000  
  22319921.420   117291960.717        -238.478          44.000  
  24183795.249   127086656.571        2349.311          43.000  
 23 12 19 12  2 38.9970000  0 16G12G13E25G23G15G22G24G17E 2E30G14E 3
                                G 5G10E 8E 7
  23093808.347   121358800.889        4105.283          42.000  
  20242143.828   106373181.373       -2364.170          46.000  
  24496721.619   128731149.612       -2045.238          42.000  
  21333388.396   112107719.214         305.909          44.000  
  19100048.881   100371423.655        -770.418          47.000  
  20908387.592   109874311.909       -1994.351          46.000  
  19579540.668   102891182.351        1849.097          46.000  
  21902078.323   115096205.444        1143.900          43.000  
  22320434.692   117294670.844         496.084          45.000  
  24813144.960   130393966.871        2897.627          40.000  
  21957351.652   115386660.328       -2778.108          44.000  
  24805845.307   130355576.193       -2399.477          42.000  
  24165129.198   126988564.443       -3577.890          38.000  
  23225000.174   122048231.769        2531.753          41.000  
  22319966.704   117292199.322        -239.032          44.000  
  24183347.790   127084307.143        2349.124          43.000  
 23 12 19 12  2 39.9970000  0 16G12G13E25G23G15G22G24G17E 2E30G14E 3
                                G 5G10E 8E 7
  23093026.996   121354695.370        4105.263          42.000  
  20242593.826   106375545.359       -2364.394          46.000  
  24497111.073   128733194.704       -2045.304          42.000  
  21333329.964   112107413.366         305.398          44.000  
  19100195.672   100372194.177        -771.021          47.000  
  20908767.161   109876306.254       -1994.642          46.000  
  19579189.055   102889333.206        1848.763          46.000  
  21901860.300   115095061.538        1143.452          43.000  
  22320339.938   117294174.694         495.867          45.000  
  24812593.420   130391069.058        2897.419          41.000  
  21957880.184   115389438.295       -2778.182          44.000  
  24806301.613   130357975.695       -2399.666          41.000  
  24165810.149   126992142.217       -3577.815          38.000  
  23224518.348   122045699.927        2531.541          41.000  
  22320012.284   117292438.233        -239.232          44.000  
  24182900.646   127081957.860        2349.055          43.000  
 23 12 19 12  2 40.9970000  0 16G12G13E25G23G15G22G24G17E 2E30G14E 3
                                G 5G10E 8E 7
  23092245.514   121350589.976        4105.140          42.000  
  20243043.980   106377909.704       -2364.807          46.000  
  24497500.527   128735240.009       -2045.513          42.000  
  21333271.802   112107108.185         304.457          44.000  
  19100342.429   100372965.301        -771.705          48.000  
  20909146.712   109878300.996       -1995.222          46.000  
  19578837.198   102887484.459        1848.209          45.000  
  21901642.809   115093918.175        1142.741          43.000  
  22320245.611   117293678.949         495.125          45.000  
  24812042.228   130388171.432        2897.255          41.000  
  21958409.031   115392216.547       -2778.800          44.000  
  24806758.390   130360375.331       -2399.885          41.000  
  24166491.493   126995719.882       -3577.769          38.000  
  23224036.774   122043168.562        2530.798          41.000  
  22320057.776   117292677.496        -239.690          44.000  
  24182453.816   127079608.774        2348.635          43.000  
 23 12 19 12  2 41.9970000  0 16G12G13E25G23G15G22G24G17E 2E30G14E 3
                                G 5G10E 8E 7
  23091464.433   121346485.100        4104.729          42.000  
  20243493.917   106380274.840       -2365.299          46.000  
  24497890.146   128737285.937       -2046.015          42.000  
  21333213.894   112106804.082         303.784          44.000  
  19100489.368   100373737.465        -772.531          48.000  
  20909526.411   109880296.534       -1995.754          46.000  
  19578485.436   102885636.495        1847.618          45.000  
  21901425.327   115092775.758        1142.148          43.000  
  22320151.406   117293184.008         494.651          45.000  
  24811490.749   130385274.414        2896.848          41.000  
  21958937.816   115394995.468       -2779.242          44.000  
  24807215.367   130362775.581       -2400.281          41.000  
  24167172.540   126999297.876       -3578.187          38.000  
  23223555.593   122040638.071        2529.875          41.000  
  22320103.426   117292917.542        -240.289          44.000  
  24182007.238   127077260.271        2348.303          43.000  
 23 12 19 12  2 42.9970000  0 16G12G13E25G23G15G22G24G17E 2E30G14E 3
                                G 5G10E 8E 7
  23090683.292   121342380.598        4103.786          41.000  
  20243944.106   106382640.617       -2366.315          47.000  
  24498279.225   128739332.352       -2046.946          42.000  
  21333156.273   112106500.922         302.479          45.000  
  19100636.735   100374510.500        -773.571          47.000  
  20909906.259   109882292.744       -1996.838          46.000  
  19578133.980   102883789.186        1846.941          45.000  
  21901207.889   115091634.157        1141.045          43.000  
  22320057.192   117292689.737         493.656          44.000  
  24810939.453   130382377.876        2895.844          41.000  
  21959466.907   115397774.926       -2779.852          44.000  
  24807672.493   130365176.267       -2401.082          41.000  
  24167853.718   127002876.052       -3578.536          39.000  
  23223074.133   122038108.292        2529.141          41.000  
  22320149.032   117293158.190        -241.227          44.000  
  24181560.487   127074912.212        2347.698          43.000  
 23 12 19 12  2 43.9970000  0 16G12G13E25G23G15G22G24G17E 2E30G14E 3
                                G 5G10E 8E 7
  23089902.194   121338276.294        4104.004          42.000  
  20244394.592   106385006.855       -2366.678          47.000  
  24498668.644   128741379.053       -2047.187          43.000  
  21333098.775   112106198.522         301.891          45.000  
  19100783.989   100375284.251        -774.099          47.000  
  20910285.845   109884289.417       -1997.032          46.000  
  19577782.306   102881942.362        1846.534          45.000  
  21900990.730   115090493.188        1140.531          44.000  
  22319962.917   117292195.958         493.298          44.000  
  24810388.384   130379481.612        2896.279          41.000  
  21959995.823   115400554.759       -2780.151          45.000  
  24808129.191   130367577.244       -2401.453          41.000  
  24168534.643   127006454.222       -3578.172          39.000  
  23222592.594   122035579.077        2528.698          41.000  
  22320194.804   117293399.301        -241.613          43.000  
  24181113.622   127072564.438        2347.541          43.000  
 23 12 19 12  2 44.9970000  0 16G12G13E25G23G15G22G24G17E 2E30G14E 3
                                G 5G10E 8E 7
  23089120.860   121334172.088        4104.146          42.000  
  20244844.817   106387373.449       -2366.871          47.000  
  24499058.037   128743425.937       -2047.106          44.000  
  21333041.372   112105896.784         301.128          45.000  
  19100931.190   100376058.616        -774.797          47.000  
  20910665.806   109886286.486       -1997.521          45.000  
  19577430.797   102880095.914        1846.177          45.000  
  21900773.850   115089352.764        1140.044          44.000  
  22319868.991   117291702.552         493.013          44.000  
  24809837.262   130376585.526        2895.766          41.000  
  21960524.564   115403334.842       -2780.449          45.000  
  24808586.204   130369978.344       -2401.196          41.000  
  24169215.463   127010032.307       -3578.395          39.000  
  23222111.221   122033050.338        2528.430          41.000  
  22320240.733   117293640.738        -241.559          43.000  
  24180666.905   127070216.823        2347.357          43.000  
 23 12 19 12  2 45.9970000  0 16G12G13E25G23G15G22G24G17E 2E30G14E 3
                                G 5G10E 8E 7
  23088339.920   121330067.969        4104.067          42.000  
  20245295.233   106389740.348       -2367.177          47.000  
  24499447.482   128745472.971       -2047.154          43.000  
  21332984.031   112105595.630         300.783          45.000  
  19101078.383   100376833.534        -775.244          47.000  
  20911045.828   109888283.877       -1997.827          45.000  
  19577079.455   102878249.804        1845.750          45.000  
  21900557.083   115088212.813        1139.672          44.000  
  22319775.074   117291209.490         492.783          44.000  
  24809285.713   130373689.573        2895.881          41.000  
  21961053.568   115406115.136       -2780.546          45.000  
  24809042.789   130372379.585       -2401.428          41.000  
  24169896.152   127013610.212       -3577.953          38.000  
  23221629.708   122030521.975        2528.013          41.000  
  22320286.688   117293882.495        -242.033          43.000  
  24180220.362   127067869.327        2347.251          43.000  
 23 12 19 12  2 46.9970000  0 16G12G13E25G23G15G22G24G17E 2E30G14E 3
                                G 5G10E 8E 7
  23087558.839   121325964.055        4103.786          42.000  
  20245745.745   106392107.714       -2367.544          47.000  
  24499837.137   128747520.332       -2047.601          43.000  
  21332926.968   112105295.262         300.072          45.000  
  19101225.680   100377609.165        -776.037          47.000  
  20911425.876   109890281.754       -1998.117          45.000  
  19576728.225   102876404.155        1845.552          45.000  
  21900340.438   115087073.500        1139.109          44.000  
  22319681.340   117290716.917         492.399          44.000  
  24808734.417   130370793.933        2895.421          41.000  
  21961582.606   115408895.778       -2780.615          45.000  
  24809499.740   130374781.077       -2401.464          41.000  
  24170576.842   127017188.138       -3578.122          39.000  
  23221148.396   122027994.183        2527.491          41.000  
  22320332.757   117294124.691        -242.339          43.000  
  24179773.707   127065522.119        2347.014          43.000  
 23 12 19 12  2 47.9970000  0 16G12G13E25G23G15G22G24G17E 2E30G14E 3
                                G 5G10E 8E 7
  23086777.767   121321860.241        4104.163          42.000  
  20246196.572   106394475.455       -2367.556          47.000  
  24500226.940   128749567.871       -2047.236          44.000  
  21332869.732   112104995.559         299.696          45.000  
  19101373.423   100378385.396        -776.192          47.000  
  20911805.715   109892280.020       -1998.138          45.000  
  19576377.013   102874558.911        1845.379          45.000  
  21900123.942   115085934.736        1138.911          45.000  
  22319587.973   117290224.728         492.599          44.000  
  24808183.305   130367898.455        2895.600          41.000  
  21962111.766   115411676.724       -2780.829          44.000  
  24809956.753   130377182.745       -2401.292          41.000  
  24171257.662   127020765.985       -3577.625          38.000  
  23220667.285   122025466.855        2527.512          41.000  
  22320379.009   117294367.234        -242.410          43.000  
  24179327.138   127063175.080        2347.345          44.000  
 23 12 19 12  2 48.9970000  0 16G12G13E25G23G15G22G24G17E 2E30G14E 3
                                G 5G10E 8E 7
  23085997.027   121317756.309        4104.094          42.000  
  20246647.084   106396843.298       -2367.824          47.000  
  24500616.970   128751615.381       -2047.408          44.000  
  21332812.600   112104696.275         299.072          45.000  
  19101521.165   100379161.994        -776.656          47.000  
  20912186.051   109894278.435       -1998.556          45.000  
  19576025.976   102872713.809        1845.128          45.000  
  21899907.184   115084796.264        1138.399          45.000  
  22319494.021   117289732.714         492.037          44.000  
  24807632.087   130365002.929        2895.637          41.000  
  21962640.647   115414457.672       -2780.943          45.000  
  24810413.844   130379584.362       -2401.505          41.000  
  24171938.255   127024343.457       -3576.951          38.000  
  23220186.261   122022939.770        2526.883          41.000  
  22320425.304   117294609.880        -242.627          43.000  
  24178880.456   127060827.964        2347.385          43.000  
 23 12 19 12  2 49.9970000  0 16G12G13E25G23G15G22G24G17E 2E30G14E 3
                                G 5G10E 8E 7
  23085216.322   121313652.498        4103.295          42.000  
  20247098.015   106399211.538       -2368.704          47.000  
  24501006.930   128753663.116       -2048.254          44.000  
  21332755.764   112104397.660         298.042          45.000  
  19101669.064   100379939.225        -777.767          47.000  
  20912566.283   109896277.247       -1999.317          45.000  
  19575674.965   102870869.106        1844.122          45.000  
  21899690.749   115083658.339        1137.461          45.000  
  22319400.706   117289241.091         490.962          44.000  
  24807081.201   130362107.610        2894.805          41.000  
  21963169.712   115417238.896       -2781.588          45.000  
  24810871.022   130381986.159       -2402.555          41.000  
  24172618.884   127027920.828       -3577.342          38.000  
  23219705.185   122020413.122        2526.304          41.000  
  22320471.713   117294852.897        -243.650          43.000  
  24178433.783   127058481.062        2346.500          43.000  
 23 12 19 12  2 50.9970000  0 16G12G13E25G23G15G22G24G17E 2E30G14E 3
                                G 5G10E 8E 7
  23084435.634   121309549.403        4102.910          42.000  
  20247548.955   106401580.737       -2369.392          47.000  
  24501396.375   128755711.631       -2048.552          44.000  
  21332698.981   112104100.329         296.715          45.000  
  19101817.365   100380717.679        -778.723          47.000  
  20912946.985   109898277.053       -2000.133          45.000  
  19575324.155   102869025.399        1843.271          45.000  
  21899474.611   115082521.583        1136.460          45.000  
  22319307.243   117288750.462         490.358          44.000  
  24806530.813   130359213.088        2894.491          41.000  
  21963698.864   115420020.988       -2782.099          44.000  
  24811328.279   130384388.708       -2402.594          41.000  
  24173299.660   127031498.732       -3577.599          37.000  
  23219224.475   122017887.547        2525.213          40.000  
  22320518.532   117295096.874        -244.349          43.000  
  24177987.563   127056134.918        2346.240          43.000  
 23 12 19 12  2 51.9970000  0 16G12G13E25G23G15G22G24G17E 2E30G14E 3
                                G 5G10E 8E 7
  23083655.182   121305446.575        4102.423          43.000  
  20247999.894   106403950.457       -2370.137          47.000  
  24501786.047   128757760.536       -2049.379          44.000  
  21332642.504   112103803.797         296.009          45.000  
  19101965.552   100381496.910        -779.656          47.000  
  20913327.601   109900277.390       -2000.783          45.000  
  19574973.100   102867182.218        1842.727          45.000  
  21899258.577   115081385.514        1135.455          45.000  
  22319213.788   117288260.387         489.831          44.000  
  24805980.241   130356318.924        2893.764          41.000  
  21964228.059   115422803.528       -2783.295          44.000  
  24811785.649   130386791.597       -2403.025          41.000  
  24173980.481   127035076.711       -3578.164          37.000  
  23218743.721   122015362.623        2524.342          40.000  
  22320565.046   117295341.331        -244.608          43.000  
  24177541.117   127053789.128        2345.630          43.000  
 23 12 19 12  2 52.9970000  0 16G12G13E25G23G15G22G24G17E 2E30G14E 3
                                G 5G10E 8E 7
  23082875.017   121301344.050        4102.545          43.000  
  20248451.201   106406320.746       -2370.332          47.000  
  24502175.553   128759809.827       -2049.402          44.000  
  21332586.157   112103508.135         295.455          45.000  
  19102114.245   100382276.932        -780.183          47.000  
  20913708.469   109902278.329       -2001.259          45.000  
  19574622.167   102865339.629        1842.369          45.000  
  21899042.928   115080250.175        1135.242          45.000  
  22319120.979   117287770.906         489.375          44.000  
  24805429.285   130353425.124        2893.775          41.000  
  21964757.446   115425586.515       -2783.186          44.000  
  24812242.958   130389194.865       -2403.364          40.000  
  24174661.109   127038654.770       -3578.270          37.000  
  23218263.518   122012838.324        2524.200          41.000  
  22320611.498   117295586.358        -245.057          43.000  
  24177094.775   127051443.702        2345.455          43.000  
 23 12 19 12  2 53.9970000  0 16G12G13E25G23G15G22G24G17E 2E30G14E 3
                                G 5G10E 8E 7
  23082094.652   121297241.590        4102.276          43.000  
  20248902.437   106408691.366       -2370.959          47.000  
  24502565.566   128761859.274       -2049.642          43.000  
  21332530.552   112103213.106         294.562          45.000  
  19102262.799   100383057.547        -781.025          47.000  
  20914089.311   109904279.591       -2001.377          45.000  
  19574271.357   102863497.389        1841.972          45.000  
  21898827.339   115079115.361        1134.399          45.000  
  22319028.013   117287281.778         488.865          44.000  
  24804878.923   130350531.491        2893.392          41.000  
  21965287.339   115428369.726       -2783.650          44.000  
  24812700.625   130391598.231       -2403.471          40.000  
  24175342.008   127042232.668       -3577.639          37.000  
  23217783.253   122010314.467        2523.652          41.000  
  22320658.186   117295831.705        -245.714          43.000  
  24176648.233   127049098.409        2345.304          43.000  
 23 12 19 12  2 54.9970000  0 16G12G13E25G23G15G22G24G17E 2E30G14E 3
                                G 5G10E 8E 7
  23081314.401   121293139.085        4102.435          43.000  
  20249353.552   106411062.172       -2370.945          47.000  
  24502955.430   128763908.773       -2049.508          43.000  
  21332474.537   112102918.564         294.333          45.000  
  19102411.536   100383838.596        -781.324          47.000  
  20914470.564   109906281.100       -2001.709          45.000  
  19573920.642   102861655.352        1842.120          45.000  
  21898611.392   115077980.907        1134.219          45.000  
  22318934.820   117286792.881         488.693          44.000  
  24804328.438   130347637.905        2893.597          41.000  
  21965817.189   115431153.039       -2783.345          44.000  
  24813157.733   130394001.648       -2403.425          40.000  
  24176022.584   127045810.323       -3577.410          37.000  
  23217303.032   122007790.884        2523.524          41.000  
  22320704.447   117296077.223        -245.583          43.000  
  24176201.961   127046753.138        2345.364          43.000  
 23 12 19 12  2 55.9970000  0 16G12G13E25G23G15G22G24G17E 2E30G14E 3
                                G 5G10E 8E 7
  23080533.922   121289036.773        4102.301          43.000  
  20249804.884   106413433.440       -2371.550          47.000  
  24503345.669   128765958.564       -2049.993          43.000  
  21332418.705   112102624.783         293.440          45.000  
  19102560.325   100384620.354        -782.148          47.000  
  20914851.572   109908283.071       -2002.158          45.000  
  19573570.146   102859813.827        1841.149          44.000  
  21898395.751   115076847.074        1133.579          46.000  
  22318841.793   117286304.458         488.181          44.000  
  24803778.015   130344744.582        2893.115          41.000  
  21966346.838   115433936.708       -2783.811          45.000  
  24813615.243   130396405.292       -2403.806          40.000  
  24176703.177   127049387.965       -3577.732          36.000  
  23216822.706   122005267.886        2522.926          41.000  
  22320751.309   117296323.192        -246.287          43.000  
  24175755.297   127044408.142        2344.849          43.000  
 23 12 19 12  2 56.9970000  0 16G12G13E25G23G15G22G24G17E 2E30G14E 3
                                G 5G10E 8E 7
  23079753.514   121284934.530        4102.411          43.000  
  20250256.147   106415805.031       -2371.740          47.000  
  24503735.289   128768008.502       -2049.969          43.000  
  21332362.751   112102331.628         292.789          45.000  
  19102709.149   100385402.673        -782.632          47.000  
  20915232.746   109910285.390       -2002.655          45.000  
  19573219.903   102857972.599        1840.909          45.000  
  21898180.232   115075713.743        1132.921          46.000  
  22318749.010   117285816.385         487.835          44.000  
  24803227.251   130341851.394        2893.111          41.000  
  21966876.801   115436720.591       -2784.075          44.000  
  24814072.413   130398809.084       -2403.980          40.000  
  24177383.770   127052965.439       -3577.524          36.000  
  23216342.580   122002745.291        2522.619          40.000  
  22320798.207   117296569.451        -246.442          43.000  
  24175308.824   127042063.268        2344.674          43.000  
 23 12 19 12  2 57.9970000  0 16G12G13E25G23G15G22G24G17E 2E30G14E 3
                                G 5G10E 8E 7
  23078973.035   121280832.477        4101.770          43.000  
  20250707.566   106418177.047       -2372.370          47.000  
  24504125.659   128770058.706       -2050.352          43.000  
  21332307.329   112102039.194         291.941          45.000  
  19102858.070   100386185.664        -783.215          47.000  
  20915613.806   109912288.151       -2003.034          45.000  
  19572869.546   102856131.843        1840.261          45.000  
  21897964.522   115074581.017        1132.242          46.000  
  22318656.332   117285328.771         487.258          44.000  
  24802677.002   130338958.470        2892.672          41.000  
  21967406.852   115439504.792       -2784.449          45.000  
  24814529.792   130401213.092       -2404.289          40.000  
  24178064.250   127056542.910       -3577.442          36.000  
  23215862.664   122000223.223        2521.706          40.000  
  22320845.462   117296816.135        -247.097          43.000  
  24174862.901   127039718.629        2344.395          43.000  
 23 12 19 12  2 58.9970000  0 16G12G13E25G23G15G22G24G17E 2E30G14E 3
                                G 5G10E 8E 7
  23078192.600   121276730.414        4101.904          43.000  
  20251159.187   106420549.319       -2372.719          47.000  
  24504515.950   128772109.021       -2050.693          43.000  
  21332251.828   112101747.309         291.396          45.000  
  19103007.382   100386969.175        -783.890          47.000  
  20915995.111   109914291.190       -2003.224          45.000  
  19572519.032   102854291.351        1840.184          45.000  
  21897749.360   115073448.721        1131.784          46.000  
  22318563.383   117284841.434         486.926          44.000  
  24802126.587   130336065.632        2892.562          41.000  
  21967937.059   115442289.174       -2784.665          45.000  
  24814987.083   130403617.174       -2404.358          40.000  
  24178744.809   127060120.166       -3577.496          36.000  
  23215382.801   121997701.494        2521.391          40.000  
  22320892.307   117297063.061        -247.352          43.000  
  24174416.751   127037374.069        2344.286          43.000  
 23 12 19 12  2 59.9970000  0 16G12G13E25G23G15G22G24G17E 2E30G14E 3
                                G 5G10E 8E 7
  23077412.218   121272628.342        4102.362          43.000  
  20251610.737   106422921.826       -2372.441          47.000  
  24504906.068   128774159.404       -2050.309          43.000  
  21332196.459   112101455.972         290.930          45.000  
  19103156.625   100387753.164        -784.087          47.000  
  20916376.529   109916294.497       -2003.379          45.000  
  19572168.806   102852451.120        1840.339          45.000  
  21897533.885   115072316.838        1131.832          46.000  
  22318470.740   117284354.371         486.939          44.000  
  24801576.486   130333172.862        2892.707          41.000  
  21968466.882   115445073.680       -2784.475          45.000  
  24815444.209   130406021.271       -2403.927          40.000  
  24179425.376   127063697.227       -3577.203          36.000  
  23214902.684   121995180.105        2521.427          40.000  
  22320939.021   117297310.200        -247.241          43.000  
  24173970.890   127035029.559        2344.425          43.000  
 23 12 19 12  3  0.9970000  0 16G12G13E25G23G15G22G24G17E 2E30G14E 3
                                G 5G10E 8E 7
  23076631.591   121268526.262        4102.130          43.000  
  20252062.218   106425294.585       -2372.873          47.000  
  24505296.333   128776209.878       -2050.610          43.000  
  21332141.272   112101165.172         290.489          45.000  
  19103305.895   100388537.656        -784.759          47.000  
  20916757.659   109918298.068       -2003.704          45.000  
  19571818.938   102850611.173        1839.758          45.000  
  21897318.488   115071185.406        1131.062          46.000  
  22318377.722   117283867.582         486.579          44.000  
  24801025.522   130330280.172        2892.206          41.000  
  21968996.985   115447858.338       -2784.720          45.000  
  24815901.265   130408425.468       -2404.289          40.000  
  24180105.769   127067274.025       -3576.768          36.000  
  23214423.126   121992659.069        2521.002          40.000  
  22320986.329   117297557.585        -247.493          43.000  
  24173524.583   127032685.106        2344.207          43.000  
 23 12 19 12  3  1.9970000  0 16G12G13E25G23G15G22G24G17E 2E30G14E 3
                                G 5G10E 8E 7
  23075851.235   121264424.607        4101.245          43.000  
  20252514.091   106427668.021       -2373.691          47.000  
  24505686.930   128778260.840       -2050.998          43.000  
  21332086.243   112100875.345         289.432          45.000  
  19103455.399   100389323.055        -785.811          47.000  
  20917138.885   109920302.328       -2004.642          45.000  
  19571469.044   102848771.902        1838.937          45.000  
  21897103.397   115070054.787        1130.253          46.000  
  22318285.192   117283381.485         485.748          44.000  
  24800475.308   130327387.936        2892.155          41.000  
  21969527.358   115450643.562       -2785.353          45.000  
  24816359.107   130410830.115       -2404.830          40.000  
  24180786.510   127070851.065       -3577.140          36.000  
  23213943.568   121990138.802        2520.024          40.000  
  22321033.165   117297805.630        -248.369          43.000  
  24173078.363   127030341.119        2343.905          43.000  
 23 12 19 12  3  2.9970000  0 16G12G13E25G23G15G22G24G17E 2E30G14E 3
                                G 5G10E 8E 7
  23075070.530   121260323.149        4101.526          43.000  
  20252965.947   106430041.916       -2374.044          47.000  
  24506077.309   128780312.127       -2051.472          43.000  
  21332031.301   112100586.288         288.761          45.000  
  19103605.061   100390109.182        -786.453          47.000  
  20917520.452   109922307.068       -2004.865          45.000  
  19571119.176   102846933.124        1838.600          45.000  
  21896888.401   115068924.828        1129.712          46.000  
  22318192.985   117282895.889         485.380          44.000  
  24799925.233   130324496.047        2891.478          41.000  
  21970057.322   115453429.154       -2785.585          45.000  
  24816817.018   130413235.049       -2405.327          40.000  
  24181467.078   127074428.077       -3576.600          36.000  
  23213464.289   121987619.084        2519.421          41.000  
  22321080.080   117298054.115        -248.720          43.000  
  24172632.065   127027997.434        2343.601          43.000  
 23 12 19 12  3  3.9970000  0 16G12G13E25G23G15G22G24G17E 2E30G14E 3
                                G 5G10E 8E 7
  23074290.444   121256221.924        4101.214          43.000  
  20253417.925   106432416.283       -2374.568          47.000  
  24506467.356   128782363.711       -2051.710          43.000  
  21331976.612   112100297.998         288.120          45.000  
  19103754.958   100390896.006        -787.034          47.000  
  20917901.983   109924312.304       -2005.291          45.000  
  19570769.377   102845094.836        1838.228          45.000  
  21896673.519   115067795.504        1129.083          46.000  
  22318100.848   117282410.789         484.948          45.000  
  24799374.705   130321604.423        2891.511          41.000  
  21970587.477   115456215.114       -2786.059          45.000  
  24817275.156   130415640.230       -2405.107          40.000  
  24182147.601   127078005.123       -3576.808          36.000  
  23212984.949   121985099.938        2518.863          40.000  
  22321127.440   117298303.055        -249.133          43.000  
  24172186.108   127025654.024        2343.368          43.000  
 23 12 19 12  3  4.9970000  0 16G12G13E25G23G15G22G24G17E 2E30G14E 3
                                G 5G10E 8E 7
  23073510.018   121252120.865        4100.391          43.000  
  20253869.999   106434791.068       -2375.455          47.000  
  24506857.586   128784415.545       -2052.249          43.000  
  21331921.609   112100010.423         286.937          45.000  
  19103904.926   100391683.516        -788.257          47.000  
  20918283.689   109926317.992       -2006.318          45.000  
  19570419.876   102843256.992        1837.130          45.000  
  21896459.074   115066666.798        1127.966          46.000  
  22318008.946   117281926.133         483.979          45.000  
  24798825.119   130318713.038        2890.951          41.000  
  21971117.850   115459001.422       -2786.925          45.000  
  24817732.509   130418045.670       -2406.117          40.000  
  24182828.264   127081582.099       -3577.337          36.000  
  23212505.653   121982581.312        2517.708          40.000  
  22321175.096   117298552.409        -249.969          42.000  
  24171740.211   127023310.853        2342.661          43.000  
 23 12 19 12  3  5.9970000  0 16G12G13E25G23G15G22G24G17E 2E30G14E 3
                                G 5G10E 8E 7
  23072729.688   121248020.180        4100.580          43.000  
  20254321.995   106437166.489       -2375.701          47.000  
  24507248.445   128786467.872       -2052.425          43.000  
  21331866.868   112099723.796         286.288          45.000  
  19104054.928   100392471.912        -788.703          47.000  
  20918665.247   109928324.337       -2006.604          45.000  
  19570070.313   102841419.798        1836.789          45.000  
  21896244.532   115065538.899        1127.649          46.000  
  22317917.097   117281442.149         483.731          45.000  
  24798275.080   130315822.143        2890.899          41.000  
  21971648.206   115461788.225       -2787.040          45.000  
  24818190.472   130420451.531       -2405.831          40.000  
  24183508.919   127085159.275       -3577.145          37.000  
  23212026.627   121980063.417        2517.618          41.000  
  22321222.613   117298802.374        -250.066          42.000  
  24171294.314   127020968.126        2342.695          43.000  
 23 12 19 12  3  6.9970000  0 16G12G13E25G23G15G22G24G17E 2E30G14E 3
                                G 5G10E 8E 7
  23071949.436   121243920.039        4099.927          43.000  
  20254774.148   106439542.698       -2376.687          47.000  
  24507638.946   128788520.822       -2053.292          43.000  
  21331812.371   112099438.259         284.962          45.000  
  19104205.069   100393261.363        -790.174          47.000  
  20919047.363   109930331.486       -2007.534          45.000  
  19569721.099   102839583.411        1835.949          45.000  
  21896029.903   115064411.967        1126.469          46.000  
  22317824.698   117280958.990         482.639          45.000  
  24797724.935   130312931.865        2889.835          41.000  
  21972178.640   115464575.738       -2787.923          44.000  
  24818648.776   130422858.010       -2406.823          40.000  
  24184189.704   127088736.756       -3577.828          37.000  
  23211547.854   121977546.415        2516.506          40.000  
  22321270.122   117299053.134        -251.214          42.000  
  24170848.627   127018626.012        2341.744          43.000  
 23 12 19 12  3  7.9970000  0 16G12G13E25G23G15G22G24G17E 2E30G14E 3
                                G 5G10E 8E 7
  23071169.263   121239820.306        4099.762          43.000  
  20255226.396   106441919.576       -2377.142          47.000  
  24508029.787   128790574.261       -2053.406          43.000  
  21331758.432   112099153.670         284.380          45.000  
  19104355.412   100394051.689        -790.514          47.000  
  20919429.322   109932339.332       -2007.974          45.000  
  19569372.025   102837747.707        1835.745          45.000  
  21895815.719   115063285.860        1126.234          46.000  
  22317732.858   117280476.503         482.344          45.000  
  24797175.210   130310042.058        2889.789          41.000  
  21972709.092   115467363.804       -2788.092          44.000  
  24819106.425   130425264.933       -2406.989          40.000  
  24184870.559   127092314.436       -3577.743          37.000  
  23211069.151   121975030.158        2516.199          40.000  
  22321317.429   117299304.536        -251.547          42.000  
  24170402.983   127016284.374        2341.625          43.000  
 23 12 19 12  3  8.9970000  0 16G12G13E25G23G15G22G24G17E 2E30G14E 3
                                G 5G10E 8E 7
  23070388.924   121235720.562        4099.341          43.000  
  20255678.819   106444296.679       -2377.697          47.000  
  24508420.472   128792627.785       -2053.916          43.000  
  21331704.354   112098869.628         283.275          45.000  
  19104506.147   100394842.520        -791.525          47.000  
  20919811.683   109934347.427       -2008.642          45.000  
  19569022.898   102835912.266        1834.846          45.000  
  21895601.177   115062160.196        1124.857          46.000  
  22317641.209   117279994.284         481.718          45.000  
  24796625.415   130307152.328        2889.101          41.000  
  21973239.997   115470152.014       -2788.689          44.000  
  24819564.293   130427671.893       -2407.161          40.000  
  24185551.458   127095891.904       -3577.936          36.000  
  23210590.343   121972514.257        2515.198          40.000  
  22321365.155   117299556.149        -252.007          42.000  
  24169957.270   127013942.771        2341.141          43.000  
 23 12 19 12  3  9.9970000  0 16G12G13E25G23G15G22G24G17E 2E30G14E 3
                                G 5G10E 8E 7
  23069608.681   121231621.014        4099.286          43.000  
  20256131.216   106446674.248       -2378.014          47.000  
  24508811.156   128794681.605       -2054.252          43.000  
  21331650.502   112098586.336         282.764          45.000  
  19104656.908   100395634.048        -792.039          47.000  
  20920194.087   109936356.005       -2009.042          45.000  
  19568673.711   102834077.298        1834.703          45.000  
  21895387.002   115061035.142        1124.633          46.000  
  22317549.796   117279512.551         481.371          45.000  
  24796075.733   130304262.879        2889.201          41.000  
  21973770.335   115472940.573       -2788.804          45.000  
  24820022.483   130430079.136       -2407.390          40.000  
  24186232.322   127099469.363       -3577.637          37.000  
  23210111.718   121969998.913        2514.974          41.000  
  22321413.021   117299808.202        -252.240          42.000  
  24169511.993   127011601.452        2341.019          43.000  
 23 12 19 12  3 10.9970000  0 16G12G13E25G23G15G22G24G17E 2E30G14E 3
                                G 5G10E 8E 7
  23068828.561   121227521.451        4099.347          43.000  
  20256583.683   106449052.051       -2377.815          47.000  
  24509202.137   128796735.506       -2053.911          43.000  
  21331596.791   112098303.576         282.695          45.000  
  19104807.599   100396426.062        -792.039          47.000  
  20920576.351   109938364.838       -2008.868          46.000  
  19568324.323   102832242.602        1834.673          45.000  
  21895173.054   115059910.512        1124.615          45.000  
  22317458.008   117279031.086         481.514          45.000  
  24795525.999   130301373.491        2889.466          42.000  
  21974301.031   115475729.278       -2788.698          45.000  
  24820480.639   130432486.430       -2407.212          40.000  
  24186913.038   127103046.558       -3577.051          37.000  
  23209633.225   121967483.918        2514.610          41.000  
  22321460.870   117300060.507        -252.340          42.000  
  24169066.680   127009260.173        2341.235          43.000  
 23 12 19 12  3 11.9970000  0 16G12G13E25G23G15G22G24G17E 2E30G14E 3
                                G 5G10E 8E 7
  23068048.239   121223421.942        4099.262          43.000  
  20257035.862   106451430.121       -2378.372          47.000  
  24509593.004   128798789.500       -2054.319          43.000  
  21331543.053   112098021.431         281.496          44.000  
  19104958.587   100397218.617        -792.768          48.000  
  20920958.825   109940373.950       -2009.477          46.000  
  19567975.353   102830408.191        1833.986          45.000  
  21894959.105   115058786.351        1123.837          44.000  
  22317366.604   117278549.935         480.810          44.000  
  24794976.160   130298484.216        2889.112          41.000  
  21974831.727   115478518.166       -2789.323          45.000  
  24820938.838   130434893.786       -2407.396          40.000  
  24187593.709   127106623.633       -3576.977          36.000  
  23209154.696   121964969.258        2514.383          42.000  
  22321508.666   117300313.057        -252.897          42.000  
  24168621.046   127006918.984        2341.109          43.000  
 23 12 19 12  3 12.9970000  0 16G12G13E25G23G15G22G24G17E 2E30G14E 3
                                G 5G10E 8E 7
  23067268.049   121219322.675        4099.182          43.000  
  20257488.372   106453808.729       -2378.851          47.000  
  24509983.941   128800843.879       -2054.678          42.000  
  21331489.132   112097740.076         280.952          44.000  
  19105109.078   100398011.943        -793.508          48.000  
  20921341.168   109942383.622       -2009.884          46.000  
  19567626.602   102828574.323        1833.705          46.000  
  21894745.192   115057662.874        1123.285          44.000  
  22317275.104   117278069.346         480.289          45.000  
  24794426.879   130295595.305        2888.625          41.000  
  21975362.668   115481307.478       -2789.584          44.000  
  24821397.412   130437301.497       -2408.095          41.000  
  24188274.294   127110200.719       -3577.477          36.000  
  23208676.769   121962455.238        2513.752          41.000  
  22321556.724   117300566.127        -253.414          43.000  
  24168175.201   127004578.152        2340.620          42.000  
 23 12 19 12  3 13.9970000  0 16G12G13E25G23G15G22G24G17E 2E30G14E 3
                                G 5G10E 8E 7
  23066487.954   121215223.626        4098.785          43.000  
  20257940.978   106456187.795       -2379.410          47.000  
  24510374.983   128802898.544       -2055.024          42.000  
  21331435.333   112097459.491         280.034          45.000  
  19105260.092   100398805.975        -794.505          47.000  
  20921724.096   109944393.770       -2010.246          46.000  
  19567277.571   102826740.946        1832.999          46.000  
  21894531.680   115056540.040        1122.461          44.000  
  22317183.830   117277589.231         479.726          44.000  
  24793877.110   130292706.663        2888.400          41.000  
  21975893.608   115484097.140       -2790.049          44.000  
  24821855.925   130439709.452       -2408.162          41.000  
  24188954.922   127113777.794       -3576.977          36.000  
  23208198.677   121959941.818        2513.086          41.000  
  22321605.201   117300819.637        -253.809          43.000  
  24167729.950   127002237.583        2340.272          42.000  
 23 12 19 12  3 14.9970000  0 16G12G13E25G23G15G22G24G17E 2E30G14E 3
                                G 5G10E 8E 7
  23065707.991   121211124.541        4098.688          43.000  
  20258393.663   106458567.074       -2379.982          47.000  
  24510765.790   128804953.260       -2055.332          42.000  
  21331382.092   112097179.411         279.415          44.000  
  19105411.141   100399600.462        -795.118          47.000  
  20922106.971   109946404.158       -2010.859          46.000  
  19566928.872   102824907.797        1832.683          46.000  
  21894317.932   115055417.594        1121.728          44.000  
  22317092.164   117277109.350         479.370          45.000  
  24793327.463   130289818.058        2888.015          41.000  
  21976424.653   115486886.916       -2790.320          44.000  
  24822314.386   130442117.432       -2408.449          41.000  
  24189635.463   127117354.623       -3577.135          36.000  
  23207720.515   121957428.686        2512.529          41.000  
  22321653.407   117301073.338        -254.164          43.000  
  24167284.638   126999897.038        2340.065          42.000  
 23 12 19 12  3 15.9970000  0 16G12G13E25G23G15G22G24G17E 2E30G14E 3
                                G 5G10E 8E 7
  23064927.957   121207025.462        4098.871          42.000  
  20258846.182   106460946.597       -2379.726          46.000  
  24511156.762   128807008.049       -2054.858          42.000  
  21331328.939   112096899.888         279.069          44.000  
  19105562.504   100400395.459        -795.216          48.000  
  20922489.619   109948414.817       -2010.878          46.000  
  19566580.173   102823074.924        1832.819          45.000  
  21894104.141   115054295.576        1121.668          43.000  
  22317001.013   117276629.752         479.415          45.000  
  24792777.476   130286929.522        2888.493          41.000  
  21976955.462   115489676.825       -2789.988          44.000  
  24822772.184   130444525.482       -2408.192          40.000  
  24190316.083   127120931.247       -3576.338          36.000  
  23207242.510   121954915.885        2512.578          41.000  
  22321702.102   117301327.287        -254.145          43.000  
  24166839.570   126997556.545        2340.453          42.000  
 23 12 19 12  3 16.9970000  0 16G12G13E25G23G15G22G24G17E 2E30G14E 3
                                G 5G10E 8E 7
  23064148.002   121202926.490        4098.706          43.000  
  20259298.797   106463326.484       -2380.291          46.000  
  24511547.594   128809063.047       -2055.204          42.000  
  21331275.698   112096621.009         278.486          44.000  
  19105714.068   100401191.050        -796.090          48.000  
  20922872.407   109950425.839       -2011.278          46.000  
  19566231.457   102821242.432        1831.985          46.000  
  21893890.506   115053174.083        1121.059          43.000  
  22316909.914   117276150.542         478.941          45.000  
  24792227.419   130284041.196        2887.957          41.000  
  21977486.394   115492467.010       -2790.423          44.000  
  24823230.636   130446933.666       -2408.459          40.000  
  24190996.642   127124507.740       -3576.504          36.000  
  23206764.435   121952403.562        2511.817          41.000  
  22321750.448   117301581.565        -254.522          43.000  
  24166394.433   126995216.246        2339.968          42.000  
 23 12 19 12  3 17.9970000  0 16G12G13E25G23G15G22G24G17E 2E30G14E 3
                                G 5G10E 8E 7
  23063368.283   121198827.702        4098.370          43.000  
  20259751.630   106465706.826       -2380.737          46.000  
  24511939.081   128811118.336       -2055.617          42.000  
  21331222.510   112096342.893         277.499          44.000  
  19105865.510   100401987.339        -796.790          48.000  
  20923254.838   109952437.345       -2011.959          46.000  
  19565882.784   102819410.400        1831.583          46.000  
  21893676.863   115052053.233        1120.253          43.000  
  22316818.763   117275671.816         478.292          45.000  
  24791677.685   130281153.134        2887.837          41.000  
  21978017.360   115495257.540       -2790.861          44.000  
  24823689.097   130449342.121       -2408.857          40.000  
  24191677.331   127128084.254       -3576.780          36.000  
  23206286.744   121949891.784        2511.135          41.000  
  22321798.724   117301836.289        -254.979          43.000  
  24165949.033   126992876.201        2339.731          42.000  
 23 12 19 12  3 18.9970000  0 16G12G13E25G23G15G22G24G17E 2E30G14E 3
                                G 5G10E 8E 7
  23062588.145   121194729.138        4098.200          43.000  
  20260204.681   106468087.628       -2381.260          46.000  
  24512330.114   128813173.923       -2055.973          42.000  
  21331169.644   112096065.536         276.732          44.000  
  19106017.109   100402784.348        -797.591          47.000  
  20923637.809   109954449.331       -2012.482          46.000  
  19565534.399   102817578.855        1831.076          46.000  
  21893463.473   115050933.008        1119.745          43.000  
  22316727.821   117275193.583         477.770          45.000  
  24791127.671   130278265.363        2887.467          41.000  
  21978548.597   115498048.440       -2791.359          44.000  
  24824147.462   130451750.852       -2409.163          40.000  
  24192358.012   127131660.740       -3576.633          36.000  
  23205808.948   121947380.543        2510.772          42.000  
  22321847.514   117302091.464        -255.674          43.000  
  24165503.904   126990536.442        2339.324          42.000  
 23 12 19 12  3 19.9970000  0 16G12G13E25G23G15G22G24G17E 2E30G14E 3
                                G 5G10E 8E 7
  23061808.163   121190630.536        4098.645          43.000  
  20260657.488   106470468.661       -2381.385          46.000  
  24512721.278   128815229.579       -2055.795          42.000  
  21331116.997   112095788.708         276.449          44.000  
  19106168.926   100403581.823        -797.783          47.000  
  20924020.553   109956461.559       -2012.288          45.000  
  19565186.041   102815747.567        1831.129          46.000  
  21893250.066   115049813.185        1119.746          42.000  
  22316637.036   117274715.594         477.881          45.000  
  24790578.033   130275377.657        2887.550          41.000  
  21979079.494   115500839.453       -2791.099          44.000  
  24824605.931   130454159.603       -2408.792          40.000  
  24193038.657   127135236.985       -3576.379          36.000  
  23205331.301   121944869.638        2510.823          42.000  
  22321895.817   117302346.845        -255.387          43.000  
  24165058.575   126988196.710        2339.692          42.000  
 23 12 19 12  3 20.9970000  0 16G12G13E25G23G15G22G24G17E 2E30G14E 3
                                G 5G10E 8E 7
  23061028.331   121186531.893        4098.603          43.000  
  20261110.505   106472849.886       -2381.369          46.000  
  24513112.373   128817285.263       -2055.814          42.000  
  21331064.367   112095512.377         275.918          44.000  
  19106320.865   100404379.757        -798.450          47.000  
  20924403.673   109958474.026       -2012.652          45.000  
  19564837.638   102813916.491        1830.913          46.000  
  21893036.955   115048693.758        1119.225          42.000  
  22316545.972   117274237.839         477.621          45.000  
  24790028.246   130272489.967        2887.705          41.000  
  21979610.670   115503630.579       -2791.300          44.000  
  24825064.139   130456568.354       -2408.607          40.000  
  24193719.146   127138812.944       -3575.994          36.000  
  23204854.072   121942359.039        2510.477          42.000  
  22321944.372   117302602.431        -255.690          43.000  
  24164613.123   126985857.007        2339.695          42.000  
 23 12 19 12  3 21.9970000  0 16G12G13E25G23G15G22G24G17E 2E30G14E 3
                                G 5G10E 8E 7
  23060248.603   121182433.548        4098.333          43.000  
  20261563.530   106475231.667       -2381.960          46.000  
  24513503.301   128819341.333       -2056.176          42.000  
  21331011.947   112095236.881         275.196          44.000  
  19106472.847   100405178.472        -799.157          47.000  
  20924786.557   109960487.053       -2013.330          45.000  
  19564489.358   102812085.982        1830.310          46.000  
  21892823.862   115047575.059        1118.250          42.000  
  22316455.179   117273760.657         476.924          45.000  
  24789478.364   130269602.668        2887.005          40.000  
  21980141.924   115506422.127       -2791.588          44.000  
  24825522.591   130458977.481       -2409.259          40.000  
  24194399.678   127142388.999       -3575.959          36.000  
  23204376.626   121939849.081        2509.784          42.000  
  22321993.093   117302858.529        -256.276          43.000  
  24164167.837   126983517.657        2339.012          42.000  
 23 12 19 12  3 22.9970000  0 16G12G13E25G23G15G22G24G17E 2E30G14E 3
                                G 5G10E 8E 7
  23059468.892   121178335.367        4097.949          43.000  
  20262016.895   106477613.852       -2382.599          46.000  
  24513894.666   128821397.648       -2056.486          42.000  
  21330959.797   112094962.112         274.247          44.000  
  19106625.066   100405977.851        -799.860          48.000  
  20925169.545   109962500.510       -2013.862          45.000  
  19564141.322   102810255.919        1829.624          46.000  
  21892610.847   115046456.929        1117.743          42.000  
  22316364.682   117273283.911         476.491          45.000  
  24788928.857   130266715.587        2886.829          40.000  
  21980673.336   115509214.017       -2792.222          44.000  
  24825981.122   130461386.802       -2409.522          40.000  
  24195080.228   127145964.991       -3576.009          36.000  
  23203899.022   121937339.654        2508.937          42.000  
  22322041.805   117303115.034        -256.698          43.000  
  24163723.014   126981178.525        2338.939          42.000  
 23 12 19 12  3 23.9970000  0 16G12G13E25G23G15G22G24G17E 2E30G14E 3
                                G 5G10E 8E 7
  23058688.972   121174237.305        4098.017          43.000  
  20262470.208   106479996.417       -2382.743          46.000  
  24514286.092   128823454.175       -2056.440          42.000  
  21330907.542   112094688.028         273.542          44.000  
  19106777.083   100406777.862        -800.188          48.000  
  20925552.770   109964514.369       -2013.974          45.000  
  19563792.929   102808426.247        1829.441          46.000  
  21892398.111   115045339.383        1117.410          42.000  
  22316273.828   117272807.577         476.316          45.000  
  24788379.306   130263828.726        2886.603          40.000  
  21981204.608   115512006.171       -2792.293          44.000  
  24826439.426   130463796.328       -2409.598          40.000  
  24195760.717   127149540.936       -3576.280          36.000  
  23203421.523   121934830.700        2508.723          42.000  
  22322090.535   117303371.907        -256.914          43.000  
  24163278.243   126978839.608        2338.798          42.000  
 23 12 19 12  3 24.9970000  0 16G12G13E25G23G15G22G24G17E 2E30G14E 3
                                G 5G10E 8E 7
  23057908.939   121170139.350        4097.742          43.000  
  20262923.504   106482379.343       -2383.377          46.000  
  24514677.352   128825510.927       -2057.117          42.000  
  21330855.567   112094414.590         272.901          44.000  
  19106929.633   100407578.491        -801.133          47.000  
  20925936.151   109966528.623       -2014.655          45.000  
  19563444.788   102806596.946        1829.065          46.000  
  21892185.315   115044222.361        1116.554          42.000  
  22316183.287   117272331.647         475.448          45.000  
  24787829.807   130260942.079        2886.137          40.000  
  21981735.941   115514798.582       -2792.623          44.000  
  24826897.956   130466206.012       -2410.097          40.000  
  24196441.031   127153116.718       -3575.694          36.000  
  23202944.408   121932322.198        2508.007          42.000  
  22322139.500   117303629.142        -257.757          43.000  
  24162833.419   126976500.848        2338.492          42.000  
 23 12 19 12  3 25.9970000  0 16G12G13E25G23G15G22G24G17E 2E30G14E 3
                                G 5G10E 8E 7
  23057129.062   121166041.539        4097.693          43.000  
  20263377.018   106484762.660       -2383.479          46.000  
  24515068.935   128827567.889       -2057.245          42.000  
  21330803.608   112094141.853         272.163          45.000  
  19107082.209   100408379.738        -801.521          47.000  
  20926319.427   109968543.281       -2014.932          45.000  
  19563096.883   102804768.080        1828.495          46.000  
  21891972.701   115043105.914        1116.110          43.000  
  22316092.825   117271856.108         475.288          44.000  
  24787280.422   130258055.609        2886.140          40.000  
  21982267.518   115517591.294       -2793.017          44.000  
  24827356.016   130468615.884       -2410.133          40.000  
  24197121.746   127156692.461       -3576.220          36.000  
  23202467.005   121929814.183        2507.694          42.000  
  22322188.239   117303886.730        -257.716          42.000  
  24162388.334   126974162.305        2338.344          42.000  
 23 12 19 12  3 26.9970000  0 16G12G13E25G23G15G22G24G17E 2E30G14E 3
                                G 5G10E 8E 7
  23056349.360   121161943.995        4097.296          43.000  
  20263830.462   106487146.504       -2384.360          46.000  
  24515460.308   128829625.214       -2057.615          43.000  
  21330751.816   112093869.929         271.311          44.000  
  19107235.003   100409181.771        -802.555          47.000  
  20926702.756   109970558.475       -2015.458          45.000  
  19562748.865   102802939.735        1827.903          46.000  
  21891760.088   115041990.148        1115.378          43.000  
  22316002.616   117271381.131         474.685          44.000  
  24786731.420   130255169.492        2885.990          40.000  
  21982799.043   115520384.408       -2793.483          45.000  
  24827814.878   130471026.095       -2410.292          40.000  
  24197802.305   127160268.217       -3576.090          36.000  
  23201989.881   121927306.804        2506.910          42.000  
  22322237.152   117304144.825        -258.479          42.000  
  24161943.170   126971824.109        2337.900          42.000  
 23 12 19 12  3 27.9970000  0 16G12G13E25G23G15G22G24G17E 2E30G14E 3
                                G 5G10E 8E 7
  23055569.798   121157846.503        4097.345          43.000  
  20264284.281   106489530.641       -2384.564          46.000  
  24515852.022   128831682.672       -2057.961          43.000  
  21330700.373   112093598.598         270.785          44.000  
  19107387.535   100409984.338        -803.170          47.000  
  20927086.347   109972573.994       -2015.968          45.000  
  19562401.344   102801111.722        1827.636          46.000  
  21891548.042   115040874.880        1114.622          43.000  
  22315912.023   117270906.491         473.914          44.000  
  24786182.454   130252283.519        2885.570          41.000  
  21983330.489   115523177.727       -2793.762          45.000  
  24828273.435   130473436.410       -2410.878          40.000  
  24198483.047   127163843.837       -3575.665          36.000  
  23201512.914   121924799.819        2506.471          42.000  
  22322286.230   117304403.215        -258.911          42.000  
  24161497.814   126969486.001        2337.774          42.000  
 23 12 19 12  3 28.9970000  0 16G12G13E25G23G15G22G24G17E 2E30G14E 3
                                G 5G10E 8E 7
  23054790.244   121153749.360        4097.138          43.000  
  20264738.135   106491915.366       -2384.783          47.000  
  24516243.936   128833740.543       -2057.881          43.000  
  21330649.445   112093328.183         270.180          44.000  
  19107540.635   100410787.752        -803.594          47.000  
  20927469.833   109974590.101       -2016.215          45.000  
  19562053.648   102799284.325        1827.326          46.000  
  21891336.100   115039760.371        1114.276          44.000  
  22315821.832   117270432.447         473.898          44.000  
  24785633.758   130249397.944        2885.558          41.000  
  21983861.857   115525971.526       -2793.808          45.000  
  24828732.306   130475847.117       -2410.727          40.000  
  24199163.300   127167419.583       -3575.271          36.000  
  23201036.008   121922293.522        2506.095          42.000  
  22322335.257   117304662.179        -259.068          42.000  
  24161052.965   126967148.304        2337.702          42.000  
