     2.11           OBSERVATION DATA    M (MIXED)           RINEX VERSION / TYPE
teqc  2019Feb25                         20240204 17:13:21UTCPGM / RUN BY / DATE
Linux 2.6.32-573.12.1.x86_64|x86_64|gcc|Linux 64|=+         COMMENT
teqc  2019Feb25                         20240204 17:13:21UTCCOMMENT
teqc  2019Feb25     IGN-RGP             20240204 13:02:18UTCCOMMENT
teqc  2019Feb25     Administrateur RGP  20240204 13:02:18UTCCOMMENT
teqc  2019Feb25     IGN-RGP             20240204 13:02:15UTCCOMMENT
teqc  2019Feb25     IGN-RGP             20240204 13:02:14UTCCOMMENT
BIT 2 OF LLI FLAGS DATA COLLECTED UNDER A/S CONDITION       COMMENT
IGNF                                                        MARKER NAME
10001M009                                                   MARKER NUMBER
Automatic           IGN                                     OBSERVER / AGENCY
1834194             LEICA GR50          4.51                REC # / TYPE / VERS
5000113963          TRM57971.00     NONE                    ANT # / TYPE
  4201694.1440   177888.8370  4779371.7670                  APPROX POSITION XYZ
        0.0000        0.0000        0.0000                  ANTENNA: DELTA H/E/N
     1     1                                                WAVELENGTH FACT L1/2
    21    L1    L2    C1    P1    P2    D1    D2    S1    S2# / TYPES OF OBSERV
          L5    C5    D5    S5    L7    C7    D7    S7    L8# / TYPES OF OBSERV
          C8    D8    S8                                    # / TYPES OF OBSERV
    30.0000                                                 INTERVAL
DefaultJobName                                              COMMENT
DefaultUserDiscription                                      COMMENT
Project creator:                                            COMMENT
 SNR is mapped to RINEX snr flag value [0-9]                COMMENT
  L1 & L2: min(max(int(snr_dBHz/6), 0), 9)                  COMMENT
    18                                                      LEAP SECONDS
Forced Modulo Decimation to 30 seconds                      COMMENT
teqc_2019 edited: all GLONASS satellites excluded           COMMENT
teqc_2019 edited: all SBAS satellites excluded              COMMENT
  2024     2     4    12     0    0.0000000     GPS         TIME OF FIRST OBS
                                                            END OF HEADER
 24  2  4 12  0  0.0000000  0 19G03G06G11G12G19G24G25G28G29G32E02E07
                                E08E10E11E25E27E30E36
 133852871.288 5 104300977.18444  25471356.420                    25471364.020
       907.431         707.073          34.850          26.200    99955108.840 6
  25471366.960         677.554          40.550


 123814690.218 7  96479043.60247  23561138.580                    23561143.760
       556.389         433.548          44.750          44.500    92459123.538 7
  23561143.760         415.525          43.750


 126862483.337 7  98853929.43647  24141113.340                    24141120.860
      2319.700        1807.557          42.050          42.250    94735058.317 7
  24141124.200        1732.174          47.600


 106553937.153 8  83029075.85348  20276522.840                    20276521.940
      -918.637        -715.822          50.350          50.200



 128053775.132 6  99782179.46546  24367821.680                    24367824.000
     -3398.812       -2648.430          40.700          36.800



 119182124.353 7  92869186.22947  22679611.160                    22679615.560
     -3250.283       -2532.693          46.800          46.650    88999649.735 8
  22679617.360       -2427.266          50.500


 106014474.298 8  82608718.96248  20173860.160                    20173862.340
      1344.248        1047.466          50.800          50.650    79166706.747 9
  20173864.300        1003.745          55.300


 124832487.923 7  97272053.64346  23754829.460                    23754831.900
      3335.819        2599.342          44.200          40.050    93219107.513 8
  23754839.160        2491.055          48.000


 125002255.002 7  97404426.67047  23787122.120                    23787125.660
      3746.581        2919.416          45.700          45.700



 115452028.018 8  89962628.32347  21969792.520                    21969794.440
       220.648         171.935          51.700          46.700    86214180.445 8
  21969794.860         164.754          51.000


 124219584.928 8                  23638195.680
     -1074.564                          51.850                    92761415.216 8
  23638200.660        -802.479          53.400    95181260.482 9  23638198.120
      -823.376          54.350    93971342.002 9  23638199.800        -812.921
        57.050
 129894533.883 8                  24718114.960
       -48.956                          51.850                    96999171.048 8
  24718121.620         -36.521          50.800    99529574.697 8  24718118.440
       -37.496          51.850    98264368.026 9  24718120.660         -36.984
        54.600
 133698654.398 8                  25442021.980
     -2639.753                          49.450                    99839888.349 8
  25442029.660       -1971.216          49.000   102444404.925 8  25442022.920
     -2022.653          48.100   101142149.796 8  25442027.360       -1996.984
        51.900
 147273015.781 6                  28025115.060
     -1248.583                          41.200                   109976667.659 7
  28025127.560        -932.513          42.700   112845624.063 7  28025122.320
      -956.804          42.800   111411135.008 7  28025124.780        -944.530
        45.900
 136068468.437 6                  25892954.540
        70.994                          39.450                   101609646.806 6
  25892963.060          53.060          41.650   104260303.776 6  25892957.220
        54.307          39.000   102934981.451 7  25892960.300          53.611
        43.900
 143292461.678 7                  27267665.940
     -2504.589                          43.900                   107004107.873 7
  27267678.700       -1870.235          45.500   109795505.715 7  27267674.560
     -1919.025          46.600   108399794.950 8  27267677.080       -1894.658
        49.150
 149539777.119 6                  28456472.020
      2561.438                          40.300                   111669372.190 6
  28456486.260        1912.813          40.800   114582475.173 7  28456482.220
      1962.575          43.000   113125916.840 7  28456484.000        1937.661
        44.900
 128144562.464 8                  24385080.040
      1408.349                          52.500                    95692427.634 8
  24385085.540        1051.657          52.550    98188759.101 8  24385081.860
      1079.037          52.350    96940602.023 9  24385084.500        1065.348
        55.750
 140630555.861 7                  26761092.240
      2310.456                          44.600                   105016413.945 7
  26761103.140        1725.251          43.650   107755930.300 7  26761102.600
      1770.282          45.400   106386165.777 7  26761102.200        1747.776
        47.650
 24  2  4 12  0 30.0000000  0 19G03G06G11G12G19G24G25G28G29G32E02E07
                                E08E10E11E25E27E30E36
 133825931.336 5                  25466227.900
       889.678                          32.500                    99934983.907 6
  25466239.060         664.003          37.050


 123798283.356 7  96466258.96747  23558016.280                    23558021.520
       537.458         418.796          43.350          43.200    92446871.599 7
  23558021.780         401.211          44.700


 126793066.646 6  98799838.41446  24127903.860                    24127911.280
      2308.335        1798.698          41.900          41.950    94683221.058 7
  24127914.760        1723.694          47.900


 106581698.867 8  83050708.34948  20281805.680                    20281804.660
      -932.115        -726.324          50.800          50.750



 128155846.058 6  99861715.13946  24387245.100                    24387247.280
     -3405.951       -2653.993          40.800          38.250



 119279752.176 7  92945259.74947  22698189.180                    22698193.500
     -3258.204       -2538.864          46.650          46.850    89072553.483 8
  22698195.620       -2432.949          50.350


 105974352.733 8  82577455.40148  20166225.380                    20166227.500
      1330.655        1036.874          51.100          51.250    79136745.840 9
  20166229.500         993.594          55.450


 124732466.553 7  97194115.01146  23735795.900                    23735798.560
      3332.452        2596.720          44.900          40.800    93144416.361 7
  23735805.620        2488.404          47.800


 124889935.958 7  97316905.37947  23765748.480                    23765751.840
      3741.591        2915.526          45.300          44.900



 115445710.209 8  89957705.35947  21968590.280                    21968592.360
       200.584         156.300          51.650          45.950    86209462.607 8
  21968592.580         149.784          50.950


 124251915.641 8                  23644348.080
     -1080.763                          52.550                    92785558.272 8
  23644352.780        -807.079          53.100    95206033.360 9  23644350.440
      -828.142          54.100    93995799.970 9  23644352.140        -817.592
        56.750
 129896220.778 8                  24718436.100
       -63.522                          51.900                    97000430.766 8
  24718442.740         -47.416          50.700    99530867.277 8  24718439.340
       -48.664          51.650    98265644.176 9  24718441.640         -48.037
        54.300
 133777966.383 8                  25457114.440
     -2647.652                          49.550                    99899114.771 8
  25457122.140       -1977.183          48.400   102505176.386 8  25457115.620
     -2028.761          48.100   101202148.730 8  25457119.960       -2002.915
        51.500
 147310679.542 6                  28032282.300
     -1262.246                          41.650                   110004793.091 7
  28032294.340        -942.728          42.200   112874483.213 7  28032289.480
      -967.157          42.350   111439627.314 7  28032292.160        -955.017
        45.400
 136066563.408 6                  25892591.800
        55.718                          40.900                   101608224.249 6
  25892600.220          41.750          41.250   104258844.071 6  25892594.240
        42.848          39.000   102933540.312 7  25892597.700          42.321
        43.550
 143367607.752 7                  27281965.840
     -2505.123                          44.200                   107060223.331 7
  27281978.700       -1870.784          44.850   109853085.044 7  27281974.300
     -1919.427          46.550   108456642.344 8  27281976.960       -1895.131
        48.750
 149462956.536 6                  28441853.040
      2560.060                          38.950                   111612006.631 6
  28441867.540        1911.842          40.200   114523613.040 6  28441863.320
      1961.548          40.550   113067802.992 7  28441865.120        1936.662
        43.350
 128102411.294 8                  24377058.940
      1401.813                          52.350                    95660951.148 8
  24377064.640        1046.785          52.450    98156461.473 8  24377060.640
      1074.144          52.450    96908714.965 9  24377063.280        1060.474
        55.650
 140561380.075 7                  26747928.620
      2301.256                          44.800                   104964756.582 7
  26747939.600        1718.580          43.600   107702925.380 7  26747938.960
      1763.391          45.950   106333834.634 7  26747938.660        1740.936
        47.700
 24  2  4 12  1  0.0000000  0 19G03G06G11G12G19G24G25G28G29G32E02E07
                                E08E10E11E25E27E30E36
 133799530.644 5                  25461203.880
       871.669                          32.500                    99915269.035 5
  25461214.800         650.371          34.550


 123782452.927 7  96453923.58447  23555003.600                    23555009.000
       518.117         403.729          43.950          44.000    92435050.181 7
  23555010.400         386.808          46.000


 126723998.606 7  98746019.02146  24114760.780                    24114768.100
      2296.275        1789.299          42.200          41.600    94631644.083 8
  24114771.560        1714.804          48.050


 106609872.526 8  83072661.83748  20287167.000                    20287165.860
      -946.062        -737.191          51.300          51.350



 128258149.956 6  99941432.31346  24406712.900                    24406714.960
     -3413.996       -2660.262          41.850          38.300



 119377614.231 7  93021515.78347  22716811.800                    22716816.020
     -3265.941       -2544.893          47.400          47.250    89145632.189 8
  22716818.300       -2438.990          50.550


 105934641.870 8  82546511.87148  20158668.760                    20158670.780
      1316.780        1026.063          51.750          51.450    79107091.624 9
  20158672.980         983.287          55.700


 124632555.522 7  97116262.37946  23716783.360                    23716786.180
      3328.600        2593.717          44.750          40.300    93069807.617 7
  23716793.100        2485.564          47.550


 124777777.436 7  97229509.19247  23744405.380                    23744408.580
      3735.866        2911.066          45.950          46.100



 115439994.785 8  89953251.79747  21967502.560                    21967504.920
       180.486         140.640          51.400          46.250    86205194.608 8
  21967504.960         134.700          51.000


 124284436.254 8                  23650536.740
     -1087.316                          52.850                    92809843.140 8
  23650541.100        -811.929          53.050    95230951.744 9  23650538.860
      -833.121          54.050    94020401.597 9  23650540.620        -822.529
        56.550
 129898348.710 8                  24718841.080
       -78.433                          51.950                    97002019.830 8
  24718847.680         -58.567          50.700    99532497.785 8  24718844.120
       -60.062          51.500    98267253.960 9  24718846.520         -59.290
        54.050
 133857519.183 8                  25472252.740
     -2655.845                          49.250                    99958521.022 8
  25472260.220       -1983.273          48.700   102566132.363 7  25472254.060
     -2035.050          47.750   101262329.851 8  25472258.320       -2009.199
        51.300
 147348755.511 7                  28039528.200
     -1276.171                          42.350                   110033226.309 7
  28039539.420        -952.909          42.050   112903658.209 7  28039534.960
      -977.872          42.050   111468431.420 7  28039538.060        -965.362
        45.050
 136065117.869 6                  25892317.040
        40.370                          41.100                   101607144.825 6
  25892325.040          30.240          41.150   104257736.480 6  25892319.420
        30.795          39.450   102932446.797 7  25892322.420          30.658
        43.550
 143442773.336 7                  27296269.560
     -2506.153                          44.950                   107116353.335 7
  27296282.500       -1871.388          44.600   109910679.325 7  27296277.740
     -1920.175          45.950   108513504.491 8  27296280.500       -1895.867
        48.000
 149386180.717 6                  28427242.600
      2558.388                          40.250                   111554674.379 6
  28427256.680        1910.411          39.250   114464785.127 6  28427252.920
      1960.277          41.300   113009722.910 7  28427254.620        1935.336
        43.300
 128060457.737 8                  24369075.300
      1394.936                          52.350                    95629622.236 8
  24369081.280        1041.759          52.550    98124315.279 8  24369077.240
      1068.911          52.700    96876977.413 9  24369079.700        1055.321
        55.550
 140492478.378 7                  26734817.100
      2292.037                          45.000                   104913303.969 7
  26734828.240        1711.560          44.050   107650130.551 7  26734827.240
      1756.202          46.400   106281710.910 8  26734827.380        1733.933
        48.000
 24  2  4 12  1 30.0000000  0 19G03G06G11G12G19G24G25G28G29G32E02E07
                                E08E10E11E25E27E30E36
 133773680.657 5                  25456285.200
       851.751                          32.800                    99895967.054 6
  25456295.820         636.457          40.050


 123767202.683 7  96442040.33847  23552101.460                    23552106.960
       498.580         388.506          43.800          43.700    92423662.092 7
  23552109.440         372.273          46.650


 126655284.790 7  98692475.59946  24101685.260                    24101692.540
      2284.376        1780.025          42.250          41.950    94580331.584 8
  24101695.800        1705.989          48.450


 106638459.948 8  83094937.74048  20292607.060                    20292606.000
      -959.964        -748.023          51.300          51.300



 128360686.905 6 100021331.08446  24426225.080                    24426226.920
     -3422.009       -2666.507          40.650          38.650



 119475711.755 7  93097955.29547  22735479.240                    22735483.440
     -3273.915       -2551.106          47.100          47.000    89218886.684 8
  22735486.200       -2444.801          50.400


 105895344.778 8  82515890.76248  20151190.820                    20151192.860
      1302.888        1015.237          51.600          51.450    79077746.400 9
  20151195.220         972.893          55.750


 124532759.300 7  97038499.21046  23697792.740                    23697795.500
      3324.252        2590.331          45.100          38.950    92995284.587 7
  23697802.280        2482.560          47.550


 124665784.727 7  97142242.17947  23723093.720                    23723096.840
      3730.191        2906.645          45.250          45.250



 115434884.705 8  89949269.92847  21966530.000                    21966532.600
       160.111         124.764          51.350          46.550    86201378.642 8
  21966532.580         119.595          51.050


 124317148.829 8                  23656761.900
     -1093.731                          53.000                    92834271.350 8
  23656766.000        -816.762          53.200    95256017.215 9  23656763.720
      -838.034          54.300    94045148.435 9  23656765.620        -827.427
        56.550
 129900920.461 8                  24719330.440
       -93.220                          51.650                    97003940.309 8
  24719337.020         -69.602          50.800    99534468.362 8  24719333.340
       -71.455          51.600    98269199.493 8  24719335.860         -70.529
        53.950
 133937313.728 8                  25487436.980
     -2664.002                          48.850                   100018107.777 8
  25487444.640       -1989.287          48.750   102627273.571 7  25487438.280
     -2041.173          47.900   101322693.829 8  25487442.760       -2015.261
        51.250
 147387245.335 7                  28046852.800
     -1290.034                          42.300                   110061968.592 7
  28046863.580        -963.302          42.050   112933150.285 7  28046859.460
      -988.354          43.050   111497548.603 7  28046862.700        -975.853
        45.300
 136064134.715 7                  25892130.220
        24.800                          42.700                   101606410.714 6
  25892137.200          18.557          40.350   104256983.206 6  25892132.580
        18.941          40.000   102931703.111 7  25892135.220          18.831
        42.900
 143517960.663 7                  27310577.500
     -2506.800                          44.850                   107172499.619 7
  27310590.440       -1871.872          43.900   109968290.307 7  27310585.300
     -1920.771          45.750   108570383.116 7  27310588.240       -1896.315
        47.500
 149309452.433 6                  28412641.420
      2556.891                          41.350                   111497377.598 6
  28412655.460        1909.202          39.400   114405993.637 7  28412651.840
      1958.906          42.800   112951678.771 7  28412653.440        1934.049
        43.750
 128018704.517 8                  24361129.760
      1388.319                          52.100                    95598442.939 8
  24361135.880        1036.755          52.400    98092322.605 8  24361132.160
      1063.778          53.250    96845391.423 9  24361134.260        1050.280
        55.600
 140423855.471 7                  26721758.560
      2282.508                          45.400                   104862059.614 7
  26721769.920        1704.521          44.950   107597549.389 7  26721768.520
      1749.009          46.750   106229798.156 8  26721769.040        1726.723
        48.600
 24  2  4 12  2  0.0000000  0 19G03G06G11G12G19G24G25G28G29G32E02E07
                                E08E10E11E25E27E30E36
 133748381.285 5 104219540.30545  25451470.700                    25451478.360
       834.301         650.103          35.950          32.450    99877074.742 6
  25451481.360         622.846          41.700


 123752528.543 7  96430606.06047  23549308.820                    23549314.660
       479.329         373.509          42.750          42.750    92412704.260 7
  23549317.660         357.992          46.750


 126586923.082 7  98639206.51346  24088676.860                    24088683.860
      2272.538        1770.800          43.800          41.300    94529281.988 8
  24088687.120        1697.139          48.650


 106667454.890 8  83117531.19348  20298124.720                    20298123.700
      -973.363        -758.466          51.250          51.400



 128463448.705 6 100101405.08346  24445779.960                    24445781.860
     -3429.457       -2672.307          40.800          38.550



 119574038.145 7  93174573.14947  22754190.120                    22754194.180
     -3281.433       -2556.964          47.100          46.950    89292312.108 8
  22754197.400       -2450.475          50.650


 105856456.848 8  82485588.49048  20143790.680                    20143792.800
      1289.418        1004.741          51.500          51.400    79048706.732 9
  20143795.120         962.775          55.650


 124433074.646 7  96960822.98146  23678823.380                    23678826.080
      3321.087        2587.864          45.400          40.700    92920844.910 7
  23678832.860        2479.737          47.500


 124553955.144 7  97055102.28347  23701813.100                    23701816.080
      3724.737        2902.396          45.250          45.550



 115430375.093 8  89945755.95747  21965671.800                    21965674.560
       140.155         109.212          51.350          47.000    86198011.087 8
  21965674.360         104.621          50.900


 124350047.742 8                  23663022.540
     -1099.878                          53.200                    92858838.714 8
  23663026.460        -821.356          53.200    95281225.465 9  23663024.160
      -842.793          54.350    94070036.243 9  23663026.060        -832.044
        56.700
 129903931.066 8                  24719903.160
      -107.812                          51.700                    97006188.515 8
  24719909.800         -80.616          50.700    99536775.211 8  24719906.260
       -82.669          51.700    98271477.016 9  24719908.720         -81.640
        54.100
 134017343.322 8                  25502666.080
     -2671.800                          49.350                   100077870.068 8
  25502673.340       -1995.136          48.250   102688594.880 8  25502667.820
     -2047.213          48.200   101383235.630 8  25502671.960       -2021.163
        51.300
 147426142.887 7                  28054255.100
     -1303.442                          42.650                   110091015.385 6
  28054265.160        -973.407          41.600   112962954.826 7  28054261.500
      -998.922          42.200   111526974.258 7  28054264.600        -986.144
        44.800
 136063608.980 7                  25892030.600
         9.818                          43.150                   101606018.242 6
  25892036.180           7.322          40.350   104256580.481 6  25892032.720
         7.445          40.700   102931305.517 7  25892035.140           7.353
        43.500
 143593164.361 7                  27324888.420
     -2507.307                          44.350                   107228658.145 7
  27324901.340       -1872.312          43.300   110025913.828 7  27324896.000
     -1921.080          45.250   108627274.142 7  27324899.020       -1896.741
        47.000
 149232766.964 6                  28398048.800
      2555.411                          40.900                   111440112.708 6
  28398062.460        1908.198          40.600   114347234.847 7  28398058.840
      1957.959          42.300   112893666.931 7  28398060.600        1933.040
        44.200
 127977146.649 8                  24353221.460
      1381.843                          52.200                    95567409.512 8
  24353227.500        1031.900          52.100    98060479.611 8  24353224.340
      1058.780          53.500    96813953.213 9  24353226.020        1045.334
        55.750
 140355508.277 7                  26708752.440
      2273.461                          45.300                   104811021.213 7
  26708764.120        1697.658          45.800   107545179.544 7  26708762.220
      1742.040          46.950   106178094.028 8  26708762.980        1719.841
        49.250
 24  2  4 12  2 30.0000000  0 19G03G06G11G12G19G24G25G28G29G32E02E07
                                E08E10E11E25E27E30E36
 133723636.807 6 104200258.92945  25446762.240                    25446770.280
       816.065         635.892          37.000          35.500    99858596.800 6
  25446772.640         608.952          41.750


 123738436.766 7  96419625.57147  23546627.160                    23546632.820
       460.061         358.492          43.550          43.600    92402181.317 7
  23546636.500         343.499          47.100


 126518921.578 7  98586218.10446  24075737.080                    24075743.880
      2260.760        1761.622          43.300          39.850    94478501.390 8
  24075747.100        1688.087          48.350


 106696861.753 8  83140445.62248  20303720.740                    20303719.700
      -986.996        -769.088          51.250          51.000



 128566437.829 6 100181656.17646  24465378.260                    24465380.020
     -3436.980       -2678.172          40.650          38.900



 119672597.105 7  93251372.22647  22772945.340                    22772949.440
     -3289.166       -2562.991          46.200          45.800    89365911.210 8
  22772952.920       -2456.241          50.350


 105817983.722 8  82455609.43448  20136469.460                    20136471.560
      1275.527         993.917          51.550          51.550    79019976.796 9
  20136473.740         952.431          55.450


 124333508.656 7  96883239.22346  23659876.460                    23659879.160
      3316.944        2584.636          44.750          40.050    92846493.827 7
  23659885.900        2476.857          47.600


 124442296.563 7  96968095.63547  23680565.100                    23680567.960
      3719.208        2898.086          45.250          45.200



 115426471.411 8  89942714.13147  21964928.980                    21964931.700
       120.125          93.604          51.350          46.800    86195095.998 8
  21964931.540          89.615          50.900


 124383137.657 8                  23669319.520
     -1106.187                          52.800                    92883548.704 8
  23669323.420        -826.041          53.250    95306580.063 9  23669321.000
      -847.622          54.450    94095068.533 9  23669322.820        -836.821
        56.800
 129907385.852 8                  24720560.320
      -122.635                          51.150                    97008768.400 8
  24720567.120         -91.579          50.700    99539422.399 8  24720563.680
       -93.982          51.800    98274090.551 9  24720566.100         -92.763
        54.300
 134097611.506 8                  25517940.540
     -2679.585                          48.550                   100137810.518 8
  25517947.500       -2001.043          48.250   102750099.003 8  25517942.540
     -2053.315          48.000   101443957.914 8  25517946.500       -2027.170
        51.250
 147465452.408 6                  28061735.560
     -1317.083                          41.750                   110120369.752 7
  28061745.260        -983.580          42.050   112993074.957 7  28061741.940
     -1009.334          42.300   111556711.510 7  28061744.940        -996.423
        45.250
 136063546.156 7                  25892018.740
        -5.715                          42.700                   101605971.426 6
  25892024.100          -4.322          40.600   104256532.430 6  25892021.500
        -4.371          41.050   102931258.083 7  25892023.060          -4.419
        44.000
 143668389.216 7                  27339203.180
     -2507.998                          43.450                   107284832.467 7
  27339216.260       -1872.868          42.950   110083553.581 7  27339210.760
     -1921.640          44.700   108684181.183 7  27339213.840       -1897.287
        46.650
 149156129.818 6                  28383465.420
      2553.767                          40.500                   111382883.839 6
  28383478.900        1906.791          40.850   114288513.037 6  28383475.080
      1956.739          41.950   112835691.581 7  28383476.920        1931.864
        44.300
 127935789.409 8                  24345351.440
      1375.233                          52.150                    95536525.910 8
  24345357.080        1026.907          51.850    98028790.348 8  24345354.620
      1053.705          53.650    96782666.779 9  24345356.020        1040.309
        55.750
 140287443.999 7                  26695800.100
      2264.109                          45.100                   104760194.139 7
  26695812.240        1690.628          46.000   107493026.522 7  26695809.780
      1734.696          47.150   106126603.978 8  26695810.600        1712.697
        49.500
 24  2  4 12  3  0.0000000  0 19G03G06G11G12G19G24G25G28G29G32E02E07
                                E08E10E11E25E27E30E36
 133699444.747 6 104181408.03345  25442158.540                    25442165.040
       797.086         621.104          36.000          34.250    99840531.318 7
  25442169.000         595.285          42.850


 123724925.063 7  96409097.09947  23544056.140                    23544061.520
       440.633         343.355          44.000          44.200    92392091.592 7
  23544065.600         329.026          47.200


 126451279.970 7  98533510.13346  24062865.660                    24062872.180
      2248.640        1752.179          43.800          39.800    94427989.545 8
  24062875.520        1679.185          48.000


 106726676.212 8  83163677.64848  20309394.360                    20309393.160
     -1000.613        -779.699          51.550          51.400



 128669648.827 6 100262080.15746  24485018.740                    24485020.760
     -3444.098       -2683.718          41.700          36.700



 119771383.937 7  93328348.88447  22791743.860                    22791748.100
     -3296.563       -2568.754          46.550          46.650    89439680.481 8
  22791751.760       -2461.827          50.200


 105779922.540 8  82425951.37948  20129226.700                    20129228.560
      1261.899         983.299          51.700          51.800    78991554.499 9
  20129230.760         942.250          55.400


 124234059.926 7  96805746.83246  23640951.800                    23640954.560
      3312.998        2581.562          44.350          41.650    92772230.309 7
  23640961.180        2473.923          47.750


 124330808.098 7  96881221.54847  23659349.400                    23659352.080
      3713.488        2893.628          45.700          45.650



 115423170.645 8  89940142.11647  21964300.960                    21964303.500
       100.075          77.981          51.800          46.300    86192631.154 8
  21964303.420          74.629          50.800


 124416414.794 8                  23675651.980
     -1112.319                          52.350                    92908398.506 8
  23675656.140        -830.652          53.200    95332078.123 9  23675653.400
      -852.334          54.400    94120242.467 9  23675655.260        -841.493
        56.750
 129911281.660 8                  24721301.460
      -137.221                          51.350                    97011677.636 8
  24721308.460        -102.502          50.700    99542407.522 8  24721305.140
      -105.164          51.800    98277037.732 9  24721307.400        -103.842
        54.250
 134178113.389 8                  25533259.600
     -2687.342                          49.000                   100197925.468 8
  25533266.400       -2006.732          48.050   102811782.193 8  25533261.740
     -2059.076          48.350   101504856.986 8  25533265.680       -2032.945
        51.300
 147505169.543 6                  28069293.460
     -1330.583                          40.850                   110150028.508 7
  28069303.240        -993.729          42.650   113023507.460 6  28069300.180
     -1019.646          41.950   111586757.134 7  28069303.020       -1006.650
        45.550
 136063943.011 7                  25892094.480
       -21.056                          43.200                   101606267.912 6
  25892099.320         -15.571          40.050   104256836.663 6  25892097.120
       -16.137          40.650   102931558.448 7  25892098.540         -15.970
        43.400
 143743631.626 7                  27353521.300
     -2508.378                          43.700                   107341019.889 7
  27353534.560       -1873.128          42.200   110141206.782 7  27353529.060
     -1922.063          44.700   108741101.484 7  27353532.080       -1897.536
        46.250
 149079537.973 6                  28368890.680
      2552.334                          41.300                   111325688.760 6
  28368903.640        1905.737          41.200   114229825.896 6  28368900.120
      1955.610          41.800   112777750.478 7  28368901.920        1930.786
        44.500
 127894629.601 8                  24337518.980
      1368.663                          52.400                    95505789.735 8
  24337524.160        1022.019          51.650    97997252.360 8  24337522.280
      1048.710          53.550    96751529.698 9  24337523.600        1035.346
        55.600
 140219661.414 7                  26682901.360
      2254.685                          45.050                   104709577.453 7
  26682913.680        1683.701          45.800   107441089.378 7  26682910.980
      1727.611          47.500   106075327.068 8  26682911.820        1705.693
        49.550
 24  2  4 12  3 30.0000000  0 19G03G06G11G12G19G24G25G28G29G32E02E07
                                E08E10E11E25E27E30E36
 133675807.009 6 104162988.96945  25437660.300                    25437666.460
       778.765         606.827          37.650          34.950    99822879.784 6
  25437670.500         581.518          41.250


 123711995.193 7  96399022.03947  23541595.600                    23541601.340
       421.413         328.379          44.350          44.250    92382436.371 7
  23541605.120         314.766          46.900


 126384002.044 7  98481085.60146  24050063.240                    24050069.620
      2236.760        1742.924          43.350          39.300    94377749.349 7
  24050073.100        1670.317          47.500


 106756897.645 8  83187226.80048  20315145.260                    20315144.020
     -1014.007        -790.137          51.000          51.250



 128773079.980 6 100342675.69946  24504701.200                    24504703.240
     -3451.163       -2689.229          40.550          38.500



 119870397.970 7  93405502.56547  22810585.680                    22810590.180
     -3304.060       -2574.595          46.800          46.850    89513619.396 8
  22810593.720       -2467.230          50.100


 105742274.625 8  82396615.35248  20122062.600                    20122064.300
      1248.214         972.634          51.650          51.700    78963440.804 9
  20122066.580         932.157          55.550


 124134731.230 7  96728347.97646  23622050.080                    23622052.780
      3309.119        2578.537          44.150          41.650    92698056.439 7
  23622059.320        2471.135          47.850


 124219493.002 7  96794482.56347  23638166.800                    23638169.300
      3707.913        2889.285          45.100          45.100



 115420473.795 8  89938040.68047  21963787.760                    21963790.220
        79.889          62.251          51.900          46.150    86190617.274 8
  21963790.320          59.736          50.850


 124449879.472 8                  23682020.040
     -1118.418                          52.750                    92933388.337 8
  23682024.500        -835.167          53.150    95357719.863 9  23682021.600
      -856.902          54.100    94145558.255 9  23682023.380        -846.057
        56.700
 129915619.405 8                  24722126.800
      -151.689                          51.250                    97014916.891 8
  24722133.940        -113.337          50.650    99545731.275 8  24722130.700
      -116.290          51.650    98280319.238 9  24722132.800        -114.791
        54.250
 134258848.149 8                  25548622.920
     -2694.776                          48.350                   100258214.320 7
  25548629.300       -2012.367          47.650   102873643.796 8  25548625.660
     -2064.767          48.050   101565932.213 8  25548629.080       -2038.600
        51.000
 147545294.122 6                  28076928.680
     -1344.203                          41.350                   110179991.501 6
  28076939.080       -1003.580          41.900   113054252.117 7  28076936.320
     -1029.615          42.200   111617110.966 7  28076938.720       -1016.652
        45.300
 136064800.486 7                  25892257.660
       -35.779                          42.950                   101606908.403 6
  25892262.260         -26.842          40.600   104257493.838 6  25892259.940
       -27.497          40.250   102932207.275 7  25892261.680         -27.178
        43.550
 143818892.058 7                  27367842.900
     -2508.874                          43.700                   107397220.770 6
  27367856.080       -1873.504          41.400   110198873.747 7  27367850.780
     -1922.263          44.150   108798035.412 7  27367853.640       -1897.821
        45.650
 149002992.669 6                  28354324.660
      2551.038                          40.150                   111268528.369 6
  28354337.480        1904.963          40.500   114171174.340 6  28354333.800
      1954.765          41.650   112719844.515 7  28354335.620        1929.771
        43.950
 127853668.158 8                  24329724.240
      1362.346                          52.450                    95475201.700 8
  24329729.120        1017.256          51.650    97965866.371 8  24329727.520
      1043.819          53.100    96720542.689 9  24329728.920        1030.523
        55.450
 140152163.355 7                  26670056.720
      2245.438                          45.000                   104659173.282 7
  26670069.080        1676.676          45.750   107389370.290 7  26670066.460
      1720.503          47.650   106024265.438 8  26670067.140        1698.617
        49.700
 24  2  4 12  4  0.0000000  0 19G03G06G11G12G19G24G25G28G29G32E02E07
                                E08E10E11E25E27E30E36
 133652722.923 6 104145001.38245  25433267.320                    25433274.860
       760.532         592.615          36.400          35.100    99805641.666 6
  25433277.580         567.762          41.600


 123699646.611 7  96389399.93547  23539245.620                    23539251.700
       401.917         313.188          44.650          44.550    92373215.228 7
  23539255.240         300.171          46.700


 126317089.168 7  98428945.56946  24037330.200                    24037336.160
      2224.291        1733.209          43.250          39.700    94327781.810 7
  24037340.280        1661.078          47.100


 106787523.840 8  83211091.34848  20320973.180                    20320972.020
     -1027.555        -800.692          50.750          50.650



 128876727.005 6 100423439.50446  24524424.760                    24524426.680
     -3458.107       -2694.634          41.350          36.200



 119969636.214 7  93482830.95347  22829470.140                    22829474.880
     -3311.572       -2580.450          46.200          45.950    89587725.746 8
  22829478.080       -2472.907          50.200


 105705038.818 8  82367600.45148  20114976.880                    20114978.680
      1234.442         961.903          51.200          51.400    78935634.862 9
  20114980.880         921.838          55.700


 124035522.923 7  96651042.94646  23603171.340                    23603173.940
      3305.093        2575.401          44.600          40.750    92623972.475 8
  23603180.300        2468.069          48.450


 124108352.255 7  96707879.48347  23617017.240                    23617019.700
      3701.798        2884.521          45.350          45.300



 115418379.492 8  89936408.75847  21963389.240                    21963391.620
        59.899          46.675          51.500          46.250    86189053.364 8
  21963391.780          44.656          51.100


 124483529.592 8                  23688423.400
     -1124.660                          52.700                    92958516.652 8
  23688427.880        -839.798          53.250    95383503.705 9  23688425.140
      -861.762          54.400    94171014.331 9  23688426.800        -850.742
        56.750
 129920397.707 8                  24723036.120
      -166.563                          51.250                    97018485.125 8
  24723043.320        -124.375          50.900    99549392.585 8  24723040.160
      -127.631          52.000    98283934.008 9  24723042.020        -126.014
        54.300
 134339812.604 8                  25564030.060
     -2702.506                          48.800                   100318674.706 7
  25564036.060       -2018.092          47.900   102935681.433 8  25564032.960
     -2070.792          48.450   101627181.225 8  25564036.240       -2044.460
        51.100
 147585823.530 6                  28084641.080
     -1357.531                          40.650                   110210256.900 6
  28084651.420       -1013.798          41.650   113085307.035 7  28084649.700
     -1040.143          43.250   111647771.123 7  28084651.340       -1027.001
        45.300
 136066117.290 7                  25892508.440
       -51.636                          42.750                   101607891.911 6
  25892513.040         -38.498          40.550   104258502.974 6  25892510.060
       -39.473          40.300   102933203.596 7  25892512.140         -39.007
        43.350
 143894168.620 7                  27382167.540
     -2509.403                          42.350                   107453433.707 6
  27382180.820       -1873.890          41.800   110256553.110 7  27382175.540
     -1922.763          43.850   108854981.553 7  27382178.120       -1898.186
        45.650
 148926492.664 6                  28339767.060
      2549.450                          39.800                   111211401.818 6
  28339779.840        1903.630          41.850   114112557.555 6  28339776.260
      1953.353          41.850   112661972.843 7  28339778.300        1928.473
        44.750
 127812903.639 8                  24321966.940
      1355.631                          52.350                    95444760.710 8
  24321971.740        1012.294          52.100    97934631.264 8  24321970.140
      1038.720          53.400    96689704.639 9  24321971.680        1025.501
        55.700
 140084950.295 7                  26657266.420
      2235.697                          45.600                   104608981.955 7
  26657278.520        1669.553          45.950   107337869.619 8  26657276.140
      1713.163          48.250   105973419.439 8  26657276.800        1691.370
        49.900
 24  2  4 12  4 30.0000000  0 19G03G06G11G12G19G24G25G28G29G32E02E07
                                E08E10E11E25E27E30E36
 133630197.245 5 104127448.96545  25428980.560                    25428988.640
       741.392         577.711          33.250          33.300    99788820.596 6
  25428990.860         553.632          41.250


 123687884.034 7  96380234.43047  23537007.140                    23537013.400
       382.210         297.831          44.200          44.150    92364431.654 7
  23537016.800         285.407          46.300


 126250548.033 7  98377095.24146  24024667.900                    24024673.320
      2211.898        1723.556          43.500          40.650    94278091.929 7
  24024678.040        1651.561          46.400


 106818557.620 8  83235273.49448  20326878.780                    20326877.780
     -1041.351        -811.443          51.500          51.400



 128980591.367 6 100504372.64246  24544189.680                    24544191.580
     -3465.930       -2700.731          41.500          36.400



 120069100.972 7  93560335.86047  22848397.780                    22848402.540
     -3319.254       -2586.436          46.350          46.300    89662001.263 8
  22848405.480       -2478.644          50.100


 105668219.399 8  82338910.00548  20107970.320                    20107972.300
      1220.236         950.833          51.550          51.450    78908139.861 9
  20107974.280         911.247          55.400


 123936440.745 7  96573836.17746  23584316.680                    23584319.200
      3300.596        2571.896          44.850          41.500    92549982.680 8
  23584325.360        2464.695          49.100


 123997392.060 7  96621417.09647  23595902.160                    23595904.360
      3695.563        2879.663          45.250          45.400



 115416891.710 8  89935249.45047  21963106.080                    21963108.460
        39.358          30.669          51.100          46.900    86187942.366 8
  21963108.640          29.390          51.000


 124517368.466 8                  23694862.660
     -1131.196                          52.850                    92983785.919 8
  23694867.100        -844.731          53.200    95409432.173 9  23694864.460
      -866.789          54.350    94196613.201 9  23694866.120        -855.775
        56.500
 129925620.389 8                  24724030.120
      -181.597                          51.750                    97022385.202 8
  24724037.240        -135.623          50.850    99553394.399 8  24724034.180
      -139.126          52.150    98287884.953 9  24724035.820        -137.365
        54.200
 134421008.940 8                  25579481.320
     -2710.385                          48.300                   100379308.231 7
  25579487.200       -2024.089          47.950   102997896.718 8  25579484.680
     -2076.888          49.050   101688605.627 8  25579487.560       -2050.482
        51.350
 147626760.490 6                  28092431.240
     -1371.424                          41.550                   110240826.670 6
  28092441.240       -1024.236          41.500   113116674.278 7  28092440.220
     -1050.835          42.600   111678739.628 7  28092441.280       -1037.590
        44.850
 136067897.370 7                  25892847.280
       -67.191                          43.050                   101609221.304 6
  25892851.540         -50.041          40.250   104259867.065 6  25892847.960
       -51.543          39.700   102934550.324 7  25892850.820         -50.619
        42.800
 143969464.868 7                  27396495.660
     -2510.237                          42.050                   107509661.317 6
  27396509.280       -1874.476          41.950   110314247.533 7  27396503.660
     -1923.456          43.000   108911942.574 7  27396506.440       -1898.899
        44.950
 148850042.090 6                  28325218.740
      2547.456                          40.500                   111154312.139 7
  28325231.800        1902.433          42.350   114053978.602 6  28325228.140
      1951.817          40.950   112604138.522 7  28325230.400        1927.237
        44.550
 127772339.949 8                  24314247.900
      1348.651                          52.200                    95414469.694 8
  24314252.880        1007.130          52.450    97903550.042 8  24314250.860
      1033.407          53.400    96659018.517 9  24314252.620        1020.280
        55.650
 140018028.110 7                  26644531.620
      2225.640                          45.900                   104559007.840 7
  26644543.180        1662.173          46.000   107286591.817 8  26644541.200
      1705.459          48.300   105922793.482 8  26644541.840        1683.822
        49.800
 24  2  4 12  5  0.0000000  0 19G03G06G11G12G19G24G25G28G29G32E02E07
                                E08E10E11E25E27E30E36
 133608225.159 6 104110327.83046  25424799.480                    25424807.680
       723.460         563.729          39.050          36.400    99772412.853 7
  25424809.800         540.251          43.700


 123676702.716 7  96371521.85047  23534879.280                    23534885.640
       363.143         282.973          44.750          44.550    92356082.131 7
  23534889.000         271.268          45.550


 126184375.814 7  98325532.44746  24012075.760                    24012080.860
      2199.770        1714.106          43.500          38.950    94228677.571 7
  24012085.860        1642.744          45.700


 106849992.054 8  83259767.84948  20332860.640                    20332859.740
     -1054.332        -821.559          51.150          51.150



 129084664.728 6 100585468.64445  24563994.280                    24563996.100
     -3472.463       -2705.816          41.550          35.950



 120168785.116 7  93638011.70047  22867367.200                    22867371.960
     -3326.236       -2591.876          47.000          47.100    89736440.600 8
  22867374.420       -2483.913          49.650


 105631811.105 8  82310539.92248  20101042.040                    20101044.060
      1206.940         940.473          51.550          51.650    78880951.867 9
  20101045.760         901.307          55.000


 123837480.984 7  96496724.76746  23565485.280                    23565487.660
      3296.896        2569.013          45.300          41.150    92476084.282 8
  23565493.780        2461.915          49.200


 123886609.467 7  96535093.17647  23574820.700                    23574823.160
      3689.951        2875.294          45.350          45.050



 115416004.905 8  89934558.44347  21962937.300                    21962939.680
        19.730          15.375          51.100          46.750    86187280.147 8
  21962939.700          14.781          50.700


 124551389.878 8                  23701336.800
     -1136.850                          53.350                    93009191.500 8
  23701341.060        -848.959          53.000    95435500.501 8  23701338.380
      -871.109          53.900    94222350.154 9  23701340.160        -860.047
        56.600
 129931281.857 8                  24725107.640
      -195.857                          51.900                    97026612.929 8
  24725114.580        -146.203          50.650    99557732.419 8  24725111.660
      -150.097          52.000    98292167.829 9  24725113.140        -148.146
        54.500
 134502429.795 8                  25594975.360
     -2717.540                          49.000                   100440109.407 7
  25594980.820       -2029.299          47.400   103060284.020 8  25594979.240
     -2082.222          48.850   101750199.864 8  25594981.540       -2055.716
        51.350
 147668098.362 6                  28100297.620
     -1384.395                          41.350                   110271695.764 6
  28100307.680       -1033.823          41.950   113148348.677 7  28100306.940
     -1060.795          42.400   111710011.376 7  28100307.560       -1047.408
        45.450
 136070135.004 7                  25893273.300
       -81.872                          44.300                   101610892.415 6
  25893277.280         -61.206          40.600   104261581.722 6  25893273.020
       -62.752          39.350   102936243.211 7  25893276.560         -61.865
        43.350
 144044774.744 7                  27410826.540
     -2510.281                          42.600                   107565899.180 6
  27410840.440       -1874.767          41.750   110371952.453 7  27410834.560
     -1923.476          42.600   108968913.959 7  27410837.460       -1899.024
        45.050
 148773635.559 6                  28310678.660
      2546.038                          39.300                   111097255.382 6
  28310691.980        1901.451          40.700   113995433.376 6  28310688.420
      1951.050          39.600   112546337.527 7  28310690.680        1926.378
        43.350
 127731971.516 8                  24306565.980
      1342.600                          52.100                    95384324.486 8
  24306571.340        1002.550          52.550    97872618.427 8  24306568.800
      1028.729          53.250    96628480.107 9  24306570.680        1015.667
        56.000
 139951393.080 7                  26631851.600
      2216.536                          46.500                   104509248.165 7
  26631862.480        1655.244          46.050   107235534.045 7  26631860.860
      1698.398          47.600   105872384.756 8  26631861.480        1676.831
        49.950
 24  2  4 12  5 30.0000000  0 19G03G06G11G12G19G24G25G28G29G32E02E07
                                E08E10E11E25E27E30E36
 133586811.047 6 104093641.52945  25420724.660                    25420732.820
       704.555         549.006          37.050          35.050    99756421.811 7
  25420735.040         526.046          42.300


 123666107.107 7  96363265.65147  23532863.060                    23532869.240
       343.107         267.359          45.000          45.050    92348169.957 7
  23532872.420         256.322          45.300


 126118578.924 7  98274262.19046  23999554.940                    23999559.940
      2186.722        1703.939          43.150          40.050    94179543.578 7
  23999565.020        1632.995          45.700


 106881829.981 8  83284576.61248  20338919.200                    20338918.340
     -1068.135        -832.313          50.650          50.500



 129188947.859 6 100666728.10246  24583838.840                    24583840.500
     -3479.691       -2711.449          40.750          36.750



 120268690.711 7  93715860.11547  22886378.700                    22886383.320
     -3333.978       -2597.908          46.050          46.150    89811045.292 8
  22886385.720       -2489.691          49.800


 105595817.885 8  82282493.27648  20094192.760                    20094194.720
      1192.706         929.382          51.100          51.100    78854073.841 9
  20094196.320         890.631          55.100


 123738649.077 7  96419713.01647  23546678.100                    23546680.440
      3292.104        2565.280          44.700          42.900    92402281.390 8
  23546686.600        2458.386          49.650


 123776010.138 7  96448912.08247  23553774.220                    23553776.840
      3683.393        2870.185          44.850          45.200



 115415722.680 8  89934338.53447  21962883.480                    21962886.080
        -0.830          -0.646          50.300          47.700    86187069.405 8
  21962885.860          -0.644          50.850


 124585596.848 8                  23707846.340
     -1143.485                          52.900                    93034735.648 8
  23707850.280        -853.877          53.300    95461711.019 8  23707847.440
      -876.231          53.800    94248227.487 9  23707849.520        -865.078
        56.550
 129937385.699 8                  24726269.300
      -211.014                          51.450                    97031171.012 8
  24726276.060        -157.589          50.850    99562409.403 8  24726273.300
      -161.639          52.200    98296785.360 9  24726274.640        -159.622
        54.450
 134584077.055 8                  25610512.480
     -2725.414                          48.250                   100501079.663 7
  25610517.780       -2035.307          47.800   103122844.823 8  25610516.560
     -2088.338          49.250   101811965.396 8  25610518.600       -2061.885
        51.550
 147709839.430 6                  28108240.840
     -1398.328                          41.300                   110302866.007 7
  28108250.920       -1044.260          42.100   113180332.066 7  28108250.340
     -1071.438          42.750   111741588.189 7  28108250.780       -1057.867
        45.550
 136072833.885 7                  25893786.840
       -98.038                          43.150                   101612907.925 6
  25893791.280         -73.085          41.450   104263649.809 6  25893786.160
       -75.063          39.450   102938285.024 7  25893789.920         -74.045
        43.650
 144120101.524 7                  27425160.940
     -2511.455                          42.650                   107622149.638 7
  27425174.560       -1875.317          42.250   110429670.323 7  27425168.660
     -1924.298          42.100   109025898.127 7  27425171.620       -1899.790
        44.950
 148697276.911 6                  28296147.720
      2544.401                          38.300                   111040234.383 6
  28296161.340        1900.063          41.100   113936924.889 6  28296157.520
      1949.482          40.300   112488572.791 7  28296160.140        1924.821
        43.850
 127691801.946 8                  24298921.860
      1335.526                          51.900                    95354327.778 8
  24298927.580         997.305          52.850    97841839.191 8  24298924.620
      1023.282          53.600    96598092.140 9  24298926.580        1010.276
        56.150
 139885050.691 7                  26619227.160
      2206.297                          46.400                   104459707.021 7
  26619237.600        1647.592          46.600   107184700.479 7  26619236.140
      1690.597          47.050   105822197.403 8  26619236.700        1669.120
        49.800
 24  2  4 12  6  0.0000000  0 19G03G06G11G12G19G24G25G28G29G32E02E07
                                E08E10E11E25E27E30E36
 133565958.123 6 104077392.44245  25416756.680                    25416765.060
       685.266         533.974          36.200          32.000    99740849.789 6
  25416767.160         511.982          41.150


 123656100.363 7  96355468.31047  23530958.860                    23530964.880
       323.539         252.112          45.900          45.950    92340697.526 7
  23530968.260         241.744          45.450


 126053162.545 7  98223288.50146  23987106.560                    23987111.360
      2174.146        1694.145          44.000          40.500    94130693.812 7
  23987116.700        1623.617          45.650


 106914072.469 8  83309700.60548  20345054.640                    20345053.700
     -1081.552        -842.769          50.550          50.600



 129293440.668 6 100748150.93346  24603723.240                    24603724.900
     -3486.834       -2717.017          40.650          36.700



 120368818.546 7  93793881.71147  22905432.500                    22905437.080
     -3341.451       -2603.731          45.950          46.100    89885815.962 8
  22905439.200       -2495.077          49.700


 105560242.425 8  82254772.18148  20087422.980                    20087424.780
      1178.833         918.573          51.600          51.600    78827507.785 9
  20087426.420         880.345          54.600


 123639949.290 7  96342804.20447  23527895.960                    23527898.620
      3287.598        2561.768          44.850          43.850    92328577.139 8
  23527904.540        2455.141          49.100


 123665598.834 7  96362877.51447  23532763.460                    23532766.100
      3677.108        2865.288          45.450          45.750



 115416047.470 8  89934591.62947  21962945.220                    21962947.940
       -20.985         -16.353          50.400          47.000    86187311.953 8
  21962947.600         -15.681          50.500


 124619991.197 8                  23714391.380
     -1149.704                          52.850                    93060419.709 8
  23714395.300        -858.542          53.100    95488065.098 8  23714392.180
      -880.891          53.650    94274246.555 9  23714394.560        -869.684
        56.250
 129943934.248 8                  24727515.500
      -225.810                          51.550                    97036061.169 8
  24727522.080        -168.574          50.300    99567427.127 8  24727519.440
      -172.989          52.200    98301739.299 9  24727520.780        -170.744
        54.100
 134665951.370 8                  25626092.800
     -2732.980                          49.000                   100562219.446 7
  25626098.120       -2040.845          47.200   103185579.576 8  25626097.340
     -2094.100          49.700   101873902.664 8  25626098.920       -2067.475
        51.350
 147751984.953 7                  28116261.160
     -1411.578                          43.300                   110334338.239 6
  28116271.420       -1054.127          41.850   113212625.327 7  28116270.480
     -1081.599          42.400   111773470.934 7  28116270.940       -1067.841
        45.100
 136075996.410 7                  25894388.360
      -113.154                          42.950                   101615269.653 6
  25894393.520         -84.405          41.100   104266073.110 6  25894387.840
       -86.524          39.700   102940677.535 7  25894391.500         -85.551
        43.600
 144195447.069 7                  27439499.120
     -2511.842                          42.950                   107678414.143 7
  27439512.140       -1875.800          42.300   110487402.605 6  27439506.080
     -1924.694          41.200   109082896.523 7  27439509.400       -1900.217
        44.650
 148620968.788 6                  28281626.440
      2542.651                          39.900                   110983251.160 6
  28281640.240        1898.762          40.050   113878455.137 6  28281636.600
      1948.329          40.500   112430846.301 7  28281639.200        1923.652
        43.200
 127651833.659 8                  24291316.040
      1328.918                          52.200                    95324481.378 8
  24291322.000         992.323          52.550    97811214.176 8  24291318.840
      1018.210          53.700    96567856.429 9  24291320.780        1005.276
        55.900
 139819005.305 7                  26606659.100
      2196.435                          46.950                   104410387.645 7
  26606669.120        1640.235          45.800   107134094.474 7  26606667.800
      1683.008          46.800   105772234.713 8  26606668.360        1661.607
        49.250
 24  2  4 12  6 30.0000000  0 19G03G06G11G12G19G24G25G28G29G32E02E07
                                E08E10E11E25E27E30E36
 133545662.435 6 104061577.64145  25412894.720                    25412902.740
       667.222         519.908          37.950          33.800    99725693.973 6
  25412905.100         498.032          39.100


 123646678.754 7  96348126.90547  23529165.900                    23529172.120
       304.229         237.064          45.100          44.700    92333662.021 7
  23529176.060         227.197          45.850


 125988124.881 7  98172609.96946  23974730.300                    23974735.100
      2161.444        1684.248          43.750          40.700    94082126.908 7
  23974740.520        1614.074          45.850


 106946713.820 8  83335135.39948  20351266.040                    20351265.020
     -1094.781        -853.077          51.400          51.250



 129398135.678 6 100829731.29346  24623646.040                    24623647.820
     -3493.516       -2722.223          41.000          37.850



 120469162.560 7  93872071.74547  22924527.320                    22924531.860
     -3348.629       -2609.324          46.750          46.900    89960748.066 8
  22924534.100       -2500.488          49.400


 105525080.533 8  82227373.34548  20080731.900                    20080733.620
      1164.889         907.707          51.750          51.700    78801250.576 9
  20080735.160         869.943          54.500


 123541378.958 7  96265996.27647  23509138.460                    23509141.520
      3283.323        2558.438          45.000          43.900    92254969.567 8
  23509146.980        2451.852          48.850


 123555373.756 7  96276988.09947  23511788.080                    23511790.920
      3670.892        2860.445          45.050          44.850



 115416974.698 8  89935314.15247  21963121.620                    21963124.540
       -41.129         -32.049          50.550          46.900    86188004.371 8
  21963124.160         -30.646          50.600


 124654567.822 8                  23720970.960
     -1155.757                          52.850                    93086239.880 8
  23720975.240        -863.044          53.250    95514558.842 8  23720971.800
      -885.553          53.600    94300403.514 9  23720974.280        -874.296
        56.400
 129950922.949 8                  24728845.360
      -240.462                          51.400                    97041280.015 8
  24728851.780        -179.536          50.200    99572782.117 8  24728849.360
      -184.186          52.200    98307026.217 9  24728850.720        -181.846
        54.100
 134748046.472 8                  25641715.160
     -2740.237                          49.000                   100623524.128 7
  25641720.240       -2046.334          47.000   103248483.515 8  25641719.960
     -2099.658          49.500   101936006.973 8  25641721.160       -2073.004
        51.250
 147794529.247 7                  28124357.300
     -1424.935                          42.600                   110366108.279 6
  28124367.780       -1063.999          41.700   113245224.154 7  28124366.260
     -1091.801          42.300   111805655.371 7  28124366.900       -1077.891
        45.000
 136079618.020 6                  25895077.000
      -128.428                          41.500                   101617974.151 6
  25895082.840         -96.053          41.150   104268848.165 6  25895077.540
       -98.440          40.500   102943417.312 7  25895080.520         -97.206
        43.700
 144270806.553 7                  27453839.820
     -2512.358                          42.750                   107734689.006 7
  27453852.400       -1876.118          42.750   110545145.522 6  27453846.140
     -1925.128          41.250   109139905.404 7  27453849.940       -1900.531
        45.000
 148544706.825 6                  28267114.420
      2541.333                          39.100                   110926302.376 6
  28267127.900        1897.576          40.550   113820020.729 6  28267124.360
      1947.125          41.250   112373154.711 7  28267127.100        1922.282
        43.950
 127612062.140 8                  24283747.680
      1322.336                          52.300                    95294781.910 8
  24283753.660         987.464          52.350    97780739.942 8  24283750.660
      1013.209          53.800    96537769.580 9  24283752.460        1000.336
        56.000
 139753254.283 7                  26594147.020
      2186.685                          47.700                   104361288.081 7
  26594156.660        1632.853          45.050   107083714.003 7  26594155.600
      1675.474          46.700   105722494.692 8  26594156.000        1654.191
        48.850
 24  2  4 12  7  0.0000000  0 19G03G06G11G12G19G24G25G28G29G32E02E07
                                E08E10E11E25E27E30E36
 133525928.468 6 104046200.52645  25409139.660                    25409147.340
       648.787         505.548          37.150          35.450    99710957.538 6
  25409149.680         484.352          41.900


 123637846.501 7  96341244.74647  23527485.120                    23527491.700
       284.637         221.799          45.050          45.400    92327066.640 7
  23527495.880         212.532          46.100


 125923472.174 7  98122231.45046  23962427.240                    23962432.100
      2148.860        1674.444          44.200          41.150    94033847.517 7
  23962437.560        1604.584          46.400


 106979756.647 8  83360883.03248  20357554.000                    20357552.860
     -1108.025        -863.397          51.800          51.750



 129503033.578 6 100911469.76445  24643607.560                    24643609.280
     -3500.008       -2727.285          40.900          33.000



 120569724.732 7  93950431.76247  22943663.600                    22943668.280
     -3355.659       -2614.804          45.950          46.000    90035843.045 8
  22943670.720       -2505.815          50.300


 105490336.091 8  82200299.78748  20074120.220                    20074122.120
      1151.337         897.147          50.900          51.100    78775305.088 9
  20074123.320         859.737          54.750


 123442943.549 7  96189293.47847  23490406.560                    23490409.880
      3279.137        2555.175          44.600          43.650    92181462.721 8
  23490415.020        2448.616          48.750


 123445340.542 7  96191248.20847  23490849.140                    23490852.340
      3664.714        2855.631          45.400          45.450



 115418507.865 8  89936508.83047  21963413.340                    21963416.340
       -61.008         -47.539          50.500          46.800    86189149.274 8
  21963416.180         -45.591          50.900


 124689329.643 8                  23727585.780
     -1161.720                          52.550                    93112198.353 8
  23727590.440        -867.502          53.600    95541194.502 8  23727586.820
      -890.113          53.400    94326700.581 9  23727589.280        -878.799
        56.600
 129958355.272 8                  24730259.540
      -255.095                          51.200                    97046830.127 8
  24730265.900        -190.420          50.400    99578477.018 8  24730263.620
      -195.394          52.000    98312648.723 9  24730265.060        -192.897
        54.250
 134830364.167 8                  25657379.860
     -2747.380                          49.050                   100684995.016 7
  25657384.980       -2051.690          47.550   103311558.014 8  25657384.760
     -2105.209          49.600   101998279.667 8  25657385.800       -2078.446
        51.600
 147837474.630 7                  28132529.760
     -1438.063                          42.700                   110398177.883 7
  28132540.380       -1073.796          42.450   113278130.364 7  28132538.160
     -1101.885          42.600   111838143.283 7  28132539.220       -1087.909
        45.600
 136083702.176 6                  25895853.420
      -143.919                          40.700                   101621024.014 6
  25895860.360        -107.466          41.350   104271977.585 6  25895855.500
      -110.252          40.700   102946506.951 7  25895857.660        -108.915
        43.900
 144346183.024 7                  27468183.720
     -2512.741                          43.150                   107790976.544 7
  27468196.060       -1876.425          43.350   110602901.455 6  27468189.460
     -1925.412          40.900   109196927.145 7  27468193.800       -1900.804
        45.300
 148468494.756 6                  28252612.000
      2539.784                          40.800                   110869390.917 6
  28252625.300        1896.514          41.350   113761624.589 6  28252621.800
      1946.018          40.850   112315500.911 7  28252624.460        1921.302
        44.150
 127572490.914 8                  24276217.560
      1315.879                          52.250                    95265232.017 8
  24276223.340         982.594          52.550    97750419.174 8  24276220.660
      1008.229          53.750    96507834.248 9  24276222.280         995.424
        56.100
 139687803.131 7                  26581692.060
      2176.760                          47.800                   104312412.390 7
  26581700.940        1625.534          44.650   107033563.282 7  26581700.400
      1667.868          46.800   105672981.488 8  26581700.760        1646.730
        48.800
 24  2  4 12  7 30.0000000  0 19G03G06G11G12G19G24G25G28G29G32E02E07
                                E08E10E11E25E27E30E36
 133506755.547 6 104031260.54945  25405491.180                    25405498.380
       629.044         490.168          38.900          33.650    99696640.013 6
  25405500.980         470.044          40.350


 123629603.089 7  96334821.39547  23525916.540                    23525923.160
       264.543         206.140          45.650          45.600    92320910.925 7
  23525927.260         197.647          46.000


 125859205.891 7  98072154.06246  23950197.720                    23950202.680
      2135.456        1664.000          44.950          40.400    93985856.720 7
  23950208.380        1594.685          47.100


 107013198.634 8  83386941.70048  20363917.920                    20363916.620
     -1121.612        -873.984          51.700          51.700



 129608130.674 6 100993363.46845  24663607.020                    24663608.700
     -3506.661       -2732.469          40.700          35.350



 120670502.145 7  94028959.51047  22962840.900                    22962845.600
     -3363.005       -2620.528          44.850          45.100    90111098.788 8
  22962848.200       -2511.411          50.100


 105456008.145 8  82173550.76048  20067587.720                    20067589.780
      1137.116         886.065          51.300          51.050    78749670.612 9
  20067590.700         849.146          54.500


 123344643.649 7  96112696.25647  23471700.400                    23471703.920
      3274.098        2551.248          43.850          43.600    92108057.068 8
  23471708.700        2444.883          48.150


 123335500.345 7  96105658.72947  23469946.980                    23469950.420
      3657.888        2850.312          45.350          45.750



 115420645.600 8  89938174.60447  21963820.060                    21963823.120
       -81.567         -63.560          50.500          46.900    86190745.645 8
  21963823.320         -60.973          50.900


 124724274.822 8                  23734235.560
     -1168.159                          52.750                    93138293.758 8
  23734240.400        -872.316          53.300    95567970.663 8  23734236.780
      -895.066          53.600    94353136.365 9  23734239.200        -883.689
        56.250
 129966229.822 8                  24731757.820
      -270.063                          50.850                    97052710.482 8
  24731764.120        -201.701          50.200    99584510.776 8  24731762.020
      -207.021          52.100    98318605.779 8  24731763.560        -204.361
        53.850
 134912901.388 8                  25673086.280
     -2755.169                          49.050                   100746629.839 7
  25673091.620       -2057.408          47.200   103374800.713 8  25673091.520
     -2111.099          49.850   102060718.428 8  25673092.200       -2084.257
        51.300
 147880818.714 7                  28140778.080
     -1451.800                          42.850                   110430545.227 7
  28140788.920       -1084.075          42.550   113311342.069 7  28140786.020
     -1112.400          42.450   111870932.804 7  28140787.220       -1098.280
        45.250
 136088247.521 6                  25896717.700
      -159.299                          40.550                   101624418.275 6
  25896725.480        -119.081          41.150   104275460.388 6  25896720.960
      -122.070          40.850   102949945.481 7  25896722.640        -120.619
        43.750
 144421574.895 7                  27482530.580
     -2513.579                          43.550                   107847275.614 7
  27482542.760       -1877.019          43.700   110660669.220 6  27482535.940
     -1926.092          41.500   109253960.570 7  27482540.660       -1901.555
        45.450
 148392331.472 6                  28238118.920
      2537.709                          41.000                   110812515.816 6
  28238131.160        1894.945          38.800   113703265.771 6  28238128.260
      1944.469          40.250   112257883.960 7  28238130.780        1919.640
        42.300
 127533118.743 8                  24268725.460
      1308.770                          52.750                    95235830.754 8
  24268730.780         977.359          52.150    97720250.916 8  24268728.500
      1002.829          53.900    96478049.488 9  24268729.960         990.073
        55.750
 139622652.429 8                  26569294.180
      2166.500                          48.000                   104263761.054 7
  26569302.580        1617.816          43.950   106983642.763 7  26569302.240
      1660.039          47.150   105623695.562 8  26569302.880        1638.879
        48.300
 24  2  4 12  8  0.0000000  0 19G03G06G11G12G19G24G25G28G29G32E02E07
                                E08E10E11E25E27E30E36
 133488143.407 6 104016757.47845  25401949.300                    25401956.000
       610.531         475.729          37.750          32.850    99682741.254 6
  25401959.240         456.015          39.800


 123621948.292 7  96328856.68347  23524459.960                    23524466.360
       244.769         190.731          45.650          45.400    92315194.741 7
  23524470.240         182.835          45.950


 125795327.842 7  98022379.19346  23938041.980                    23938046.900
      2121.858        1653.403          44.950          40.000    93938155.851 8
  23938053.060        1584.698          48.050


 107047037.271 8  83413309.45148  20370357.180                    20370355.800
     -1135.125        -884.513          51.750          51.600



 129713423.505 6 101075409.68446  24683643.720                    24683645.160
     -3513.926       -2738.134          40.650          36.300



 120771492.368 7  94107653.09447  22982058.700                    22982063.500
     -3370.353       -2626.252          45.100          45.050    90186513.433 8
  22982066.400       -2516.870          50.250


 105422096.045 8  82147125.78248  20061134.440                    20061136.380
      1122.797         874.907          51.900          51.800    78724346.687 9
  20061137.140         838.528          54.550


 123246480.228 7  96036205.38147  23453020.180                    23453023.800
      3269.253        2547.475          43.850          43.250    92034753.318 8
  23453028.440        2441.281          48.000


 123225854.411 7  96020220.63647  23449081.760                    23449085.380
      3651.106        2845.027          45.350          44.850



 115423386.884 8  89940310.67347  21964341.640                    21964344.680
      -102.023         -79.499          50.650          46.800    86192792.710 8
  21964345.340         -76.202          51.050


 124759401.844 8                  23740920.080
     -1174.482                          53.350                    93164524.968 8
  23740924.820        -877.056          53.100    95594886.165 8  23740921.440
      -899.911          53.550    94379709.721 9  23740923.680        -888.498
        56.350
 129974545.613 8                  24733340.040
      -285.084                          50.850                    97058920.324 8
  24733346.420        -212.874          50.100    99590882.612 8  24733344.420
      -218.470          52.000    98324896.617 9  24733346.020        -215.651
        54.000
 134995655.506 8                  25688833.900
     -2762.597                          49.150                   100808426.645 7
  25688839.360       -2063.062          47.350   103438209.612 8  25688839.240
     -2116.795          49.600   102123321.279 8  25688839.840       -2089.899
        51.450
 147924559.238 7                  28149101.680
     -1465.122                          42.600                   110463208.656 6
  28149112.560       -1094.103          41.550   113344857.573 6  28149109.220
     -1122.640          41.900   111904022.276 7  28149110.700       -1108.504
        44.700
 136093253.229 6                  25897670.060
      -175.097                          41.200                   101628156.246 6
  25897678.080        -130.753          41.300   104279295.890 6  25897674.220
      -134.187          40.950   102953732.217 7  25897675.240        -132.566
        44.050
 144496980.883 7                  27496879.920
     -2514.392                          43.350                   107903585.223 7
  27496892.160       -1877.583          43.800   110718447.804 6  27496885.260
     -1926.615          41.750   109311004.663 7  27496890.180       -1902.035
        45.950
 148316216.325 6                  28223634.960
      2535.771                          40.900                   110755676.594 6
  28223646.200        1893.573          38.300   113644943.775 6  28223644.140
      1943.108          40.750   112200303.340 7  28223646.360        1918.285
        42.650
 127493944.724 8                  24261271.080
      1301.844                          53.050                    95206577.463 8
  24261275.960         972.216          52.150    97690234.495 8  24261274.080
       997.571          53.750    96448414.631 9  24261275.380         984.892
        55.900
 139557803.197 7                  26556953.560
      2156.066                          47.950                   104215334.829 7
  26556961.740        1610.036          44.200   106933953.237 7  26556961.520
      1652.040          47.050   105574637.684 8  26556962.500        1631.066
        48.800
 24  2  4 12  8 30.0000000  0 19G03G06G11G12G19G24G25G28G29G32E02E07
                                E08E10E11E25E27E30E36
 133470091.365 5 104002690.99945  25398514.060                    25398520.980
       592.679         461.828          35.700          35.750    99669260.898 6
  25398524.300         442.412          41.400


 123614881.444 7  96323350.10347  23523115.160                    23523121.180
       225.705         175.876          45.100          45.050    92309917.594 7
  23523124.680         168.594          46.100


 125731839.326 7  97972907.87746  23925960.200                    23925964.960
      2109.658        1643.897          45.450          38.650    93890745.917 8
  23925971.840        1575.445          48.950


 107081270.409 8  83439984.61348  20376871.620                    20376870.040
     -1147.685        -894.300          52.000          52.000



 129818908.499 6 101157605.67545  24703716.920                    24703718.280
     -3519.421       -2742.412          40.700          34.950



 120872692.509 7  94186510.24047  23001316.560                    23001321.320
     -3376.750       -2631.235          45.400          45.200    90262084.832 8
  23001324.380       -2521.648          50.250


 105388598.773 8  82121024.05248  20054760.080                    20054761.860
      1109.625         864.645          51.450          51.300    78699332.539 9
  20054762.720         828.606          54.750


 123148453.871 7  95959821.29946  23434366.080                    23434369.660
      3265.297        2544.391          43.550          41.900    91961551.918 8
  23434374.380        2438.313          48.350


 123116404.269 7  95934935.09347  23428253.880                    23428257.540
      3644.973        2840.246          45.400          45.200



 115426730.264 8  89942915.89447  21964977.800                    21964980.860
      -121.478         -94.658          50.300          46.900    86195289.387 8
  21964981.860         -90.759          51.350


 124794708.814 8                  23747638.920
     -1179.926                          53.050                    93190890.556 8
  23747643.440        -881.106          53.150    95621939.549 8  23747640.260
      -904.093          53.500    94406419.206 9  23747642.380        -892.605
        56.350
 129983301.214 8                  24735005.980
      -299.248                          50.650                    97065458.584 8
  24735012.360        -223.422          50.150    99597591.431 8  24735010.460
      -229.253          51.950    98331520.159 9  24735012.160        -226.307
        54.050
 135078623.435 8                  25704622.180
     -2769.191                          48.650                   100870383.109 7
  25704628.020       -2067.971          47.650   103501782.350 8  25704627.580
     -2121.862          49.550   102186085.877 8  25704628.200       -2094.893
        51.650
 147968693.677 7                  28157500.260
     -1477.592                          43.500                   110496166.239 7
  28157510.940       -1103.485          42.300   113378674.913 6  28157507.260
     -1132.352          41.550   111937409.732 7  28157509.140       -1117.867
        45.000
 136098717.906 6                  25898709.940
      -189.818                          40.900                   101632236.965 6
  25898717.940        -141.798          41.550   104283483.066 6  25898714.660
      -145.427          41.050   102957866.162 7  25898715.200        -143.668
        44.350
 144572399.302 7                  27511231.380
     -2514.328                          42.500                   107959904.118 7
  27511243.760       -1877.627          43.800   110776235.875 7  27511237.340
     -1926.529          42.600   109368058.146 7  27511242.000       -1902.030
        46.400
 148240148.131 6                  28209159.780
      2534.596                          40.500                   110698872.447 6
  28209170.560        1892.774          37.500   113586657.750 6  28209168.860
      1942.261          40.700   112142758.251 7  28209170.840        1917.411
        42.300
 127454967.534 8                  24253854.000
      1295.921                          52.750                    95177471.164 8
  24253858.640         967.716          52.200    97660368.897 8  24253857.000
       992.983          53.600    96418928.682 9  24253858.260         980.353
        55.900
 139493255.956 7                  26544670.160
      2146.528                          46.900                   104167134.126 7
  26544678.700        1602.919          44.550   106884495.114 7  26544678.120
      1644.727          46.850   105525808.270 8  26544679.560        1623.832
        48.900
 24  2  4 12  9  0.0000000  0 19G03G06G11G12G19G24G25G28G29G32E02E07
                                E08E10E11E25E27E30E36
 133452606.430 6 103989066.42946  25395186.940                    25395193.640
       573.365         446.781          38.900          38.600    99656203.958 7
  25395197.040         428.170          44.650


 123608409.581 7  96318307.14347  23521883.440                    23521889.160
       205.829         160.388          44.700          44.650    92305084.770 7
  23521892.560         153.634          46.200


 125668749.493 7  97923747.22246  23913954.240                    23913959.000
      2096.292        1633.482          44.750          39.650    93843633.689 8
  23913966.300        1565.404          49.000


 107115904.062 8  83466971.86348  20383462.340                    20383460.520
     -1160.977        -904.657          51.700          51.600



 129924588.818 6 101239953.89446  24723827.360                    24723828.320
     -3525.824       -2747.399          39.500          36.200



 120974107.386 7  94265534.69547  23020615.280                    23020620.160
     -3384.031       -2636.912          45.000          44.650    90337816.582 8
  23020623.200       -2527.092          50.050


 105355522.959 8  82095250.74548  20048465.840                    20048467.600
      1095.455         853.604          51.050          51.300    78674633.123 9
  20048468.720         818.064          54.800


 123050572.926 7  95883550.49847  23415739.640                    23415743.380
      3260.209        2540.426          42.650          42.300    91888459.097 8
  23415748.260        2434.614          48.400


 123007158.534 7  95849808.83247  23407464.860                    23407468.580
      3637.972        2834.791          45.200          45.250



 115430681.995 8  89945995.15747  21965729.820                    21965732.800
      -141.925        -110.591          50.100          47.250    86198240.342 8
  21965734.040        -105.975          51.300


 124830201.523 8                  23754393.100
     -1186.176                          52.850                    93217394.840 8
  23754397.600        -885.801          53.200    95649135.252 8  23754394.320
      -908.890          53.600    94433269.200 9  23754396.420        -897.371
        56.450
 129992502.905 8                  24736756.880
      -314.138                          50.400                    97072329.963 8
  24736763.280        -234.649          50.050    99604642.063 8  24736761.460
      -240.720          52.000    98338481.164 9  24736763.200        -237.656
        54.000
 135161809.800 7                  25720451.940
     -2776.576                          47.950                   100932502.690 7
  25720458.180       -2073.398          47.500   103565522.449 8  25720457.500
     -2127.431          49.600   102249015.723 8  25720458.120       -2100.459
        51.600
 148013227.131 7                  28165974.860
     -1491.081                          43.250                   110529421.748 7
  28165985.220       -1113.505          42.000   113412797.973 6  28165981.260
     -1142.471          41.350   111971099.019 7  28165983.660       -1128.024
        44.950
 136104647.827 6                  25899838.420
      -205.226                          40.650                   101636665.080 6
  25899846.440        -153.190          41.350   104288026.710 6  25899843.580
      -157.194          41.100   102962352.053 7  25899843.700        -155.370
        44.200
 144647836.048 7                  27525586.380
     -2514.811                          42.950                   108016236.665 7
  27525598.800       -1878.048          43.800   110834037.999 7  27525592.840
     -1926.987          42.550   109425125.491 7  27525597.220       -1902.558
        46.450
 148164133.517 6                  28194694.620
      2532.873                          40.900                   110642108.223 6
  28194704.720        1891.643          37.550   113528412.753 6  28194703.880
      1940.818          41.300   112085253.645 7  28194705.660        1916.136
        42.700
 127416193.560 8                  24246475.440
      1289.101                          52.250                    95148516.612 8
  24246480.100         962.586          52.150    97630659.005 8  24246478.380
       987.716          53.550    96389596.462 9  24246479.820         975.147
        55.900
 139429019.033 7                  26532445.760
      2135.956                          46.100                   104119165.148 7
  26532455.040        1595.043          44.900   106835274.756 7  26532453.800
      1636.621          46.450   105477213.604 8  26532455.620        1615.826
        48.900
 24  2  4 12  9 30.0000000  0 19G03G06G11G12G19G24G25G28G29G32E02E07
                                E08E10E11E25E27E30E36
 133435682.493 6 103975878.94646  25391966.420                    25391973.140
       555.170         432.599          38.950          38.150    99643565.979 7
  25391976.580         414.594          45.200


 123602526.630 7  96313723.06547  23520763.740                    23520769.320
       186.764         145.531          44.750          44.750    92300691.702 7
  23520772.640         139.363          46.200


 125606054.342 7  97874894.10446  23902023.400                    23902027.820
      2083.556        1623.558          44.850          38.000    93796816.190 8
  23902035.540        1555.870          48.850


 107150929.020 8  83494264.03048  20390127.440                    20390125.540
     -1173.593        -914.489          51.600          51.550



 130030455.315 6 101322447.11046  24743973.220                    24743974.180
     -3531.575       -2751.879          39.950          36.750



 121075728.702 7  94344720.04247  23039953.300                    23039958.220
     -3390.579       -2642.015          45.050          44.800    90413702.504 8
  23039961.420       -2531.874          49.750


 105322862.275 8  82069800.91248  20042250.580                    20042252.480
      1082.006         843.123          50.850          50.700    78650243.712 9
  20042253.900         808.036          55.050


 122952832.577 6  95807389.26146  23397140.040                    23397143.720
      3255.925        2537.087          41.500          40.700    91815471.280 8
  23397149.020        2431.420          48.750


 122898112.547 7  95764838.19847  23386714.020                    23386717.640
      3631.864        2830.033          45.600          45.800



 115435235.226 8  89949543.12547  21966596.320                    21966599.380
      -161.489        -125.836          50.150          47.350    86201640.478 8
  21966600.580        -120.617          51.400


 124865872.759 8                  23761181.140
     -1191.692                          52.700                    93244032.432 8
  23761185.760        -889.902          53.250    95676467.741 9  23761182.480
      -913.141          54.000    94460254.241 9  23761184.420        -901.512
        56.550
 130002143.877 8                  24738591.460
      -328.330                          50.500                    97079529.359 8
  24738597.780        -245.211          49.950    99612029.279 8  24738596.040
      -251.647          52.050    98345774.473 8  24738597.820        -248.399
        53.900
 135245206.149 8                  25736321.640
     -2783.107                          48.250                   100994779.088 7
  25736328.180       -2078.211          47.650   103629423.461 8  25736327.200
     -2132.466          49.400   102312104.428 8  25736327.980       -2105.371
        51.350
 148058151.641 7                  28174523.880
     -1503.709                          44.150                   110562969.281 6
  28174534.060       -1122.925          41.950   113447220.668 6  28174529.960
     -1152.234          41.800   112005084.135 7  28174532.560       -1137.568
        44.900
 136111036.166 6                  25901054.280
      -220.335                          41.600                   101641435.526 6
  25901062.420        -164.591          41.950   104292921.592 6  25901059.460
      -168.830          41.000   102967184.705 7  25901059.380        -166.698
        44.300
 144723284.080 7                  27539943.840
     -2514.677                          43.900                   108072577.645 7
  27539955.920       -1877.922          43.950   110891848.754 7  27539950.600
     -1926.948          43.350   109482201.359 7  27539954.640       -1902.485
        46.700
 148088166.018 6                  28180238.460
      2531.673                          41.500                   110585379.179 6
  28180248.880        1890.499          40.000   113470203.825 6  28180247.920
      1939.904          41.900   112027784.654 7  28180249.640        1915.175
        43.800
 127377616.161 8                  24239134.220
      1282.859                          52.200                    95119708.849 8
  24239139.220         958.051          52.350    97601099.733 8  24239137.060
       983.009          53.550    96360412.942 9  24239138.760         970.548
        55.850
 139365087.625 7                  26520279.580
      2126.307                          46.300                   104071424.315 7
  26520289.480        1587.843          45.100   106786288.487 7  26520287.480
      1629.315          46.300   105428850.060 8  26520289.720        1608.533
        48.700
 24  2  4 12 10  0.0000000  0 19G03G06G11G12G19G24G25G28G29G32E02E07
                                E08E10E11E25E27E30E36
 133419320.202 6 103963129.13246  25388852.800                    25388859.840
       535.984         417.654          38.900          38.200    99631347.412 7
  25388862.860         400.312          45.600


 123597233.330 7  96309598.43847  23519756.260                    23519761.700
       166.524         129.760          44.700          45.000    92296738.937 7
  23519764.480         124.411          45.600


 125543756.672 7  97826350.69046  23890168.380                    23890172.440
      2070.009        1613.001          44.850          39.700    93750295.457 8
  23890180.240        1545.770          48.400


 107186344.809 8  83521860.73248  20396866.840                    20396865.120
     -1186.995        -924.932          51.550          51.300



 130136505.472 6 101405083.46245  24764154.040                    24764154.720
     -3538.003       -2756.892          39.600          33.550



 121177555.044 7  94424065.12547  23059330.360                    23059335.440
     -3397.655       -2647.527          45.600          45.000    90489741.518 8
  23059338.420       -2537.171          49.350


 105290617.099 8  82044674.84848  20036114.420                    20036116.560
      1067.916         832.144          51.300          51.300    78626164.581 9
  20036118.140         797.496          54.850


 122855234.918 7  95731339.23346  23378567.820                    23378571.540
      3250.846        2533.129          42.150          41.250    91742590.023 8
  23378577.040        2427.643          48.700


 122789269.015 7  95680025.29647  23366001.720                    23366005.160
      3624.751        2824.489          46.000          46.100



 115440389.869 8  89953559.73247  21967577.300                    21967580.400
      -181.821        -141.679          50.550          47.700    86205489.716 8
  21967581.400        -135.702          50.950


 124901722.036 8                  23768003.060
     -1197.882                          53.150                    93270802.980 8
  23768007.680        -894.530          52.950    95703936.649 9  23768004.680
      -917.852          54.050    94487373.968 9  23768006.300        -906.187
        56.550
 130012224.112 8                  24740509.660
      -343.221                          50.600                    97087056.778 8
  24740516.020        -256.307          49.900    99619753.066 8  24740514.300
      -262.986          52.000    98353400.072 8  24740516.040        -259.636
        53.950
 135328810.857 7                  25752230.940
     -2790.287                          47.800                   101057211.075 7
  25752238.040       -2083.644          47.400   103693484.121 8  25752236.360
     -2137.942          48.900   102375350.750 8  25752237.520       -2110.788
        51.300
 148103466.069 7                  28183147.240
     -1516.974                          43.900                   110596807.970 6
  28183156.980       -1132.898          41.350   113481942.081 6  28183153.160
     -1162.347          41.150   112039364.184 7  28183155.560       -1147.631
        44.550
 136117883.005 6                  25902357.240
      -235.853                          41.050                   101646548.317 6
  25902365.660        -176.014          41.700   104298167.768 6  25902362.140
      -180.591          40.300   102972364.192 7  25902362.340        -178.346
        43.950
 144798743.186 7                  27554303.440
     -2515.437                          43.600                   108128926.879 7
  27554315.260       -1878.408          43.850   110949667.998 7  27554310.360
     -1927.483          43.450   109539285.591 7  27554314.120       -1903.000
        46.800
 148012245.916 7                  28165791.320
      2529.739                          42.400                   110528685.455 6
  28165802.220        1889.370          40.100   113412031.146 6  28165801.020
      1938.502          40.900   111970351.457 7  28165802.520        1913.896
        43.650
 127339235.470 8                  24231830.500
      1276.118                          52.800                    95091047.989 8
  24231835.840         952.955          52.300    97571691.193 8  24231833.160
       977.816          53.200    96331378.244 9  24231835.120         965.370
        55.850
 139301463.783 7                  26508172.120
      2115.658                          46.800                   104023913.155 7
  26508182.520        1579.848          44.800   106737537.872 7  26508179.600
      1620.979          46.250   105380719.168 8  26508182.260        1600.405
        48.750
 24  2  4 12 10 30.0000000  0 19G03G06G11G12G19G24G25G28G29G32E02E07
                                E08E10E11E25E27E30E36
 133403522.309 6 103950819.07746  25385846.580                    25385853.600
       517.853         403.521          40.300          39.100    99619550.222 7
  25385856.860         386.733          45.450


 123592532.385 7  96305935.38347  23518861.660                    23518866.780
       147.327         114.802          45.250          45.350    92293228.519 7
  23518868.800         110.160          45.200


 125481861.235 7  97778120.66446  23878389.920                    23878393.760
      2057.145        1602.978          44.800          39.050    93704075.088 8
  23878401.520        1536.153          48.300


 107222152.200 8  83549762.58748  20403680.720                    20403679.380
     -1199.579        -934.737          51.850          52.000



 130242739.052 6 101487862.74745  24784369.540                    24784371.100
     -3543.647       -2761.285          38.950          31.950



 121279586.915 7  94503570.35647  23078746.460                    23078751.760
     -3403.761       -2652.284          46.050          46.200    90565934.027 8
  23078754.380       -2541.761          49.000


 105258789.822 8  82019874.41348  20030057.840                    20030060.060
      1054.581         821.752          51.050          51.000    78602397.509 9
  20030061.700         787.515          54.900


 122757784.045 7  95655403.57047  23360023.700                    23360027.100
      3246.694        2529.896          43.500          42.300    91669818.373 8
  23360032.900        2424.389          48.900


 122680632.596 7  95595373.77147  23345328.940                    23345332.260
      3618.396        2819.536          46.400          46.200



 115446147.846 8  89958046.45747  21968673.160                    21968676.220
      -201.303        -156.860          50.900          47.150    86209789.496 8
  21968676.820        -150.347          50.900


 124937750.932 8                  23774859.180
     -1203.302                          53.600                    93297707.653 8
  23774863.660        -898.551          53.100    95731543.180 9  23774861.060
      -921.970          54.050    94514629.568 9  23774862.340        -910.242
        56.400
 130022745.566 8                  24742511.820
      -357.344                          50.550                    97094913.684 8
  24742518.360        -266.818          50.150    99627814.934 8  24742516.520
      -273.804          51.900    98361359.463 8  24742518.200        -270.333
        53.800
 135412624.246 7                  25768180.020
     -2796.588                          47.950                   101119798.926 7
  25768187.420       -2088.382          47.750   103757704.699 8  25768185.420
     -2142.750          49.000   102438754.960 8  25768186.780       -2115.532
        51.200
 148149171.291 7                  28191844.820
     -1529.363                          43.800                   110630938.438 7
  28191854.340       -1142.066          42.000   113516962.937 7  28191850.500
     -1171.872          42.000   112073939.837 7  28191853.020       -1156.932
        45.050
 136125190.329 6                  25903747.980
      -250.400                          41.950                   101652004.975 6
  25903756.260        -186.957          41.700   104303766.796 6  25903752.020
      -191.988          40.000   102977892.040 7  25903752.960        -189.400
        43.800
 144874215.141 7                  27568665.320
     -2515.229                          43.250                   108185285.711 7
  27568677.000       -1878.221          43.600   111007497.070 7  27568672.580
     -1927.281          43.900   109596379.548 7  27568676.180       -1902.780
        46.750
 147936375.593 6                  28151353.720
      2528.802                          41.850                   110472028.894 6
  28151365.240        1888.383          40.050   113353896.564 6  28151363.320
      1937.639          40.950   111912955.877 7  28151364.620        1913.104
        43.300
 127301053.612 8                  24224564.780
      1270.074                          52.800                    95062535.608 8
  24224570.220         948.444          52.650    97542435.006 8  24224567.140
       973.162          53.100    96302493.961 9  24224569.300         960.816
        55.750
 139238151.473 7                  26496124.060
      2105.760                          46.950                   103976634.635 7
  26496134.760        1572.599          45.200   106689025.973 7  26496131.300
      1613.609          46.600   105332823.958 8  26496134.080        1593.146
        48.750
 24  2  4 12 11  0.0000000  0 19G03G06G11G12G19G24G25G28G29G32E02E07
                                E08E10E11E25E27E30E36
 133388291.425 6 103938950.82046  25382948.180                    25382955.320
       498.269         388.261          38.450          38.000    99608176.500 7
  25382958.520         372.039          46.600


 123588426.424 7  96302735.95947  23518080.280                    23518085.100
       127.113          99.052          45.250          45.650    92290162.443 7
  23518086.540          94.860          45.300


 125420372.882 7  97730207.81546  23866688.900                    23866692.280
      2042.699        1591.719          44.400          38.000    93658158.653 8
  23866700.240        1525.475          48.400


 107258352.437 8  83577970.56448  20410569.380                    20410568.240
     -1213.021        -945.211          51.300          51.400



 130349155.147 6 101570784.26345  24804619.940                    24804621.860
     -3549.811       -2766.094          38.650          31.950



 121381824.899 7  94583236.19747  23098201.820                    23098207.020
     -3411.104       -2658.007          45.850          45.600    90642280.444 8
  23098209.500       -2547.367          49.050


 105227382.834 8  81995401.47548  20024081.200                    20024083.320
      1040.059         810.437          50.900          50.700    78578944.284 9
  20024084.920         776.681          55.000


 122660484.078 7  95579585.48447  23341508.480                    23341511.540
      3241.028        2525.478          44.050          42.600    91597159.399 8
  23341517.380        2420.196          49.250


 122572207.441 7  95510886.82547  23324696.300                    23324699.460
      3610.653        2813.502          46.650          46.850



 115452511.024 8  89963004.77147  21969884.120                    21969887.140
      -222.128        -173.087          51.100          46.800    86214541.195 8
  21969887.280        -165.845          50.950


 124973961.017 8                  23781749.860
     -1209.899                          53.650                    93324747.630 8
  23781754.240        -903.478          53.450    95759288.551 8  23781751.740
      -927.082          53.900    94542022.242 9  23781752.840        -915.273
        56.150
 130033710.181 8                  24744598.300
      -372.656                          50.450                    97103101.511 8
  24744605.080        -278.267          50.600    99636216.361 8  24744603.120
      -285.600          51.950    98369654.086 8  24744604.680        -281.900
        53.800
 135496646.729 7                  25784168.820
     -2804.170                          47.700                   101182542.877 8
  25784176.700       -2093.928          48.000   103822085.472 8  25784174.260
     -2148.582          48.800   102502317.328 8  25784175.780       -2121.257
        50.950
 148195268.189 7                  28200616.560
     -1542.973                          42.800                   110665361.377 6
  28200625.860       -1152.179          40.200   113552283.856 7  28200622.840
     -1182.307          42.250   112108811.766 7  28200625.080       -1167.197
        43.800
 136132960.127 7                  25905227.000
      -266.713                          42.450                   101657807.003 6
  25905234.560        -199.126          41.750   104309720.193 6  25905230.000
      -204.267          39.900   102983769.748 7  25905231.600        -201.722
        43.500
 144949701.737 7                  27583029.960
     -2516.357                          43.350                   108241655.483 7
  27583041.540       -1879.115          43.700   111065337.362 7  27583037.680
     -1928.124          44.000   109653484.578 7  27583040.880       -1903.608
        46.550
 147860557.402 7                  28136925.980
      2526.467                          42.550                   110415411.237 6
  28136938.100        1886.723          40.700   113295801.931 6  28136935.760
      1935.981          41.050   111855599.733 7  28136936.920        1911.390
        43.400
 127263072.765 8                  24217337.340
      1262.810                          52.750                    95034173.329 8
  24217342.940         943.004          53.100    97513332.836 8  24217339.500
       967.609          53.100    96273761.736 9  24217341.760         955.325
        55.750
 139175154.678 7                  26484136.060
      2094.831                          46.700                   103929591.739 7
  26484146.920        1564.284          45.250   106640755.867 7  26484143.220
      1605.034          46.850   105285167.459 8  26484146.020        1584.664
        48.650
 24  2  4 12 11 30.0000000  0 19G03G06G11G12G19G24G25G28G29G32E02E07
                                E08E10E11E25E27E30E36
 133373622.329 6 103927520.30846  25380156.780                    25380163.960
       479.410         373.566          38.950          38.750    99597222.266 7
  25380167.040         357.979          46.550


 123584910.232 7  96299996.10747  23517411.140                    23517415.780
       107.159          83.504          44.950          44.750    92287536.769 7
  23517416.740          79.950          45.100


 125359288.416 7  97682609.68346  23855064.760                    23855068.140
      2029.048        1581.083          44.500          39.300    93612543.822 8
  23855076.020        1515.264          48.200


 107294938.706 8  83606479.34148  20417531.440                    20417530.260
     -1226.241        -955.514          51.350          51.000



 130455745.982 6 101653842.04246  24824903.420                    24824905.440
     -3556.219       -2771.079          38.650          37.000



 121484261.587 7  94663056.86747  23117694.960                    23117700.380
     -3418.018       -2663.396          45.200          45.200    90718775.232 8
  23117702.540       -2552.407          49.350


 105196390.595 8  81971251.71748  20018183.460                    20018185.460
      1025.874         799.384          50.200          50.350    78555800.774 9
  20018187.000         766.109          54.950


 122563331.014 7  95503881.87946  23323021.120                    23323023.860
      3235.817        2521.418          45.300          41.750    91524610.107 8
  23323029.680        2416.287          49.550


 122463990.175 7  95426561.83747  23304103.240                    23304106.360
      3603.335        2807.798          46.400          46.750



 115459473.331 8  89968429.91947  21971209.100                    21971212.060
      -242.214        -188.739          51.100          46.800    86219740.293 8
  21971211.720        -180.891          50.800


 125010345.918 8                  23788673.800
     -1215.937                          53.250                    93351918.156 8
  23788678.080        -908.031          53.450    95787167.873 9  23788675.520
      -931.664          54.000    94569547.168 9  23788676.680        -919.849
        56.500
 130045111.992 8                  24746768.000
      -387.476                          50.500                    97111615.821 8
  24746775.140        -289.375          50.850    99644952.779 8  24746772.880
      -296.975          52.200    98378279.452 9  24746774.360        -293.140
        54.250
 135580870.678 7                  25800196.220
     -2811.030                          47.800                   101245437.307 8
  25800204.180       -2099.102          48.000   103886620.637 8  25800201.220
     -2153.856          48.850   102566032.125 8  25800203.180       -2126.470
        51.200
 148241749.642 6                  28209461.280
     -1556.022                          41.800                   110700071.442 6
  28209470.740       -1161.935          41.100   113587899.390 6  28209468.400
     -1192.213          41.650   112143974.568 7  28209469.980       -1177.053
        44.150
 136141186.541 7                  25906792.820
      -282.108                          42.400                   101663950.044 6
  25906799.920        -210.485          41.550   104316023.481 6  25906795.160
      -215.932          40.050   102989992.917 7  25906797.100        -213.186
        43.750
 145025196.788 7                  27597396.180
     -2516.780                          43.350                   108298031.557 7
  27597407.660       -1879.481          43.350   111123184.134 7  27597404.460
     -1928.550          44.600   109710596.000 7  27597407.180       -1904.021
        46.700
 147784785.807 7                  28122507.380
      2524.898                          42.750                   110358828.343 6
  28122519.760        1885.420          41.550   113237743.013 6  28122516.880
      1934.677          41.450   111798278.829 7  28122518.300        1910.024
        44.200
 127225287.115 8                  24210147.000
      1256.032                          53.000                    95005956.816 8
  24210152.760         938.013          53.250    97484380.242 8  24210149.040
       962.407          53.350    96245177.183 9  24210151.360         950.222
        56.100
 139112469.491 7                  26472207.460
      2084.066                          46.800                   103882781.541 7
  26472218.340        1556.291          45.450   106592724.513 7  26472214.540
      1596.891          47.150   105237746.683 8  26472217.360        1576.601
        49.100
 24  2  4 12 12  0.0000000  0 19G03G06G11G12G19G24G25G28G29G32E02E07
                                E08E10E11E25E27E30E36
 133359520.699 6 103916532.07146  25377473.240                    25377480.580
       460.657         358.960          38.050          38.200    99586691.851 7
  25377483.520         343.947          46.600


 123581989.536 7  96297720.27247  23516855.500                    23516859.680
        87.452          68.146          44.850          44.850    92285355.755 7
  23516860.480          65.243          44.900


 125298615.752 7  97635332.41846  23843519.160                    23843522.860
      2015.404        1570.450          44.850          40.650    93567236.480 7
  23843530.100        1505.021          47.800


 107331914.867 8  83635291.93248  20424567.760                    20424566.380
     -1239.090        -965.524          51.200          51.100



 130562513.515 6 101737037.48146  24845220.520                    24845223.300
     -3561.764       -2775.397          37.850          36.500



 121586900.596 7  94743035.20547  23137226.700                    23137232.040
     -3424.635       -2668.551          45.350          45.150    90795421.125 8
  23137234.040       -2557.360          49.450


 105165818.567 8  81947429.38248  20012365.720                    20012367.600
      1012.108         788.656          50.250          50.350    78532971.050 9
  20012369.160         755.780          55.100


 122466332.137 7  95428298.40247  23304562.860                    23304565.560
      3230.558        2517.318          44.400          43.350    91452175.946 8
  23304571.200        2412.462          49.750


 122355988.413 7  95342404.77147  23283551.180                    23283554.320
      3596.574        2802.530          46.550          46.550



 115467039.689 8  89974325.77047  21972648.900                    21972651.920
      -262.390        -204.460          50.700          47.700    86225390.461 8
  21972651.320        -195.901          50.850


 125046910.297 8                  23795631.780
     -1221.807                          52.800                    93379222.697 8
  23795636.060        -912.397          53.550    95815184.715 8  23795633.440
      -936.208          53.800    94597207.857 9  23795634.700        -924.290
        56.700
 130056956.046 8                  24749021.940
      -402.209                          50.350                    97120460.369 8
  24749029.320        -300.344          51.000    99654028.055 8  24749026.780
      -308.167          52.000    98387239.364 9  24749028.200        -304.247
        54.600
 135665299.565 7                  25816262.600
     -2817.721                          47.350                   101308484.761 8
  25816270.780       -2104.093          48.450   103951312.815 8  25816267.520
     -2159.016          49.000   102629901.938 8  25816269.500       -2131.552
        51.800
 148288619.566 7                  28218379.900
     -1568.755                          42.100                   110735071.610 6
  28218389.540       -1171.453          41.050   113623812.612 6  28218387.440
     -1202.032          41.700   112179431.254 7  28218389.120       -1186.704
        44.400
 136149874.536 6                  25908446.380
      -297.185                          41.800                   101670437.801 6
  25908452.800        -222.144          41.200   104322680.490 6  25908448.280
      -227.691          39.900   102996565.292 7  25908450.460        -224.949
        43.700
 145100705.126 7                  27611764.940
     -2517.039                          42.250                   108354417.571 7
  27611776.240       -1879.692          42.850   111181041.096 7  27611773.700
     -1928.828          44.650   109767717.482 7  27611775.980       -1904.213
        46.750
 147709066.277 7                  28108098.800
      2523.124                          43.250                   110302284.359 7
  28108111.500        1884.191          42.200   113179723.967 6  28108107.500
      1933.370          39.800   111740997.315 7  28108109.600        1908.734
        44.250
 127187701.861 8                  24202994.780
      1249.486                          52.950                    94977889.963 8
  24203000.580         933.045          53.350    97455581.192 8  24202996.640
       957.445          53.100    96216744.234 9  24202999.080         945.202
        56.350
 139050103.032 7                  26460339.620
      2073.530                          46.500                   103836209.354 7
  26460350.280        1548.365          46.000   106544937.389 7  26460346.580
      1588.744          47.000   105190567.029 8  26460349.340        1568.545
        49.600
 24  2  4 12 12 30.0000000  0 19G03G06G11G12G19G24G25G28G29G32E02E07
                                E08E10E11E25E27E30E36
 133345986.705 6 103905986.10246  25374897.620                    25374904.940
       441.596         344.101          37.600          37.800    99576585.301 7
  25374907.820         329.872          45.850


 123579664.550 7  96295908.65347  23516413.060                    23516417.000
        67.608          52.686          44.250          44.650    92283619.612 7
  23516418.220          50.560          45.700


 125238357.248 7  97588377.86446  23832052.580                    23832056.620
      2001.956        1559.969          45.950          40.900    93522238.404 7
  23832062.920        1494.771          47.000


 107369279.903 8  83664407.54048  20431678.120                    20431676.660
     -1251.853        -975.470          51.300          51.200



 130669454.855 6 101820368.29045  24865570.780                    24865573.540
     -3567.771       -2780.084          37.650          33.550



 121689740.134 7  94823169.77847  23156796.560                    23156802.160
     -3431.052       -2673.553          45.400          45.600    90872216.732 8
  23156804.040       -2562.200          49.550


 105135666.776 8  81923934.50948  20006628.040                    20006629.740
       998.248         777.856          51.250          51.350    78510455.136 9
  20006631.460         745.389          55.050


 122369489.109 7  95352836.36247  23286134.120                    23286136.780
      3225.713        2513.546          44.150          42.700    91379858.181 8
  23286142.380        2408.682          49.550


 122248204.385 7  95258417.33647  23263040.540                    23263043.780
      3589.178        2796.767          46.300          46.200



 115475209.537 8  89980691.87147  21974203.540                    21974206.500
      -282.352        -220.015          50.750          47.100    86231491.313 8
  21974205.900        -210.841          50.800


 125083653.342 8                  23802623.720
     -1227.646                          52.750                    93406660.668 8
  23802628.020        -916.743          53.200    95843338.460 8  23802625.300
      -940.649          53.700    94625003.719 9  23802626.720        -928.709
        56.750
 130069241.862 8                  24751360.040
      -416.830                          50.850                    97129634.816 8
  24751367.520        -311.214          50.950    99663441.838 8  24751364.720
      -319.360          51.800    98396533.478 9  24751366.100        -315.303
        54.700
 135749931.341 7                  25832367.780
     -2824.379                          47.850                   101371683.728 8
  25832376.000       -2109.091          48.100   104016160.459 8  25832372.400
     -2164.116          48.550   102693925.245 8  25832374.420       -2136.576
        51.700
 148335876.414 7                  28227372.280
     -1581.601                          42.350                   110770360.682 6
  28227382.400       -1181.146          41.500   113660022.289 7  28227380.340
     -1211.791          42.450   112215180.635 7  28227381.920       -1196.396
        45.050
 136159023.776 6                  25910187.360
      -312.646                          41.600                   101677269.982 6
  25910193.240        -233.517          40.250   104329690.918 6  25910189.180
      -239.615          40.100   103003486.595 7  25910191.500        -236.414
        43.650
 145176226.234 6                  27626136.140
     -2517.588                          41.950                   108410813.082 7
  27626147.300       -1879.937          42.600   111238907.798 7  27626145.360
     -1928.986          44.600   109824848.595 7  27626147.180       -1904.524
        46.800
 147633398.872 7                  28093700.040
      2521.386                          42.750                   110245779.351 7
  28093713.180        1882.972          42.050   113121744.946 6  28093708.480
      1932.105          40.750   111683755.297 7  28093710.640        1907.456
        44.750
 127150316.801 8                  24195880.640
      1242.972                          52.650                    94949972.593 8
  24195886.380         928.173          53.200    97426935.542 8  24195882.340
       952.389          52.950    96188462.722 9  24195884.900         940.274
        56.450
 138988056.863 7                  26448532.720
      2063.045                          46.400                   103789876.379 7
  26448543.220        1540.540          46.050   106497395.698 7  26448539.520
      1580.726          47.000   105143629.697 8  26448542.160        1560.644
        49.850
 24  2  4 12 13  0.0000000  0 19G03G06G11G12G19G24G25G28G29G32E02E07
                                E08E10E11E25E27E30E36
 133333016.029 6 103895879.09446  25372429.320                    25372436.640
       422.361         329.109          38.900          38.550    99566899.428 7
  25372439.400         315.578          45.900


 123577930.975 7  96294557.89047  23516082.960                    23516087.020
        47.902          37.329          44.150          44.100    92282325.162 7
  23516089.320          35.492          46.550


 125178510.863 7  97541744.45646  23820664.420                    23820668.740
      1987.638        1548.813          46.300          40.200    93477548.037 7
  23820674.180        1484.287          46.750


 107407027.669 8  83693821.38048  20438861.300                    20438859.920
     -1264.941        -985.669          51.050          50.950



 130776563.096 6 101903829.15845  24885952.980                    24885955.740
     -3573.378       -2784.459          38.700          35.200



 121792773.859 7  94903455.69747  23176403.400                    23176408.900
     -3438.141       -2679.074          45.000          45.050    90949157.357 8
  23176410.660       -2567.358          49.650


 105105930.719 8  81900763.58848  20000969.580                    20000971.140
       983.842         766.631          50.600          50.700    78488249.672 9
  20000972.960         734.717          55.350


 122272799.234 7  95277493.67347  23267734.380                    23267737.000
      3219.914        2509.027          44.250          42.400    91307654.781 8
  23267742.680        2404.575          49.500


 122140635.780 7  95174597.75647  23242570.800                    23242574.340
      3581.533        2790.809          46.500          46.550



 115483977.795 8  89987524.26647  21975872.080                    21975874.940
      -302.601        -235.793          50.550          47.500    86238039.018 8
  21975874.600        -226.053          51.000


 125120569.769 8                  23809648.580
     -1233.680                          52.400                    93434228.120 8
  23809652.940        -921.310          53.250    95871625.057 8  23809650.060
      -945.326          53.800    94652930.740 9  23809651.700        -933.292
        56.000
 130081964.502 8                  24753781.340
      -431.710                          51.000                    97139135.468 8
  24753788.800        -322.397          51.200    99673190.330 8  24753785.700
      -330.773          51.950    98406158.049 8  24753787.120        -326.599
        53.950
 135834759.464 7                  25848510.320
     -2831.112                          47.650                   101435029.323 8
  25848518.380       -2114.244          48.300   104081158.552 8  25848514.340
     -2169.386          48.600   102758097.094 8  25848516.760       -2141.889
        50.900
 148383514.175 7                  28236437.360
     -1594.508                          42.300                   110805934.207 6
  28236447.940       -1190.770          41.100   113696523.834 6  28236445.660
     -1221.790          41.200   112251218.174 7  28236447.180       -1206.355
        43.600
 136168629.182 6                  25912014.900
      -328.192                          41.050                   101684442.831 6
  25912020.240        -244.624          39.950   104337050.897 6  25912017.120
      -251.209          40.300   103010753.018 7  25912019.360        -248.054
        42.700
 145251754.901 7                  27640508.800
     -2518.143                          42.100                   108467214.240 6
  27640519.800       -1880.343          41.750   111296780.295 7  27640518.040
     -1929.431          44.550   109881985.424 7  27640519.860       -1904.917
        45.550
 147557779.058 6                  28079310.140
      2519.620                          41.900                   110189310.018 7
  28079323.180        1881.519          42.900   113063802.517 6  28079317.940
      1930.571          40.850   111626549.427 7  28079321.000        1906.007
        44.400
 127113127.225 8                  24188803.620
      1236.019                          52.200                    94922201.197 8
  24188809.320         923.013          53.250    97398439.668 8  24188805.240
       947.081          53.200    96160329.085 9  24188807.900         935.055
        55.750
 138926328.108 7                  26436786.080
      2051.917                          46.150                   103743780.457 7
  26436796.480        1532.300          46.250   106450097.245 7  26436792.920
      1572.241          47.100   105096932.503 8  26436795.380        1552.313
        49.250
 24  2  4 12 13 30.0000000  0 20G03G06G11G12G19G24G25G28G29G31G32E02
                                E07E08E10E11E25E27E30E36
 133320615.680 6 103886216.47846  25370069.680                    25370077.100
       404.838         315.455          38.300          36.600    99557639.439 7
  25370079.700         302.140          46.200


 123576795.800 7  96293673.40647  23515866.880                    23515870.880
        28.450          22.172          44.100          43.900    92281477.552 7
  23515874.380          21.280          46.850


 125119085.663 7  97495439.22946  23809356.360                    23809360.780
      1974.520        1538.590          47.050          40.400    93433172.229 7
  23809365.700        1474.399          46.900


 107445163.267 8  83723537.41048  20446118.320                    20446117.040
     -1276.897        -994.985          51.400          51.450



 130883841.955 6 101987423.04946  24906367.620                    24906370.200
     -3578.141       -2788.164          38.750          36.600



 121896006.637 7  94983896.68447  23196047.980                    23196053.820
     -3443.770       -2683.461          44.950          45.250    91026246.614 8
  23196055.320       -2571.636          49.250


 105076617.125 8  81877921.83748  19995391.520                    19995392.960
       970.891         756.538          51.100          51.300    78466359.674 9
  19995394.960         724.884          55.450


 122176270.964 7  95202276.90346  23249365.440                    23249367.800
      3215.526        2505.607          44.650          41.350    91235572.070 8
  23249373.640        2401.273          49.100


 122033291.207 7  95090952.71847  23222143.700                    23222147.460
      3575.105        2785.800          46.700          46.800



 134248920.793 6 104609556.60446  25546719.720                    25546724.780
      3629.520        2828.195          38.150          37.250



 115493350.587 8  89994827.72447  21977655.700                    21977658.420
      -321.787        -250.744          50.550          46.900    86245038.159 8
  21977658.260        -240.340          50.800


 125157665.527 8                  23816707.500
     -1238.823                          52.700                    93461929.470 8
  23816711.980        -925.076          53.100    95900049.055 8  23816708.920
      -949.240          53.450    94680993.416 9  23816710.800        -937.179
        55.950
 130095130.203 8                  24756286.960
      -445.570                          51.600                    97148966.978 8
  24756294.240        -332.794          51.050    99683278.317 8  24756291.000
      -341.487          51.600    98416117.798 8  24756292.460        -337.100
        53.950
 135919788.694 8                  25864691.200
     -2836.964                          48.700                   101498525.077 8
  25864699.320       -2118.537          48.650   104146310.729 8  25864695.020
     -2173.822          48.650   102822421.057 8  25864697.320       -2146.185
        51.300
 148431538.041 7                  28245575.900
     -1606.750                          42.200                   110841796.001 6
  28245587.460       -1199.525          40.200   113733321.199 6  28245584.180
     -1231.047          41.500   112287547.757 7  28245586.020       -1215.347
        43.650
 136178697.168 6                  25913930.660
      -342.839                          41.600                   101691961.154 6
  25913935.460        -255.711          39.500   104344765.348 6  25913933.260
      -262.646          40.050   103018369.406 7  25913935.320        -259.368
        42.400
 145327297.307 6                  27654884.000
     -2517.573                          41.550                   108523625.644 6
  27654894.840       -1880.020          40.800   111354663.303 7  27654893.340
     -1929.116          43.650   109939132.630 7  27654895.100       -1904.637
        44.750
 147482213.624 7                  28064930.580
      2518.636                          42.600                   110132881.404 7
  28064944.040        1880.795          43.300   113005901.861 6  28064937.920
      1929.772          40.150   111569384.776 7  28064941.540        1905.436
        44.800
 127076139.595 8                  24181765.000
      1230.211                          52.600                    94894580.607 8
  24181770.700         918.672          53.200    97370098.535 8  24181766.640
       942.610          52.950    96132348.223 9  24181769.320         930.650
        55.850
 138864925.028 7                  26425101.260
      2041.989                          46.650                   103697927.773 7
  26425111.860        1524.784          46.350   106403048.372 7  26425108.300
      1564.647          47.150   105050481.725 8  26425110.520        1544.731
        49.400
 24  2  4 12 14  0.0000000  0 20G03G06G11G12G19G24G25G28G29G31G32E02
                                E07E08E10E11E25E27E30E36
 133308781.269 6 103876994.91346  25367817.640                    25367825.000
       385.194         300.161          37.500          37.200    99548802.080 7
  25367827.740         287.540          45.000


 123576254.697 7  96293251.88647  23515763.880                    23515767.960
         8.264           6.443          45.100          44.850    92281073.618 7
  23515772.000           6.112          46.350


 125060079.694 7  97449460.68546  23798128.020                    23798132.400
      1959.950        1527.237          46.950          40.550    93389109.476 7
  23798137.020        1463.577          47.050


 107483681.051 8  83753551.25148  20453448.040                    20453446.800
     -1290.099       -1005.273          51.950          51.750



 130991284.247 6 102071144.18745  24926813.340                    24926815.860
     -3583.902       -2792.652          38.650          35.050



 121999432.273 7  95064487.96147  23215729.280                    23215734.960
     -3450.540       -2688.738          45.100          44.850    91103479.890 8
  23215736.300       -2576.786          48.850


 105047721.577 8  81855405.85248  19989892.920                    19989894.220
       956.391         745.240          51.750          51.850    78444781.857 9
  19989896.480         714.088          55.350


 122079901.664 7  95127184.00646  23231026.880                    23231028.860
      3209.910        2501.230          44.950          40.900    91163608.077 8
  23231034.820        2396.858          48.750


 121926168.665 7  95007480.70147  23201758.760                    23201762.860
      3567.103        2779.565          46.300          46.400



 134140044.514 7 104524717.97646  25526001.360                    25526005.780
      3629.307        2828.031          42.650          39.850



 115503322.894 8  90002598.33047  21979553.380                    21979556.020
      -342.276        -266.710          50.600          47.050    86252484.989 8
  21979556.040        -255.667          50.600


 125194935.437 8                  23823799.560
     -1245.139                          53.050                    93489760.870 8
  23823804.160        -929.832          52.900    95928606.496 8  23823801.040
      -954.148          53.700    94709187.837 9  23823803.020        -941.970
        56.250
 130108734.097 8                  24758875.900
      -460.761                          51.850                    97159125.703 8
  24758883.060        -344.101          50.850    99693702.049 8  24758879.640
      -353.046          51.650    98426409.026 9  24758881.200        -348.560
        54.200
 136005012.578 8                  25880909.140
     -2844.026                          48.900                   101562166.181 8
  25880917.160       -2123.700          48.100   104211612.044 8  25880912.640
     -2179.114          48.050   102886892.267 8  25880914.940       -2151.400
        51.050
 148479942.031 6                  28254786.920
     -1619.895                          41.150                   110877941.771 6
  28254798.680       -1209.572          40.800   113770409.896 6  28254795.000
     -1241.197          40.650   112324164.979 7  28254797.040       -1225.340
        43.800
 136189222.836 7                  25915933.680
      -358.548                          42.000                   101699821.270 6
  25915937.940        -267.697          39.350   104352830.488 6  25915935.940
      -274.733          39.800   103026332.021 7  25915938.380        -271.104
        42.550
 145402848.564 6                  27669260.660
     -2518.172                          41.350                   108580043.666 6
  27669271.600       -1880.707          40.250   111412553.097 7  27669270.120
     -1929.780          43.350   109996286.532 7  27669272.020       -1905.228
        44.750
 147406698.158 7                  28050560.280
      2516.347                          42.100                   110076490.226 7
  28050573.820        1879.180          42.750   112948039.548 6  28050566.820
      1928.238          40.000   111512258.060 7  28050571.340        1903.574
        44.700
 127039349.341 8                  24174763.960
      1223.104                          52.850                    94867107.407 8
  24174769.720         913.319          53.000    97341908.632 8  24174765.760
       937.140          53.250    96104516.675 9  24174768.300         925.223
        56.100
 138803844.839 7                  26413477.760
      2030.581                          46.800                   103652316.216 7
  26413488.680        1516.404          46.300   106356246.920 7  26413484.960
      1555.859          47.700   105004275.221 8  26413487.060        1536.159
        49.950
 24  2  4 12 14 30.0000000  0 20G03G06G11G12G19G24G25G28G29G31G32E02
                                E07E08E10E11E25E27E30E36
 133297515.637 6 103868216.44945  25365673.780                    25365680.960
       366.141         285.303          37.350          35.700    99540389.435 7
  25365683.800         273.097          44.750


 123576310.482 7  96293295.48247  23515774.560                    23515778.740
       -12.148          -9.462          44.900          45.100    92281115.421 7
  23515782.660          -8.948          46.300


 125001497.949 7  97403812.72346  23786980.240                    23786984.660
      1945.623        1516.074          46.300          41.350    93345363.553 7
  23786989.300        1452.747          47.400


 107522582.622 8  83783864.14848  20460850.780                    20460849.420
     -1303.186       -1015.470          51.050          51.050



 131098889.953 6 102154992.71045  24947289.860                    24947292.840
     -3589.630       -2797.116          38.350          34.250



 122103051.609 7  95145230.16347  23235447.360                    23235453.220
     -3457.144       -2693.883          44.500          44.350    91180857.797 8
  23235454.440       -2581.794          48.550


 105019246.757 8  81833217.70348  19984474.380                    19984475.560
       942.110         734.112          50.750          50.800    78423518.219 9
  19984477.980         703.377          55.450


 121983695.798 7  95052218.47446  23212719.500                    23212721.160
      3203.909        2496.556          45.350          40.700    91091766.117 8
  23212727.160        2392.570          48.450


 121819272.833 7  94924185.34447  23181417.000                    23181421.220
      3559.349        2773.521          46.250          46.250



 134031176.483 6 104439885.82146  25505284.400                    25505288.840
      3628.646        2827.517          40.100          37.900



 115513896.696 8  90010837.62747  21981565.460                    21981568.200
      -362.481        -282.454          49.750          47.350    86260380.984 8
  21981568.200        -270.822          50.550


 125232381.387 8                  23830925.260
     -1251.322                          52.600                    93517723.724 8
  23830929.840        -934.388          52.950    95957298.816 8  23830926.700
      -958.788          53.550    94737515.420 9  23830928.740        -946.572
        56.300
 130122778.350 8                  24761548.520
      -475.686                          51.250                    97169613.263 8
  24761555.580        -355.177          50.950    99704463.208 8  24761552.060
      -364.455          51.650    98437033.386 9  24761553.760        -359.835
        54.300
 136090431.729 8                  25897164.240
     -2850.773                          48.900                   101625953.137 8
  25897171.880       -2128.830          48.100   104277063.018 8  25897167.180
     -2184.343          48.050   102951511.234 8  25897169.760       -2156.622
        51.150
 148528727.284 6                  28264070.420
     -1632.732                          41.100                   110914372.215 6
  28264083.000       -1219.108          40.950   113807790.716 6  28264078.480
     -1250.983          41.000   112361070.621 7  28264080.700       -1235.029
        44.050
 136200208.348 7                  25918024.320
      -374.033                          42.300                   101708024.754 6
  25918028.600        -279.270          39.700   104361247.985 6  25918025.940
      -286.477          39.400   103034642.516 7  25918028.820        -282.893
        42.600
 145478410.797 6                  27683639.500
     -2518.982                          40.650                   108636469.890 6
  27683651.080       -1881.167          40.800   111470451.324 7  27683649.160
     -1930.331          42.250   110053448.746 7  27683651.000       -1905.592
        44.650
 147331235.218 7                  28036199.980
      2514.585                          42.000                   110020138.358 7
  28036213.560        1877.625          42.300   112890217.605 6  28036206.200
      1926.540          40.850   111455171.142 7  28036210.960        1902.063
        44.750
 127002758.915 8                  24167801.000
      1216.149                          52.700                    94839783.427 8
  24167806.860         908.154          53.050    97313871.847 8  24167803.040
       931.855          53.350    96076836.291 9  24167805.300         919.982
        56.250
 138743091.781 7                  26401916.700
      2019.512                          46.500                   103606948.965 7
  26401927.660        1507.969          46.450   106309696.150 7  26401923.960
      1547.317          47.900   104958316.211 8  26401925.940        1527.681
        50.150
 24  2  4 12 15  0.0000000  0 20G03G06G11G12G19G24G25G28G29G31G32E02
                                E07E08E10E11E25E27E30E36
 133286818.332 5 103859880.91945  25363637.920                    25363645.360
       347.515         270.796          35.500          35.600    99532401.136 7
  25363648.140         259.395          45.550


 123576962.737 7  96293803.88647  23515898.640                    23515903.180
       -31.632         -24.643          45.400          45.250    92281602.669 7
  23515907.040         -23.573          46.550


 124943342.271 7  97358496.78746  23775913.420                    23775917.900
      1931.545        1505.105          46.800          41.900    93301935.812 7
  23775922.660        1442.397          47.350


 107561865.387 8  83814474.07748  20468325.940                    20468324.620
     -1315.608       -1025.149          50.850          50.850



 131206655.864 6 102238966.07945  24967797.180                    24967799.920
     -3594.538       -2800.941          37.300          34.850



 122206862.322 7  95226121.50247  23255201.860                    23255207.660
     -3463.421       -2698.774          44.400          44.750    91258378.624 7
  23255208.560       -2586.263          47.950


 104991192.117 8  81811356.96348  19979135.740                    19979136.960
       928.356         723.396          51.750          51.650    78402568.343 9
  19979139.520         693.217          55.700


 121887654.620 7  94977381.26246  23194443.660                    23194445.360
      3198.882        2492.639          46.350          40.900    91020047.152 8
  23194451.040        2388.696          48.750


 121712605.214 7  94841067.81947  23161118.640                    23161123.000
      3551.738        2767.591          46.700          46.450



 133922317.738 6 104355060.89546  25484569.120                    25484573.340
      3628.757        2827.602          41.000          37.200



 115525070.835 8  90019544.72047  21983691.740                    21983694.680
      -382.266        -297.871          50.150          47.350    86268725.273 8
  21983694.720        -285.489          50.500


 125270002.055 8                  23838084.360
     -1256.768                          53.150                    93545817.054 8
  23838088.920        -938.472          53.000    95986125.026 8  23838085.580
      -963.019          53.200    94765975.194 9  23838087.740        -950.750
        56.350
 130137261.932 8                  24764304.600
      -489.919                          51.600                    97180428.899 8
  24764311.760        -365.900          51.050    99715560.998 8  24764308.220
      -375.445          51.450    98447990.098 9  24764309.940        -370.651
        54.450
 136176043.659 8                  25913455.940
     -2856.825                          49.150                   101689884.010 8
  25913463.660       -2133.336          48.650   104342661.662 8  25913458.760
     -2189.003          48.100   103016275.992 8  25913461.240       -2161.147
        51.600
 148577891.701 7                  28273425.840
     -1644.801                          42.250                   110951085.835 6
  28273439.120       -1228.361          41.650   113845462.116 6  28273434.180
     -1260.460          40.500   112398263.132 7  28273436.540       -1244.381
        44.600
 136211652.720 6                  25920202.140
      -389.028                          41.600                   101716570.933 6
  25920206.740        -290.574          40.200   104370017.099 6  25920203.420
      -298.007          39.350   103043300.172 7  25920206.560        -294.291
        43.200
 145553982.916 7                  27698020.440
     -2518.899                          42.300                   108692903.489 6
  27698032.580       -1881.131          41.200   111528357.116 7  27698030.160
     -1930.146          42.050   110110618.460 7  27698032.020       -1905.679
        44.800
 147255824.237 6                  28021849.460
      2512.901                          41.450                   109963825.346 7
  28021863.040        1876.580          43.000   112832435.528 6  28021855.800
      1925.597          41.650   111398123.595 7  28021860.400        1901.090
        45.750
 126966367.545 8                  24160875.880
      1209.887                          53.000                    94812608.091 8
  24160881.800         903.465          53.000    97285987.580 8  24160878.280
       927.067          53.350    96049306.490 9  24160880.200         915.256
        56.400
 138682666.948 7                  26390418.220
      2008.788                          47.500                   103561826.788 7
  26390429.200        1500.049          46.950   106263396.856 7  26390425.380
      1539.233          47.800   104912605.476 8  26390427.340        1519.671
        50.550
 24  2  4 12 15 30.0000000  0 20G03G06G11G12G19G24G25G28G29G31G32E02
                                E07E08E10E11E25E27E30E36
 133276687.819 6 103851986.98646  25361710.140                    25361717.820
       327.694         255.342          38.150          38.600    99524836.131 7
  25361720.300         245.001          46.550


 123578209.752 7  96294775.74147  23516135.920                    23516140.720
       -51.562         -40.173          44.500          44.000    92282534.062 7
  23516144.680         -38.578          46.800


 124885613.210 7  97313513.30647  23764927.700                    23764932.260
      1916.994        1493.770          46.550          42.400    93258826.680 7
  23764936.960        1431.459          47.200


 107601526.745 8  83845379.01948  20475873.060                    20475872.000
     -1328.573       -1035.252          50.400          50.100



 131314577.085 6 102323060.37545  24988333.920                    24988336.620
     -3599.984       -2805.198          38.250          35.700



 122310860.741 7  95307159.09347  23274992.240                    23274998.040
     -3470.012       -2703.910          43.550          43.100    91336039.606 7
  23274998.920       -2591.159          47.750


 104963555.870 8  81789822.25648  19973876.760                    19973878.000
       914.104         712.289          51.450          51.650    78381930.919 9
  19973880.680         682.597          55.750


 121791778.188 7  94902672.44146  23176199.200                    23176201.000
      3192.935        2488.005          46.850          41.550    90948451.234 8
  23176206.420        2384.284          49.000


 121606166.291 7  94758128.52647  23140863.820                    23140868.160
      3544.000        2761.563          46.700          46.550



 133813467.311 6 104270242.41946  25463855.600                    25463859.800
      3627.973        2826.996          41.100          36.000



 115536842.824 8  90028717.68047  21985931.800                    21985934.980
      -402.556        -313.681          49.950          47.550    86277516.020 8
  21985934.920        -300.607          50.300


 125307794.962 8                  23845276.100
     -1262.727                          52.550                    93574039.010 8
  23845280.680        -942.996          53.000    96015083.209 8  23845277.280
      -967.592          53.450    94794565.263 9  23845279.580        -955.309
        56.300
 130152182.568 8                  24767143.740
      -504.867                          50.900                    97191570.904 8
  24767151.020        -377.006          51.000    99726993.670 8  24767147.500
      -386.854          51.650    98459277.436 9  24767149.320        -381.900
        54.350
 136261844.544 8                  25929783.660
     -2863.343                          49.100                   101753955.997 8
  25929791.300       -2138.233          48.050   104408405.111 7  25929786.260
     -2193.979          47.650   103081183.713 8  25929788.680       -2166.167
        50.950
 148627431.872 6                  28282853.200
     -1657.709                          41.500                   110988080.045 6
  28282866.420       -1237.884          41.500   113883421.415 7  28282861.800
     -1270.066          42.350   112435739.895 7  28282864.080       -1254.165
        45.000
 136223553.757 6                  25922466.560
      -404.831                          40.550                   101725458.110 6
  25922471.880        -302.104          40.550   104379136.113 6  25922468.040
      -309.897          39.600   103052303.269 7  25922471.220        -306.050
        43.350
 145629562.533 6                  27712403.160
     -2519.606                          41.400                   108749342.680 6
  27712415.740       -1881.429          41.450   111586268.672 7  27712412.820
     -1930.535          42.000   110167793.828 7  27712414.520       -1906.055
        44.750
 147180463.355 6                  28007508.340
      2510.899                          41.450                   109907549.802 7
  28007521.900        1875.138          42.950   112774691.878 6  28007514.960
      1924.067          41.250   111341113.994 7  28007519.380        1899.592
        45.350
 126930173.249 8                  24153988.260
      1202.989                          52.350                    94785579.912 8
  24153994.200         898.366          53.050    97258254.319 8  24153991.080
       921.796          53.650    96021925.770 9  24153992.600         910.101
        56.400
 138622570.134 7                  26378982.280
      1997.497                          47.500                   103516949.557 7
  26378993.240        1491.653          47.650   106217348.893 7  26378989.060
      1530.539          47.700   104867142.880 8  26378991.180        1511.131
        50.800
 24  2  4 12 16  0.0000000  0 19G03G06G11G12G19G24G25G28G29G31G32E02
                                E07E08E11E25E27E30E36
 133267128.573 6 103844538.17646  25359891.200                    25359898.920
       309.015         240.792          37.200          36.350    99517697.694 7
  25359901.160         230.682          45.950


 123580056.266 7  96296214.69647  23516487.380                    23516492.160
       -71.634         -55.813          45.150          45.850    92283913.108 7
  23516496.160         -53.618          46.850


 124828317.706 7  97268867.66547  23754024.460                    23754029.020
      1902.354        1482.362          46.050          42.200    93216041.306 7
  23754033.800        1420.589          47.200


 107641569.803 8  83876581.38248  20483492.920                    20483492.020
     -1341.415       -1045.259          50.550          50.600



 131422655.610 6 102407277.37746  25008900.540                    25008903.340
     -3605.377       -2809.384          38.150          36.700



 122415049.725 7  95388345.16947  23294818.760                    23294824.540
     -3476.397       -2708.886          44.550          44.500    91413842.917 7
  23294825.100       -2595.907          47.650


 104936342.661 8  81768617.17248  19968698.200                    19968699.620
       899.920         701.237          50.600          50.500    78361609.380 9
  19968702.300         671.967          55.850


 121696072.912 7  94828097.02947  23157987.340                    23157989.200
      3187.059        2483.426          46.150          43.300    90876983.159 8
  23157994.560        2379.920          49.300


 121499962.949 7  94675372.81447  23120653.760                    23120657.860
      3535.967        2755.304          45.950          45.750



 133704631.428 5 104185435.20945  25443144.880                    25443148.940
      3627.406        2826.550          35.350          32.600



 115549216.596 8  90038359.55647  21988286.420                    21988289.760
      -422.624        -329.317          49.900          47.800    86286756.153 8
  21988289.620        -315.720          50.350


 125345763.962 8                  23852501.280
     -1268.817                          52.200                    93602392.451 8
  23852505.880        -947.440          53.100    96044176.317 8  23852502.760
      -972.176          53.550    94823288.537 9  23852504.920        -959.802
        56.300
 130167544.368 8                  24770066.860
      -519.685                          50.600                    97203042.356 8
  24770074.320        -388.064          51.300    99738764.386 8  24770070.840
      -398.196          51.600    98470898.523 9  24770072.660        -393.105
        54.350
 136347836.990 8                  25946147.660
     -2869.739                          48.550                   101818171.044 8
  25946155.080       -2143.093          48.250   104474295.338 7  25946149.860
     -2198.923          47.550   103146236.343 8  25946152.620       -2170.997
        50.850
 136235915.431 6                  25924818.700
      -419.973                          40.550                   101734689.282 6
  25924824.700        -313.439          40.750   104388608.094 6  25924820.420
      -321.625          39.550   103061654.841 7  25924823.500        -317.529
        43.250
 145705153.717 7                  27726788.160
     -2520.112                          43.050                   108805790.521 7
  27726801.020       -1881.930          42.250   111644189.069 7  27726797.860
     -1931.036          42.400   110224977.949 7  27726799.200       -1906.507
        45.100
 147105157.218 6                  27993177.660
      2509.189                          40.700                   109851315.135 7
  27993191.160        1873.645          43.100   112716990.161 6  27993184.080
      1922.437          41.650   111284145.802 7  27993188.640        1898.045
        45.450
 126894180.476 8                  24147138.980
      1196.149                          52.200                    94758702.223 8
  24147144.880         893.201          53.150    97230675.469 8  24147142.080
       916.501          53.600    95994697.500 9  24147143.360         904.856
        56.350
 138562807.500 7                  26367609.900
      1986.357                          47.600                   103472321.880 8
  26367620.800        1483.209          48.250   106171556.977 7  26367616.280
      1521.860          47.300   104821933.083 8  26367618.500        1502.514
        50.800
 24  2  4 12 16 30.0000000  0 20G03G06G11G12G19G24G25G28G29G31G32E02
                                E07E08E10E11E25E27E30E36
 133258136.128 6 103837531.03346  25358179.980                    25358187.700
       289.695         225.735          37.500          37.200    99510982.509 7
  25358190.000         216.582          46.300


 123582497.687 7  96298117.20347  23516951.920                    23516956.740
       -91.440         -71.248          45.600          45.400    92285736.370 7
  23516960.520         -68.332          46.400


 124771453.432 7  97224558.04447  23743203.300                    23743207.620
      1888.370        1471.465          46.200          42.100    93173577.960 7
  23743212.700        1409.888          47.550


 107681988.561 8  83908076.49548  20491184.340                    20491183.560
     -1353.884       -1054.976          50.800          50.800



 131530884.316 5 102491611.30745  25029495.980                    25029498.540
     -3610.507       -2813.385          35.800          34.650



 122519422.822 7  95469674.70047  23314680.260                    23314686.160
     -3482.299       -2713.486          44.000          43.950    91491783.682 7
  23314686.940       -2600.442          47.750


 104909547.808 8  81747738.08448  19963599.200                    19963600.900
       885.948         690.350          51.050          50.800    78341600.254 9
  19963603.360         661.600          55.750


 121600535.904 7  94753652.75947  23139807.200                    23139809.280
      3181.578        2479.157          46.350          42.350    90805640.754 8
  23139814.640        2375.791          49.450


 121393992.755 7  94592798.80547  23100488.120                    23100491.960
      3528.285        2749.319          45.300          45.650



 133595806.716 6 104100636.60946  25422436.180                    25422440.180
      3626.961        2826.197          39.300          37.000



 115562186.770 8  90048466.16647  21990754.580                    21990757.980
      -442.436        -344.756          50.250          47.750    86296441.643 8
  21990757.680        -330.408          50.150


 125383903.638 8                  23859759.000
     -1274.415                          52.350                    93630873.360 8
  23859763.480        -951.662          52.900    96073400.206 8  23859760.740
      -976.473          53.400    94852140.937 9  23859762.720        -964.072
        56.100
 130183342.174 8                  24773072.920
      -534.041                          50.550                    97214839.401 8
  24773080.560        -398.837          51.100    99750869.191 8  24773077.000
      -409.231          51.400    98482849.448 9  24773078.980        -404.034
        54.150
 136434014.327 8                  25962546.880
     -2875.854                          48.950                   101882524.140 8
  25962554.380       -2147.579          48.600   104540327.229 7  25962549.000
     -2203.630          47.650   103211428.839 8  25962551.700       -2175.577
        51.000
 148727608.279 6                  28301923.580
     -1682.783                          41.600                   111062863.348 6
  28301935.020       -1256.520          39.950   113960152.858 7  28301932.820
     -1289.341          42.750   112511512.256 7  28301933.440       -1272.877
        44.250
 136248732.634 6                  25927257.680
      -435.087                          41.200                   101744260.642 6
  25927264.260        -325.084          40.900   104398429.144 6  25927259.500
      -333.569          39.400   103071351.041 7  25927262.540        -329.273
        43.100
 145780751.307 7                  27741174.380
     -2520.334                          43.100                   108862243.103 7
  27741187.380       -1881.927          42.000   111702114.356 6  27741183.540
     -1931.085          41.900   110282166.885 7  27741185.080       -1906.563
        44.850
 147029901.103 6                  27978856.340
      2507.391                          41.000                   109795117.811 7
  27978869.660        1872.548          42.350   112659326.776 6  27978863.060
      1921.220          41.900   111227215.453 7  27978867.320        1896.820
        45.100
 126858384.370 8                  24140327.180
      1189.714                          52.150                    94731971.392 8
  24140332.960         888.412          53.200    97203247.310 8  24140330.260
       911.541          53.300    95967618.004 9  24140331.560         899.985
        56.150
 138503375.971 7                  26356300.400
      1975.278                          47.950                   103427941.447 8
  26356311.360        1474.973          48.100   106126018.750 7  26356306.360
      1513.513          46.850   104776973.757 8  26356308.700        1494.206
        50.550
 24  2  4 12 17  0.0000000  0 19G03G06G11G12G19G24G25G28G29G31G32E02
                                E07E08E11E25E27E30E36
 133249713.055 6 103830967.64246  25356577.000                    25356584.720
       271.192         211.323          36.600          36.250    99504692.558 7
  25356587.380         202.635          46.500


 123585536.616 7  96300485.29847  23517530.000                    23517534.900
      -110.976         -86.471          45.700          45.400    92288005.828 7
  23517538.260         -82.957          46.000


 124715025.297 7  97180588.27446  23732465.040                    23732469.280
      1873.674        1460.013          45.650          41.250    93131440.311 8
  23732474.660        1399.281          48.050


 107722783.971 8  83939865.10948  20498947.460                    20498946.800
     -1366.022       -1064.434          50.850          50.900



 131639262.807 6 102576061.93746  25050119.760                    25050122.200
     -3615.180       -2817.026          37.950          36.350



 122623980.828 7  95551148.33447  23334577.100                    23334582.820
     -3488.427       -2718.260          44.200          44.500    91569862.551 7
  23334583.640       -2604.859          47.500


 104883173.891 8  81727187.00548  19958580.360                    19958582.200
       872.125         679.578          51.350          51.250    78321905.474 9
  19958584.380         651.357          55.750


 121505171.630 7  94679343.07647  23121659.820                    23121662.120
      3175.984        2474.799          46.600          43.150    90734427.331 8
  23121667.660        2371.676          49.700


 121288259.888 7  94510409.76947  23080367.660                    23080371.080
      3520.603        2743.333          46.300          46.600



 133486996.417 6 104015849.31246  25401730.340                    25401734.320
      3626.925        2826.174          40.150          37.950



 115575755.295 8  90059039.01847  21993336.760                    21993340.000
      -462.078        -360.062          51.000          47.400    86306573.954 8
  21993339.680        -345.034          50.150


 125422215.894 8                  23867049.600
     -1279.741                          52.600                    93659483.147 8
  23867053.860        -955.678          52.850    96102756.343 8  23867051.480
      -980.650          53.600    94881123.898 9  23867053.340        -968.161
        56.150
 130199578.045 8                  24776162.460
      -548.355                          51.000                    97226963.572 8
  24776170.100        -409.502          51.050    99763309.655 8  24776166.600
      -420.165          51.550    98495131.767 9  24776168.680        -414.849
        54.250
 136520377.199 8                  25978981.260
     -2881.716                          48.650                   101947015.777 8
  25978988.800       -2151.865          48.000   104606501.269 7  25978983.460
     -2208.045          47.300   103276761.677 8  25978986.140       -2179.913
        50.650
 136262007.529 6                  25929783.860
      -449.758                          41.100                   101754173.762 6
  25929790.620        -336.142          40.850   104408600.883 6  25929785.760
      -344.776          39.900   103081393.469 7  25929788.740        -340.488
        43.400
 145856357.412 7                  27755562.220
     -2520.528                          43.550                   108918702.053 7
  27755575.240       -1881.861          42.550   111760046.164 6  27755570.880
     -1931.031          41.550   110339362.260 7  27755572.540       -1906.455
        44.850
 146954697.622 6                  27964545.040
      2505.874                          41.600                   109738959.786 7
  27964558.360        1871.425          43.050   112601703.698 7  27964552.180
      1920.268          42.250   111170324.890 7  27964556.120        1895.889
        45.650
 126822787.335 8                  24133553.260
      1183.379                          52.600                    94705389.220 8
  24133558.900         883.694          53.200    97175971.682 8  24133556.080
       906.728          53.350    95940689.104 9  24133557.640         895.210
        56.250
 138444279.721 8                  26345054.600
      1964.416                          48.050                   103383811.356 7
  26345065.480        1466.927          47.900   106080737.409 7  26345060.280
      1505.145          46.850   104732268.040 8  26345062.740        1486.002
        50.350
 24  2  4 12 17 30.0000000  0 20G03G06G11G12G19G24G25G28G29G31G32E02
                                E07E08E10E11E25E27E30E36
 133241861.869 6 103824849.78445  25355083.060                    25355090.740
       252.373         196.649          37.000          35.900    99498829.659 7
  25355093.460         188.517          46.750


 123589175.453 7  96303320.86147  23518222.140                    23518227.140
      -130.782        -101.903          44.350          44.150    92290723.259 7
  23518230.160         -97.835          45.750


 124659038.047 7  97136962.04747  23721810.720                    23721814.920
      1859.255        1448.779          44.150          43.250    93089631.899 8
  23721820.580        1388.291          48.250


 107763957.508 8  83971948.35148  20506782.480                    20506781.780
     -1378.409       -1074.086          49.950          49.900



 131747790.619 6 102660628.81846  25070772.160                    25070774.920
     -3619.528       -2820.419          38.500          37.550



 122728724.379 7  95632766.52547  23354509.160                    23354514.820
     -3494.332       -2722.860          44.250          44.300    91648079.963 7
  23354516.080       -2609.416          47.600


 104857223.367 8  81706965.83448  19953642.160                    19953643.900
       858.240         668.759          50.750          50.750    78302526.869 9
  19953646.060         640.831          55.600


 121409984.340 7  94605171.30547  23103546.120                    23103548.420
      3170.332        2470.394          45.900          43.700    90663346.084 8
  23103554.300        2367.343          49.600


 121182769.308 7  94428209.54647  23060293.220                    23060296.220
      3512.629        2737.121          45.650          45.300



 133378204.424 6 103931076.19146  25381027.960                    25381032.120
      3626.442        2825.791          40.800          36.750



 115589923.667 8  90070079.27547  21996033.160                    21996036.140
      -482.036        -375.613          50.900          47.750    86317154.208 8
  21996035.860        -360.072          50.150


 125460702.434 8                  23874373.420
     -1285.508                          52.150                    93688223.087 8
  23874377.440        -959.990          52.650    96132246.019 8  23874375.320
      -985.030          53.400    94910238.705 9  23874377.120        -972.515
        56.150
 130216253.912 8                  24779335.860
      -562.956                          50.750                    97239416.309 8
  24779343.420        -420.394          50.850    99776087.256 8  24779339.920
      -431.345          51.400    98507746.933 9  24779342.080        -425.846
        54.250
 136606925.975 8                  25995450.900
     -2887.783                          48.550                   102011646.264 7
  25995458.380       -2156.494          47.750   104672817.789 7  25995453.100
     -2212.799          47.150   103342235.181 8  25995455.940       -2184.646
        50.600
 148829316.795 7                  28321277.920
     -1707.181                          43.000                   111138819.374 6
  28321287.980       -1274.837          40.000   114038082.176 7  28321286.800
     -1308.146          42.450   112588450.929 7  28321287.440       -1291.529
        44.200
 136275741.982 6                  25932397.820
      -464.895                          41.150                   101764430.031 6
  25932404.340        -347.299          40.700   104419124.723 6  25932399.520
      -356.580          39.750   103091783.531 7  25932402.480        -351.980
        43.400
 145931973.962 7                  27769952.000
     -2520.326                          42.900                   108975168.867 7
  27769964.840       -1882.124          42.000   111817986.051 6  27769959.980
     -1931.261          41.500   110396565.619 7  27769962.140       -1906.793
        44.750
 146879549.194 6                  27950244.280
      2504.329                          39.300                   109682842.876 7
  27950257.700        1870.057          42.350   112544122.791 7  27950251.500
      1918.875          42.200   111113475.991 7  27950255.320        1894.426
        45.250
 126787391.644 8                  24126817.640
      1176.818                          51.900                    94678957.415 8
  24126823.160         878.725          53.000    97148850.343 8  24126820.120
       901.649          53.100    95913912.528 9  24126822.020         890.194
        56.150
 138385522.778 7                  26333873.300
      1953.137                          47.650                   103339934.626 7
  26333884.100        1458.484          47.300   106035716.032 7  26333878.900
      1496.629          46.750   104687818.979 8  26333881.360        1477.584
        50.150
 24  2  4 12 18  0.0000000  0 20G03G06G11G12G19G24G25G28G29G31G32E02
                                E07E08E10E11E25E27E30E36
 133234578.308 6 103819174.23746  25353697.220                    25353704.820
       233.765         182.151          38.550          38.950    99493390.538 7
  25353707.480         174.480          45.700


 123593409.992 7  96306620.56147  23519027.900                    23519032.500
      -150.657        -117.394          44.800          44.250    92293885.469 7
  23519035.680        -112.558          46.200


 124603489.716 7  97093677.82847  23711240.000                    23711244.020
      1844.522        1437.297          44.500          42.300    93048151.224 8
  23711249.880        1377.460          48.350


 107805503.430 8  84004321.77648  20514688.340                    20514687.580
     -1390.777       -1083.724          49.750          49.850



 131856461.093 6 102745307.02546  25091451.720                    25091454.200
     -3624.554       -2824.335          38.550          36.550



 122833647.395 7  95714524.57047  23374475.500                    23374480.940
     -3500.117       -2727.369          44.250          44.150    91726431.393 7
  23374482.540       -2613.716          47.600


 104831691.961 8  81687071.24848  19948783.640                    19948785.260
       844.288         657.887          51.200          51.000    78283461.223 9
  19948787.460         630.566          55.750


 121314971.709 7  94531135.63447  23085465.660                    23085467.860
      3164.390        2465.765          46.300          43.700    90592395.253 8
  23085473.960        2363.058          49.650


 121077518.969 7  94346196.55347  23040264.560                    23040267.180
      3504.778        2731.005          46.300          46.450



 133269427.567 6 103846314.86546  25360328.600                    25360332.840
      3625.859        2825.339          40.950          37.350



 115604686.940 8  90081583.10647  21998842.740                    21998845.380
      -501.710        -390.943          51.400          47.700    86328178.693 8
  21998845.460        -374.640          50.550


 125499358.270 8                  23881729.400
     -1290.963                          52.300                    93717089.445 8
  23881733.460        -964.059          53.050    96161865.412 8  23881731.260
      -989.219          53.500    94939481.582 9  23881733.080        -976.647
        56.250
 130233364.951 8                  24782592.200
      -577.254                          51.300                    97252194.015 8
  24782599.600        -431.108          50.900    99789198.295 8  24782596.120
      -442.330          51.650    98520691.309 9  24782598.300        -436.678
        54.250
 136693654.460 7                  26011954.700
     -2893.532                          47.900                   102076410.932 8
  26011962.400       -2160.716          48.100   104739271.976 7  26011957.080
     -2217.173          47.600   103407844.612 8  26011959.920       -2188.959
        50.750
 148880724.773 6                  28331060.320
     -1719.364                          41.200                   111177208.317 6
  28331070.280       -1283.929          40.300   114077472.588 6  28331068.760
     -1317.418          41.100   112627340.605 7  28331070.160       -1300.704
        43.850
 136289931.239 6                  25935098.120
      -480.521                          41.850                   101775025.905 6
  25935104.500        -358.759          40.800   104429996.999 6  25935099.840
      -367.996          39.950   103102517.612 7  25935102.740        -363.427
        43.550
 146007596.277 7                  27784342.780
     -2520.514                          44.000                   109031639.984 7
  27784355.400       -1882.208          42.200   111875930.332 6  27784350.380
     -1931.345          41.300   110453773.312 7  27784352.800       -1906.844
        44.750
 146804451.549 6                  27935953.260
      2502.523                          41.200                   109626763.842 7
  27935966.620        1868.788          42.850   112486580.784 7  27935960.760
      1917.587          42.600   111056665.465 7  27935964.300        1893.185
        45.700
 126752192.857 8                  24120119.480
      1170.286                          52.350                    94652672.627 8
  24120124.920         873.941          53.050    97121879.858 8  24120121.740
       896.741          53.250    95887284.896 9  24120123.860         885.332
        56.150
 138327102.428 7                  26322756.020
      1942.167                          47.650                   103296309.205 7
  26322766.740        1450.229          47.350   105990952.540 7  26322761.620
      1488.069          47.000   104643624.525 8  26322764.120        1469.187
        50.150
 24  2  4 12 18 30.0000000  0 20G03G06G11G12G19G24G25G28G29G31G32E02
                                E07E08E10E11E25E27E30E36
 133227864.328 6 103813942.49846  25352419.760                    25352427.580
       214.096         166.823          39.750          39.450    99488376.809 7
  25352429.840         159.983          45.200


 123598242.210 7  96310385.93647  23519947.460                    23519951.520
      -171.083        -133.311          44.300          44.350    92297493.952 7
  23519955.200        -127.730          46.600


 124548384.657 7  97050738.99347  23700753.800                    23700757.300
      1829.346        1425.472          44.700          42.300    93007001.541 8
  23700763.420        1366.079          48.000


 107847422.343 8  84036985.84648  20522665.180                    20522664.580
     -1403.618       -1093.729          50.100          49.950



 131965273.807 6 102830095.96146  25112158.120                    25112161.040
     -3629.541       -2828.220          39.250          37.000



 122938750.164 7  95796422.70147  23394476.200                    23394481.140
     -3506.442       -2732.297          45.700          45.250    91804917.059 7
  23394483.480       -2618.468          47.850


 104806581.710 8  81667504.83348  19944005.240                    19944006.760
       829.987         646.743          50.600          50.650    78264710.088 9
  19944009.040         619.764          55.850


 121220137.576 7  94457239.03247  23067419.100                    23067421.120
      3158.080        2460.845          46.400          42.800    90521577.717 8
  23067427.400        2358.303          49.650


 120972513.132 7  94264374.10347  23020282.460                    23020284.660
      3495.902        2724.089          45.900          46.050



 133160669.963 6 103761568.50645  25339632.920                    25339637.440
      3624.846        2824.549          41.250          33.900



 115620046.329 8  90093551.43947  22001765.680                    22001768.040
      -521.906        -406.681          51.300          47.100    86339648.341 8
  22001768.480        -389.764          50.750


 125538184.753 8                  23889117.720
     -1297.079                          52.300                    93746083.231 8
  23889122.260        -968.622          53.350    96191615.562 8  23889119.440
      -993.896          53.400    94968853.548 9  23889121.520        -981.229
        56.450
 130250912.642 8                  24785931.660
      -592.259                          51.600                    97265297.783 8
  24785938.940        -442.234          51.000    99802643.910 8  24785935.460
      -453.765          51.750    98533966.001 9  24785937.580        -448.012
        54.350
 136780562.689 8                  26028492.540
     -2899.879                          48.350                   102141309.826 7
  26028500.480       -2165.609          47.750   104805863.901 7  26028495.320
     -2222.027          47.200   103473590.019 8  26028498.120       -2193.839
        50.550
 148932501.779 6                  28340913.160
     -1732.060                          41.550                   111215872.827 6
  28340923.520       -1293.453          40.200   114117145.739 6  28340922.000
     -1326.971          41.950   112666509.444 7  28340923.180       -1310.276
        44.200
 136304576.703 6                  25937885.260
      -495.925                          41.750                   101785962.429 6
  25937891.340        -370.227          40.700   104441218.860 6  25937886.800
      -379.929          40.000   103113596.798 7  25937889.820        -375.063
        43.600
 146083225.773 7                  27798734.580
     -2521.313                          42.950                   109088116.431 7
  27798747.140       -1882.664          42.050   111933880.120 6  27798742.120
     -1931.850          41.500   110510986.437 7  27798744.800       -1907.344
        44.900
 146729406.811 6                  27921672.360
      2500.637                          39.650                   109570724.261 7
  27921685.500        1867.327          43.250   112429079.267 6  27921679.900
      1916.017          41.650   110999894.919 7  27921683.500        1891.658
        45.550
 126717192.813 8                  24113459.160
      1163.292                          52.200                    94626536.262 8
  24113464.580         868.652          53.050    97095061.668 8  24113461.280
       891.386          53.250    95860807.621 9  24113463.560         880.001
        56.150
 138269022.330 7                  26311703.540
      1930.309                          47.600                   103252937.849 7
  26311714.100        1441.455          47.300   105946449.742 7  26311709.140
      1478.966          46.950   104599687.450 8  26311711.700        1460.237
        50.100
 24  2  4 12 19  0.0000000  0 20G03G06G11G12G19G24G25G28G29G31G32E02
                                E07E08E10E11E25E27E30E36
 133221718.653 6 103809153.63445  25351250.420                    25351258.120
       195.823         152.584          36.550          34.950    99483787.463 7
  25351260.200         146.090          46.700


 123603670.735 7  96314615.92747  23520980.560                    23520984.520
      -190.706        -148.603          44.900          44.750    92301547.689 7
  23520988.340        -142.220          46.150


 124493723.804 7  97008146.27446  23690352.160                    23690355.160
      1815.045        1414.325          45.500          41.150    92966183.550 7
  23690361.540        1355.329          47.850


 107889711.539 8  84069938.44248  20530712.600                    20530712.120
     -1415.394       -1102.904          50.550          50.750



 132074224.436 6 102914992.45545  25132890.880                    25132894.000
     -3633.658       -2831.423          39.000          35.600



 123044029.526 7  95878458.42047  23414510.560                    23414515.260
     -3511.843       -2736.506          46.350          46.350    91883534.603 7
  23414517.880       -2622.477          47.400


 104781891.225 8  81648265.51048  19939306.800                    19939308.220
       816.606         636.317          51.400          51.450    78246272.424 9
  19939310.700         609.680          55.750


 121125482.474 7  94383481.92847  23049406.700                    23049408.680
      3152.552        2456.537          46.600          42.050    90450893.855 8
  23049414.780        2354.221          49.300


 120867752.337 7  94182742.61147  23000346.940                    23000348.820
      3488.385        2718.231          46.550          46.850



 133051930.901 6 103676836.64046  25318940.880                    25318944.840
      3624.950        2824.637          41.350          37.550



 115635999.660 8  90105982.59147  22004801.480                    22004803.700
      -541.276        -421.774          51.050          46.350    86351561.521 8
  22004804.540        -404.130          50.650


 125577179.833 8                  23896538.240
     -1302.220                          52.750                    93775202.916 8
  23896543.200        -972.468          53.250    96221494.896 8  23896539.740
      -997.822          53.250    94998353.059 9  23896542.060        -985.157
        56.100
 130268895.082 8                  24789353.820
      -606.231                          51.650                    97278726.204 8
  24789361.080        -452.758          50.800    99816422.647 8  24789357.500
      -464.535          51.650    98547569.582 9  24789359.580        -458.646
        54.000
 136867647.295 7                  26045063.960
     -2905.273                          47.800                   102206340.442 7
  26045071.940       -2169.604          47.300   104872590.976 7  26045066.960
     -2226.126          47.150   103539468.864 8  26045069.880       -2197.893
        50.100
 148984644.810 7                  28350835.420
     -1743.650                          42.050                   111254810.728 6
  28350845.620       -1302.300          38.600   114157099.416 6  28350844.620
     -1336.173          40.800   112705955.220 7  28350845.620       -1319.212
        42.650
 136319676.456 7                  25940758.800
      -510.402                          42.750                   101797238.218 6
  25940764.520        -381.177          40.850   104452788.785 6  25940760.160
      -391.023          39.950   103125019.656 7  25940763.280        -386.038
        43.500
 146158860.615 7                  27813127.120
     -2520.825                          43.050                   109144596.855 6
  27813139.780       -1882.566          41.550   111991833.962 6  27813134.980
     -1931.568          41.700   110568203.565 7  27813137.860       -1907.117
        44.400
 146654413.608 6                  27907401.300
      2499.395                          40.800                   109514723.169 7
  27907414.480        1866.382          43.000   112371617.235 6  27907408.800
      1915.097          41.900   110943163.355 7  27907412.380        1890.692
        45.100
 126682390.050 8                  24106836.380
      1157.223                          52.150                    94600547.210 8
  24106841.740         864.155          52.750    97068394.646 8  24106838.420
       886.688          53.000    95834479.581 9  24106840.820         875.419
        55.750
 138211282.649 8                  26300715.920
      1919.426                          48.300                   103209820.686 7
  26300726.320        1433.359          46.800   105902207.759 7  26300721.600
      1470.717          47.150   104556007.881 8  26300724.060        1452.031
        49.700
 24  2  4 12 19 30.0000000  0 19G03G06G11G12G19G24G25G28G29G31G32E02
                                E07E08E11E25E27E30E36
 133216146.991 6 103804812.04946  25350190.160                    25350197.660
       175.941         137.101          37.900          37.750    99479626.747 7
  25350200.060         131.488          44.650


 123609701.424 7  96319315.11447  23522128.080                    23522132.340
      -211.228        -164.596          43.900          43.900    92306051.075 7
  23522135.740        -157.660          45.750


 124439515.336 7  96965906.05946  23680036.360                    23680039.400
      1798.979        1401.806          44.700          41.250    92925703.369 8
  23680045.740        1343.681          48.250


 107932375.436 8  84103183.01448  20538831.380                    20538830.760
     -1428.488       -1113.108          50.600          50.800



 132183316.545 6 102999999.20146  25153650.520                    25153653.500
     -3638.745       -2835.396          40.500          38.600



 123149489.615 7  95960634.99547  23434579.360                    23434583.500
     -3518.336       -2741.563          46.100          45.850    91962287.110 7
  23434586.800       -2627.306          47.700


 104757626.425 8  81629357.90448  19934689.440                    19934690.820
       801.678         624.686          51.100          51.100    78228152.641 9
  19934693.320         598.626          55.800


 121031014.212 7  94309870.39847  23031429.960                    23031431.940
      3145.656        2451.163          46.450          42.800    90380349.505 8
  23031437.820        2349.096          49.550


 120763244.779 7  94101308.48247  22980459.600                    22980461.380
      3479.426        2711.252          46.350          46.250



 132943217.848 6 103592125.09746  25298253.520                    25298257.740
      3623.471        2823.483          40.550          37.850



 115652552.023 8  90118880.51647  22007951.140                    22007953.400
      -561.841        -437.799          50.300          47.050    86363922.029 8
  22007954.420        -419.454          50.700


 125616348.726 8                  23903991.920
     -1308.589                          52.650                    93804452.400 8
  23903997.060        -977.161          53.400    96251507.409 8  23903993.180
     -1002.639          53.200    95027984.061 9  23903995.680        -989.944
        56.200
 130287317.625 8                  24792859.600
      -621.383                          50.950                    97292483.283 8
  24792866.820        -464.018          50.750    99830538.602 8  24792863.280
      -476.129          51.750    98561506.097 9  24792865.280        -470.048
        54.050
 136954912.243 7                  26061669.620
     -2911.809                          47.600                   102271505.704 7
  26061677.860       -2174.448          47.600   104939456.211 7  26061673.080
     -2231.121          47.300   103605484.112 8  26061675.920       -2202.801
        50.350
 136335236.048 7                  25943720.020
      -526.616                          42.750                   101808857.369 6
  25943725.220        -393.070          41.100   104464711.046 6  25943721.120
      -403.317          40.200   103136790.362 7  25943724.120        -398.223
        43.650
 146234506.278 7                  27827521.740
     -2521.854                          42.850                   109201085.371 7
  27827534.400       -1883.151          42.000   112049796.088 7  27827530.100
     -1932.112          42.000   110625428.881 7  27827532.880       -1907.603
        44.950
 146579477.940 6                  27893141.120
      2496.896                          40.000                   109458764.978 7
  27893154.240        1864.707          42.800   112314199.246 7  27893148.700
      1913.185          42.050   110886475.261 7  27893152.280        1888.998
        45.300
 126647790.318 8                  24100252.220
      1149.863                          52.050                    94574709.764 8
  24100257.500         858.721          52.750    97041883.182 8  24100254.200
       881.112          52.950    95808305.125 9  24100256.700         869.917
        55.750
 138153890.943 8                  26289794.740
      1907.160                          48.900                   103166963.359 7
  26289804.520        1424.198          46.650   105858232.397 7  26289800.420
      1461.333          47.200   104512591.526 8  26289802.680        1442.796
        49.750
 24  2  4 12 20  0.0000000  0 20G03G06G11G12G19G24G25G28G29G31G32E02
                                E07E08E11E25E27E30E34E36
 133211143.822 6 103800913.40046  25349238.040                    25349245.780
       157.343         122.605          36.850          36.250    99475890.546 7
  25349248.220         117.776          45.750


 123616328.586 7  96324479.08147  23523388.980                    23523393.660
      -230.703        -179.771          43.600          43.350    92310999.853 7
  23523396.160        -172.191          45.450


 124385755.913 7  96924015.74946  23669806.120                    23669809.440
      1785.404        1391.229          45.450          41.100    92885558.536 8
  23669815.620        1332.848          48.850


 107975407.684 8  84136714.61748  20547020.300                    20547019.360
     -1440.083       -1122.144          50.850          50.850



 132292541.677 6 103085109.65246  25174435.480                    25174438.480
     -3642.592       -2838.383          37.150          36.900



 123255123.053 7  96042946.62647  23454681.060                    23454685.220
     -3523.726       -2745.766          45.250          45.450    92041169.078 7
  23454688.520       -2631.303          47.550


 104733781.683 8  81610777.61348  19930151.980                    19930153.440
       788.031         614.051          51.250          51.450    78210346.524 9
  19930155.700         588.599          55.650


 120936729.076 7  94236401.56747  23013488.040                    23013490.160
      3140.171        2446.891          46.250          43.400    90309941.909 8
  23013495.640        2344.914          49.450


 120658986.835 7  94020068.86847  22960619.820                    22960621.420
      3471.578        2705.137          46.200          46.400



 132834526.717 6 103507430.66846  25277570.240                    25277574.500
      3623.149        2823.235          40.350          38.500



 115669696.960 8  90132240.18347  22011213.600                    22011215.920
      -580.945        -452.686          50.500          46.750    86376725.038 8
  22011216.900        -433.849          50.400


 125655685.110 8                  23911477.400
     -1313.520                          51.950                    93833826.967 8
  23911482.660        -980.952          53.450    96281648.264 8  23911478.540
     -1006.488          53.500    95057741.770 9  23911481.140        -993.723
        56.400
 130306174.083 8                  24796447.780
      -635.258                          50.700                    97306564.394 8
  24796455.100        -474.506          50.600    99844987.038 8  24796451.640
      -486.803          51.950    98575770.872 9  24796453.520        -480.675
        54.150
 137042349.880 7                  26078308.300
     -2917.069                          47.150                   102336799.937 7
  26078316.660       -2178.352          47.400   105006453.786 7  26078312.080
     -2235.148          47.550   103671630.013 8  26078314.860       -2206.726
        50.400
 136351249.198 7                  25946767.600
      -540.806                          43.100                   101820815.207 6
  25946772.400        -403.788          41.000   104476980.829 6  25946768.820
      -414.413          40.600   103148904.180 7  25946771.260        -409.077
        43.850
 146310156.752 7                  27841917.400
     -2521.201                          43.150                   109257577.465 7
  27841930.180       -1882.760          42.700   112107761.933 7  27841926.160
     -1931.986          42.900   110682657.848 7  27841928.800       -1907.299
        45.850
 146504594.173 6                  27878891.080
      2495.633                          39.950                   109402845.555 7
  27878903.880        1863.563          42.700   112256821.015 7  27878898.640
      1912.266          42.400   110829826.440 7  27878902.160        1887.864
        45.550
 126613387.798 8                  24093705.700
      1143.915                          52.250                    94549019.593 8
  24093710.820         854.186          52.650    97015522.827 8  24093707.520
       876.446          53.050    95782279.865 9  24093710.120         865.301
        55.800
 146997979.164 7                  27972785.420
      3147.831                          43.400                   109771280.688 6
  27972801.760        2350.577          41.950   112634865.381 7  27972796.880
      2411.945          43.500   111203061.687 7  27972798.500        2381.376
        45.550
 138096843.111 8                  26278939.120
      1896.239                          48.900                   103124362.780 7
  26278948.180        1416.018          46.200   105814520.496 7  26278944.700
      1452.946          47.550   104469435.286 8  26278946.780        1434.571
        49.750
 24  2  4 12 20 30.0000000  0 20G03G06G11G12G19G24G25G28G29G31G32E02
                                E07E08E11E25E27E30E34E36
 133206709.252 6 103797457.78546  25348394.000                    25348401.880
       137.636         107.242          37.350          37.600    99472578.977 7
  25348404.600         102.826          46.300


 123623552.489 7  96330108.00947  23524763.440                    23524768.740
      -251.242        -195.776          43.550          44.050    92316394.228 7
  23524770.880        -187.654          46.050


 124332448.195 7  96882477.39046  23659662.040                    23659665.520
      1768.740        1378.244          46.200          41.850    92845750.959 8
  23659671.420        1320.744          48.950


 108018806.265 8  84170531.68248  20555278.960                    20555277.760
     -1453.300       -1132.442          51.200          51.300



 132401898.284 6 103170322.46245  25195245.480                    25195248.640
     -3647.938       -2842.555          39.500          35.300



 123360928.334 7  96125392.17747  23474815.380                    23474819.400
     -3530.359       -2750.933          45.950          46.000    92120179.364 8
  23474823.100       -2636.367          48.050


 104710357.286 8  81592524.86948  19925694.420                    19925696.020
       773.225         602.514          51.100          51.150    78192854.321 9
  19925698.140         577.351          55.700


 120842629.384 7  94163077.23647  22995581.320                    22995583.720
      3132.930        2441.247          46.450          43.100    90239672.790 8
  22995588.800        2339.481          49.250


 120554981.157 7  93939025.84547  22940828.000                    22940829.540
      3462.023        2697.693          46.750          46.900



 132725859.253 6 103422754.65246  25256891.500                    25256895.960
      3621.122        2821.655          38.850          37.950



 115687433.932 8  90146061.17547  22014588.800                    22014591.160
      -601.732        -468.884          51.050          46.450    86389970.148 8
  22014591.880        -449.406          50.300


 125695188.683 8                  23918994.620
     -1320.271                          52.200                    93863326.355 8
  23919000.140        -985.911          53.650    96311917.206 8  23918995.860
     -1011.594          53.250    95087625.934 9  23918998.400        -998.771
        56.400
 130325464.220 8                  24800118.420
      -650.849                          50.700                    97320969.356 8
  24800125.720        -486.071          50.400    99859767.782 8  24800122.560
      -498.721          51.800    98590363.720 9  24800124.260        -492.358
        54.000
 137129958.589 7                  26094979.520
     -2923.805                          47.650                   102402221.905 7
  26094987.920       -2183.357          47.150   105073582.432 7  26094983.700
     -2240.297          47.400   103737905.323 8  26094986.380       -2211.844
        50.300
 136367715.673 7                  25949901.380
      -557.066                          43.600                   101833111.552 6
  25949905.840        -415.952          41.200   104489597.940 6  25949902.880
      -426.817          40.650   103161360.900 7  25949904.640        -421.414
        44.050
 146385811.881 7                  27856314.080
     -2522.680                          43.550                   109314073.049 7
  27856326.840       -1883.675          43.300   112165731.319 7  27856323.300
     -1932.886          43.250   110739890.337 7  27856325.620       -1908.275
        46.250
 146429762.675 6                  27864651.080
      2492.860                          40.500                   109346965.129 7
  27864663.500        1861.585          42.300   112199482.838 7  27864658.640
      1909.989          42.200   110773217.138 7  27864662.080        1885.766
        45.100
 126579182.743 8                  24087196.780
      1136.212                          52.300                    94523476.875 8
  24087201.740         848.444          52.650    96989313.775 8  24087198.440
       870.562          52.800    95756403.979 9  24087201.100         859.483
        55.750
 146903550.210 7                  27954815.600
      3147.053                          42.650                   109700766.094 7
  27954832.040        2350.100          42.850   112562511.233 7  27954827.500
      2411.430          43.800   111131627.311 7  27954828.880        2380.843
        46.000
 138040141.089 8                  26268149.300
      1883.541                          49.250                   103082020.428 7
  26268157.660        1406.570          46.350   105771073.556 7  26268154.820
      1443.220          47.500   104426540.641 8  26268156.720        1424.908
        49.850
 24  2  4 12 21  0.0000000  0 20G03G06G11G12G19G24G25G28G29G31G32E02
                                E07E08E11E25E27E30E34E36
 133202845.895 6 103794447.43145  25347658.900                    25347666.780
       119.262          92.937          36.300          34.950    99469693.950 7
  25347669.520          89.153          45.550


 123631375.660 7  96336203.88847  23526252.100                    23526257.620
      -270.698        -210.937          43.000          42.100    92322236.091 7
  23526260.000        -202.054          46.550


 124279596.992 7  96841294.73746  23649604.900                    23649608.460
      1754.114        1366.846          46.500          41.950    92806284.282 8
  23649613.900        1309.934          48.700


 108062573.075 8  84204635.68148  20563607.640                    20563606.200
     -1464.893       -1141.475          50.800          50.700



 132511385.540 6 103255637.21345  25216080.380                    25216083.560
     -3651.536       -2845.353          38.350          31.050



 123466906.366 7  96207972.31047  23494982.320                    23494986.720
     -3535.335       -2754.812          44.400          44.600    92199318.648 7
  23494990.340       -2640.084          47.900


 104687355.914 8  81574601.74048  19921317.300                    19921319.080
       759.809         592.060          50.600          50.600    78175677.988 9
  19921321.040         567.373          55.650


 120748719.630 7  94089900.92347  22977710.700                    22977713.400
      3127.312        2436.870          45.850          44.400    90169545.527 8
  22977718.100        2335.257          48.850


 120451232.742 7  93858183.29047  22921085.180                    22921086.740
      3454.085        2691.508          46.650          46.800



 132617219.508 6 103338100.24446  25236218.100                    25236222.660
      3620.816        2821.416          40.750          38.000



 115705764.641 8  90160344.81847  22018077.060                    22018079.480
      -620.783        -483.729          50.700          47.050    86403658.634 8
  22018079.860        -463.604          50.250


 125734861.363 8                  23926544.040
     -1325.127                          52.200                    93892952.032 8
  23926549.760        -989.588          53.600    96342315.735 8  23926545.460
     -1015.379          53.350    95117638.037 9  23926547.880       -1002.511
        56.600
 130345190.044 8                  24803871.940
      -664.722                          50.400                    97335699.672 8
  24803879.220        -496.317          50.200    99874882.360 8  24803876.300
      -509.269          51.900    98605286.170 9  24803877.880        -502.785
        54.000
 137217738.977 7                  26111683.660
     -2928.799                          46.850                   102467772.107 7
  26111691.820       -2187.103          47.200   105140842.641 7  26111687.980
     -2244.132          47.550   103804310.525 8  26111690.500       -2215.615
        50.400
 136384637.544 7                  25953121.580
      -571.488                          43.050                   101845747.982 6
  25953126.000        -426.850          41.100   104502564.027 6  25953123.220
      -438.112          40.350   103174162.156 7  25953124.700        -432.543
        44.100
 146461473.780 6                  27870712.040
     -2522.151                          41.500                   109370573.694 7
  27870724.900       -1883.417          43.150   112223705.909 7  27870721.480
     -1932.484          43.500   110797127.956 7  27870723.720       -1907.981
        46.400
 146354986.188 6                  27850421.540
      2491.544                          40.850                   109291125.756 7
  27850433.700        1860.674          43.150   112142186.739 6  27850429.000
      1909.368          41.800   110716649.404 7  27850432.520        1884.925
        45.700
 126545177.619 8                  24080725.880
      1130.286                          52.100                    94498083.458 8
  24080730.720         844.012          52.600    96963257.917 8  24080727.540
       866.039          52.950    95730679.342 9  24080730.120         855.019
        55.850
 146809116.058 6                  27936844.180
      3148.012                          40.550                   109630247.728 7
  27936861.460        2350.809          42.700   112490153.173 7  27936856.760
      2412.089          44.100   111060189.103 7  27936858.020        2381.396
        46.250
 137983789.024 8                  26257425.980
      1872.730                          49.050                   103039939.403 7
  26257433.900        1398.405          46.400   105727894.757 7  26257431.520
      1434.949          47.900   104383910.731 8  26257433.260        1416.666
        50.150
 24  2  4 12 21 30.0000000  0 20G03G06G11G12G19G24G25G28G29G31G32E02
                                E07E08E11E25E27E30E34E36
 133199551.432 5 103791880.24145  25347032.140                    25347039.920
       100.424          78.253          34.600          33.200    99467233.757 7
  25347042.780          74.841          42.600


 123639795.743 7  96342764.91247  23527854.440                    23527859.920
      -290.516        -226.380          43.100          43.150    92328523.723 7
  23527862.760        -216.909          46.650


 124227202.418 7  96800467.89647  23639634.420                    23639638.200
      1738.843        1354.945          46.200          43.050    92767158.569 8
  23639643.220        1298.594          48.450


 108106704.997 8  84239024.16948  20572005.760                    20572004.100
     -1476.937       -1150.860          51.300          51.100



 132620998.609 6 103341049.96745  25236939.180                    25236942.400
     -3655.528       -2848.460          40.550          32.650



 123573053.180 7  96290683.98047  23515181.420                    23515186.040
     -3540.846       -2759.105          43.650          43.850    92278583.959 8
  23515189.780       -2644.129          48.450


 104664775.300 8  81557006.48748  19917020.180                    19917022.220
       745.771         581.121          50.050          49.850    78158815.882 9
  19917023.960         556.987          55.700


 120654999.588 7  94016872.43847  22959876.260                    22959879.040
      3121.103        2432.032          45.550          44.700    90099559.905 8
  22959883.460        2330.612          48.700


 120347741.035 7  93777540.77547  22901391.140                    22901392.720
      3445.508        2684.824          46.600          46.550



 132508606.449 6 103253466.69346  25215549.740                    25215554.400
      3620.087        2820.850          40.200          37.800



 115724686.014 8  90175088.72047  22021677.840                    22021680.220
      -640.323        -498.954          51.350          46.800    86417788.203 8
  22021680.360        -478.166          50.350


 125774700.351 8                  23934125.160
     -1330.507                          52.400                    93922701.897 8
  23934131.000        -993.583          53.650    96372841.689 8  23934126.760
     -1019.517          53.750    95147775.944 9  23934129.020       -1006.550
        56.550
 130365348.796 8                  24807707.900
      -679.015                          50.400                    97350753.293 8
  24807715.080        -507.033          50.100    99890328.673 8  24807712.380
      -520.290          52.100    98620536.137 8  24807713.880        -513.661
        53.850
 137305686.956 7                  26128419.460
     -2934.174                          47.050                   102533447.411 7
  26128427.780       -2191.143          47.100   105208231.234 7  26128424.160
     -2248.250          47.800   103870842.475 8  26128426.540       -2219.674
        50.300
 136402012.068 7                  25956427.640
      -586.444                          42.450                   101858722.398 6
  25956432.020        -437.893          41.350   104515876.893 6  25956429.480
      -449.371          40.600   103187305.799 7  25956430.900        -443.679
        43.850
 146537139.858 6                  27885110.760
     -2522.098                          41.450                   109427077.425 7
  27885123.720       -1883.349          43.550   112281683.677 7  27885120.360
     -1932.496          43.750   110854368.704 7  27885122.620       -1907.855
        46.600
 146280262.513 6                  27836202.100
      2490.203                          40.600                   109235325.801 7
  27836213.920        1859.479          42.550   112084931.120 7  27836209.560
      1908.021          42.800   110660121.612 7  27836212.860        1883.786
        45.450
 126511370.089 8                  24074292.580
      1123.793                          52.300                    94472837.601 8
  24074297.420         839.186          52.700    96937353.466 8  24074294.300
       861.122          53.350    95705104.187 9  24074296.740         850.159
        55.900
 146714676.502 6                  27918872.100
      3148.060                          41.500                   109559725.324 7
  27918889.700        2350.914          43.350   112417790.960 7  27918885.100
      2412.270          43.750   110988746.792 7  27918886.180        2381.658
        46.250
 137927786.313 8                  26246768.960
      1861.129                          49.000                   102998119.261 7
  26246776.940        1389.687          46.750   105684983.662 8  26246774.840
      1426.033          48.600   104341545.115 8  26246776.340        1407.866
        50.400
 24  2  4 12 22  0.0000000  0 20G03G06G11G12G19G24G25G28G29G31G32E02
                                E07E08E11E25E27E30E34E36
                                  25346514.920                    25346522.660
        81.229          63.288          29.700          30.950    99465203.902 6
  25346525.540          60.711          40.350


 123648820.137 7  96349796.81547  23529571.900                    23529576.960
      -310.465        -241.924          42.850          42.900    92335262.598 7
  23529580.380        -231.752          46.750


 124175274.120 7  96760004.38646  23629752.640                    23629756.480
      1723.619        1343.084          46.550          41.950    92728381.064 7
  23629761.220        1287.092          47.950


 108151207.344 8  84273701.30648  20580474.340                    20580472.640
     -1489.068       -1160.313          51.350          51.300



 132730742.757 6 103426564.84346  25257822.700                    25257826.280
     -3659.606       -2851.644          38.650          37.000



 123679374.503 7  96373531.62547  23535413.620                    23535418.660
     -3546.428       -2763.454          43.700          43.750    92357979.591 8
  23535422.300       -2648.354          48.300


 104642622.948 8  81539744.94948  19912804.560                    19912806.940
       731.898         570.312          50.100          50.050    78142273.578 9
  19912808.440         546.425          55.600


 120561478.730 7  93943999.14047  22942079.760                    22942082.600
      3114.423        2426.828          46.150          44.700    90029722.987 8
  22942086.720        2325.718          48.350


 120244515.769 7  93697105.87947  22881747.740                    22881749.600
      3436.835        2678.065          46.800          46.750



 132400029.281 6 103168861.07746  25194888.180                    25194892.880
      3619.236        2820.188          39.750          39.800



 115744204.592 8  90190297.98647  22025392.220                    22025394.600
      -660.146        -514.400          51.350          46.950    86432363.735 8
  22025394.660        -492.877          50.350


 125814712.465 8                  23941739.320
     -1336.158                          52.600                    93952581.049 8
  23941745.060        -997.812          53.350    96403500.295 8  23941741.060
     -1023.760          53.700    95178044.824 9  23941743.100       -1010.791
        56.350
 130385947.363 8                  24811627.620
      -693.479                          50.600                    97366135.344 8
  24811634.640        -517.880          49.850    99906111.991 8  24811632.100
      -531.386          51.950    98636118.817 8  24811633.560        -524.629
        53.650
 137393807.981 7                  26145188.440
     -2939.652                          47.150                   102599251.962 7
  26145196.560       -2195.261          46.650   105275752.440 7  26145193.360
     -2252.505          47.800   103937505.357 8  26145195.540       -2223.889
        50.000
 136419846.084 6                  25959820.760
      -601.548                          41.150                   101872039.970 6
  25959825.500        -449.252          41.150   104529541.865 6  25959823.180
      -460.794          40.800   103200797.077 7  25959824.540        -455.090
        43.800
 146612817.185 6                  27899511.600
     -2522.225                          40.850                   109483589.538 7
  27899524.660       -1883.531          43.300   112339670.043 7  27899521.200
     -1932.788          43.900   110911617.940 7  27899523.760       -1908.093
        46.500
 146205599.258 6                  27821994.180
      2488.046                          41.750                   109179570.921 7
  27822005.760        1857.970          42.650   112027721.760 7  27822001.820
      1906.600          42.650   110603639.488 7  27822004.920        1882.301
        45.600
 126477767.542 8                  24067898.260
      1117.155                          52.550                    94447744.815 8
  24067903.160         834.217          52.650    96911606.093 8  24067900.100
       855.951          53.400    95679684.108 9  24067902.360         845.063
        55.900
 146620240.819 6                  27900900.960
      3148.229                          41.900                   109489205.758 7
  27900918.400        2350.906          42.500   112345431.678 7  27900914.060
      2412.239          43.200   110917307.371 7  27900914.980        2381.532
        45.650
 137872142.022 8                  26236180.040
      1849.340                          48.900                   102956566.754 7
  26236188.320        1381.056          47.050   105642347.188 8  26236186.080
      1417.026          48.350   104299450.622 8  26236187.680        1399.068
        50.500
 24  2  4 12 22 30.0000000  0 20G03G06G11G12G19G24G25G28G29G31G32E02
                                E07E08E11E25E27E30E34E36
 133194679.877 4                  25346105.000
        62.482                          29.050                    99463594.456 6
  25346115.500          46.358          40.100


 123658435.564 7  96357289.29247  23531401.680                    23531406.420
      -330.542        -257.567          42.700          42.350    92342442.897 7
  23531410.180        -246.953          46.200


 124123801.339 7  96719895.82246  23619957.660                    23619961.260
      1707.976        1330.894          47.050          41.100    92689943.688 7
  23619965.900        1275.393          47.800


 108196065.990 8  84308656.07748  20589010.700                    20589009.060
     -1501.466       -1169.974          51.550          51.600



 132840602.710 6 103512170.03845  25278728.440                    25278731.960
     -3664.270       -2855.267          40.600          35.800



 123785855.555 7  96456503.71947  23555676.160                    23555681.620
     -3552.106       -2767.881          43.750          43.850    92437494.486 8
  23555685.160       -2652.667          48.350


 104620885.785 8  81522806.93348  19908667.980                    19908670.580
       717.488         559.083          50.500          50.400    78126041.317 9
  19908671.980         535.787          55.400


 120468145.905 7  93871272.34647  22924319.120                    22924321.780
      3107.729        2421.608          46.550          44.350    89960026.501 8
  22924325.840        2320.671          48.400


 120141546.255 7  93616870.24647  22862153.080                    22862155.080
      3427.805        2671.028          47.050          46.850



 132291475.984 6 103084274.14446  25174231.160                    25174235.860
      3617.700        2818.991          39.750          37.600



 115764306.356 8  90205961.67647  22029217.520                    22029220.060
      -680.014        -529.882          51.450          47.100    86447374.775 8
  22029220.060        -507.847          50.500


 125854884.013 8                  23949383.800
     -1341.912                          52.600                    93982579.269 8
  23949389.340       -1002.120          53.200    96434281.082 8  23949385.660
     -1028.217          53.800    95208434.328 9  23949387.540       -1015.172
        56.350
 130406972.077 8                  24815628.520
      -708.201                          50.750                    97381835.625 8
  24815635.300        -528.866          49.650    99922221.830 8  24815632.900
      -542.610          51.950    98652023.878 8  24815634.340        -535.726
        53.650
 137482087.051 7                  26161987.320
     -2945.444                          46.800                   102665174.523 7
  26161995.380       -2199.580          46.550   105343394.728 8  26161992.720
     -2256.945          48.050   104004287.777 8  26161994.580       -2228.240
        50.100
 136438126.006 6                  25963298.820
      -617.116                          41.750                   101885690.505 6
  25963304.020        -460.720          41.250   104543548.526 6  25963301.920
      -472.963          40.900   103214625.665 7  25963303.020        -466.769
        44.100
 146688492.292 6                  27913912.040
     -2522.631                          41.000                   109540099.963 7
  27913925.160       -1883.834          42.750   112397654.680 7  27913921.560
     -1933.103          44.000   110968865.474 7  27913924.460       -1908.440
        46.250
 146130983.396 7                  27807795.340
      2486.128                          42.350                   109123851.426 7
  27807806.740        1856.440          42.050   111970548.687 7  27807802.960
      1904.929          43.000   110547193.209 7  27807805.840        1880.733
        45.450
 126444356.802 8                  24061540.360
      1110.234                          52.700                    94422795.262 8
  24061545.380         829.070          52.650    96886005.675 8  24061542.420
       850.713          53.600    95654409.122 9  24061544.500         839.893
        56.000
 146525797.823 6                  27882928.440
      3147.968                          41.450                   109418680.690 6
  27882945.460        2350.779          41.700   112273066.761 7  27882941.600
      2411.960          43.650   110845862.373 7  27882942.440        2381.396
        45.400
 137816844.629 8                  26225657.040
      1837.186                          48.900                   102915273.314 7
  26225665.820        1371.926          47.600   105599976.519 8  26225663.080
      1407.694          48.100   104257618.571 8  26225665.000        1389.810
        50.700
 24  2  4 12 23  0.0000000  0 20G03G06G11G12G19G24G25G28G29G31G32E02
                                E07E08E11E25E27E30E34E36
 133193099.270 5 103786855.16545  25345804.720                    25345811.160
        43.778          34.107          34.850          31.900    99462413.285 7
  25345814.320          32.438          42.400


 123668652.793 7  96365250.71847  23533345.940                    23533350.700
      -350.416        -273.052          42.100          42.050    92350072.577 7
  23533354.060        -261.562          45.700


 124072797.202 7  96680152.41047  23610251.800                    23610255.200
      1692.644        1318.945          45.950          42.250    92651856.254 8
  23610259.880        1263.935          48.200


 108241290.688 8  84343896.08948  20597616.740                    20597615.100
     -1513.330       -1179.219          51.150          51.100



 132950586.790 6 103597871.84946  25299657.720                    25299661.360
     -3667.716       -2857.961          39.650          38.350



 123892505.388 7  96539607.36147  23575971.060                    23575976.760
     -3557.251       -2771.888          43.250          43.100    92517135.442 8
  23575980.080       -2656.615          48.550


 104599574.733 8  81506200.94448  19904612.580                    19904615.080
       703.540         548.214          50.550          50.600    78110127.254 9
  19904616.500         525.359          55.650


 120375014.086 7  93798702.18747  22906596.740                    22906599.200
      3101.262        2416.571          46.350          44.700    89890480.113 8
  22906603.320        2315.866          49.100


 120038845.510 7  93536844.05047  22842609.500                    22842611.880
      3419.206        2664.327          46.350          46.700



 132182959.752 6 102999716.04346  25153581.400                    25153585.980
      3616.921        2818.379          40.500          38.550



 115785001.282 8  90222087.58047  22033155.560                    22033158.340
      -699.512        -545.074          50.350          47.700    86462828.755 8
  22033158.460        -522.305          51.000


 125895225.281 8                  23957060.460
     -1347.188                          52.350                    94012704.205 8
  23957065.780       -1006.014          53.200    96465191.895 8  23957062.520
     -1032.290          53.450    95238952.203 9  23957064.260       -1019.165
        56.300
 130428433.240 8                  24819712.480
      -722.424                          50.500                    97397861.810 8
  24819719.040        -539.430          49.950    99938666.092 8  24819716.740
      -553.519          51.600    98668259.103 8  24819718.200        -546.470
        53.700
 137570533.098 7                  26178818.040
     -2950.660                          46.550                   102731221.770 7
  26178826.160       -2203.441          46.700   105411164.966 7  26178823.880
     -2260.937          47.950   104071196.518 8  26178825.380       -2232.137
        50.250
 136456862.071 6                  25966863.940
      -631.741                          41.750                   101899681.692 6
  25966869.460        -471.805          41.200   104557904.685 6  25966867.360
      -483.957          40.600   103228799.338 7  25966868.360        -477.958
        44.000
 146764175.652 6                  27928314.300
     -2522.683                          41.800                   109596616.593 7
  27928327.200       -1883.821          42.950   112455645.646 7  27928323.700
     -1932.774          44.000   111026119.277 7  27928326.660       -1908.286
        46.400
 146056425.940 6                  27793607.520
      2484.534                          41.900                   109068175.512 7
  27793618.660        1855.478          42.100   111913420.368 7  27793615.400
      1903.669          42.700   110490791.092 7  27793617.980        1879.527
        45.400
 126411148.633 8                  24055220.980
      1103.884                          52.550                    94397996.993 8
  24055226.080         824.288          52.700    96860560.491 8  24055223.280
       845.773          53.350    95629287.393 9  24055225.160         835.033
        56.050
 146431360.296 6                  27864956.980
      3148.018                          38.950                   109348159.664 7
  27864973.680        2350.903          42.050   112200706.006 7  27864970.200
      2412.223          44.000   110774421.486 7  27864971.140        2381.498
        45.850
 137761906.573 7                  26215202.360
      1825.556                          47.950                   102874248.203 8
  26215211.720        1363.255          48.050   105557881.181 7  26215208.380
      1398.789          47.550   104216058.342 8  26215210.580        1381.010
        50.900
 24  2  4 12 23 30.0000000  0 20G03G06G11G12G19G24G25G28G29G31G32E02
                                E07E08E11E25E27E30E34E36
 133192086.409 6 103786065.89846  25345611.860                    25345618.180
        24.413          19.025          37.750          37.250    99461656.895 7
  25345621.580          18.020          46.000


 123679466.944 7  96373677.30247  23535403.920                    23535408.880
      -370.131        -288.414          43.550          43.450    92358148.034 7
  23535410.960        -276.588          45.100


 124022259.237 7  96640772.24146  23600634.560                    23600637.740
      1676.739        1306.552          46.000          40.550    92614116.935 8
  23600642.840        1252.142          48.400


 108286875.457 8  84379416.67048  20606291.220                    20606289.740
     -1525.417       -1188.638          51.350          51.250



 133060687.763 6 103683664.80446  25320609.100                    25320612.980
     -3671.873       -2861.190          38.150          36.700



 123999317.686 7  96622837.57147  23596296.840                    23596302.800
     -3563.112       -2776.457          43.650          43.700    92596897.679 8
  23596305.640       -2660.715          48.000


 104578685.026 8  81489923.29648  19900637.460                    19900639.780
       689.438         537.227          51.000          50.950    78094527.847 9
  19900641.140         514.724          55.600


 120282080.570 7  93726286.56147  22888912.060                    22888914.440
      3094.458        2411.271          47.000          43.600    89821081.818 8
  22888918.620        2310.771          49.300


 119936411.045 7  93457025.31847  22823116.560                    22823119.240
      3410.065        2657.205          46.100          46.050



 132074477.004 6 102915184.09546  25132937.920                    25132942.380
      3615.648        2817.393          39.750          39.000



 115806283.674 8  90238671.25247  22037205.300                    22037208.380
      -719.225        -560.436          50.250          47.250    86478721.438 8
  22037208.740        -537.104          51.250


 125935730.992 8                  23964768.600
     -1352.906                          53.300                    94042951.934 8
  23964773.440       -1010.291          53.100    96496228.700 8  23964770.500
     -1036.717          53.650    95269594.470 9  23964772.280       -1023.501
        56.300
 130450325.526 8                  24823878.520
      -736.971                          50.900                    97414209.946 8
  24823884.960        -550.361          50.000    99955440.699 8  24823882.520
      -564.706          51.650    98684820.471 8  24823884.120        -557.529
        53.650
 137659139.507 7                  26195679.340
     -2956.148                          46.300                   102797388.754 7
  26195687.400       -2207.510          46.500   105479058.068 8  26195685.580
     -2265.186          48.650   104138226.559 8  26195686.720       -2236.309
        50.350
 136476049.030 7                  25970515.040
      -647.196                          42.100                   101914009.567 6
  25970520.760        -483.221          41.200   104572606.341 6  25970518.460
      -495.884          41.000   103243314.101 7  25970519.540        -489.542
        44.100
 146839862.204 6                  27942717.200
     -2522.805                          41.300                   109653135.609 7
  27942729.920       -1884.002          43.200   112513639.112 7  27942726.480
     -1933.206          44.150   111083375.517 7  27942729.400       -1908.645
        46.650
 145981922.315 7                  27779429.880
      2482.596                          42.550                   109012539.857 7
  27779441.120        1853.754          42.250   111856333.290 7  27779437.940
      1902.275          42.700   110434429.724 7  27779440.280        1877.997
        45.400
 126378138.255 8                  24048939.300
      1097.048                          52.650                    94373346.422 8
  24048944.300         819.162          52.600    96835266.853 8  24048941.720
       840.567          53.700    95604315.289 9  24048943.460         829.884
        56.050
 146336925.487 6                  27846986.240
      3148.021                          40.150                   109277640.653 7
  27847002.600        2350.510          42.550   112128347.320 7  27846999.340
      2411.829          44.350   110702982.642 7  27847000.500        2381.124
        46.100
 137707324.771 7                  26204815.500
      1813.359                          47.550                   102833489.123 8
  26204825.340        1354.091          48.300   105516058.804 7  26204821.520
      1389.388          47.900   104174767.617 8  26204823.900        1371.784
        51.000
 24  2  4 12 24  0.0000000  0 20G03G06G11G12G19G24G25G28G29G31G32E02
                                E07E08E11E25E27E30E34E36
 133191646.092 6 103785722.74146  25345527.660                    25345535.060
         5.266           4.104          37.500          38.150    99461328.026 7
  25345537.680           3.845          45.850


 123690881.635 7  96382571.85047  23537576.180                    23537581.300
      -390.659        -304.410          44.100          44.050    92366671.966 7
  23537582.220        -291.546          44.900


 123972193.516 7  96601760.06046  23591107.220                    23591110.280
      1661.153        1294.406          46.100          40.100    92576730.269 8
  23591115.900        1240.396          48.600


 108332822.878 8  84415219.83848  20615034.580                    20615033.420
     -1537.543       -1198.086          51.050          50.900



 133170907.366 5 103769550.33645  25341583.060                    25341587.040
     -3675.817       -2864.271          35.650          33.400



 124106294.477 7  96706195.97147  23616654.040                    23616660.020
     -3568.568       -2780.707          43.300          43.250    92676782.786 7
  23616662.640       -2664.820          47.900


 104558220.586 8  81473977.01848  19896743.320                    19896745.460
       675.095         526.049          51.250          50.950    78079245.997 9
  19896746.820         504.164          55.600


 120189351.218 7  93654030.02547  22871266.120                    22871268.600
      3087.636        2405.954          46.950          44.750    89751836.007 8
  22871272.780        2305.675          49.350


 119834248.778 7  93377418.68047  22803675.380                    22803678.500
      3400.945        2650.098          46.400          46.550



 131966033.167 6 102830682.39646  25112301.900                    25112306.200
      3614.590        2816.563          40.400          38.900



 115828156.401 8  90255714.92047  22041367.380                    22041370.740
      -738.889        -575.758          50.400          47.800    86495054.946 8
  22041371.360        -551.762          51.450


 125976404.325 8                  23972508.840
     -1358.521                          53.600                    94073324.853 8
  23972513.120       -1014.459          52.950    96527393.958 8  23972510.260
     -1040.932          53.550    95300363.557 9  23972512.180       -1027.682
        56.300
 130472652.214 8                  24828127.180
      -751.461                          50.800                    97430882.463 8
  24828133.560        -561.117          50.100    99972548.149 8  24828131.000
      -575.782          51.400    98701710.458 8  24828132.720        -568.451
        53.700
 137747908.202 7                  26212571.320
     -2961.525                          46.400                   102863676.932 7
  26212579.520       -2211.520          46.250   105547075.513 8  26212578.240
     -2269.285          48.650   104205379.370 8  26212578.900       -2240.384
        50.350
 136495690.141 7                  25974252.700
      -662.215                          42.650                   101928676.636 6
  25974258.420        -494.594          40.900   104587656.017 6  25974256.000
      -507.335          40.900   103258172.475 7  25974257.180        -501.035
        44.000
 146915555.430 6                  27957121.460
     -2523.277                          41.650                   109709659.587 7
  27957134.080       -1884.208          42.850   112571637.632 7  27957130.680
     -1933.383          44.100   111140636.756 7  27957133.420       -1908.706
        46.400
 145907476.514 7                  27765263.240
      2480.602                          43.050                   108956947.348 6
  27765274.240        1852.201          41.050   111799290.524 7  27765271.680
      1900.748          43.500   110378112.084 7  27765273.420        1876.534
        45.250
 126345329.434 8                  24042696.040
      1090.356                          52.800                    94348846.366 8
  24042700.820         814.174          52.450    96810127.659 8  24042698.480
       835.461          53.650    95579495.665 9  24042700.100         824.801
        56.100
 146242499.208 6                  27829017.360
      3147.533                          41.500                   109207127.938 7
  27829033.300        2350.468          43.100   112055995.107 7  27829030.020
      2411.640          43.800   110631550.174 7  27829031.480        2381.017
        46.400
 137653104.585 7                  26194497.540
      1801.476                          47.150                   102793000.069 8
  26194507.580        1345.152          48.250   105474513.510 7  26194503.560
      1380.279          47.850   104133750.446 8  26194506.080        1362.707
        51.100
 24  2  4 12 24 30.0000000  0 20G03G06G11G12G19G24G25G28G29G31G32E02
                                E07E08E11E25E27E30E34E36
 133191772.849 5 103785821.53145  25345551.460                    25345559.420
       -14.003         -10.914          34.250          34.100    99461422.698 7
  25345561.800         -10.578          43.850


 123702891.480 7  96391930.17547  23539861.720                    23539867.020
      -410.742        -320.060          43.800          43.200    92375640.363 7
  23539867.060        -306.653          44.900


 123922597.169 7  96563113.60946  23581669.140                    23581672.320
      1644.964        1281.792          45.350          41.350    92539694.101 8
  23581678.220        1228.357          48.700


 108379126.545 8  84451300.58848  20623845.700                    20623844.900
     -1549.921       -1207.731          50.850          50.800



 133281271.243 6 103855530.40945  25362578.120                    25362581.580
     -3680.015       -2867.543          38.450          35.500



 124213429.014 7  96789677.26247  23637041.160                    23637047.300
     -3574.169       -2785.072          43.650          43.500    92756785.657 7
  23637049.480       -2669.040          47.300


 104538176.285 8  81458358.10948  19892929.040                    19892931.220
       660.653         514.795          50.600          50.500    78064277.880 9
  19892932.460         493.353          55.550


 120096822.955 7  93581930.21147  22853658.360                    22853661.100
      3080.556        2400.438          46.550          45.650    89682740.363 8
  22853665.080        2300.309          49.300


 119732355.966 7  93298021.97047  22784285.420                    22784289.040
      3391.470        2642.713          45.850          46.000



 131857624.510 6 102746208.13446  25091672.400                    25091676.520
      3612.281        2814.763          40.100          38.900



 115850613.385 8  90273213.85147  22045640.740                    22045644.120
      -758.850        -591.312          50.200          47.950    86511824.752 8
  22045645.080        -566.652          51.600


 126017239.661 8                  23980279.800
     -1364.401                          53.300                    94103818.737 8
  23980283.780       -1018.813          52.900    96558683.336 8  23980280.780
     -1045.386          53.600    95331255.194 9  23980282.940       -1032.118
        56.250
 130495407.568 8                  24832457.380
      -766.197                          50.550                    97447875.092 8
  24832463.860        -572.097          50.350    99989984.066 8  24832460.940
      -587.005          51.100    98718924.734 8  24832462.920        -579.588
        53.650
 137836832.128 7                  26229493.040
     -2967.214                          46.100                   102930081.037 7
  26229501.240       -2215.733          46.300   105615211.907 8  26229500.340
     -2273.576          48.850   104272649.623 8  26229500.620       -2244.680
        50.400
 136515779.663 7                  25978075.800
      -677.453                          42.100                   101943678.546 6
  25978081.260        -505.818          41.100   104603049.291 6  25978079.240
      -519.022          41.350   103273370.071 7  25978080.060        -512.445
        44.250
 146991249.818 6                  27971525.980
     -2523.680                          40.300                   109766184.448 7
  27971538.560       -1884.577          43.100   112629637.067 7  27971534.900
     -1933.677          44.000   111197898.904 7  27971537.660       -1909.092
        46.450
 145833083.475 7                  27751106.640
      2478.568                          42.700                   108901394.272 6
  27751117.380        1850.745          41.250   111742288.241 7  27751115.440
      1898.881          43.550   110321834.402 7  27751116.820        1874.864
        45.350
 126312717.036 8                  24036490.140
      1083.325                          52.650                    94324492.989 8
  24036494.720         809.000          52.400    96785138.975 8  24036492.620
       830.063          53.900    95554824.633 9  24036494.100         819.550
        56.150
 146148078.281 6                  27811049.500
      3147.047                          41.250                   109136619.246 7
  27811065.060        2349.913          42.850   111983646.993 7  27811061.660
      2411.163          42.900   110560121.773 7  27811063.420        2380.563
        45.800
 137599242.547 7                  26184247.780
      1788.977                          47.150                   102752778.475 8
  26184257.940        1335.925          48.200   105433242.649 7  26184253.840
      1370.741          47.850   104093004.215 8  26184256.420        1353.306
        51.050
 24  2  4 12 25  0.0000000  0 20G03G06G11G12G19G24G25G28G29G31G32E02
                                E07E08E11E25E27E30E34E36
 133192472.515 5 103786366.70744  25345684.300                    25345692.900
       -32.212         -25.096          33.750          28.050    99461945.136 6
  25345694.960         -24.268          41.350


 123715502.322 7  96401756.80847  23542261.520                    23542267.180
      -429.993        -335.060          43.850          44.050    92385057.576 7
  23542266.840        -321.144          45.300


 123873478.437 7  96524839.31847  23572321.880                    23572325.480
      1629.555        1269.783          44.750          42.350    92503014.593 8
  23572331.360        1216.919          48.850


 108425791.040 8  84487662.50948  20632725.600                    20632724.920
     -1561.115       -1216.454          51.000          50.850



 133391716.596 6 103941591.86345  25383595.100                    25383599.620
     -3682.551       -2869.520          36.600          31.050



 124320725.585 7  96873284.81847  23657459.120                    23657465.420
     -3578.828       -2788.703          43.450          43.750    92836909.550 7
  23657467.080       -2672.574          47.550


 104518558.169 8  81443071.29748  19889195.840                    19889198.160
       647.204         504.315          50.700          50.750    78049628.031 9
  19889199.140         483.240          55.650


 120004503.879 7  93509993.37747  22836090.480                    22836093.480
      3074.191        2395.478          46.600          45.450    89613800.917 8
  22836097.100        2295.610          49.200


 119630740.580 7  93218841.41647  22764948.360                    22764952.340
      3382.948        2636.073          45.800          45.600



 131749258.792 6 102661767.32146  25071051.160                    25071055.280
      3611.729        2814.330          39.650          37.350



 115873659.619 8  90291171.93747  22050026.300                    22050029.600
      -777.629        -605.944          50.500          47.900    86529034.589 8
  22050030.780        -580.737          51.700


 126058242.451 8                  23988082.500
     -1369.210                          53.400                    94134437.682 8
  23988086.440       -1022.474          53.100    96590101.039 8  23988083.200
     -1049.149          53.400    95362273.514 9  23988085.520       -1035.838
        56.200
 130518597.018 8                  24836870.160
      -779.907                          50.500                    97465191.896 8
  24836876.820        -582.417          50.650   100007752.607 8  24836873.520
      -597.621          50.750    98736467.406 8  24836875.760        -589.999
        53.700
 137925915.439 7                  26246444.860
     -2971.831                          45.700                   102996604.140 7
  26246453.400       -2219.150          46.350   105683470.403 8  26246452.700
     -2277.131          48.900   104340040.426 8  26246452.680       -2248.182
        50.500
 136536323.086 7                  25981985.320
      -691.836                          42.900                   101959019.463 6
  25981990.300        -516.627          40.900   104618790.380 6  25981988.720
      -530.018          41.300   103288911.075 7  25981989.340        -523.404
        44.100
 147066951.165 6                  27985931.660
     -2523.176                          39.900                   109822714.463 7
  27985944.380       -1884.187          43.100   112687641.810 7  27985940.460
     -1933.473          43.900   111255166.289 7  27985943.280       -1908.788
        46.450
 145758749.503 7                  27736961.440
      2477.191                          43.650                   108845885.306 6
  27736971.980        1849.626          41.050   111685331.154 7  27736970.240
      1898.034          43.300   110265601.377 7  27736971.260        1873.929
        45.050
 126280306.997 8                  24030322.700
      1077.313                          52.900                    94300290.729 8
  24030327.100         804.463          52.550    96760305.348 8  24030325.300
       825.454          53.900    95530306.690 9  24030326.660         814.968
        56.200
 146053670.738 6                  27793084.040
      3147.042                          40.900                   109066120.513 7
  27793099.480        2350.021          42.600   111911309.095 7  27793096.060
      2411.400          42.300   110488703.456 7  27793097.820        2380.754
        45.350
 137545746.212 7                  26174067.720
      1777.534                          47.550                   102712829.980 8
  26174077.880        1327.313          48.600   105392252.013 7  26174073.780
      1361.938          47.550   104052534.653 8  26174076.360        1344.624
        51.100
 24  2  4 12 25 30.0000000  0 19G03G06G11G12G24G25G28G29G31G32E02E07
                                E08E11E25E27E30E34E36
 133193733.781 5 103787349.52244  25345924.440                    25345932.660
       -51.483         -40.106          32.950          26.900    99462886.999 6
  25345935.020         -38.565          40.850


 123728702.732 7  96412042.85647  23544773.500                    23544779.080
      -449.732        -350.440          43.200          43.650    92394915.052 7
  23544779.260        -335.998          45.700


 123824828.406 7  96486930.26447  23563063.920                    23563067.980
      1613.703        1257.433          44.550          42.000    92466685.086 8
  23563073.660        1205.076          48.850


 108472804.145 8  84524296.07948  20641671.980                    20641671.200
     -1572.929       -1225.659          51.100          51.050



 124428171.406 7  96957008.67347  23677905.540                    23677911.760
     -3583.900       -2792.655          43.350          43.250    92917144.868 7
  23677913.420       -2676.391          47.600


 104499355.129 8  81428107.90848  19885541.640                    19885543.800
       633.196         493.400          50.650          50.700    78035288.132 9
  19885544.860         472.795          55.750


 119912384.999 7  93438212.54747  22818560.920                    22818563.780
      3067.274        2390.087          46.950          45.250    89545010.966 8
  22818567.260        2290.419          49.300


 119529393.794 7  93139870.13147  22745662.420                    22745666.760
      3373.665        2628.837          46.150          46.000



 131640926.425 6 102577352.47146  25050436.320                    25050440.060
      3610.456        2813.337          40.100          37.800



 115897283.008 8  90309579.75847  22054521.720                    22054524.820
      -797.172        -621.173          50.550          47.150    86546675.420 8
  22054526.160        -595.312          51.750


 126099401.032 8                  23995914.680
     -1374.617                          52.950                    94165172.958 8
  23995918.860       -1026.461          53.250    96621638.109 8  23995915.420
     -1053.261          53.600    95393409.683 9  23995917.720       -1039.830
        56.050
 130542208.796 8                  24841363.220
      -794.132                          50.300                    97482824.070 8
  24841370.180        -593.071          51.100   100025844.759 8  24841366.420
      -608.505          50.500    98754329.566 8  24841368.960        -600.790
        53.450
 138015145.074 7                  26263424.680
     -2976.783                          46.250                   103063236.530 7
  26263433.340       -2222.995          46.450   105751841.035 8  26263432.920
     -2280.905          48.900   104407541.929 8  26263432.560       -2251.926
        50.150
 136557308.640 7                  25985978.980
      -707.072                          42.350                   101974690.558 6
  25985983.700        -527.969          41.250   104634870.290 6  25985982.520
      -541.764          41.500   103304786.573 7  25985982.660        -534.726
        43.900
 147142647.986 6                  28000336.460
     -2523.397                          39.700                   109879241.143 7
  28000349.260       -1884.304          43.000   112745643.099 7  28000345.100
     -1933.315          43.550   111312430.275 7  28000348.060       -1908.854
        45.900
 145684463.463 7                  27722825.280
      2475.237                          43.850                   108790412.121 6
  27722835.420        1848.409          41.300   111628410.831 7  27722834.320
      1896.676          43.950   110209404.626 7  27722834.840        1872.520
        45.100
 126248088.140 8                  24024191.620
      1070.718                          52.900                    94276231.243 8
  24024195.980         799.542          52.800    96735618.219 8  24024194.280
       820.427          53.950    95505933.382 9  24024195.600         809.987
        56.050
 145959267.455 6                  27775119.480
      3146.665                          41.800                   108995624.933 7
  27775134.800        2349.662          42.000   111838974.464 7  27775131.380
      2411.069          42.400   110417288.347 7  27775133.060        2380.367
        44.850
 137492606.074 8                  26163955.500
      1765.270                          48.050                   102673147.484 8
  26163965.740        1318.192          48.950   105351534.297 7  26163961.500
      1352.645          47.400   104012334.544 8  26163964.020        1335.446
        50.900
 24  2  4 12 26  0.0000000  0 19G03G06G11G12G24G25G28G29G31G32E02E07
                                E08E11E25E27E30E34E36
 133195570.277 5 103788780.52545  25346273.880                    25346282.600
       -71.536         -55.751          35.200          33.250    99464258.371 7
  25346284.660         -53.122          43.500


 123742506.444 7  96422798.99947  23547400.200                    23547405.520
      -470.406        -366.550          43.250          43.350    92405223.035 7
  23547406.640        -351.230          45.600


 123776663.202 7  96449398.96547  23553898.380                    23553902.640
      1597.189        1244.563          44.950          42.000    92430717.597 8
  23553908.160        1192.731          48.400


 108520178.411 8  84561211.07548  20650687.080                    20650686.060
     -1585.319       -1235.314          50.950          50.950



 124535778.691 7  97040858.33147  23698382.600                    23698388.980
     -3589.726       -2797.193          43.350          43.250    92997500.769 7
  23698390.220       -2680.661          47.300


 104480581.149 8  81413478.85848  19881969.040                    19881971.100
       618.673         482.083          50.250          50.400    78021268.631 9
  19881972.180         461.904          55.550


 119820482.306 7  93366600.18547  22801072.500                    22801075.100
      3059.531        2384.055          47.200          44.350    89476382.457 8
  22801078.680        2284.828          49.300


 119428331.727 7  93061120.67747  22726430.700                    22726435.260
      3363.769        2621.125          45.950          46.350



 131532643.253 6 102492975.95146  25029830.620                    25029834.480
      3608.627        2811.918          38.850          37.600



 115921496.393 8  90328447.31547  22059129.420                    22059132.380
      -817.011        -636.632          49.900          47.350    86564756.828 8
  22059133.680        -610.152          51.500


 126140728.806 8                  24003778.960
     -1380.602                          52.750                    94196034.590 8
  24003783.500       -1030.949          53.200    96653304.821 8  24003779.900
     -1057.825          53.400    95424673.859 9  24003782.140       -1044.392
        56.250
 130566256.259 8                  24845939.140
      -809.077                          49.950                    97500781.583 8
  24845946.540        -604.169          51.250   100044270.737 8  24845942.280
      -619.954          50.100    98772521.312 8  24845945.080        -612.007
        53.800
 138104533.083 7                  26280434.640
     -2982.504                          45.000                   103129987.165 7
  26280443.420       -2227.186          46.300   105820333.005 8  26280443.000
     -2285.163          48.600   104475163.232 8  26280442.620       -2256.152
        50.300
 136578749.621 6                  25990058.980
      -722.438                          41.200                   101990701.763 6
  25990063.840        -539.337          41.250   104651299.162 6  25990062.660
      -553.437          41.200   103321006.615 7  25990062.640        -546.428
        44.300
 147218353.895 6                  28014743.060
     -2523.818                          39.300                   109935774.627 7
  28014755.640       -1884.758          42.550   112803651.382 7  28014751.540
     -1933.840          43.000   111369701.165 7  28014754.540       -1909.381
        45.800
 145610239.466 7                  27708701.080
      2472.961                          43.750                   108734985.240 6
  27708710.660        1846.678          40.700   111571538.027 7  27708709.920
      1894.871          43.200   110153254.788 7  27708710.400        1870.728
        44.900
 126216074.357 8                  24018099.540
      1063.548                          52.750                    94252324.897 8
  24018104.000         794.200          52.800    96711088.225 8  24018102.140
       814.907          53.750    95481715.213 9  24018103.540         804.564
        56.250
 145864884.391 7                  27757158.820
      3145.458                          42.350                   108925144.448 7
  27757174.140        2348.855          42.250   111766655.329 7  27757170.500
      2410.233          42.800   110345888.539 7  27757172.300        2379.550
        45.600
 137439837.580 8                  26153914.120
      1752.592                          48.400                   102633742.524 8
  26153924.380        1308.775          48.850   105311101.364 7  26153919.960
      1342.970          47.200   103972415.596 8  26153922.320        1325.916
        51.100
 24  2  4 12 26 30.0000000  0 19G03G06G11G12G24G25G28G29G31G32E02E07
                                E08E11E25E27E30E34E36
 133197975.144 5 103790654.44145  25346731.400                    25346740.140
       -89.546         -69.774          35.500          34.400    99466054.158 7
  25346742.440         -66.726          46.900


 123756906.508 7  96434019.86947  23550140.380                    23550145.500
      -489.683        -381.570          43.750          43.800    92415976.374 7
  23550147.440        -365.668          45.950


 123728978.451 7  96412242.05746  23544824.260                    23544828.560
      1581.695        1232.491          44.900          40.850    92395108.909 8
  23544834.080        1181.140          48.600


 108567906.017 8  84598401.40348  20659769.400                    20659768.240
     -1596.640       -1244.135          51.050          50.900



 124643539.208 7  97124827.39747  23718888.880                    23718895.140
     -3594.269       -2800.734          42.950          42.700    93077971.069 7
  23718896.580       -2683.975          47.800


 104462229.654 8  81399179.01648  19878476.780                    19878478.820
       604.829         471.297          49.950          50.100    78007564.614 9
  19878479.860         451.698          55.550


 119728791.294 7  93295152.77447  22783624.260                    22783626.560
      3053.063        2379.015          46.900          44.050    89407912.036 8
  22783630.560        2279.889          49.650


 119327550.073 7  92982589.70247  22707252.480                    22707257.100
      3354.927        2614.234          46.600          46.550



 131424404.173 6 102408633.77846  25009233.220                    25009237.220
      3607.639        2811.146          38.900          37.550



 115946292.152 8  90347768.67947  22063847.920                    22063850.760
      -836.119        -651.521          49.850          47.200    86583273.129 8
  22063852.040        -624.309          51.600


 126182218.643 8                  24011674.100
     -1385.518                          52.550                    94227017.234 8
  24011679.040       -1034.588          53.350    96685095.715 8  24011675.320
     -1061.569          53.850    95456060.627 9  24011677.380       -1048.099
        56.300
 130590732.136 8                  24850596.580
      -822.829                          49.650                    97519059.034 8
  24850604.340        -614.419          51.450   100063024.994 8  24850599.800
      -630.486          50.400    98791037.166 8  24850602.760        -622.420
        53.800
 138194071.008 7                  26297473.100
     -2986.859                          45.850                   103196849.740 7
  26297482.000       -2230.480          46.350   105888939.839 8  26297481.600
     -2288.621          48.850   104542897.935 8  26297481.240       -2259.532
        50.200
 136600638.874 6                  25994224.060
      -736.769                          41.050                   102007047.713 6
  25994229.320        -550.133          41.250   104668071.518 6  25994227.720
      -564.500          41.300   103337565.767 7  25994227.920        -557.366
        44.050
 147294062.009 6                  28029149.920
     -2523.650                          37.750                   109992309.701 7
  28029162.680       -1884.320          42.700   112861661.312 7  28029158.320
     -1933.453          42.750   111426973.661 7  28029161.420       -1908.907
        45.550
 145536071.054 7                  27694587.300
      2471.605                          43.650                   108679599.889 6
  27694596.780        1845.645          40.700   111514707.812 7  27694595.900
      1893.812          43.950   110097147.001 7  27694596.400        1869.662
        44.950
 126184259.042 8                  24012045.200
      1057.418                          52.600                    94228566.761 8
  24012049.820         789.638          52.800    96686710.305 9  24012047.720
       810.254          54.100    95457647.186 9  24012049.280         799.946
        56.200
 145770516.997 7                  27739201.140
      3145.511                          42.300                   108854675.667 7
  27739216.480        2348.957          42.900   111694348.198 7  27739212.580
      2410.292          43.100   110274500.588 7  27739214.620        2379.638
        45.750
 137387435.770 7                  26143942.420
      1740.739                          47.750                   102594611.384 8
  26143952.640        1299.944          48.650   105270949.400 7  26143948.240
      1333.811          47.300   103932774.046 8  26143950.380        1316.846
        50.850
 24  2  4 12 27  0.0000000  0 19G03G06G11G12G24G25G28G29G31G32E02E07
                                E08E11E25E27E30E34E36
 133200947.497 6 103792970.49146  25347297.080                    25347305.400
      -108.322         -84.407          37.350          36.400    99468273.733 7
  25347308.120         -81.183          47.950


 123771901.964 7  96445704.69147  23552993.740                    23552998.820
      -509.916        -397.337          43.800          43.850    92427174.339 7
  23553001.960        -380.806          46.400


 123681775.670 7  96375460.73147  23535841.860                    23535846.040
      1565.220        1219.655          44.350          42.950    92359860.159 8
  23535851.840        1168.852          48.750


 108615985.072 8  84635865.57748  20668918.640                    20668917.360
     -1608.514       -1253.388          51.600          51.650



 124751450.557 7  97208913.99947  23739423.860                    23739430.100
     -3599.455       -2804.775          43.550          43.200    93158554.049 7
  23739431.600       -2688.062          47.550


 104444299.988 8  81385207.86048  19875064.860                    19875066.740
       590.519         460.145          50.500          50.500    77994175.595 9
  19875067.940         440.955          55.350


 119637313.426 7  93223871.43147  22766216.540                    22766218.440
      3045.598        2373.196          46.800          43.800    89339600.774 8
  22766223.100        2274.310          49.900


 119227050.308 7  92904278.36347  22688127.980                    22688132.480
      3345.239        2606.686          47.100          47.400



 131316210.229 6 102324326.81546  24988644.500                    24988648.420
      3605.739        2809.665          39.100          36.050



 115971668.550 8  90367542.49147  22068676.880                    22068679.720
      -855.580        -666.687          49.700          47.650    86602223.033 8
  22068680.900        -639.023          51.450


 126223869.377 8                  24019599.840
     -1391.166                          52.700                    94258120.036 8
  24019605.180       -1038.879          53.250    96717009.897 9  24019601.480
     -1065.980          54.000    95487569.119 9  24019603.280       -1052.419
        56.400
 130615635.186 8                  24855335.360
      -837.308                          49.850                    97537655.478 8
  24855343.500        -625.305          51.450   100082106.565 8  24855338.680
      -641.574          50.250    98809876.176 8  24855341.700        -633.444
        53.900
 138283756.231 7                  26314539.840
     -2991.992                          45.850                   103263822.334 7
  26314548.600       -2234.229          46.100   105957659.565 8  26314548.200
     -2292.594          48.450   104610744.101 8  26314547.880       -2263.402
        50.050
 136622975.079 6                  25998474.000
      -752.297                          41.300                   102023727.403 6
  25998479.660        -561.747          41.150   104685186.333 6  25998477.520
      -576.383          40.900   103354463.015 7  25998478.280        -568.969
        44.050
 147369771.273 6                  28043556.900
     -2523.583                          39.250                   110048845.649 7
  28043569.660       -1884.695          42.550   112919672.133 7  28043565.500
     -1933.688          43.050   111484247.045 7  28043568.680       -1909.211
        45.700
 145461957.778 7                  27680484.040
      2469.547                          43.650                   108624255.675 6
  27680493.280        1844.041          40.300   111457919.838 7  27680492.620
      1892.209          43.350   110041080.904 7  27680493.040        1868.133
        44.700
 126152641.517 8                  24006028.560
      1050.483                          52.800                    94204956.320 8
  24006033.280         784.468          52.700    96662483.944 9  24006030.920
       804.897          54.100    95433728.785 9  24006032.640         794.669
        56.250
 145676166.603 6                  27721246.540
      3144.657                          41.550                   108784219.653 7
  27721262.020        2348.224          42.950   111622054.165 7  27721257.940
      2409.434          42.300   110203125.565 7  27721260.080        2378.813
        45.650
 137335401.494 7                  26134040.500
      1728.238                          47.850                   102555754.716 7
  26134050.660        1290.591          47.950   105231079.055 7  26134046.360
      1324.295          47.300   103893410.540 8  26134048.380        1307.383
        50.650
 24  2  4 12 27 30.0000000  0 19G03G06G11G12G24G25G28G29G31G32E02E07
                                E08E11E25E27E30E34E36
 133204489.362 6 103795730.35946  25347971.140                    25347979.180
      -127.185         -99.111          36.950          36.800    99470918.595 7
  25347982.020         -94.920          46.150


 123787494.976 7  96457855.13547  23555960.980                    23555966.100
      -529.449        -412.557          43.750          43.750    92438818.524 7
  23555970.160        -395.251          46.850


 123635059.558 7  96339058.63647  23526952.120                    23526955.980
      1549.455        1207.370          45.600          42.400    92324974.834 8
  23526962.260        1157.090          49.150


 108664417.342 8  84673604.99048  20678135.140                    20678133.740
     -1619.706       -1262.109          51.450          51.650



 124859513.654 7  97293118.82947  23759987.640                    23759993.820
     -3604.216       -2808.484          43.400          43.350    93239250.299 7
  23759995.460       -2691.437          47.900


 104426794.674 8  81371567.37648  19871733.780                    19871735.460
       576.908         449.539          50.900          50.750    77981103.469 9
  19871736.920         430.779          55.400


 119546053.316 7  93152759.76247  22748850.220                    22748851.800
      3038.828        2367.922          46.650          43.550    89271452.120 8
  22748857.040        2269.238          50.100


 119126837.170 7  92826190.32647  22669058.060                    22669062.320
      3336.192        2599.635          47.450          47.350



 131208065.562 6 102240058.27545  24968065.240                    24968069.040
      3604.638        2808.813          39.300          33.850



 115997626.970 8  90387769.83347  22073616.620                    22073619.460
      -874.513        -681.438          49.800          46.600    86621607.561 8
  22073620.600        -653.029          51.450


 126265682.987 8                  24027556.600
     -1396.015                          52.900                    94289344.460 8
  24027562.200       -1042.474          53.250    96749048.877 8  24027558.580
     -1069.719          53.900    95519200.819 9  24027560.160       -1056.087
        56.450
 130640967.237 8                  24860155.900
      -851.088                          50.100                    97556572.275 8
  24860164.180        -635.579          51.600   100101516.847 8  24860159.340
      -652.141          50.150    98829039.714 8  24860162.300        -643.851
        53.950
 138373589.451 7                  26331634.640
     -2996.459                          45.850                   103330905.432 7
  26331643.320       -2237.617          46.100   106026492.665 8  26331642.820
     -2295.941          48.100   104678702.198 8  26331642.720       -2266.781
        49.950
 136645760.009 6                  26002809.500
      -766.545                          40.700                   102040742.202 6
  26002815.360        -572.217          41.550   104702644.988 6  26002812.620
      -587.335          40.600   103371699.742 7  26002814.100        -579.744
        44.150
 147445484.053 6                  28057964.380
     -2523.507                          39.600                   110105384.225 6
  28057977.340       -1884.324          41.800   112977685.649 7  28057973.520
     -1933.412          42.650   111541523.086 7  28057976.500       -1908.780
        45.300
 145387902.273 7                  27666391.640
      2468.103                          43.500                   108568954.631 6
  27666400.820        1842.894          40.900   111401176.139 7  27666399.820
      1890.964          43.450   109985058.531 7  27666400.720        1866.937
        45.050
 126121224.251 8                  24000050.120
      1044.385                          53.050                    94181495.426 8
  24000054.880         779.901          52.850    96638411.022 8  24000052.280
       800.221          53.950    95409961.880 9  24000054.140         790.034
        56.350
 145581837.736 7                  27703296.120
      3144.500                          42.850                   108713779.758 7
  27703311.740        2348.045          42.550   111549776.611 6  27703307.260
      2409.396          41.900   110131766.843 7  27703309.380        2378.701
        45.200
 137283738.851 7                  26124209.240
      1716.272                          47.750                   102517175.572 7
  26124219.360        1281.784          47.500   105191493.486 7  26124214.980
      1315.099          46.950   103854328.178 8  26124217.140        1298.515
        50.200
 24  2  4 12 28  0.0000000  0 19G03G06G11G12G24G25G28G29G31G32E02E07
                                E08E11E25E27E30E34E36
 133208597.536 6 103798931.49246  25348753.140                    25348760.860
      -146.957        -114.520          37.350          36.550    99473986.373 7
  25348763.800        -109.675          46.350


 123803682.149 7  96470468.54547  23559041.160                    23559046.620
      -550.028        -428.594          43.500          43.100    92450906.399 7
  23559050.680        -410.790          47.050


 123588829.201 7  96303035.05846  23518154.960                    23518158.440
      1532.127        1193.867          46.750          41.550    92290452.256 8
  23518164.960        1144.257          49.550


 108713197.934 8  84711615.81448  20687417.900                    20687416.460
     -1632.421       -1272.018          51.350          51.400



 124967723.747 7  97377438.23047  23780579.400                    23780585.500
     -3610.123       -2813.088          42.950          42.350    93320056.333 8
  23780587.520       -2695.731          48.200


 104409710.737 8  81358255.23248  19868482.900                    19868484.420
       561.898         437.844          50.850          50.750    77968345.999 9
  19868486.140         419.614          55.600


 119455010.113 7  93081817.10247  22731525.180                    22731526.440
      3030.763        2361.638          46.500          43.300    89203465.434 8
  22731532.200        2263.110          50.550


 119026910.172 7  92748325.24447  22650042.640                    22650046.580
      3325.556        2591.346          47.850          47.900



 131099968.791 6 102155827.09745  24947495.060                    24947498.880
      3601.832        2806.619          40.900          33.900



 116024163.309 8  90408447.50347  22078666.360                    22078669.220
      -894.605        -697.096          50.100          47.000    86641423.659 8
  22078670.300        -668.067          51.750


 126307655.943 8                  24035543.820
     -1402.312                          52.950                    94320687.874 8
  24035549.440       -1047.149          53.400    96781209.941 8  24035545.960
     -1074.461          53.800    95550953.060 9  24035547.340       -1060.799
        56.150
 130666724.625 8                  24865057.460
      -866.212                          50.200                    97575806.692 8
  24865065.780        -646.837          51.800   100121253.042 8  24865061.000
      -663.742          50.150    98848525.023 8  24865063.820        -655.285
        53.750
 138463565.712 7                  26348756.760
     -3002.149                          45.950                   103398095.345 7
  26348765.280       -2241.785          46.250   106095435.384 7  26348764.600
     -2300.305          47.800   104746768.517 8  26348764.780       -2271.117
        49.500
 136668989.988 6                  26007229.800
      -782.120                          40.700                   102058089.325 6
  26007235.840        -584.026          41.800   104720444.656 6  26007232.500
      -599.437          40.150   103389273.140 7  26007234.600        -591.687
        43.750
 147521196.965 6                  28072371.900
     -2524.380                          40.150                   110161922.990 6
  28072385.020       -1885.107          41.600   113035699.366 7  28072381.240
     -1934.234          42.100   111598799.325 7  28072384.320       -1909.588
        44.400
 145313901.694 7                  27652309.660
      2465.279                          42.650                   108513694.569 6
  27652318.880        1840.839          41.000   111344474.503 7  27652317.640
      1888.909          43.150   109929077.681 7  27652318.820        1864.934
        44.650
 126090004.209 8                  23994109.160
      1036.827                          52.800                    94158181.811 8
  23994114.060         774.304          53.100    96614489.224 8  23994111.280
       794.459          53.850    95386344.169 9  23994113.140         784.386
        56.100
 145487529.448 7                  27685349.820
      3142.627                          43.400                   108643355.187 7
  27685365.280        2346.854          42.250   111477514.831 7  27685360.680
      2408.021          42.300   110060423.665 7  27685362.520        2377.417
        44.800
 137232446.379 7                  26114448.380
      1703.090                          47.200                   102478872.895 7
  26114458.420        1271.686          47.450   105152191.585 7  26114453.860
      1304.880          46.700   103815525.890 8  26114456.380        1288.296
        49.800
 24  2  4 12 28 30.0000000  0 19G03G06G11G12G24G25G28G29G31G32E02E07
                                E08E11E25E27E30E34E36
 133213273.764 6 103802575.25946  25349643.060                    25349650.680
      -164.785        -128.400          36.150          36.850    99477478.318 7
  25349653.820        -123.439          46.300


 123820465.331 7  96483546.39747  23562234.740                    23562240.560
      -569.201        -443.530          42.600          42.750    92463439.354 7
  23562244.480        -425.172          46.850


 123543088.968 7  96267393.40246  23509451.060                    23509454.300
      1516.520        1181.707          47.300          41.900    92256295.698 8
  23509460.740        1132.479          49.400


 108762328.075 8  84749899.02948  20696767.120                    20696765.720
     -1643.483       -1280.637          51.450          51.450



 125076081.388 7  97461872.58047  23801199.260                    23801205.380
     -3614.344       -2816.377          43.150          42.850    93400972.544 7
  23801207.480       -2699.004          47.750


 104393050.407 8  81345273.16648  19865312.580                    19865313.920
       548.417         427.339          50.800          50.950    77955904.853 9
  19865315.780         409.461          55.200


 119364188.162 7  93011046.84447  22714242.220                    22714243.340
      3023.803        2356.213          45.750          44.550    89135643.966 8
  22714249.460        2258.000          50.650


 118927273.299 7  92670686.21647  22631082.380                    22631085.960
      3316.432        2584.234          47.800          47.850



 130991924.405 6 102071636.73446  24926934.840                    24926938.720
      3600.605        2805.670          41.950          36.550



 116051278.625 8  90429576.32247  22083826.300                    22083829.100
      -913.388        -711.730          50.200          46.550    86661672.107 8
  22083830.180        -682.144          51.550


 126349789.974 8                  24043561.780
     -1407.052                          52.850                    94352151.583 8
  24043567.220       -1050.754          53.050    96813494.442 8  24043563.860
     -1078.153          53.700    95582827.167 9  24043565.180       -1064.462
        56.000
 130692908.925 8                  24870040.280
      -879.849                          50.250                    97595359.903 8
  24870048.460        -657.031          51.350   100141316.342 8  24870043.980
      -674.208          50.300    98868333.277 8  24870046.580        -665.602
        53.650
 138553685.413 7                  26365906.120
     -3006.335                          45.650                   103465392.374 7
  26365914.480       -2245.041          45.800   106164488.020 7  26365913.560
     -2303.576          47.400   104814943.345 8  26365914.200       -2274.302
        49.200
 136692666.708 6                  26011735.080
      -796.714                          40.200                   102075770.034 7
  26011741.520        -594.941          42.000   104738586.575 6  26011737.560
      -610.573          40.350   103407184.459 7  26011740.080        -602.801
        44.050
 147596912.004 6                  28086779.900
     -2523.798                          40.000                   110218463.318 6
  28086793.180       -1884.648          41.550   113093714.663 6  28086789.420
     -1933.829          41.700   111656077.143 7  28086792.480       -1909.224
        44.250
 145239958.405 6                  27638238.460
      2463.867                          41.650                   108458477.315 6
  27638247.960        1839.865          41.000   111287816.799 7  27638246.320
      1887.779          42.900   109873140.200 7  27638247.900        1863.957
        44.600
 126058983.576 8                  23988206.020
      1030.761                          52.300                    94135017.110 8
  23988211.160         769.744          53.000    96590720.219 8  23988208.280
       789.812          53.800    95362877.318 9  23988210.080         779.751
        56.100
 145393245.945 7                  27667408.000
      3142.505                          43.000                   108572949.162 6
  27667423.240        2346.678          41.650   111405272.094 7  27667419.180
      2407.619          43.150   109989099.279 7  27667420.540        2377.217
        45.050
 137181527.820 7                  26104758.680
      1691.109                          47.250                   102440849.427 7
  26104768.580        1262.821          47.150   105113176.195 7  26104763.940
      1295.775          46.850   103777006.467 8  26104766.820        1279.264
        49.750
 24  2  4 12 29  0.0000000  0 19G03G06G11G12G24G25G28G29G31G32E02E07
                                E08E11E25E27E30E34E36
 133218517.335 5 103806661.19245  25350640.880                    25350648.460
      -184.222        -143.554          34.800          35.200    99481393.976 7
  25350651.580        -138.001          45.850


 123837843.797 7  96497088.10347  23565541.580                    23565547.700
      -589.719        -459.520          42.900          43.000    92476416.838 7
  23565551.480        -440.405          47.000


 123497840.677 7  96232135.08346  23500840.640                    23500843.880
      1499.501        1168.445          47.300          41.700    92222506.496 8
  23500849.900        1119.782          49.250


 108811806.042 8  84788453.26248  20706182.400                    20706181.040
     -1655.687       -1290.147          51.350          51.250



 125184584.617 7  97546420.38347  23821846.720                    23821852.980
     -3619.897       -2820.705          43.100          43.250    93481997.475 7
  23821855.180       -2703.044          47.950


 104376813.369 8  81332620.93148  19862222.760                    19862223.920
       533.537         415.743          50.900          50.950    77943779.789 9
  19862225.820         398.440          55.300


 119273589.244 7  92940450.38047  22697001.620                    22697002.860
      3015.605        2349.825          46.300          44.800    89067989.043 8
  22697009.220        2251.945          51.000


 118827928.727 8  92593274.93948  22612177.820                    22612180.940
      3305.911        2576.037          48.150          48.350



 130883933.445 6 101987488.05945  24906384.640                    24906389.000
      3598.371        2803.925          41.800          35.700



 116078971.459 8  90451155.15147  22089096.120                    22089098.980
      -933.320        -727.264          50.650          46.450    86682351.815 8
  22089099.980        -696.965          51.650


 126392084.231 8                  24051610.240
     -1413.063                          53.000                    94383734.939 8
  24051615.220       -1055.209          52.950    96845901.712 8  24051612.240
     -1082.708          53.400    95614822.476 9  24051613.520       -1068.966
        56.050
 130719519.121 8                  24875104.100
      -894.644                          50.450                    97615231.155 8
  24875112.020        -668.107          51.250   100161705.969 8  24875107.960
      -685.499          50.400    98888463.716 8  24875110.360        -676.768
        53.850
 138643946.320 7                  26383082.400
     -3011.710                          45.900                   103532794.852 7
  26383090.560       -2248.940          45.800   106233648.832 7  26383089.600
     -2307.565          47.250   104883224.990 8  26383090.480       -2278.262
        49.300
 136716789.005 6                  26016325.360
      -811.913                          41.800                   102093783.451 7
  26016332.120        -606.452          42.400   104757069.917 6  26016327.480
      -622.237          39.900   103425432.828 7  26016330.400        -614.337
        44.150
 147672628.484 6                  28101188.360
     -2524.492                          41.050                   110275004.741 6
  28101201.760       -1885.097          41.700   113151731.084 6  28101197.700
     -1934.276          41.700   111713356.077 7  28101200.900       -1909.775
        44.500
 145166072.333 7                  27624178.360
      2461.239                          42.550                   108403302.776 6
  27624188.080        1837.971          41.600   111231202.893 7  27624185.720
      1885.977          42.900   109817245.991 7  27624187.760        1861.856
        45.050
 126028162.013 8                  23982340.680
      1023.541                          52.300                    94112001.058 8
  23982345.900         764.285          53.000    96567103.744 8  23982343.140
       784.219          53.600    95339561.053 9  23982344.900         774.268
        56.200
 145298988.915 7                  27649471.120
      3140.782                          43.200                   108502562.941 7
  27649486.160        2345.552          42.750   111333049.652 7  27649482.540
      2406.620          43.350   109917794.954 7  27649483.740        2376.020
        45.950
 137130984.356 7                  26095140.380
      1678.020                          47.350                   102403106.088 7
  26095150.300        1252.947          46.950   105074448.225 7  26095145.460
      1285.703          46.850   103738770.815 8  26095148.600        1269.249
        49.900
 24  2  4 12 29 30.0000000  0 19G03G06G11G12G24G25G28G29G31G32E02E07
                                E08E11E25E27E30E34E36
 133224327.812 5 103811188.83045  25351746.460                    25351753.900
      -203.048        -158.221          35.800          35.050    99485732.975 7
  25351757.040        -151.559          44.100


 123855816.951 7  96511093.16247  23568961.900                    23568967.960
      -609.186        -474.691          43.250          43.250    92489838.343 7
  23568971.080        -454.669          46.300


 123453086.180 7  96197261.57747  23492323.880                    23492327.360
      1483.872        1156.269          46.400          42.000    92189086.072 8
  23492332.960        1108.006          49.050


 108861630.352 8  84827277.36948  20715663.520                    20715662.280
     -1666.367       -1298.469          51.000          50.800



 125293231.490 7  97631080.11247  23842521.660                    23842528.120
     -3623.884       -2823.812          43.150          43.250    93563129.685 7
  23842530.200       -2706.092          47.350


 104360999.404 8  81320298.36948  19859213.400                    19859214.600
       520.130         405.296          50.700          50.800    77931970.663 9
  19859216.500         388.496          55.400


 119183215.324 7  92870029.23647  22679803.880                    22679805.360
      3008.855        2344.565          46.100          44.550    89000502.129 8
  22679811.780        2246.866          50.950


 118728878.332 8  92516092.87248  22593329.120                    22593331.760
      3296.853        2568.978          48.600          48.750



 130775997.250 6 101903382.08446  24885844.960                    24885849.980
      3596.856        2802.749          41.200          36.250



 116107240.386 8  90473182.88347  22094475.500                    22094478.400
      -951.719        -741.600          50.550          46.600    86703461.718 8
  22094479.380        -710.637          51.450


 126434538.034 8                  24059688.800
     -1417.667                          52.050                    94415437.432 8
  24059693.500       -1058.622          52.850    96878431.229 8  24059690.900
     -1086.233          53.350    95646938.480 9  24059692.200       -1072.429
        56.050
 130746554.319 8                  24880248.780
      -908.046                          50.250                    97635419.778 8
  24880256.360        -678.165          50.900   100182421.261 8  24880252.880
      -695.812          50.750    98908915.673 8  24880255.020        -686.964
        53.850
 138734346.323 7                  26400285.040
     -3015.472                          45.250                   103600301.204 7
  26400293.120       -2251.832          45.450   106302916.245 7  26400292.160
     -2310.581          47.000   104951611.878 8  26400293.200       -2281.211
        49.200
 136741356.041 6                  26021000.400
      -825.999                          41.250                   102112128.949 7
  26021007.220        -616.882          42.350   104775893.998 6  26021002.180
      -632.950          40.350   103444017.631 7  26021005.400        -625.050
        44.400
 147748345.933 7                  28115597.140
     -2523.714                          42.700                   110331546.915 6
  28115610.620       -1884.691          41.950   113209748.279 6  28115606.320
     -1933.774          41.150   111770635.752 7  28115609.440       -1909.308
        44.550
 145092243.323 7                  27610129.020
      2460.125                          42.500                   108348170.855 6
  27610138.960        1837.091          41.900   111174632.769 7  27610136.300
      1884.977          43.100   109761394.966 7  27610138.620        1860.976
        45.450
 125997539.334 8                  23976513.140
      1017.628                          52.050                    94089133.519 8
  23976518.360         759.873          52.950    96543639.652 8  23976515.680
       779.706          53.500    95316395.239 9  23976517.560         769.793
        56.250
 145204760.136 7                  27631539.660
      3140.625                          43.500                   108432197.841 7
  27631554.340        2345.133          42.550   111260848.865 7  27631551.080
      2406.409          42.800   109846512.013 7  27631552.200        2375.703
        45.700
 137080817.322 7                  26085593.720
      1666.092                          47.100                   102365643.844 7
  26085603.700        1244.147          47.000   105036008.689 7  26085598.980
      1276.595          47.400   103700819.919 8  26085602.020        1260.424
        50.100
 24  2  4 12 30  0.0000000  0 19G03G06G11G12G24G25G28G29G31G32E02E07
                                E08E11E25E27E30E34E36
 133230706.916 5 103816159.52345  25352960.460                    25352967.860
      -222.631        -173.486          33.300          34.200    99490496.536 7
  25352970.860        -165.854          45.100


 123874386.491 7  96525562.93647  23572495.800                    23572501.520
      -628.745        -489.934          43.800          43.900    92503705.212 7
  23572503.920        -469.616          45.350


 123408829.906 7  96162776.30947  23483901.880                    23483905.500
      1467.095        1143.195          46.250          42.200    92156037.708 8
  23483911.000        1095.523          48.950


 108911802.401 8  84866372.46248  20725210.900                    20725209.760
     -1678.057       -1307.577          51.050          51.050



 125402022.637 7  97715852.25647  23863224.020                    23863230.680
     -3628.586       -2827.476          42.700          42.950    93644369.616 7
  23863232.600       -2709.685          47.300


 104345610.766 8  81308307.22948  19856285.020                    19856286.240
       506.062         394.334          50.550          50.400    77920479.159 9
  19856288.160         377.847          55.400


 119093070.851 7  92799786.85947  22662649.880                    22662651.480
      3000.928        2338.388          45.700          45.200    88933186.523 8
  22662657.920        2241.082          50.950


 118630126.402 8  92439143.37548  22574537.240                    22574539.380
      3286.971        2561.278          48.000          48.000



 130668120.174 6 101819322.19546  24865316.480                    24865321.660
      3595.217        2801.475          41.850          36.250



 116136086.510 8  90495660.37647  22099964.720                    22099967.660
      -970.952        -756.586          50.450          46.350    86725002.649 8
  22099968.560        -725.087          51.100


 126477153.137 8                  24067797.880
     -1423.103                          51.750                    94447260.385 8
  24067802.760       -1062.729          52.900    96911084.344 8  24067800.120
     -1090.427          53.100    95679176.515 9  24067801.580       -1076.562
        56.250
 130774016.112 8                  24885474.580
      -922.299                          50.000                    97655926.960 8
  24885481.740        -688.758          50.600   100203463.408 8  24885478.960
      -706.701          50.800    98929690.339 9  24885480.840        -697.737
        54.050
 138824885.804 7                  26417514.340
     -3020.133                          45.600                   103667911.713 7
  26417522.200       -2255.302          45.350   106372290.533 7  26417521.080
     -2314.184          46.850   105020104.271 8  26417522.460       -2284.657
        49.300
 136766369.482 6                  26025760.540
      -841.428                          41.950                   102130807.774 7
  26025767.200        -628.263          42.100   104795060.096 6  26025762.160
      -644.584          40.300   103462940.087 7  26025765.340        -636.455
        44.650
 147824066.372 6                  28130006.420
     -2524.044                          41.900                   110388091.283 6
  28130020.080       -1884.723          41.950   113267767.750 6  28130015.360
     -1933.976          41.250   111827917.667 7  28130018.760       -1909.244
        44.950
 145018473.897 7                  27596091.160
      2458.047                          42.300                   108293083.438 7
  27596101.380        1835.588          42.200   111118108.269 7  27596098.060
      1883.500          43.150   109705589.001 7  27596100.700        1859.621
        45.950
 125967117.763 8                  23970723.980
      1010.788                          51.900                    94066416.159 8
  23970729.080         754.820          52.950    96520329.657 8  23970726.400
       774.497          53.250    95293381.564 9  23970728.460         764.646
        56.450
 145110563.977 7                  27613614.480
      3139.359                          43.400                   108361857.054 6
  27613628.560        2344.280          41.900   111188673.024 7  27613625.820
      2405.532          42.450   109775253.686 7  27613626.640        2375.008
        45.600
 137031030.507 7                  26076119.420
      1653.215                          46.850                   102328465.547 7
  26076129.440        1234.548          46.900   104997860.513 7  26076125.200
      1266.765          47.850   103663156.686 8  26076127.780        1250.661
        50.650
 24  2  4 12 30 30.0000000  0 19G03G06G11G12G24G25G28G29G31G32E02E07
                                E08E11E25E27E30E34E36
 133237649.748 5 103821569.49945  25354281.720                    25354289.220
      -241.490        -188.177          34.950          33.550    99495681.067 7
  25354291.740        -179.755          44.700


 123893547.572 7  96540493.62847  23576142.280                    23576148.120
      -648.395        -505.245          44.300          44.700    92518013.776 7
  23576149.260        -484.210          45.900


 123365069.473 7  96128677.40446  23475574.420                    23475577.980
      1450.515        1130.275          46.250          41.800    92123359.616 8
  23475583.500        1083.153          49.100


 108962316.246 8  84905733.87948  20734823.280                    20734822.280
     -1689.351       -1316.378          50.850          50.700



 125510951.966 7  97800732.07547  23883952.920                    23883959.600
     -3633.452       -2831.268          44.000          44.200    93725712.728 7
  23883961.380       -2713.042          47.250


 104330643.072 8  81296644.08648  19853436.800                    19853437.920
       492.011         383.385          50.850          50.700    77909301.981 9
  19853439.900         367.421          55.450


 119003153.520 7  92729721.47247  22645539.160                    22645540.720
      2993.492        2332.594          46.500          45.450    88866040.548 8
  22645547.200        2235.432          50.950


 118531671.076 8  92362424.97548  22555801.780                    22555803.440
      3276.919        2553.444          48.200          48.250



 130560299.224 6 101735306.00646  24844798.700                    24844804.200
      3593.220        2799.910          41.650          37.700



 116165504.157 8  90518583.21447  22105562.720                    22105565.620
      -989.982        -771.414          49.950          46.900    86746970.353 8
  22105566.480        -739.255          50.950


 126519924.633 8                  24075936.900
     -1428.179                          52.050                    94479200.120 8
  24075942.000       -1066.483          53.000    96943857.294 8  24075939.200
     -1094.345          52.950    95711532.856 9  24075940.760       -1080.395
        56.100
 130801899.340 8                  24890780.600
      -936.388                          50.200                    97676748.843 8
  24890787.380        -699.148          50.400   100224828.473 8  24890785.140
      -717.442          50.950    98950783.811 8  24890786.820        -708.300
        53.900
 138915558.462 7                  26434768.920
     -3024.387                          45.400                   103735621.659 7
  26434776.760       -2258.531          45.200   106441766.853 7  26434775.600
     -2317.484          46.650   105088697.412 8  26434777.100       -2288.091
        49.100
 136791824.051 6                  26030604.740
      -855.784                          41.750                   102149815.964 7
  26030611.120        -638.896          42.050   104814564.166 6  26030606.300
      -655.610          40.150   103482196.208 7  26030609.240        -647.169
        44.500
 147899785.101 7                  28144415.380
     -2523.771                          42.650                   110444634.384 7
  28144429.160       -1884.637          42.450   113325785.916 6  28144424.520
     -1933.837          41.500   111885198.303 7  28144427.720       -1909.199
        45.200
 144944759.744 7                  27582063.840
      2456.304                          43.050                   108238037.290 7
  27582074.260        1834.169          42.750   111061626.110 7  27582070.460
      1882.109          43.600   109649824.854 7  27582073.300        1858.121
        46.150
 125936892.870 8                  23964972.380
      1004.329                          52.100                    94043845.659 8
  23964977.300         750.018          53.100    96497170.360 8  23964974.560
       769.557          53.100    95270516.662 9  23964976.800         759.813
        56.350
 145016397.945 7                  27595694.920
      3138.209                          42.800                   108291538.735 6
  27595708.120        2343.535          41.350   111116520.256 7  27595706.320
      2404.779          43.650   109704018.146 7  27595706.860        2374.171
        45.600
 136981620.971 7                  26066716.920
      1640.829                          47.250                   102291568.996 7
  26066726.900        1225.274          46.750   104960001.429 8  26066723.260
      1257.251          48.250   103625778.868 8  26066725.400        1241.250
        50.650
