     3.00           OBSERVATION DATA    M: Mixed            RINEX VERSION / TYPE
RTKCONV demo5 b34f.1                    20240204 165348 UTC PGM / RUN BY / DATE 
format: u-blox UBX                                          COMMENT             
log: C:\Users\oo\Desktop\divers\verniquet\Reseau\micro\prepaCOMMENT             
                                                            MARKER NAME         
                                                            MARKER NUMBER       
                                                            MARKER TYPE         
                                                            OBSERVER / AGENCY   
                                                            REC # / TYPE / VERS 
                                                            ANT # / TYPE        
  4200242.1944   178336.3691  4780647.4122                  APPROX POSITION XYZ 
        0.0000        0.0000        0.0000                  ANTENNA: DELTA H/E/N
G    4 C1C L1C D1C S1C                                      SYS / # / OBS TYPES 
E    4 C1X L1X D1X S1X                                      SYS / # / OBS TYPES 
  2024    02    04    15    19   42.0020000     GPS         TIME OF FIRST OBS   
  2024    02    04    16    20   12.0010000     GPS         TIME OF LAST OBS    
                                                            END OF HEADER       
> 2024 02 04 15 19 42.0020000  0 12                     
G18  22405758.225   117743049.0671       2787.652          44.000  
G25  23570215.664   123862323.1591      -3083.537          40.000  
G26  21611180.011   113567518.1551       2181.174          47.000  
G28  22264963.325   117003164.8361      -2326.408          42.000  
G29  21594402.165   113479355.6601      -1547.442          45.000  
G31  21726855.087   114175404.4371       -737.166          44.000  
E27  24373281.088   128082466.6441       1368.599          44.000  
E30  24855526.899   130616686.9311      -1220.612          44.000  
E15  25280641.051   132850674.0911       2558.366          43.000  
G05  24579959.521   129168565.5973       1861.334          38.000  
G16  23812082.829   125133345.2161       3445.806          39.000  
E34  24786501.115   130253950.5591       -268.506          44.000  
> 2024 02 04 15 19 43.0020000  0 12                     
G18  22405228.175   117740261.275        2787.576          46.000  
G25  23570802.410   123865406.796       -3083.618          41.000  
G26  21610764.960   113565336.967        2181.017          49.000  
G28  22265406.102   117005491.502       -2326.845          44.000  
G29  21594696.760   113480903.119       -1547.528          47.000  
G31  21726995.512   114176141.722        -737.630          46.000  
E27  24373020.980   128081097.994        1368.543          45.000  
E30  24855759.550   130617907.594       -1220.762          46.000  
E15  25280154.580   132848115.813        2558.030          45.000  
G05  24579605.332   129166703.8021       1860.907          40.000  
G16  23811427.070   125129899.505        3445.971          40.000  
E34  24786552.601   130254219.266        -268.969          46.000  
> 2024 02 04 15 19 44.0020000  0 12                     
G18  22404697.712   117737474.167        2786.157          46.000  
G25  23571389.291   123868490.848       -3085.034          41.000  
G26  21610350.384   113563156.370        2179.467          49.000  
G28  22265849.233   117007818.874       -2328.218          44.000  
G29  21594991.381   113482451.173       -1548.865          46.000  
G31  21727136.245   114176879.858        -739.236          46.000  
E27  24372760.509   128079729.783        1367.443          45.000  
E30  24855992.262   130619128.714       -1221.918          46.000  
E15  25279668.129   132845558.067        2556.864          45.000  
G05  24579251.056   129164843.223        1859.625          40.000  
G16  23810771.472   125126454.151        3444.595          41.000  
E34  24786603.960   130254488.658        -270.537          45.000  
> 2024 02 04 15 19 45.0020000  0 12                     
G18  22404167.795   117734688.284        2785.963          46.000  
G25  23571976.489   123871575.838       -3084.823          41.000  
G26  21609935.736   113560976.902        2179.545          48.000  
G28  22266292.515   117010147.486       -2328.509          44.000  
G29  21595286.032   113484000.360       -1549.076          46.000  
G31  21727277.295   114177619.402        -739.645          46.000  
E27  24372500.527   128078362.560        1367.875          45.000  
E30  24856224.742   130620350.826       -1221.386          46.000  
E15  25279181.567   132843001.416        2557.175          45.000  
G05  24578897.252   129162983.949        1858.716          40.000  
G16  23810116.094   125123009.701        3444.771          41.000  
E34  24786655.379   130254759.280        -270.404          45.000  
> 2024 02 04 15 19 46.0020000  0 12                     
G18  22403637.950   117731903.932        2784.875          46.000  
G25  23572563.699   123874662.089       -3085.512          41.000  
G26  21609521.374   113558798.871        2178.718          48.000  
G28  22266735.850   117012477.667       -2329.581          44.000  
G29  21595580.997   113485550.980       -1550.034          46.000  
G31  21727418.729   114178360.659        -740.829          46.000  
E27  24372240.874   128076996.645        1366.301          45.000  
E30  24856457.419   130621574.300       -1223.202          46.000  
E15  25278695.192   132840446.179        2555.599          45.000  
G05  24578543.643   129161126.228        1858.325          40.000  
G16  23809460.880   125119566.490        3443.594          41.000  
E34  24786707.175   130255031.431        -271.783          45.000  
> 2024 02 04 15 19 47.0020000  0 12                     
G18  22403108.305   117729119.752        2784.675          46.000  
G25  23573151.148   123877748.216       -3085.174          41.000  
G26  21609106.921   113556620.925        2178.539          48.000  
G28  22267179.548   117014808.031       -2329.970          44.000  
G29  21595876.176   113487101.669       -1550.181          46.000  
G31  21727559.963   114179102.277        -741.314          46.000  
E27  24371980.807   128075630.658        1366.200          45.000  
E30  24856690.345   130622797.695       -1223.281          46.000  
E15  25278208.595   132837890.972        2555.364          45.000  
G05  24578190.050   129159268.748        1857.837          40.000  
G16  23808805.785   125116123.109        3443.992          41.000  
E34  24786759.173   130255303.788        -272.433          45.000  
> 2024 02 04 15 19 48.0020000  0 12                     
G18  22402579.195   117726337.308        2783.015          46.000  
G25  23573739.061   123880835.854       -3087.346          42.000  
G26  21608692.746   113554444.627        2176.921          48.000  
G28  22267623.401   117017140.156       -2331.484          44.000  
G29  21596171.591   113488654.022       -1551.787          46.000  
G31  21727701.578   114179845.815        -743.064          46.000  
E27  24371721.137   128074266.161        1365.012          45.000  
E30  24856923.200   130624022.609       -1224.505          46.000  
E15  25277722.718   132835337.363        2554.223          45.000  
G05  24577837.104   129157413.073        1856.433          40.000  
G16  23808150.672   125112681.173        3442.491          41.000  
E34  24786811.264   130255577.851        -273.465          45.000  
> 2024 02 04 15 19 49.0020000  0 12                     
G18  22402049.635   117723554.754        2782.037          46.000  
G25  23574326.579   123883923.079       -3087.766          42.000  
G26  21608278.605   113552268.127        2175.957          48.000  
G28  22268067.352   117019472.182       -2332.612          44.000  
G29  21596466.884   113490206.157       -1552.782          46.000  
G31  21727843.350   114180589.415        -744.338          46.000  
E27  24371461.336   128072901.297        1364.438          45.000  
E30  24857156.575   130625247.202       -1225.091          46.000  
E15  25277236.980   132832783.525        2553.200          45.000  
G05  24577484.241   129155557.354        1855.212          40.000  
G16  23807495.684   125109238.793        3441.705          41.000  
E34  24786863.156   130255851.841        -274.581          45.000  
> 2024 02 04 15 19 50.0020000  0 12                     
G18  22401520.318   117720773.079        2785.648          46.000  
G25  23574914.196   123887010.904       -3083.953          42.000  
G26  21607864.393   113550092.402        2179.710          48.000  
G28  22268511.148   117021805.099       -2328.994          44.000  
G29  21596762.552   113491759.073       -1549.171          46.000  
G31  21727985.220   114181334.076        -740.985          46.000  
E27  24371201.755   128071537.096        1368.562          45.000  
E30  24857389.618   130626472.440       -1220.638          46.000  
E15  25276751.118   132830230.420        2557.438          45.000  
G05  24577131.504   129153702.598        1858.087          40.000  
G16  23806840.874   125105796.979        3445.850          41.000  
E34  24786915.692   130256126.701        -270.396          45.000  
> 2024 02 04 15 19 51.0020000  0 12                     
G18  22400991.103   117717990.053        2782.051          46.000  
G25  23575501.703   123890097.099       -3087.023          41.000  
G26  21607450.110   113547915.256        2176.224          48.000  
G28  22268954.827   117024136.711       -2332.435          43.000  
G29  21597057.864   113493310.546       -1552.223          46.000  
G31  21728127.326   114182077.568        -744.544          46.000  
E27  24370941.989   128070171.307        1364.953          45.000  
E30  24857622.324   130627696.140       -1224.545          45.000  
E15  25276264.933   132827675.851        2553.636          44.000  
G05  24576777.841   129151846.491        1855.377          39.000  
G16  23806185.699   125102353.503        3442.760          40.000  
E34  24786967.685   130256400.238        -274.358          45.000  
> 2024 02 04 15 19 52.0020000  0 12                     
G18  22400461.823   117715208.834        2780.159          46.000  
G25  23576089.562   123893184.825       -3088.425          41.000  
G26  21607036.243   113545739.812        2174.440          48.000  
G28  22269398.655   117026470.128       -2334.419          43.000  
G29  21597353.429   113494863.733       -1554.284          46.000  
G31  21728269.203   114182823.049        -746.679          46.000  
E27  24370682.568   128068807.085        1363.256          45.000  
E30  24857855.600   130628921.419       -1226.100          45.000  
E15  25275779.125   132825122.949        2551.896          44.000  
G05  24576424.901   129149992.300        1853.040          39.000  
G16  23805530.990   125098911.535        3440.921          40.000  
E34  24787020.143   130256675.580        -276.236          45.000  
> 2024 02 04 15 19 53.0020000  0 12                     
G18  22399933.173   117712430.218        2777.157          46.000  
G25  23576677.652   123896274.910       -3091.146          41.000  
G26  21606622.542   113543566.897        2171.259          48.000  
G28  22269842.958   117028806.192       -2337.601          43.000  
G29  21597649.701   113496419.429       -1557.248          46.000  
G31  21728411.994   114183571.317        -750.037          46.000  
E27  24370423.604   128067445.211        1360.529          45.000  
E30  24858088.918   130630149.074       -1228.854          45.000  
E15  25275293.813   132822572.507        2549.145          44.000  
G05  24576072.540   129148140.741        1850.482          39.000  
G16  23804876.500   125095471.835        3438.239          40.000  
E34  24787072.947   130256953.526        -279.407          45.000  
> 2024 02 04 15 19 54.0020000  0 12                     
G18  22399404.453   117709652.301        2782.720          46.000  
G25  23577265.724   123899365.419       -3085.873          41.000  
G26  21606209.172   113541394.580        2177.126          48.000  
G28  22270287.755   117031142.961       -2331.950          43.000  
G29  21597945.434   113497975.723       -1551.327          46.000  
G31  21728554.612   114184320.467        -744.493          46.000  
E27  24370164.414   128066083.839        1366.348          45.000  
E30  24858322.511   130631377.233       -1223.033          45.000  
E15  25274808.666   132820022.661        2554.822          44.000  
G05  24575720.229   129146289.973        1855.371          39.000  
G16  23804221.984   125092032.522        3444.196          40.000  
E34  24787126.210   130257232.206        -273.869          45.000  
> 2024 02 04 15 19 55.0020000  0 12                     
G18  22398875.820   117706874.273        2782.796          45.000  
G25  23577853.792   123902455.543       -3084.928          41.000  
G26  21605795.823   113539222.063        2177.583          48.000  
G28  22270732.528   117033479.621       -2331.876          43.000  
G29  21598241.379   113499531.824       -1551.027          46.000  
G31  21728697.510   114185069.657        -744.549          46.000  
E27  24369905.344   128064722.088        1366.231          44.000  
E30  24858556.425   130632605.078       -1223.359          45.000  
E15  25274323.779   132817472.572        2554.563          44.000  
G05  24575368.415   129144439.117        1855.780          39.000  
G16  23803567.566   125088592.777        3444.590          40.000  
E34  24787179.413   130257510.752        -273.990          45.000  
> 2024 02 04 15 19 56.0020000  0 12                     
G18  22398346.503   117704092.840        2779.986          45.000  
G25  23578441.256   123905541.965       -3087.740          42.000  
G26  21605381.709   113537046.050        2174.452          48.000  
G28  22271176.628   117035812.924       -2335.013          43.000  
G29  21598536.870   113501084.430       -1554.187          46.000  
G31  21728839.642   114185815.639        -747.363          46.000  
E27  24369645.621   128063356.667        1364.416          44.000  
E30  24858789.494   130633829.258       -1225.152          45.000  
E15  25273837.564   132814918.921        2552.440          44.000  
G05  24575015.515   129142584.956        1852.368          39.000  
G16  23802911.870   125085149.324        3442.260          40.000  
E34  24787231.526   130257785.905        -276.260          45.000  
> 2024 02 04 15 19 57.0020000  0 12                     
G18  22397817.890   117701312.727        2779.783          44.000  
G25  23579028.885   123908629.405       -3087.426          41.000  
G26  21604967.688   113534871.247        2174.443          48.000  
G28  22271621.028   117038147.534       -2334.910          43.000  
G29  21598832.706   113502638.226       -1553.960          46.000  
G31  21728981.874   114186563.133        -748.033          46.000  
E27  24369385.918   128061992.360        1363.979          44.000  
E30  24859022.699   130635054.563       -1225.679          44.000  
E15  25273351.665   132812366.458        2552.112          43.000  
G05  24574663.053   129140732.127        1852.600          39.000  
G16  23802256.998   125081706.875        3442.324          40.000  
E34  24787284.259   130258062.396        -276.988          45.000  
> 2024 02 04 15 19 58.0020000  0 12                     
G18  22397289.137   117698532.929        2779.796          45.000  
G25  23579616.412   123911716.935       -3087.389          41.000  
G26  21604553.895   113532696.650        2174.987          47.000  
G28  22272064.981   117040482.527       -2334.847          43.000  
G29  21599128.149   113504192.247       -1553.915          46.000  
G31  21729124.549   114187311.116        -748.207          46.000  
E27  24369126.318   128060628.136        1364.376          44.000  
E30  24859255.572   130636279.971       -1225.252          44.000  
E15  25272865.718   132809814.199        2552.309          43.000  
G05  24574310.264   129138879.725        1852.521          39.000  
G16  23801601.764   125078264.421        3442.523          40.000  
E34  24787336.973   130258339.205        -276.767          46.000  
> 2024 02 04 15 19 59.0020000  0 12                     
G18  22396759.765   117695753.513        2779.265          45.000  
G25  23580203.819   123914804.567       -3088.076          41.000  
G26  21604139.806   113530522.430        2173.785          47.000  
G28  22272509.133   117042817.910       -2335.896          43.000  
G29  21599423.895   113505746.598       -1554.621          46.000  
G31  21729267.083   114188059.694        -749.229          46.000  
E27  24368866.661   128059264.063        1363.748          44.000  
E30  24859488.546   130637505.557       -1225.693          44.000  
E15  25272379.882   132807262.192        2551.735          44.000  
G05  24573958.064   129137027.767        1851.563          40.000  
G16  23800946.890   125074822.105        3441.661          40.000  
E34  24787389.623   130258616.420        -277.492          46.000  
> 2024 02 04 15 20 00.0020000  0 12                     
G18  22396231.109   117692974.620        2778.360          45.000  
G25  23580791.351   123917892.439       -3088.082          41.000  
G26  21603726.074   113528348.590        2173.537          47.000  
G28  22272953.479   117045153.821       -2336.253          42.000  
G29  21599719.921   113507301.349       -1555.075          46.000  
G31  21729409.734   114188808.909        -749.844          46.000  
E27  24368606.779   128057900.277        1363.209          44.000  
E30  24859721.607   130638731.449       -1226.166          44.000  
E15  25271894.491   132804710.564        2551.255          44.000  
G05  24573605.744   129135176.355        1851.288          39.000  
G16  23800291.826   125071379.905        3442.208          40.000  
E34  24787442.423   130258894.157        -278.154          45.000  
> 2024 02 04 15 20 01.0020000  0 12                     
G18  22395702.326   117690196.440        2777.502          45.000  
G25  23581379.070   123920980.740       -3088.948          41.000  
G26  21603312.253   113526175.372        2172.430          47.000  
G28  22273398.090   117047490.485       -2337.137          44.000  
G29  21600016.317   113508856.720       -1555.909          45.000  
G31  21729552.518   114189559.083        -750.928          47.000  
E27  24368347.589   128056536.946        1362.863          45.000  
E30  24859954.746   130639957.808       -1226.960          44.000  
E15  25271409.098   132802159.528        2550.405          43.000  
G05  24573253.409   129133325.722        1850.006          39.000  
G16  23799636.758   125067938.155        3441.237          40.000  
E34  24787495.240   130259172.622        -279.133          45.000  
> 2024 02 04 15 20 02.0020000  0 12                     
G18  22395174.156   117687420.130        2775.758          46.000  
G25  23581967.046   123924070.607       -3090.297          42.000  
G26  21602899.429   113524003.915        2170.994          47.000  
G28  22273843.411   117049829.020       -2339.094          44.000  
G29  21600312.724   113510413.842       -1557.546          46.000  
G31  21729696.042   114190311.246        -752.660          47.000  
E27  24368088.440   128055175.227        1361.411          45.000  
E30  24860188.727   130641185.835       -1228.439          44.000  
E15  25270924.148   132799610.201        2548.905          44.000  
G05  24572901.711   129131477.025        1848.108          39.000  
G16  23798982.312   125064497.917        3440.151          41.000  
E34  24787548.799   130259452.954        -280.885          45.000  
> 2024 02 04 15 20 03.0020000  0 12                     
G18  22394645.951   117684644.326        2776.395          46.000  
G25  23582555.160   123927160.771       -3089.653          42.000  
G26  21602486.720   113521832.933        2171.625          47.000  
G28  22274288.861   117052168.123       -2338.738          45.000  
G29  21600609.408   113511971.411       -1556.905          46.000  
G31  21729839.722   114191064.153        -752.531          47.000  
E27  24367829.664   128053813.825        1362.121          45.000  
E30  24860422.427   130642414.153       -1227.619          44.000  
E15  25270439.435   132797061.294        2549.570          44.000  
G05  24572549.958   129129628.920        1848.669          40.000  
G16  23798328.001   125061057.948        3440.702          42.000  
E34  24787602.577   130259733.809        -280.260          46.000  
> 2024 02 04 15 20 04.0020000  0 12                     
G18  22394117.820   117681868.551        2774.933          46.000  
G25  23583143.273   123930250.637       -3090.342          42.000  
G26  21602073.695   113519661.842        2170.448          47.000  
G28  22274734.169   117054507.247       -2339.996          44.000  
G29  21600905.783   113513528.919       -1558.368          45.000  
G31  21729983.172   114191817.233        -753.997          46.000  
E27  24367570.581   128052452.181        1361.189          45.000  
E30  24860656.177   130643642.303       -1228.905          44.000  
E15  25269954.380   132794512.264        2548.235          45.000  
G05  24572198.317   129127780.881        1847.217          39.000  
G16  23797673.570   125057617.670        3439.766          42.000  
E34  24787656.075   130260014.689        -281.297          45.000  
> 2024 02 04 15 20 05.0020000  0 12                     
G18  22393589.733   117679093.604        2774.269          46.000  
G25  23583731.383   123933341.088       -3090.842          42.000  
G26  21601660.586   113517491.519        2169.693          48.000  
G28  22275179.766   117056847.197       -2340.682          45.000  
G29  21601202.541   113515087.142       -1558.849          46.000  
G31  21730126.722   114192571.327        -754.886          47.000  
E27  24367311.908   128051091.116        1360.618          45.000  
E30  24860890.235   130644871.033       -1229.096          44.000  
E15  25269469.585   132791963.930        2547.704          44.000  
G05  24571846.496   129125933.729        1846.674          39.000  
G16  23797019.167   125054177.887        3439.535          42.000  
E34  24787709.669   130260296.416        -282.325          45.000  
> 2024 02 04 15 20 06.0020000  0 12                     
G18  22393061.720   117676318.956        2774.220          46.000  
G25  23584319.577   123936431.548       -3090.576          42.000  
G26  21601247.840   113515321.375        2169.777          48.000  
G28  22275625.011   117059187.467       -2340.580          45.000  
G29  21601499.642   113516645.559       -1558.696          46.000  
G31  21730270.499   114193325.901        -754.956          47.000  
E27  24367053.038   128049730.126        1360.676          45.000  
E30  24861123.974   130646099.858       -1229.099          44.000  
E15  25268984.475   132789415.761        2547.789          44.000  
G05  24571494.641   129124086.958        1846.515          39.000  
G16  23796364.784   125050738.096        3440.059          42.000  
E34  24787763.330   130260578.424        -282.505          45.000  
> 2024 02 04 15 20 07.0020000  0 12                     
G18  22392533.835   117673544.800        2773.607          46.000  
G25  23584908.103   123939522.216       -3090.931          42.000  
G26  21600835.184   113513151.646        2169.258          48.000  
G28  22276070.456   117061528.249       -2341.372          45.000  
G29  21601795.984   113518204.375       -1559.216          46.000  
G31  21730414.140   114194081.135        -755.722          47.000  
E27  24366794.075   128048369.383        1360.400          45.000  
E30  24861357.595   130647328.949       -1229.538          45.000  
E15  25268499.737   132786867.963        2547.167          44.000  
G05  24571143.015   129122240.722        1845.581          39.000  
G16  23795710.291   125047298.498        3439.451          42.000  
E34  24787816.852   130260860.942        -283.194          45.000  
> 2024 02 04 15 20 08.0020000  0 12                     
G18  22392006.051   117670771.322        2773.015          46.000  
G25  23585496.547   123942613.296       -3091.304          42.000  
G26  21600422.567   113510982.489        2168.755          48.000  
G28  22276515.975   117063869.725       -2341.805          45.000  
G29  21602092.856   113519763.776       -1559.690          46.000  
G31  21730558.011   114194837.237        -756.574          47.000  
E27  24366534.987   128047009.081        1359.931          45.000  
E30  24861591.467   130648558.499       -1229.985          44.000  
E15  25268014.588   132784320.693        2546.811          44.000  
G05  24570791.790   129120395.227        1845.227          39.000  
G16  23795056.030   125043859.252        3438.890          42.000  
E34  24787870.821   130261144.146        -283.707          45.000  
> 2024 02 04 15 20 09.0020000  0 12                     
G18  22391478.226   117667998.306        2772.775          46.000  
G25  23586084.743   123945704.570       -3091.360          43.000  
G26  21600009.860   113508813.721        2168.494          48.000  
G28  22276961.739   117066211.700       -2342.233          45.000  
G29  21602389.656   113521323.556       -1559.870          46.000  
G31  21730701.667   114195593.977        -757.003          47.000  
E27  24366275.976   128045649.017        1359.977          45.000  
E30  24861825.455   130649788.314       -1230.058          44.000  
E15  25267530.237   132781773.765        2546.747          44.000  
G05  24570441.141   129118550.269        1844.720          39.000  
G16  23794401.658   125040420.165        3438.968          42.000  
E34  24787925.013   130261427.823        -284.024          45.000  
> 2024 02 04 15 20 10.0020000  0 12                     
G18  22390950.557   117665225.771        2772.062          45.000  
G25  23586673.064   123948796.049       -3091.755          42.000  
G26  21599597.202   113506645.330        2168.012          47.000  
G28  22277407.352   117068554.164       -2343.048          44.000  
G29  21602686.421   113522883.712       -1560.680          45.000  
G31  21730845.608   114196351.376        -757.942          46.000  
E27  24366017.387   128044289.174        1359.687          45.000  
E30  24862059.663   130651018.360       -1230.239          44.000  
E15  25267045.841   132779227.181        2546.354          43.000  
G05  24570090.293   129116705.853        1844.006          39.000  
G16  23793747.266   125036981.203        3438.717          41.000  
E34  24787979.277   130261711.970        -284.457          44.000  
> 2024 02 04 15 20 11.0020000  0 12                     
G18  22390422.769   117662453.778        2771.532          45.000  
G25  23587261.313   123951887.804       -3092.098          42.000  
G26  21599184.563   113504477.398        2167.501          47.000  
G28  22277853.118   117070897.198       -2343.628          44.000  
G29  21602983.495   113524444.310       -1561.054          45.000  
G31  21730989.840   114197109.495        -758.789          46.000  
E27  24365758.786   128042929.651        1359.148          45.000  
E30  24862293.703   130652248.767       -1230.814          44.000  
E15  25266561.506   132776681.024        2545.762          43.000  
G05  24569739.769   129114862.041        1843.127          40.000  
G16  23793092.770   125033542.491        3438.333          42.000  
E34  24788033.178   130261996.690        -285.213          44.000  
> 2024 02 04 15 20 12.0020000  0 12                     
G18  22389895.055   117659682.562        2770.840          45.000  
G25  23587849.512   123954980.031       -3092.597          42.000  
G26  21598772.029   113502310.139        2166.746          47.000  
G28  22278298.925   117073241.002       -2344.263          44.000  
G29  21603280.419   113526005.575       -1561.829          45.000  
G31  21731134.090   114197868.563        -759.540          46.000  
E27  24365500.069   128041570.650        1358.743          45.000  
E30  24862527.953   130653479.719       -1231.438          44.000  
E15  25266077.376   132774135.490        2545.148          43.000  
G05  24569389.155   129113019.039        1842.395          40.000  
G16  23792438.646   125030104.236        3437.968          42.000  
E34  24788087.745   130262282.173        -285.841          44.000  
> 2024 02 04 15 20 13.0020000  0 12                     
G18  22389367.923   117656911.923        2770.190          45.000  
G25  23588437.833   123958072.564       -3092.843          42.000  
G26  21598359.705   113500143.376        2166.300          47.000  
G28  22278745.103   117075585.414       -2344.896          44.000  
G29  21603577.706   113527567.335       -1562.285          45.000  
G31  21731278.609   114198628.398        -760.441          46.000  
E27  24365241.675   128040212.005        1358.252          45.000  
E30  24862762.429   130654711.020       -1231.533          44.000  
E15  25265593.152   132771590.419        2544.469          43.000  
G05  24569038.759   129111176.672        1842.114          40.000  
G16  23791784.666   125026666.257        3437.509          42.000  
E34  24788142.386   130262568.248        -286.459          44.000  
> 2024 02 04 15 20 14.0020000  0 12                     
G18  22388840.863   117654141.879        2769.933          45.000  
G25  23589026.331   123961165.406       -3092.598          42.000  
G26  21597947.443   113497977.108        2166.243          47.000  
G28  22279191.382   117077930.441       -2345.270          44.000  
G29  21603874.896   113529129.583       -1562.260          45.000  
G31  21731423.358   114199389.003        -760.849          46.000  
E27  24364983.176   128038853.702        1358.255          45.000  
E30  24862996.478   130655942.722       -1231.719          44.000  
E15  25265109.177   132769045.799        2544.450          43.000  
G05  24568688.223   129109334.986        1841.296          40.000  
G16  23791130.277   125023228.527        3437.802          42.000  
E34  24788196.582   130262854.933        -286.932          44.000  
> 2024 02 04 15 20 15.0020000  0 12                     
G18  22388313.755   117651372.441        2769.086          45.000  
G25  23589615.036   123964258.609       -3093.329          42.000  
G26  21597535.422   113495811.368        2165.573          47.000  
G28  22279637.800   117080276.085       -2346.022          44.000  
G29  21604172.102   113530692.366       -1563.162          45.000  
G31  21731567.951   114200150.397        -761.555          46.000  
E27  24364724.773   128037495.773        1357.798          45.000  
E30  24863230.869   130657174.795       -1232.155          44.000  
E15  25264625.125   132766501.660        2543.847          44.000  
G05  24568337.960   129107493.957        1840.607          40.000  
G16  23790476.225   125019791.097        3437.490          42.000  
E34  24788251.385   130263142.216        -287.423          44.000  
> 2024 02 04 15 20 16.0020000  0 12                     
G18  22387786.717   117648603.763        2768.840          45.000  
G25  23590203.627   123967352.265       -3093.229          42.000  
G26  21597123.407   113493646.305        2165.116          47.000  
G28  22280084.412   117082622.503       -2346.354          44.000  
G29  21604469.410   113532255.796       -1563.444          45.000  
G31  21731713.021   114200912.739        -762.357          46.000  
E27  24364466.366   128036138.366        1357.609          45.000  
E30  24863465.337   130658407.430       -1232.528          44.000  
E15  25264140.934   132763958.151        2543.586          44.000  
G05  24567988.024   129105653.763        1840.253          40.000  
G16  23789822.514   125016354.121        3437.388          42.000  
E34  24788306.300   130263430.287        -288.118          44.000  
> 2024 02 04 15 20 17.0020000  0 12                     
G18  22387259.963   117645835.557        2767.763          45.000  
G25  23590792.243   123970446.120       -3094.202          42.000  
G26  21596711.324   113491481.605        2164.219          47.000  
G28  22280530.978   117084969.403       -2347.214          44.000  
G29  21604766.973   113533819.571       -1564.018          45.000  
G31  21731858.174   114201675.718        -763.515          46.000  
E27  24364208.081   128034781.181        1356.801          45.000  
E30  24863700.193   130659640.296       -1233.337          44.000  
E15  25263656.863   132761414.969        2542.633          44.000  
G05  24567637.944   129103814.071        1839.429          40.000  
G16  23789168.604   125012917.300        3436.824          42.000  
E34  24788361.356   130263718.797        -288.920          44.000  
> 2024 02 04 15 20 18.0020000  0 12                     
G18  22386733.060   117643067.997        2767.133          45.000  
G25  23591381.076   123973540.362       -3094.555          42.000  
G26  21596299.314   113489317.464        2163.812          47.000  
G28  22280977.769   117087316.988       -2348.132          44.000  
G29  21605064.399   113535383.943       -1564.634          45.000  
G31  21732003.242   114202439.534        -764.451          46.000  
E27  24363950.197   128033424.418        1356.259          45.000  
E30  24863935.036   130660873.609       -1233.796          44.000  
E15  25263172.822   132758872.315        2542.219          44.000  
G05  24567288.063   129101975.129        1838.440          40.000  
G16  23788514.762   125009480.825        3435.885          42.000  
E34  24788416.433   130264008.007        -289.878          44.000  
> 2024 02 04 15 20 19.0020000  0 12                     
G18  22386206.537   117640301.404        2766.470          45.000  
G25  23591969.855   123976635.288       -3095.077          42.000  
G26  21595887.794   113487154.217        2162.972          47.000  
G28  22281424.988   117089665.547       -2348.841          44.000  
G29  21605362.148   113536949.157       -1565.235          45.000  
G31  21732148.761   114203204.476        -765.127          46.000  
E27  24363692.122   128032068.375        1355.892          45.000  
E30  24864169.599   130662107.659       -1234.220          44.000  
E15  25262689.362   132756330.485        2541.671          44.000  
G05  24566938.156   129100137.196        1837.628          40.000  
G16  23787860.889   125006044.966        3435.858          42.000  
E34  24788471.277   130264298.158        -290.476          44.000  
> 2024 02 04 15 20 20.0020000  0 12                     
G18  22385680.341   117637535.403        2765.234          45.000  
G25  23592558.842   123979730.493       -3095.552          42.000  
G26  21595476.093   113484991.457        2162.056          47.000  
G28  22281872.145   117092014.687       -2349.913          44.000  
G29  21605660.099   113538514.892       -1566.741          45.000  
G31  21732294.447   114203970.215        -766.666          46.000  
E27  24363434.188   128030712.678        1354.992          45.000  
E30  24864404.152   130663342.079       -1235.044          44.000  
E15  25262205.864   132753789.115        2540.641          44.000  
G05  24566588.569   129098299.912        1836.682          40.000  
G16  23787207.060   125002609.405        3434.872          42.000  
E34  24788526.884   130264588.910        -291.595          44.000  
> 2024 02 04 15 20 21.0020000  0 12                     
G18  22385154.073   117634770.218        2764.648          45.000  
G25  23593147.653   123982826.275       -3095.769          42.000  
G26  21595064.447   113482829.435        2161.547          47.000  
G28  22282319.540   117094364.687       -2350.422          44.000  
G29  21605958.042   113540081.323       -1566.912          45.000  
G31  21732440.466   114204736.926        -767.227          46.000  
E27  24363176.359   128029357.570        1354.802          45.000  
E30  24864639.337   130664577.117       -1235.429          43.000  
E15  25261722.691   132751248.430        2540.364          44.000  
G05  24566239.011   129096463.487        1836.169          39.000  
G16  23786553.331   124999174.336        3435.192          42.000  
E34  24788582.324   130264880.479        -291.894          44.000  
> 2024 02 04 15 20 22.0020000  0 12                     
G18  22384627.938   117632005.377        2764.751          45.000  
G25  23593736.871   123985922.134       -3095.732          42.000  
G26  21594653.208   113480667.641        2161.897          46.000  
G28  22282767.010   117096715.054       -2350.611          45.000  
G29  21606256.255   113541647.993       -1566.616          45.000  
G31  21732586.372   114205504.173        -767.398          46.000  
E27  24362918.964   128028002.563        1355.012          45.000  
E30  24864874.608   130665812.287       -1235.196          43.000  
E15  25261239.255   132748707.966        2540.593          44.000  
G05  24565889.592   129094627.482        1835.864          39.000  
G16  23785899.336   124995739.317        3434.955          42.000  
E34  24788638.046   130265172.420        -291.963          45.000  
> 2024 02 04 15 20 23.0020000  0 12                     
G18  22384101.966   117629241.124        2763.942          45.000  
G25  23594325.779   123989018.291       -3096.365          42.000  
G26  21594241.798   113478506.363        2160.853          46.000  
G28  22283214.586   117099066.006       -2351.315          45.000  
G29  21606554.639   113543215.159       -1567.504          45.000  
G31  21732732.423   114206272.164        -768.213          46.000  
E27  24362661.161   128026647.901        1354.398          45.000  
E30  24865109.756   130667047.794       -1235.885          43.000  
E15  25260755.976   132746167.941        2539.805          44.000  
G05  24565540.502   129092792.113        1835.187          40.000  
G16  23785245.638   124992304.544        3434.808          42.000  
E34  24788693.527   130265464.938        -292.778          45.000  
> 2024 02 04 15 20 24.0020000  0 12                     
G18  22383576.128   117626477.788        2762.896          45.000  
G25  23594914.730   123992115.066       -3097.122          42.000  
G26  21593830.653   113476345.895        2159.999          46.000  
G28  22283662.282   117101417.888       -2352.379          45.000  
G29  21606853.016   113544783.135       -1568.423          45.000  
G31  21732878.778   114207041.266        -769.713          46.000  
E27  24362403.360   128025293.910        1353.545          45.000  
E30  24865344.913   130668284.005       -1236.705          43.000  
E15  25260273.139   132743628.709        2538.785          44.000  
G05  24565191.738   129090957.742        1833.691          40.000  
G16  23784592.062   124988870.400        3433.650          42.000  
E34  24788749.455   130265758.383        -294.079          45.000  
> 2024 02 04 15 20 25.0020000  0 12                     
G18  22383050.351   117623715.399        2761.991          45.000  
G25  23595503.993   123995212.532       -3097.701          42.000  
G26  21593419.286   113474186.297        2159.143          46.000  
G28  22284110.459   117103770.744       -2353.223          45.000  
G29  21607151.325   113546351.959       -1569.062          45.000  
G31  21733025.532   114207811.473        -770.519          46.000  
E27  24362145.605   128023940.636        1353.075          45.000  
E30  24865580.260   130669520.955       -1237.180          44.000  
E15  25259790.132   132741090.297        2538.163          44.000  
G05  24564843.299   129089124.354        1833.099          41.000  
G16  23783938.536   124985436.866        3433.585          42.000  
E34  24788805.422   130266052.766        -294.698          45.000  
> 2024 02 04 15 20 26.0020000  0 12                     
G18  22382524.833   117620953.500        2761.844          45.000  
G25  23596093.303   123998310.191       -3097.388          42.000  
G26  21593008.395   113472027.064        2159.351          46.000  
G28  22284558.360   117106124.101       -2353.319          45.000  
G29  21607449.948   113547921.171       -1569.176          45.000  
G31  21733172.175   114208582.349        -770.840          46.000  
E27  24361887.970   128022587.602        1353.231          45.000  
E30  24865815.774   130670758.165       -1236.933          44.000  
E15  25259307.091   132738552.242        2538.158          44.000  
G05  24564494.621   129087291.528        1832.764          41.000  
G16  23783285.337   124982003.532        3433.372          42.000  
E34  24788861.366   130266347.647        -294.878          45.000  
> 2024 02 04 15 20 27.0020000  0 12                     
G18  22381999.041   117618191.992        2761.422          44.000  
G25  23596682.756   124001407.991       -3097.830          42.000  
G26  21592597.603   113469868.172        2158.900          46.000  
G28  22285006.449   117108477.870       -2353.856          45.000  
G29  21607748.670   113549490.687       -1569.636          45.000  
G31  21733318.934   114209353.805        -771.645          46.000  
E27  24361630.618   128021234.732        1352.924          45.000  
E30  24866050.951   130671995.562       -1237.275          43.000  
E15  25258824.287   132736014.452        2537.744          44.000  
G05  24564145.966   129085459.145        1832.391          41.000  
G16  23782631.912   124978570.254        3433.469          42.000  
E34  24788917.307   130266642.930        -295.305          45.000  
> 2024 02 04 15 20 28.0020000  0 12                     
G18  22381473.730   117615430.833        2760.965          44.000  
G25  23597272.215   124004505.869       -3097.939          42.000  
G26  21592186.629   113467709.528        2158.395          46.000  
G28  22285454.921   117110832.007       -2354.452          45.000  
G29  21608047.396   113551060.468       -1570.045          45.000  
G31  21733465.640   114210125.791        -772.341          46.000  
E27  24361373.385   128019881.982        1352.661          45.000  
E30  24866286.518   130673233.097       -1237.553          43.000  
E15  25258341.358   132733476.885        2537.456          44.000  
G05  24563797.505   129083627.198        1831.671          41.000  
G16  23781978.187   124975137.030        3433.195          42.000  
E34  24788973.714   130266938.574        -295.723          45.000  
> 2024 02 04 15 20 29.0020000  0 12                     
G18  22380948.359   117612670.248        2760.215          44.000  
G25  23597861.623   124007603.988       -3098.045          42.000  
G26  21591776.121   113465551.345        2158.019          46.000  
G28  22285902.912   117113186.715       -2354.994          45.000  
G29  21608346.050   113552630.692       -1570.574          45.000  
G31  21733612.745   114210898.507        -773.109          46.000  
E27  24361116.221   128018529.531        1352.197          45.000  
E30  24866522.022   130674470.954       -1237.983          44.000  
E15  25257858.731   132730939.732        2536.894          44.000  
G05  24563448.887   129081795.835        1831.226          40.000  
G16  23781324.971   124971704.045        3432.735          42.000  
E34  24789030.168   130267234.773        -296.554          45.000  
> 2024 02 04 15 20 30.0020000  0 12                     
G18  22380423.223   117609910.252        2759.697          44.000  
G25  23598451.207   124010702.476       -3098.828          42.000  
G26  21591365.280   113463393.697        2157.155          46.000  
G28  22286351.265   117115542.058       -2356.050          45.000  
G29  21608645.079   113554201.428       -1571.052          45.000  
G31  21733759.907   114211672.007        -773.954          46.000  
E27  24360858.937   128017177.454        1351.677          45.000  
E30  24866757.556   130675709.220       -1238.597          44.000  
E15  25257375.556   132728403.062        2536.243          44.000  
G05  24563100.203   129079965.173        1830.170          40.000  
G16  23780671.820   124968271.320        3432.648          42.000  
E34  24789086.585   130267531.589        -297.134          45.000  
> 2024 02 04 15 20 31.0020000  0 12                     
G18  22379898.202   117607150.792        2759.119          44.000  
G25  23599040.943   124013801.174       -3098.819          42.000  
G26  21590954.818   113461236.453        2157.015          46.000  
G28  22286799.339   117117897.913       -2356.062          45.000  
G29  21608943.857   113555772.570       -1571.179          45.000  
G31  21733907.274   114212446.213        -774.559          46.000  
E27  24360602.026   128015825.658        1351.655          45.000  
E30  24866993.311   130676947.778       -1238.661          44.000  
E15  25256893.069   132725866.779        2536.025          45.000  
G05  24562751.868   129078135.092        1829.712          40.000  
G16  23780018.560   124964838.851        3432.110          42.000  
E34  24789143.442   130267828.939        -297.672          45.000  
> 2024 02 04 15 20 32.0020000  0 12                     
G18  22379373.136   117604391.794        2758.573          44.000  
G25  23599630.638   124016900.083       -3099.292          42.000  
G26  21590544.550   113459079.604        2156.414          46.000  
G28  22287247.870   117120254.263       -2356.757          45.000  
G29  21609242.843   113557344.104       -1571.829          45.000  
G31  21734054.700   114213221.053        -775.297          46.000  
E27  24360344.422   128014474.102        1351.122          45.000  
E30  24867229.105   130678186.586       -1238.990          43.000  
E15  25256410.490   132723330.823        2535.712          44.000  
G05  24562403.828   129076305.529        1829.053          40.000  
G16  23779365.449   124961406.509        3431.855          42.000  
E34  24789200.255   130268126.747        -298.088          45.000  
> 2024 02 04 15 20 33.0020000  0 12                     
G18  22378848.201   117601633.378        2758.319          44.000  
G25  23600220.456   124019999.277       -3099.229          42.000  
G26  21590134.259   113456923.243        2156.070          46.000  
G28  22287696.350   117122611.206       -2357.124          45.000  
G29  21609542.171   113558916.119       -1572.332          45.000  
G31  21734202.336   114213996.661        -776.057          46.000  
E27  24360087.247   128013122.871        1351.126          45.000  
E30  24867464.700   130679425.752       -1239.237          43.000  
E15  25255927.710   132720795.329        2535.412          44.000  
G05  24562055.930   129074476.625        1828.424          40.000  
G16  23778712.080   124957974.434        3432.140          42.000  
E34  24789256.759   130268425.158        -298.653          45.000  
> 2024 02 04 15 20 34.0020000  0 12                     
G18  22378323.353   117598875.392        2757.566          44.000  
G25  23600810.539   124023098.632       -3099.730          42.000  
G26  21589724.179   113454767.230        2155.443          46.000  
G28  22288145.019   117124968.603       -2357.903          45.000  
G29  21609841.355   113560488.463       -1572.796          45.000  
G31  21734350.122   114214772.869        -776.877          46.000  
E27  24359830.081   128011771.849        1350.558          45.000  
E30  24867700.804   130680665.138       -1239.678          43.000  
E15  25255445.285   132718260.139        2534.593          44.000  
G05  24561707.643   129072648.175        1827.985          40.000  
G16  23778059.054   124954542.502        3431.608          42.000  
E34  24789313.660   130268723.997        -299.313          45.000  
> 2024 02 04 15 20 35.0020000  0 12                     
G18  22377798.341   117596118.048        2756.716          44.000  
G25  23601400.577   124026198.347       -3100.169          42.000  
G26  21589314.081   113452611.739        2155.090          46.000  
G28  22288593.631   117127326.645       -2358.633          45.000  
G29  21610140.373   113562061.324       -1573.230          45.000  
G31  21734498.032   114215549.886        -777.809          46.000  
E27  24359573.506   128010421.200        1350.243          45.000  
E30  24867936.473   130681904.945       -1240.310          44.000  
E15  25254962.652   132715725.437        2534.111          44.000  
G05  24561359.768   129070820.463        1827.155          40.000  
G16  23777406.025   124951110.895        3430.942          42.000  
E34  24789370.820   130269023.463        -299.959          45.000  
> 2024 02 04 15 20 36.0020000  0 12                     
G18  22377273.973   117593361.273        2756.811          44.000  
G25  23601990.556   124029298.344       -3099.944          42.000  
G26  21588903.781   113450456.749        2155.099          46.000  
G28  22289042.209   117129685.279       -2358.670          45.000  
G29  21610439.725   113563634.673       -1573.095          45.000  
G31  21734645.879   114216327.642        -777.617          46.000  
E27  24359316.530   128009070.905        1350.470          45.000  
E30  24868172.629   130683145.106       -1240.052          43.000  
E15  25254480.496   132713191.187        2534.328          44.000  
G05  24561011.872   129068993.343        1827.240          40.000  
G16  23776753.151   124947679.503        3431.769          42.000  
E34  24789428.256   130269323.517        -300.032          45.000  
> 2024 02 04 15 20 37.0020000  0 12                     
G18  22376749.380   117590604.962        2755.638          44.000  
G25  23602580.519   124032398.534       -3100.544          42.000  
G26  21588493.583   113448302.117        2154.128          46.000  
G28  22289490.777   117132044.371       -2359.685          45.000  
G29  21610739.114   113565208.382       -1574.041          45.000  
G31  21734794.105   114217106.053        -779.099          46.000  
E27  24359059.900   128007720.815        1349.687          45.000  
E30  24868408.702   130684385.487       -1240.769          44.000  
E15  25253998.052   132710657.254        2533.479          44.000  
G05  24560664.155   129067166.760        1826.001          40.000  
G16  23776100.029   124944248.275        3430.801          42.000  
E34  24789485.159   130269624.027        -301.001          45.000  
> 2024 02 04 15 20 38.0020000  0 12                     
G18  22376225.100   117587849.394        2755.443          44.000  
G25  23603170.701   124035499.190       -3100.867          42.000  
G26  21588083.762   113446148.160        2153.743          46.000  
G28  22289939.854   117134404.237       -2360.122          45.000  
G29  21611038.623   113566782.738       -1574.365          45.000  
G31  21734942.544   114217885.376        -779.645          46.000  
E27  24358803.029   128006371.248        1349.482          45.000  
E30  24868645.002   130685626.421       -1241.096          44.000  
E15  25253516.007   132708123.947        2533.162          44.000  
G05  24560316.658   129065341.005        1825.647          40.000  
G16  23775447.035   124940817.496        3430.543          42.000  
E34  24789542.496   130269925.304        -301.438          45.000  
> 2024 02 04 15 20 39.0020000  0 12                     
G18  22375700.912   117585094.368        2754.995          44.000  
G25  23603761.092   124038600.103       -3100.868          43.000  
G26  21587673.913   113443994.649        2153.400          46.000  
G28  22290388.683   117136764.659       -2360.663          45.000  
G29  21611338.278   113568357.539       -1574.870          45.000  
G31  21735091.169   114218665.429        -780.321          46.000  
E27  24358545.974   128005021.972        1349.316          45.000  
E30  24868881.110   130686867.654       -1241.107          44.000  
E15  25253033.890   132705591.049        2532.862          44.000  
G05  24559969.424   129063515.822        1825.183          40.000  
G16  23774794.373   124937386.934        3430.507          42.000  
E34  24789599.909   130270227.114        -301.854          45.000  
> 2024 02 04 15 20 40.0020000  0 12                     
G18  22375176.797   117582340.000        2754.315          44.000  
G25  23604351.300   124041701.403       -3101.407          42.000  
G26  21587264.287   113441841.693        2152.619          46.000  
G28  22290837.853   117139125.738       -2361.104          45.000  
G29  21611638.025   113569932.899       -1575.572          45.000  
G31  21735239.793   114219446.297        -780.939          46.000  
E27  24358289.279   128003673.119        1348.823          45.000  
E30  24869117.630   130688109.349       -1241.715          44.000  
E15  25252552.022   132703058.677        2532.248          44.000  
G05  24559621.980   129061691.381        1824.213          40.000  
G16  23774141.576   124933956.703        3430.131          42.000  
E34  24789657.746   130270529.586        -302.509          45.000  
> 2024 02 04 15 20 41.0020000  0 12                     
G18  22374653.044   117579586.201        2753.340          44.000  
G25  23604941.872   124044802.987       -3101.878          43.000  
G26  21586854.800   113439689.205        2152.098          46.000  
G28  22291287.441   117141487.412       -2362.205          45.000  
G29  21611937.784   113571508.696       -1576.091          44.000  
G31  21735388.163   114220227.913        -782.124          46.000  
E27  24358032.536   128002324.580        1348.282          45.000  
E30  24869354.277   130689351.374       -1242.265          44.000  
E15  25252070.387   132700526.726        2531.496          44.000  
G05  24559274.934   129059867.551        1823.474          40.000  
G16  23773488.826   124930526.724        3429.753          42.000  
E34  24789715.185   130270832.624        -303.447          46.000  
> 2024 02 04 15 20 42.0020000  0 12                     
G18  22374129.195   117576832.928        2753.094          44.000  
G25  23605532.638   124047904.828       -3102.038          42.000  
G26  21586445.261   113437537.169        2151.781          46.000  
G28  22291737.026   117143849.622       -2362.496          45.000  
G29  21612237.660   113573084.938       -1576.267          44.000  
G31  21735536.944   114221010.244        -782.639          46.000  
E27  24357776.156   128000976.346        1348.224          45.000  
E30  24869590.682   130690593.714       -1242.346          44.000  
E15  25251588.888   132697995.188        2531.404          44.000  
G05  24558927.843   129058044.320        1822.986          40.000  
G16  23772836.446   124927096.972        3429.880          41.000  
E34  24789772.862   130271136.201        -303.623          46.000  
> 2024 02 04 15 20 43.0020000  0 12                     
G18  22373605.554   117574080.335        2752.244          44.000  
G25  23606122.896   124051007.063       -3102.390          43.000  
G26  21586035.805   113435385.715        2151.371          46.000  
G28  22292186.430   117146212.532       -2363.220          45.000  
G29  21612538.026   113574661.765       -1577.033          45.000  
G31  21735686.263   114221793.422        -783.554          46.000  
E27  24357519.371   127999628.539        1347.677          45.000  
E30  24869826.999   130691836.512       -1242.915          44.000  
E15  25251107.194   132695464.190        2530.838          44.000  
G05  24558580.725   129056221.816        1822.217          40.000  
G16  23772183.821   124923667.571        3429.364          41.000  
E34  24789830.815   130271440.468        -304.424          46.000  
> 2024 02 04 15 20 44.0020000  0 12                     
G18  22373081.844   117571328.305        2751.642          44.000  
G25  23606713.446   124054109.578       -3102.703          42.000  
G26  21585626.383   113433234.729        2150.750          46.000  
G28  22292636.031   117148576.007       -2363.709          45.000  
G29  21612838.580   113576239.047       -1577.457          45.000  
G31  21735835.332   114222577.345        -784.365          46.000  
E27  24357262.951   127998281.066        1347.256          45.000  
E30  24870063.707   130693079.645       -1243.183          44.000  
E15  25250625.010   132692933.620        2530.359          44.000  
G05  24558233.968   129054399.948        1821.393          40.000  
G16  23771531.200   124920238.438        3428.833          41.000  
E34  24789889.103   130271745.296        -304.986          46.000  
> 2024 02 04 15 20 45.0020000  0 12                     
G18  22372558.501   117568576.633        2751.569          44.000  
G25  23607303.634   124057212.171       -3102.595          42.000  
G26  21585217.239   113431084.027        2150.382          46.000  
G28  22293085.873   117150939.855       -2364.111          45.000  
G29  21613138.372   113577816.599       -1577.833          45.000  
G31  21735984.729   114223361.800        -784.867          46.000  
E27  24357006.712   127996933.711        1347.008          45.000  
E30  24870300.278   130694322.938       -1243.414          44.000  
E15  25250143.497   132690403.281        2530.127          44.000  
G05  24557887.439   129052578.524        1820.837          40.000  
G16  23770878.568   124916809.310        3429.077          41.000  
E34  24789947.042   130272050.488        -305.515          46.000  
> 2024 02 04 15 20 46.0020000  0 12                     
G18  22372034.892   117565825.561        2750.560          44.000  
G25  23607894.392   124060315.072       -3103.255          43.000  
G26  21584808.020   113428933.816        2149.640          46.000  
G28  22293535.714   117153304.308       -2364.992          45.000  
G29  21613438.675   113579394.621       -1578.568          45.000  
G31  21736133.951   114224147.022        -785.922          46.000  
E27  24356750.303   127995586.698        1346.568          45.000  
E30  24870537.029   130695566.593       -1243.984          44.000  
E15  25249661.901   132687873.399        2529.387          44.000  
G05  24557540.875   129050757.718        1820.270          40.000  
G16  23770226.081   124913380.498        3428.319          41.000  
E34  24790005.273   130272356.254        -306.130          46.000  
> 2024 02 04 15 20 47.0020000  0 12                     
G18  22371511.405   117563075.063        2750.412          44.000  
G25  23608484.824   124063418.283       -3103.327          43.000  
G26  21584398.756   113426784.102        2149.353          46.000  
G28  22293985.842   117155669.364       -2365.469          45.000  
G29  21613738.830   113580973.132       -1578.846          45.000  
G31  21736283.527   114224932.996        -786.498          46.000  
E27  24356493.951   127994240.036        1346.328          45.000  
E30  24870773.185   130696810.618       -1244.260          44.000  
E15  25249180.668   132685343.963        2529.197          44.000  
G05  24557194.615   129048937.575        1819.995          40.000  
G16  23769573.632   124909951.937        3428.441          41.000  
E34  24790063.686   130272662.632        -306.731          46.000  
> 2024 02 04 15 20 48.0020000  0 12                     
G18  22370987.971   117560324.982        2749.802          44.000  
G25  23609075.213   124066521.615       -3103.602          43.000  
G26  21583989.734   113424634.692        2149.194          46.000  
G28  22294435.898   117158034.826       -2365.891          45.000  
G29  21614039.279   113582551.960       -1579.223          45.000  
G31  21736433.154   114225719.552        -786.933          46.000  
E27  24356237.417   127992893.526        1346.308          45.000  
E30  24871010.054   130698054.820       -1244.387          44.000  
E15  25248699.332   132682814.809        2528.991          44.000  
G05  24556848.549   129047117.893        1819.495          40.000  
G16  23768921.457   124906523.469        3428.204          41.000  
E34  24790121.819   130272969.403        -307.047          46.000  
> 2024 02 04 15 20 49.0020000  0 12                     
G18  22370464.850   117557575.456        2749.047          44.000  
G25  23609665.879   124069625.232       -3104.082          43.000  
G26  21583580.781   113422485.746        2148.480          46.000  
G28  22294886.212   117160400.871       -2366.766          45.000  
G29  21614339.645   113584131.233       -1579.811          45.000  
G31  21736583.017   114226506.847        -787.786          46.000  
E27  24355981.420   127991547.346        1345.736          45.000  
E30  24871247.118   130699299.359       -1244.927          44.000  
E15  25248218.347   132680286.086        2528.167          44.000  
G05  24556502.526   129045298.821        1818.707          40.000  
G16  23768269.133   124903095.246        3427.904          41.000  
E34  24790180.646   130273276.742        -307.903          46.000  
> 2024 02 04 15 20 50.0020000  0 12                     
G18  22369941.595   117554826.810        2748.169          44.000  
G25  23610256.761   124072729.444       -3104.525          43.000  
G26  21583171.700   113420337.611        2147.473          46.000  
G28  22295336.768   117162767.796       -2367.456          45.000  
G29  21614640.603   113585711.278       -1580.420          45.000  
G31  21736732.964   114227295.189        -788.825          46.000  
E27  24355725.528   127990201.803        1345.128          45.000  
E30  24871484.159   130700544.570       -1245.561          44.000  
E15  25247737.210   132677758.100        2527.556          44.000  
G05  24556156.554   129043480.714        1817.712          40.000  
G16  23767617.048   124899667.598        3427.281          41.000  
E34  24790239.268   130273584.962        -308.696          46.000  
> 2024 02 04 15 20 51.0020000  0 12                     
G18  22369418.540   117552079.096        2747.451          44.000  
G25  23610847.610   124075834.308       -3105.059          43.000  
G26  21582762.977   113418190.293        2147.150          46.000  
G28  22295787.640   117165135.661       -2368.089          45.000  
G29  21614941.757   113587292.159       -1580.962          45.000  
G31  21736882.936   114228084.642        -789.672          46.000  
E27  24355469.590   127988856.945        1344.862          45.000  
E30  24871721.255   130701790.477       -1245.882          44.000  
E15  25247256.269   132675230.909        2527.121          44.000  
G05  24555810.774   129041663.593        1816.724          40.000  
G16  23766965.019   124896240.570        3426.753          41.000  
E34  24790298.343   130273894.115        -309.405          46.000  
> 2024 02 04 15 20 52.0020000  0 12                     
G18  22368895.901   117549332.131        2746.198          44.000  
G25  23611438.577   124078939.639       -3105.774          42.000  
G26  21582354.539   113416043.645        2146.008          46.000  
G28  22296238.417   117167504.306       -2369.369          45.000  
G29  21615242.548   113588873.710       -1582.236          45.000  
G31  21737033.464   114228875.018        -791.121          46.000  
E27  24355213.704   127987512.605        1343.813          45.000  
E30  24871958.192   130703036.931       -1247.010          44.000  
E15  25246775.478   132672704.358        2525.970          44.000  
G05  24555465.216   129039847.298        1815.509          40.000  
G16  23766312.950   124892813.975        3426.157          41.000  
E34  24790357.399   130274204.022        -310.523          46.000  
> 2024 02 04 15 20 53.0020000  0 12                     
G18  22368373.455   117546586.237        2745.489          45.000  
G25  23612029.871   124082045.757       -3106.438          42.000  
G26  21581946.479   113413897.967        2145.288          46.000  
G28  22296689.529   117169874.007       -2370.096          45.000  
G29  21615543.981   113590456.190       -1582.785          45.000  
G31  21737183.935   114229666.617        -791.902          46.000  
E27  24354957.673   127986169.086        1343.059          45.000  
E30  24872195.877   130704284.208       -1247.540          44.000  
E15  25246294.836   132670178.721        2525.245          44.000  
G05  24555119.856   129038032.067        1815.027          40.000  
G16  23765661.014   124889388.118        3425.712          41.000  
E34  24790416.446   130274514.995        -311.549          45.000  
> 2024 02 04 15 20 54.0020000  0 12                     
G18  22367850.987   117543840.886        2745.146          45.000  
G25  23612620.851   124085152.142       -3106.391          42.000  
G26  21581538.327   113411752.753        2145.032          46.000  
G28  22297140.641   117172244.298       -2370.655          45.000  
G29  21615845.514   113592039.138       -1583.017          45.000  
G31  21737334.903   114230458.965        -792.703          46.000  
E27  24354702.195   127984825.882        1343.098          45.000  
E30  24872433.069   130705531.831       -1247.796          44.000  
E15  25245814.447   132667653.500        2525.188          45.000  
G05  24554774.665   129036217.508        1814.416          40.000  
G16  23765009.068   124885962.515        3425.437          41.000  
E34  24790475.766   130274826.533        -311.731          45.000  
> 2024 02 04 15 20 55.0020000  0 12                     
G18  22367328.843   117541095.889        2744.787          45.000  
G25  23613211.855   124088258.593       -3106.622          42.000  
G26  21581130.335   113409607.792        2144.537          46.000  
G28  22297591.788   117174614.920       -2370.815          45.000  
G29  21616147.054   113593622.325       -1583.365          45.000  
G31  21737485.945   114231251.829        -793.166          46.000  
E27  24354446.623   127983482.787        1342.940          45.000  
E30  24872670.048   130706779.582       -1247.938          44.000  
E15  25245334.040   132665128.507        2524.860          44.000  
G05  24554429.236   129034403.356        1813.745          40.000  
G16  23764357.082   124882536.935        3425.468          41.000  
E34  24790534.848   130275138.411        -312.082          45.000  
> 2024 02 04 15 20 56.0020000  0 12                     
G18  22366806.707   117538351.168        2744.566          45.000  
G25  23613802.889   124091365.041       -3106.678          42.000  
G26  21580722.115   113407463.002        2144.672          46.000  
G28  22298042.926   117176985.832       -2371.001          45.000  
G29  21616448.574   113595205.667       -1583.352          46.000  
G31  21737636.968   114232045.128        -793.655          46.000  
E27  24354190.613   127982139.720        1342.978          45.000  
E30  24872907.822   130708027.380       -1247.962          44.000  
E15  25244853.564   132662603.641        2524.862          44.000  
G05  24554083.979   129032589.509        1813.483          40.000  
G16  23763705.194   124879111.304        3425.778          40.000  
E34  24790594.201   130275450.564        -312.398          45.000  
> 2024 02 04 15 20 57.0020000  0 12                     
G18  22366284.751   117535606.938        2743.792          45.000  
G25  23614394.081   124094471.691       -3107.080          42.000  
G26  21580314.114   113405318.618        2143.915          46.000  
G28  22298494.363   117179357.253       -2372.031          45.000  
G29  21616750.112   113596789.419       -1584.237          46.000  
G31  21737788.353   114232839.100        -794.546          47.000  
E27  24353935.031   127980796.894        1342.490          45.000  
E30  24873145.389   130709275.444       -1248.393          43.000  
E15  25244373.203   132660079.142        2524.096          44.000  
G05  24553739.143   129030776.230        1812.714          40.000  
G16  23763053.391   124875685.858        3425.309          40.000  
E34  24790654.059   130275763.204        -313.070          45.000  
> 2024 02 04 15 20 58.0020000  0 12                     
G18  22365762.846   117532863.573        2742.687          45.000  
G25  23614985.105   124097578.928       -3107.801          42.000  
G26  21579906.064   113403175.011        2143.030          46.000  
G28  22298945.853   117181729.538       -2372.856          45.000  
G29  21617051.732   113598373.927       -1585.129          46.000  
G31  21737939.754   114233634.101        -795.580          47.000  
E27  24353679.492   127979454.693        1341.765          45.000  
E30  24873382.904   130710524.151       -1249.295          43.000  
E15  25243892.825   132657555.378        2523.174          44.000  
G05  24553394.527   129028963.881        1811.707          40.000  
G16  23762401.721   124872260.953        3424.776          40.000  
E34  24790713.868   130276076.715        -314.085          45.000  
> 2024 02 04 15 20 59.0020000  0 12                     
G18  22365241.053   117530120.784        2742.710          44.000  
G25  23615576.305   124100686.446       -3107.357          42.000  
G26  21579498.244   113401031.896        2143.152          46.000  
G28  22299397.224   117184102.417       -2372.873          45.000  
G29  21617353.383   113599958.910       -1585.035          46.000  
G31  21738091.102   114234429.868        -795.867          46.000  
E27  24353424.296   127978112.841        1341.907          45.000  
E30  24873620.784   130711773.228       -1249.047          43.000  
E15  25243412.675   132655032.050        2523.325          44.000  
G05  24553050.012   129027152.159        1811.670          40.000  
G16  23761750.023   124868836.323        3424.737          40.000  
E34  24790773.687   130276390.808        -314.223          45.000  
> 2024 02 04 15 21 00.0020000  0 12                     
G18  22364718.795   117527378.244        2742.417          44.000  
G25  23616167.715   124103793.957       -3107.511          42.000  
G26  21579090.369   113398888.943        2142.676          46.000  
G28  22299848.782   117186475.565       -2373.438          45.000  
G29  21617654.772   113601544.037       -1585.095          46.000  
G31  21738242.600   114235226.049        -796.485          47.000  
E27  24353168.862   127976770.990        1341.773          45.000  
E30  24873858.521   130713022.326       -1249.195          43.000  
E15  25242932.576   132652508.845        2523.068          44.000  
G05  24552705.534   129025340.762        1811.182          40.000  
G16  23761098.144   124865411.644        3424.518          40.000  
E34  24790833.297   130276705.152        -314.604          45.000  
> 2024 02 04 15 21 01.0020000  0 12                     
G18  22364196.959   117524635.884        2742.497          44.000  
G25  23616758.860   124106901.337       -3107.146          42.000  
G26  21578682.534   113396746.068        2142.859          46.000  
G28  22300300.219   117188848.885       -2373.349          45.000  
G29  21617956.465   113603129.259       -1585.281          46.000  
G31  21738394.288   114236022.589        -796.555          47.000  
E27  24352913.489   127975429.090        1341.895          45.000  
E30  24874096.106   130714271.393       -1249.086          43.000  
E15  25242452.296   132649985.686        2523.176          44.000  
G05  24552361.134   129023529.596        1811.017          40.000  
G16  23760446.193   124861986.811        3424.644          40.000  
E34  24790892.868   130277019.682        -314.682          45.000  
> 2024 02 04 15 21 02.0020000  0 12                     
G18  22363675.189   117521894.251        2741.364          44.000  
G25  23617350.045   124110009.193       -3108.005          42.000  
G26  21578274.993   113394603.834        2141.779          46.000  
G28  22300751.955   117191222.950       -2374.410          45.000  
G29  21618258.070   113604715.077       -1586.221          46.000  
G31  21738546.186   114236820.016        -797.925          47.000  
E27  24352658.223   127974087.659        1341.265          45.000  
E30  24874333.677   130715520.953       -1249.889          43.000  
E15  25241972.478   132647463.114        2522.215          44.000  
G05  24552016.697   129021719.199        1810.126          40.000  
G16  23759794.668   124858562.368        3424.297          40.000  
E34  24790953.008   130277334.920        -315.655          45.000  
> 2024 02 04 15 21 03.0020000  0 12                     
G18  22363153.255   117519153.038        2740.508          44.000  
G25  23617941.555   124113117.164       -3108.268          42.000  
G26  21577867.294   113392461.903        2141.449          46.000  
G28  22301203.723   117193597.433       -2375.089          45.000  
G29  21618559.930   113606301.209       -1586.691          46.000  
G31  21738698.053   114237618.033        -798.599          46.000  
E27  24352402.819   127972746.409        1340.766          45.000  
E30  24874571.727   130716770.701       -1250.267          43.000  
E15  25241492.641   132644940.830        2521.739          44.000  
G05  24551672.025   129019909.293        1809.381          40.000  
G16  23759142.933   124855138.040        3424.002          40.000  
E34  24791013.252   130277650.589        -316.273          45.000  
> 2024 02 04 15 21 04.0020000  0 12                     
G18  22362631.295   117516412.346        2740.121          44.000  
G25  23618533.109   124116225.391       -3108.406          42.000  
G26  21577459.677   113390320.426        2141.162          46.000  
G28  22301655.387   117195972.459       -2375.338          45.000  
G29  21618861.784   113607887.781       -1586.930          46.000  
G31  21738849.964   114238416.756        -799.068          46.000  
E27  24352147.640   127971405.441        1340.729          45.000  
E30  24874809.654   130718020.769       -1250.352          43.000  
E15  25241012.542   132642418.936        2521.690          44.000  
G05  24551328.044   129018099.992        1808.923          40.000  
G16  23758491.472   124851713.922        3424.276          40.000  
E34  24791073.408   130277966.780        -316.524          45.000  
> 2024 02 04 15 21 05.0020000  0 12                     
G18  22362109.741   117513672.146        2739.811          44.000  
G25  23619124.259   124119333.819       -3108.643          42.000  
G26  21577052.175   113388179.353        2140.607          46.000  
G28  22302107.494   117198347.972       -2375.697          45.000  
G29  21619163.691   113609474.726       -1587.177          46.000  
G31  21739002.001   114239216.146        -799.700          47.000  
E27  24351892.219   127970064.718        1340.563          45.000  
E30  24875047.897   130719271.105       -1250.577          43.000  
E15  25240532.393   132639897.404        2521.166          44.000  
G05  24550983.721   129016291.221        1808.533          40.000  
G16  23757839.982   124848289.983        3423.788          40.000  
E34  24791133.665   130278283.467        -317.049          45.000  
> 2024 02 04 15 21 06.0020000  0 12                     
G18  22361588.110   117510932.362        2739.671          44.000  
G25  23619715.992   124122442.377       -3108.731          41.000  
G26  21576644.972   113386038.593        2140.576          46.000  
G28  22302559.775   117200723.924       -2376.104          45.000  
G29  21619465.872   113611061.984       -1587.294          46.000  
G31  21739154.293   114240016.125        -800.241          47.000  
E27  24351637.237   127968724.187        1340.461          45.000  
E30  24875285.569   130720521.639       -1250.590          43.000  
E15  25240052.638   132637376.163        2521.108          44.000  
G05  24550639.393   129014482.933        1808.203          40.000  
G16  23757188.469   124844866.152        3423.830          40.000  
E34  24791194.226   130278600.579        -317.458          45.000  
> 2024 02 04 15 21 07.0020000  0 12                     
G18  22361066.977   117508193.305        2738.768          44.000  
G25  23620307.513   124125551.373       -3109.051          42.000  
G26  21576237.780   113383898.466        2140.088          46.000  
G28  22303011.978   117203100.599       -2376.844          45.000  
G29  21619767.880   113612649.866       -1588.086          46.000  
G31  21739306.782   114240817.001        -801.298          47.000  
E27  24351382.084   127967384.118        1340.006          45.000  
E30  24875523.235   130721772.664       -1251.207          43.000  
E15  25239572.890   132634855.501        2520.320          44.000  
G05  24550295.429   129012675.431        1807.422          40.000  
G16  23756536.913   124841442.722        3423.102          40.000  
E34  24791254.665   130278918.397        -318.091          45.000  
> 2024 02 04 15 21 08.0020000  0 12                     
G18  22360546.175   117505454.825        2738.018          44.000  
G25  23620899.311   124128660.679       -3109.713          42.000  
G26  21575830.605   113381758.835        2139.172          46.000  
G28  22303464.187   117205477.870       -2377.686          45.000  
G29  21620070.020   113614238.221       -1588.816          46.000  
G31  21739459.447   114241618.615        -802.118          47.000  
E27  24351127.130   127966044.397        1339.436          45.000  
E30  24875761.598   130723024.050       -1251.559          43.000  
E15  25239093.448   132632335.287        2519.781          44.000  
G05  24549951.874   129010868.564        1806.372          40.000  
G16  23755885.524   124838019.547        3423.096          40.000  
E34  24791314.812   130279236.808        -318.939          45.000  
> 2024 02 04 15 21 09.0020000  0 12                     
G18  22360025.271   117502716.801        2737.785          44.000  
G25  23621491.246   124131770.136       -3109.631          42.000  
G26  21575423.514   113379619.567        2138.892          46.000  
G28  22303916.591   117207855.603       -2378.140          45.000  
G29  21620372.498   113615826.919       -1588.883          46.000  
G31  21739612.597   114242420.876        -802.709          47.000  
E27  24350872.236   127964704.887        1339.383          45.000  
E30  24875999.794   130724275.677       -1251.769          43.000  
E15  25238614.358   132629815.389        2519.585          44.000  
G05  24549608.270   129009062.210        1805.872          40.000  
G16  23755233.872   124834596.519        3422.875          39.000  
E34  24791375.464   130279555.672        -319.190          45.000  
> 2024 02 04 15 21 10.0020000  0 12                     
G18  22359504.299   117499979.229        2737.093          44.000  
G25  23622082.880   124134879.767       -3110.067          42.000  
G26  21575016.369   113377480.648        2138.434          46.000  
G28  22304369.191   117210233.786       -2378.820          45.000  
G29  21620674.864   113617415.969       -1589.503          46.000  
G31  21739765.454   114243223.742        -803.498          47.000  
E27  24350617.614   127963365.589        1338.862          45.000  
E30  24876238.135   130725527.526       -1252.171          43.000  
E15  25238134.772   132627295.800        2519.324          44.000  
G05  24549264.575   129007256.350        1805.267          40.000  
G16  23754582.512   124831173.634        3422.332          39.000  
E34  24791435.975   130279874.981        -319.858          45.000  
> 2024 02 04 15 21 11.0020000  0 12                     
G18  22358983.493   117497242.225        2736.806          45.000  
G25  23622674.508   124137989.687       -3109.743          42.000  
G26  21574609.467   113375342.211        2138.202          46.000  
G28  22304821.998   117212612.553       -2379.054          45.000  
G29  21620977.353   113619005.476       -1589.490          46.000  
G31  21739918.320   114244027.357        -803.824          47.000  
E27  24350362.701   127962026.607        1339.052          45.000  
E30  24876476.307   130726779.720       -1252.243          43.000  
E15  25237655.284   132624776.665        2519.072          44.000  
G05  24548920.804   129005451.125        1805.115          40.000  
G16  23753931.002   124827750.978        3422.594          39.000  
E34  24791496.977   130280194.857        -320.065          45.000  
> 2024 02 04 15 21 12.0020000  0 12                     
G18  22358462.708   117494505.947        2736.234          45.000  
G25  23623265.852   124141100.043       -3110.450          42.000  
G26  21574202.531   113373204.403        2137.720          46.000  
G28  22305275.123   117214992.053       -2379.744          45.000  
G29  21621280.217   113620595.609       -1590.342          46.000  
G31  21740071.566   114244831.862        -804.801          47.000  
E27  24350107.838   127960688.134        1338.359          45.000  
E30  24876714.783   130728032.427       -1252.905          43.000  
E15  25237175.708   132622258.133        2518.343          44.000  
G05  24548577.429   129003646.710        1803.998          40.000  
G16  23753279.727   124824328.750        3422.095          39.000  
E34  24791557.821   130280515.473        -321.007          45.000  
> 2024 02 04 15 21 13.0020000  0 12                     
G18  22357941.939   117491770.122        2735.418          45.000  
G25  23623857.831   124144210.575       -3110.973          42.000  
G26  21573795.764   113371066.954        2137.177          46.000  
G28  22305728.340   117217372.007       -2380.497          45.000  
G29  21621583.019   113622186.078       -1590.625          46.000  
G31  21740225.023   114245636.990        -805.460          47.000  
E27  24349853.190   127959349.843        1338.009          45.000  
E30  24876953.537   130729285.344       -1253.114          43.000  
E15  25236696.435   132619739.896        2517.900          44.000  
G05  24548234.256   129001842.777        1803.479          40.000  
G16  23752628.114   124820906.647        3421.749          39.000  
E34  24791619.052   130280836.520        -321.433          45.000  
> 2024 02 04 15 21 14.0020000  0 12                     
G18  22357421.434   117489034.799        2735.097          44.000  
G25  23624449.767   124147321.319       -3111.047          42.000  
G26  21573388.956   113368929.923        2136.646          46.000  
G28  22306181.387   117219752.460       -2380.776          45.000  
G29  21621885.949   113623776.952       -1590.982          46.000  
G31  21740378.605   114246442.799        -806.223          47.000  
E27  24349598.436   127958011.825        1337.702          45.000  
E30  24877191.940   130730538.559       -1253.381          44.000  
E15  25236217.178   132617222.032        2517.651          44.000  
G05  24547890.964   129000039.404        1803.162          40.000  
G16  23751976.726   124817484.722        3421.601          39.000  
E34  24791680.182   130281158.074        -321.694          45.000  
> 2024 02 04 15 21 15.0020000  0 12                     
G18  22356900.951   117486300.119        2734.617          44.000  
G25  23625041.816   124150432.429       -3111.143          42.000  
G26  21572982.555   113366793.437        2136.432          46.000  
G28  22306634.488   117222133.586       -2381.307          45.000  
G29  21622188.825   113625368.375       -1591.563          46.000  
G31  21740532.151   114247249.418        -806.868          47.000  
E27  24349343.946   127956674.205        1337.564          45.000  
E30  24877430.692   130731792.188       -1253.681          44.000  
E15  25235738.187   132614704.676        2517.410          44.000  
G05  24547547.904   128998236.777        1802.460          40.000  
G16  23751325.501   124814063.142        3421.208          39.000  
E34  24791741.413   130281480.288        -322.387          45.000  
> 2024 02 04 15 21 16.0020000  0 12                     
G18  22356380.760   117483565.946        2734.121          44.000  
G25  23625633.864   124153543.754       -3111.296          42.000  
G26  21572576.151   113364657.372        2135.925          46.000  
G28  22307087.671   117224515.214       -2381.856          45.000  
G29  21622491.523   113626960.192       -1591.936          46.000  
G31  21740685.857   114248056.721        -807.446          47.000  
E27  24349089.260   127955336.847        1337.410          45.000  
E30  24877669.193   130733046.104       -1253.859          44.000  
E15  25235259.089   132612187.710        2516.880          44.000  
G05  24547204.797   128996434.701        1801.953          41.000  
G16  23750674.525   124810641.740        3421.508          38.000  
E34  24791802.707   130281802.997        -322.755          44.000  
> 2024 02 04 15 21 17.0020000  0 12                     
G18  22355860.578   117480832.254        2733.473          44.000  
G25  23626226.059   124156655.290       -3111.837          41.000  
G26  21572169.728   113362521.687        2135.522          46.000  
G28  22307540.602   117226897.328       -2382.418          45.000  
G29  21622794.483   113628552.382       -1592.503          46.000  
G31  21740839.517   114248864.683        -808.397          47.000  
E27  24348834.622   127953999.733        1337.013          45.000  
E30  24877907.665   130734300.271       -1254.139          44.000  
E15  25234780.218   132609671.077        2516.434          44.000  
G05  24546861.802   128994633.162        1801.184          41.000  
G16  23750023.375   124807220.506        3421.270          38.000  
E34  24791864.489   130282126.191        -323.394          44.000  
> 2024 02 04 15 21 18.0020000  0 12                     
G18  22355340.193   117478098.824        2733.335          44.000  
G25  23626818.108   124159766.776       -3111.245          41.000  
G26  21571763.516   113360386.182        2135.492          46.000  
G28  22307993.882   117229279.715       -2382.380          45.000  
G29  21623097.469   113630144.716       -1592.247          46.000  
G31  21740993.463   114249673.063        -808.581          47.000  
E27  24348580.440   127952662.635        1337.160          45.000  
E30  24878146.491   130735554.485       -1254.040          44.000  
E15  25234301.531   132607154.573        2516.575          44.000  
G05  24546518.954   128992831.943        1800.989          41.000  
G16  23749372.026   124803799.225        3420.899          38.000  
E34  24791925.995   130282449.634        -323.452          44.000  
> 2024 02 04 15 21 19.0020000  0 12                     
G18  22354819.807   117475366.142        2732.357          44.000  
G25  23627410.105   124162878.752       -3112.410          41.000  
G26  21571357.604   113358251.312        2134.540          46.000  
G28  22308447.370   117231662.851       -2383.576          45.000  
G29  21623400.691   113631737.701       -1593.252          46.000  
G31  21741147.335   114250482.359        -809.754          47.000  
E27  24348326.110   127951326.041        1336.343          45.000  
E30  24878385.230   130736809.229       -1255.074          44.000  
E15  25233823.037   132604638.690        2515.441          44.000  
G05  24546176.068   128991031.515        1800.104          40.000  
G16  23748721.041   124800378.354        3420.903          38.000  
E34  24791987.932   130282773.828        -324.527          44.000  
> 2024 02 04 15 21 20.0020000  0 12                     
G18  22354299.660   117472634.227        2732.130          44.000  
G25  23628002.433   124165991.197       -3112.237          41.000  
G26  21570951.335   113356117.141        2134.290          46.000  
G28  22308901.141   117234046.768       -2383.776          45.000  
G29  21623704.111   113633331.361       -1593.541          46.000  
G31  21741301.324   114251292.605        -810.194          47.000  
E27  24348071.664   127949989.985        1336.148          45.000  
E30  24878624.452   130738064.510       -1255.105          44.000  
E15  25233344.648   132602123.438        2515.273          44.000  
G05  24545833.640   128989231.941        1799.408          40.000  
G16  23748069.960   124796957.965        3420.742          38.000  
E34  24792049.852   130283098.796        -324.935          44.000  
> 2024 02 04 15 21 21.0020000  0 12                     
G18  22353780.082   117469902.814        2731.230          44.000  
G25  23628594.817   124169103.867       -3112.923          42.000  
G26  21570545.235   113353983.368        2133.679          46.000  
G28  22309354.884   117236431.188       -2384.777          45.000  
G29  21624007.515   113634925.402       -1594.156          46.000  
G31  21741455.499   114252103.504        -811.220          47.000  
E27  24347817.423   127948654.174        1335.549          45.000  
E30  24878863.520   130739320.064       -1255.535          44.000  
E15  25232865.969   132599608.546        2514.685          44.000  
G05  24545490.985   128987432.905        1798.852          40.000  
G16  23747418.965   124793537.748        3419.986          38.000  
E34  24792111.787   130283424.260        -325.773          45.000  
> 2024 02 04 15 21 22.0020000  0 12                     
G18  22353260.277   117467171.893        2730.721          44.000  
G25  23629187.014   124172216.746       -3112.961          41.000  
G26  21570139.372   113351849.993        2133.282          46.000  
G28  22309808.567   117238816.101       -2385.193          45.000  
G29  21624310.872   113636519.829       -1594.564          46.000  
G31  21741609.552   114252915.072        -811.850          47.000  
E27  24347563.472   127947318.610        1335.460          45.000  
E30  24879102.619   130740575.898       -1255.959          44.000  
E15  25232387.207   132597094.006        2514.374          44.000  
G05  24545148.678   128985634.447        1798.273          40.000  
G16  23746768.135   124790117.700        3420.045          39.000  
E34  24792173.515   130283750.216        -326.280          44.000  
> 2024 02 04 15 21 23.0020000  0 12                     
G18  22352740.623   117464441.854        2729.589          44.000  
G25  23629779.290   124175330.210       -3113.555          41.000  
G26  21569733.530   113349717.408        2132.391          47.000  
G28  22310262.511   117241201.912       -2386.199          45.000  
G29  21624614.600   113638115.050       -1595.661          46.000  
G31  21741764.056   114253727.696        -812.928          47.000  
E27  24347309.231   127945983.693        1334.813          45.000  
E30  24879341.552   130741832.378       -1256.569          44.000  
E15  25231908.495   132594580.222        2513.593          44.000  
G05  24544806.562   128983836.909        1797.217          40.000  
G16  23746117.063   124786698.201        3419.492          39.000  
E34  24792235.581   130284077.045        -327.129          44.000  
> 2024 02 04 15 21 24.0020000  0 12                     
G18  22352221.237   117461712.879        2728.539          44.000  
G25  23630371.982   124178444.451       -3114.316          41.000  
G26  21569328.037   113347585.803        2131.354          47.000  
G28  22310716.727   117243588.772       -2387.028          45.000  
G29  21624918.303   113639711.212       -1596.364          46.000  
G31  21741918.720   114254541.576        -814.427          47.000  
E27  24347055.235   127944649.592        1334.083          45.000  
E30  24879580.908   130743089.709       -1257.306          44.000  
E15  25231430.344   132592067.372        2512.721          44.000  
G05  24544464.616   128982040.517        1795.917          41.000  
G16  23745466.796   124783279.519        3418.454          38.000  
E34  24792297.920   130284404.937        -327.946          44.000  
> 2024 02 04 15 21 25.0020000  0 12                     
G18  22351701.635   117458984.307        2728.309          44.000  
G25  23630964.518   124181558.822       -3114.296          41.000  
G26  21568922.548   113345454.515        2131.091          47.000  
G28  22311170.808   117245976.077       -2387.588          45.000  
G29  21625222.164   113641307.686       -1596.803          46.000  
G31  21742073.496   114255355.997        -814.738          47.000  
E27  24346801.116   127943315.677        1333.682          45.000  
E30  24879820.054   130744347.226       -1257.561          44.000  
E15  25230951.905   132589554.803        2512.351          44.000  
G05  24544122.794   128980244.583        1795.758          40.000  
G16  23744816.195   124779860.861        3418.730          39.000  
E34  24792360.708   130284733.262        -328.730          44.000  
> 2024 02 04 15 21 26.0020000  0 12                     
G18  22351182.111   117456256.331        2727.881          44.000  
G25  23631556.990   124184673.506       -3114.675          41.000  
G26  21568517.045   113343323.726        2130.658          47.000  
G28  22311625.163   117248363.956       -2388.042          45.000  
G29  21625526.260   113642904.639       -1597.022          46.000  
G31  21742228.605   114256171.195        -815.255          47.000  
E27  24346547.292   127941982.095        1333.567          45.000  
E30  24880059.626   130745605.110       -1257.892          44.000  
E15  25230474.331   132587042.677        2512.087          44.000  
G05  24543780.984   128978449.297        1795.068          40.000  
G16  23744165.675   124776442.501        3418.152          38.000  
E34  24792423.269   130285062.146        -328.987          44.000  
> 2024 02 04 15 21 27.0020000  0 12                     
G18  22350662.993   117453528.768        2727.373          44.000  
G25  23632149.686   124187788.308       -3114.872          41.000  
G26  21568111.975   113341193.249        2130.444          47.000  
G28  22312079.543   117250752.266       -2388.309          45.000  
G29  21625830.084   113644501.899       -1597.195          46.000  
G31  21742383.556   114256986.987        -816.025          46.000  
E27  24346293.755   127940648.686        1333.329          45.000  
E30  24880299.010   130746863.180       -1257.998          44.000  
E15  25229996.370   132584530.838        2511.857          44.000  
G05  24543439.728   128976654.497        1794.550          41.000  
G16  23743515.410   124773024.232        3418.248          38.000  
E34  24792485.835   130285391.459        -329.403          44.000  
> 2024 02 04 15 21 28.0020000  0 12                     
G18  22350143.788   117450801.576        2726.841          44.000  
G25  23632742.634   124190903.194       -3115.385          41.000  
G26  21567706.851   113339063.051        2129.791          47.000  
G28  22312533.794   117253140.946       -2389.243          45.000  
G29  21626134.056   113646099.432       -1598.053          46.000  
G31  21742538.887   114257803.305        -816.920          46.000  
E27  24346039.852   127939315.398        1332.875          45.000  
E30  24880538.174   130748121.400       -1258.582          44.000  
E15  25229518.550   132582019.240        2511.171          44.000  
G05  24543098.181   128974860.118        1793.848          41.000  
G16  23742865.199   124769606.022        3417.989          38.000  
E34  24792548.538   130285721.140        -330.338          44.000  
> 2024 02 04 15 21 29.0020000  0 12                     
G18  22349624.701   117448075.067        2726.164          44.000  
G25  23633335.413   124194018.477       -3115.526          41.000  
G26  21567301.691   113336933.445        2129.297          47.000  
G28  22312988.431   117255530.298       -2389.584          45.000  
G29  21626438.250   113647697.517       -1598.244          47.000  
G31  21742694.209   114258620.470        -817.361          46.000  
E27  24345786.364   127937982.540        1332.939          45.000  
E30  24880777.441   130749380.077       -1258.799          44.000  
E15  25229040.689   132579508.173        2510.932          44.000  
G05  24542756.870   128973066.485        1793.152          41.000  
G16  23742214.806   124766188.149        3417.993          38.000  
E34  24792611.273   130286051.476        -330.485          44.000  
> 2024 02 04 15 21 30.0020000  0 12                     
G18  22349105.675   117445348.976        2725.837          44.000  
G25  23633928.058   124197133.888       -3115.816          41.000  
G26  21566896.495   113334804.163        2129.089          47.000  
G28  22313443.027   117257920.093       -2390.124          45.000  
G29  21626742.283   113649295.933       -1598.613          47.000  
G31  21742849.735   114259438.244        -818.139          46.000  
E27  24345533.316   127936649.896        1332.423          44.000  
E30  24881017.111   130750638.946       -1258.994          44.000  
E15  25228562.658   132576997.405        2510.448          44.000  
G05  24542415.572   128971273.342        1792.920          41.000  
G16  23741564.637   124762770.435        3417.524          38.000  
E34  24792673.891   130286382.259        -331.115          44.000  
> 2024 02 04 15 21 31.0020000  0 12                     
G18  22348587.331   117442623.361        2725.486          44.000  
G25  23634521.201   124200249.507       -3115.427          42.000  
G26  21566491.111   113332675.297        2128.748          47.000  
G28  22313897.725   117260310.371       -2390.460          45.000  
G29  21627046.798   113650894.721       -1598.915          47.000  
G31  21743005.044   114260256.675        -818.851          45.000  
E27  24345279.319   127935317.460        1332.564          44.000  
E30  24881256.580   130751898.091       -1259.190          44.000  
E15  25228085.128   132574486.970        2510.459          44.000  
G05  24542074.403   128969480.737        1792.273          41.000  
G16  23740914.481   124759352.832        3417.780          38.000  
E34  24792736.522   130286713.507        -331.285          44.000  
> 2024 02 04 15 21 32.0020000  0 12                     
G18  22348068.846   117439898.205        2724.691          44.000  
G25  23635114.243   124203365.273       -3116.152          41.000  
G26  21566086.229   113330546.739        2128.253          46.000  
G28  22314352.547   117262701.089       -2391.315          45.000  
G29  21627350.820   113652493.840       -1599.448          46.000  
G31  21743160.730   114261075.686        -819.366          46.000  
E27  24345025.757   127933985.233        1331.955          44.000  
E30  24881496.442   130753157.446       -1259.651          44.000  
E15  25227607.378   132571976.856        2509.836          44.000  
G05  24541733.574   128967688.626        1791.809          41.000  
G16  23740264.260   124755935.400        3417.375          39.000  
E34  24792799.494   130287045.210        -332.247          44.000  
> 2024 02 04 15 21 33.0020000  0 12                     
G18  22347550.437   117437173.552        2724.306          44.000  
G25  23635707.332   124206481.281       -3116.115          42.000  
G26  21565681.175   113328418.646        2127.661          46.000  
G28  22314807.769   117265092.329       -2391.549          45.000  
G29  21627655.381   113654093.367       -1599.923          46.000  
G31  21743316.759   114261895.411        -820.226          45.000  
E27  24344772.406   127932653.298        1331.438          44.000  
E30  24881736.031   130754417.103       -1259.971          43.000  
E15  25227130.100   132569467.149        2509.150          44.000  
G05  24541392.409   128965897.115        1791.064          41.000  
G16  23739614.311   124752518.168        3416.991          40.000  
E34  24792862.607   130287377.417        -332.705          44.000  
> 2024 02 04 15 21 34.0020000  0 12                     
G18  22347032.294   117434449.632        2723.486          44.000  
G25  23636300.341   124209597.724       -3116.960          42.000  
G26  21565276.461   113326291.157        2126.892          46.000  
G28  22315262.921   117267484.297       -2392.352          45.000  
G29  21627959.621   113655693.510       -1600.713          46.000  
G31  21743472.600   114262716.016        -821.188          46.000  
E27  24344519.225   127931321.807        1331.236          44.000  
E30  24881975.597   130755677.232       -1260.489          43.000  
E15  25226652.470   132566957.995        2508.708          44.000  
G05  24541051.569   128964106.358        1790.271          41.000  
G16  23738964.293   124749101.324        3416.461          40.000  
E34  24792926.193   130287710.345        -333.431          44.000  
> 2024 02 04 15 21 35.0020000  0 12                     
G18  22346513.981   117431726.211        2723.194          44.000  
G25  23636893.373   124212714.380       -3116.841          42.000  
G26  21564871.583   113324164.089        2126.788          46.000  
G28  22315718.391   117269876.789       -2392.931          45.000  
G29  21628264.193   113657294.048       -1600.843          46.000  
G31  21743629.059   114263537.311        -821.667          45.000  
E27  24344265.809   127929990.617        1330.781          44.000  
E30  24882215.216   130756937.681       -1260.931          44.000  
E15  25226175.060   132564449.231        2508.382          45.000  
G05  24540711.028   128962316.198        1789.709          41.000  
G16  23738314.333   124745684.682        3416.649          40.000  
E34  24792989.121   130288043.798        -333.999          44.000  
> 2024 02 04 15 21 36.0020000  0 12                     
G18  22345995.915   117429003.079        2722.917          44.000  
G25  23637486.526   124215831.039       -3116.932          42.000  
G26  21564466.840   113322037.206        2126.544          46.000  
G28  22316173.672   117272269.549       -2392.831          45.000  
G29  21628568.878   113658894.750       -1600.974          46.000  
G31  21743785.459   114264359.043        -822.069          45.000  
E27  24344012.510   127928659.437        1331.098          44.000  
E30  24882454.969   130758198.146       -1260.655          44.000  
E15  25225697.895   132561940.599        2508.392          45.000  
G05  24540370.234   128960526.356        1789.459          41.000  
G16  23737664.097   124742267.981        3416.611          40.000  
E34  24793052.736   130288377.491        -333.884          44.000  
> 2024 02 04 15 21 37.0020000  0 12                     
G18  22345478.056   117426280.643        2722.110          44.000  
G25  23638079.584   124218948.096       -3116.992          42.000  
G26  21564062.229   113319910.941        2126.068          46.000  
G28  22316628.996   117274663.024       -2393.741          45.000  
G29  21628873.448   113660496.061       -1601.499          46.000  
G31  21743941.769   114265181.664        -822.995          45.000  
E27  24343759.458   127927328.724        1330.561          45.000  
E30  24882694.646   130759459.111       -1261.092          44.000  
E15  25225220.660   132559432.557        2507.737          45.000  
G05  24540029.922   128958737.300        1788.727          42.000  
G16  23737014.381   124738851.691        3416.138          40.000  
E34  24793116.468   130288711.914        -334.770          44.000  
> 2024 02 04 15 21 38.0020000  0 12                     
G18  22344960.042   117423558.704        2721.538          44.000  
G25  23638672.722   124222065.357       -3117.308          41.000  
G26  21563658.021   113317785.064        2125.616          46.000  
G28  22317084.499   117277056.977       -2394.195          45.000  
G29  21629178.283   113662097.735       -1601.910          46.000  
G31  21744098.433   114266004.910        -823.688          45.000  
E27  24343506.685   127925998.252        1330.421          45.000  
E30  24882934.654   130760720.324       -1261.225          44.000  
E15  25224743.507   132556924.844        2507.536          45.000  
G05  24539689.253   128956948.761        1788.177          42.000  
G16  23736364.245   124735435.549        3416.088          40.000  
E34  24793180.185   130289046.800        -335.183          44.000  
> 2024 02 04 15 21 39.0020000  0 12                     
G18  22344442.176   117420837.148        2721.072          44.000  
G25  23639265.798   124225182.744       -3117.687          41.000  
G26  21563253.343   113315659.481        2125.275          46.000  
G28  22317540.115   117279451.351       -2394.847          45.000  
G29  21629483.167   113663699.710       -1602.335          47.000  
G31  21744254.874   114266828.743        -824.404          45.000  
E27  24343253.282   127924667.935        1329.938          45.000  
E30  24883174.837   130761981.736       -1261.886          44.000  
E15  25224265.893   132554417.401        2507.100          45.000  
G05  24539348.884   128955160.696        1787.634          42.000  
G16  23735714.329   124732019.496        3416.006          40.000  
E34  24793244.010   130289382.085        -335.632          44.000  
> 2024 02 04 15 21 40.0020000  0 12                     
G18  22343924.720   117418116.001        2720.916          44.000  
G25  23639859.120   124228300.241       -3117.735          41.000  
G26  21562849.041   113313534.225        2124.951          46.000  
G28  22317995.437   117281846.112       -2394.976          45.000  
G29  21629787.924   113665301.977       -1602.635          46.000  
G31  21744412.061   114267653.134        -824.804          46.000  
E27  24343000.101   127923337.775        1329.981          45.000  
E30  24883414.819   130763243.310       -1261.819          44.000  
E15  25223789.316   132551910.238        2506.794          45.000  
G05  24539008.882   128953373.082        1787.335          41.000  
G16  23735063.964   124728603.540        3415.908          40.000  
E34  24793307.557   130289717.784        -336.099          44.000  
> 2024 02 04 15 21 41.0020000  0 12                     
G18  22343407.020   117415395.420        2720.441          44.000  
G25  23640452.371   124231418.006       -3118.047          41.000  
G26  21562444.783   113311409.445        2124.591          46.000  
G28  22318451.036   117284241.448       -2395.498          45.000  
G29  21630092.884   113666904.699       -1602.812          46.000  
G31  21744569.471   114268478.269        -825.520          46.000  
E27  24342747.317   127922007.949        1329.646          45.000  
E30  24883654.790   130764505.225       -1262.085          43.000  
E15  25223312.225   132549403.493        2506.656          45.000  
G05  24538668.901   128951586.111        1786.566          42.000  
G16  23734413.891   124725187.849        3415.463          40.000  
E34  24793371.004   130290054.031        -336.434          44.000  
> 2024 02 04 15 21 42.0020000  0 12                     
G18  22342889.453   117412675.531        2719.673          44.000  
G25  23641045.742   124234536.173       -3118.436          41.000  
G26  21562040.643   113309285.248        2123.950          46.000  
G28  22318907.072   117286637.466       -2396.225          45.000  
G29  21630398.069   113668508.003       -1603.754          46.000  
G31  21744726.763   114269304.248        -826.235          46.000  
E27  24342494.297   127920678.554        1329.197          45.000  
E30  24883894.785   130765767.619       -1262.790          43.000  
E15  25222835.732   132546897.313        2505.897          45.000  
G05  24538329.148   128949799.872        1785.889          42.000  
G16  23733763.964   124721772.494        3414.925          40.000  
E34  24793435.170   130290390.977        -337.353          44.000  
> 2024 02 04 15 21 43.0020000  0 12                     
G18  22342372.262   117409956.079        2718.905          44.000  
G25  23641639.021   124237654.512       -3118.666          42.000  
G26  21561636.435   113307161.401        2123.419          46.000  
G28  22319362.767   117289033.932       -2396.791          45.000  
G29  21630702.970   113670111.626       -1604.126          46.000  
G31  21744883.906   114270130.842        -827.110          46.000  
E27  24342241.328   127919349.354        1329.042          44.000  
E30  24884135.399   130767030.191       -1262.753          43.000  
E15  25222358.872   132544391.430        2505.432          45.000  
G05  24537989.113   128948014.140        1785.199          42.000  
G16  23733113.983   124718357.275        3414.748          40.000  
E34  24793499.542   130290728.333        -337.774          44.000  
> 2024 02 04 15 21 44.0020000  0 12                     
G18  22341855.046   117407237.216        2718.637          45.000  
G25  23642232.381   124240773.138       -3118.764          41.000  
G26  21561232.469   113305038.045        2123.224          46.000  
G28  22319818.830   117291430.995       -2397.359          45.000  
G29  21631008.296   113671715.722       -1604.222          46.000  
G31  21745041.604   114270958.196        -827.919          46.000  
E27  24341988.614   127918020.520        1328.636          44.000  
E30  24884375.614   130768293.160       -1263.072          43.000  
E15  25221882.136   132541886.000        2505.302          45.000  
G05  24537649.108   128946229.049        1784.918          42.000  
G16  23732463.812   124714942.319        3414.991          40.000  
E34  24793563.994   130291066.305        -338.349          44.000  
> 2024 02 04 15 21 45.0020000  0 12                     
G18  22341337.950   117404518.858        2718.310          45.000  
G25  23642825.996   124243891.985       -3118.795          41.000  
G26  21560828.487   113302915.107        2122.937          46.000  
G28  22320275.178   117293828.568       -2397.741          45.000  
G29  21631313.854   113673320.235       -1604.662          47.000  
G31  21745199.343   114271786.216        -828.240          46.000  
E27  24341735.752   127916691.947        1328.403          44.000  
E30  24884616.028   130769556.416       -1263.565          43.000  
E15  25221405.348   132539380.957        2504.856          45.000  
G05  24537309.555   128944444.560        1784.241          42.000  
G16  23731813.974   124711527.577        3414.676          40.000  
E34  24793628.239   130291404.773        -338.834          44.000  
> 2024 02 04 15 21 46.0020000  0 12                     
G18  22340820.929   117401801.084        2717.765          45.000  
G25  23643419.711   124247011.117       -3119.049          41.000  
G26  21560424.576   113300792.647        2122.418          46.000  
G28  22320731.680   117296226.701       -2398.095          45.000  
G29  21631619.143   113674925.190       -1604.895          47.000  
G31  21745357.547   114272614.975        -828.938          46.000  
E27  24341482.985   127915363.683        1328.364          44.000  
E30  24884856.787   130770819.997       -1263.587          43.000  
E15  25220928.868   132536876.340        2504.573          45.000  
G05  24536970.345   128942660.687        1783.679          42.000  
G16  23731164.191   124708113.074        3414.604          40.000  
E34  24793692.546   130291743.791        -339.073          44.000  
> 2024 02 04 15 21 47.0020000  0 12                     
G18  22340303.805   117399083.823        2717.121          45.000  
G25  23644013.049   124250130.494       -3119.592          41.000  
G26  21560020.791   113298670.630        2121.808          46.000  
G28  22321188.088   117298625.379       -2399.014          45.000  
G29  21631924.862   113676530.577       -1605.628          47.000  
G31  21745515.181   114273444.434        -829.817          46.000  
E27  24341230.223   127914035.716        1327.743          44.000  
E30  24885097.094   130772083.876       -1263.832          43.000  
E15  25220452.292   132534372.117        2504.044          45.000  
G05  24536631.034   128940877.404        1783.057          42.000  
G16  23730514.291   124704698.790        3414.153          40.000  
E34  24793757.430   130292083.343        -339.795          44.000  
> 2024 02 04 15 21 48.0020000  0 12                     
G18  22339786.713   117396367.067        2716.490          45.000  
G25  23644606.694   124253250.068       -3119.832          41.000  
G26  21559617.008   113296549.005        2121.356          46.000  
G28  22321644.865   117301024.541       -2399.339          45.000  
G29  21632230.470   113678136.340       -1605.951          47.000  
G31  21745673.178   114274274.542        -830.428          46.000  
E27  24340977.317   127912707.989        1327.689          44.000  
E30  24885337.422   130773348.036       -1264.132          43.000  
E15  25219975.430   132531868.251        2503.675          45.000  
G05  24536291.979   128939094.686        1782.593          42.000  
G16  23729864.604   124701284.679        3414.023          40.000  
E34  24793822.233   130292423.382        -340.188          44.000  
> 2024 02 04 15 21 49.0020000  0 12                     
G18  22339269.877   117393650.758        2715.821          45.000  
G25  23645200.595   124256369.800       -3120.198          41.000  
G26  21559213.352   113294427.747        2120.776          46.000  
G28  22322101.192   117303424.168       -2400.306          45.000  
G29  21632536.061   113679742.450       -1606.605          47.000  
G31  21745830.930   114275105.275        -831.315          46.000  
E27  24340724.780   127911380.480        1326.960          44.000  
E30  24885578.046   130774612.430       -1264.967          43.000  
E15  25219498.991   132529364.704        2503.053          45.000  
G05  24535953.041   128937312.496        1781.732          42.000  
G16  23729215.126   124697870.710        3413.607          40.000  
E34  24793887.157   130292763.879        -341.061          44.000  
> 2024 02 04 15 21 50.0020000  0 12                     
G18  22338752.991   117390935.300        2715.034          45.000  
G25  23645794.195   124259490.097       -3120.435          41.000  
G26  21558809.944   113292307.237        2120.337          46.000  
G28  22322558.017   117305824.624       -2400.576          45.000  
G29  21632841.758   113681349.284       -1606.921          47.000  
G31  21745989.336   114275937.023        -832.061          46.000  
E27  24340472.319   127910053.576        1326.651          44.000  
E30  24885819.038   130775877.445       -1265.402          43.000  
E15  25219022.968   132526861.863        2502.688          45.000  
G05  24535614.029   128935531.187        1781.226          42.000  
G16  23728565.642   124694457.265        3413.541          40.000  
E34  24793952.135   130293105.206        -341.586          44.000  
> 2024 02 04 15 21 51.0020000  0 12                     
G18  22338236.024   117388220.170        2715.108          45.000  
G25  23646388.069   124262610.448       -3120.203          41.000  
G26  21558406.214   113290186.977        2120.288          46.000  
G28  22323015.021   117308225.432       -2400.697          45.000  
G29  21633147.464   113682956.364       -1607.188          47.000  
G31  21746147.693   114276769.269        -832.120          46.000  
E27  24340219.577   127908726.755        1326.846          44.000  
E30  24886059.587   130777142.547       -1265.054          43.000  
E15  25218546.830   132524359.235        2502.612          45.000  
G05  24535275.122   128933750.274        1780.768          42.000  
G16  23727916.414   124691043.851        3413.614          40.000  
E34  24794016.950   130293446.874        -341.669          44.000  
> 2024 02 04 15 21 52.0020000  0 12                     
G18  22337719.355   117385505.796        2714.030          44.000  
G25  23646981.488   124265731.253       -3121.101          41.000  
G26  21558002.828   113288067.368        2119.312          46.000  
G28  22323472.171   117310626.994       -2402.036          45.000  
G29  21633453.395   113684564.064       -1608.120          47.000  
G31  21746306.405   114277602.433        -833.688          46.000  
E27  24339967.235   127907400.448        1325.950          44.000  
E30  24886300.443   130778408.196       -1265.883          43.000  
E15  25218070.649   132521857.219        2501.706          45.000  
G05  24534936.321   128931970.161        1779.626          42.000  
G16  23727266.899   124687630.861        3412.649          40.000  
E34  24794081.884   130293789.283        -342.864          44.000  
> 2024 02 04 15 21 53.0020000  0 12                     
G18  22337202.663   117382792.320        2712.579          44.000  
G25  23647575.426   124268852.671       -3122.209          41.000  
G26  21557599.285   113285948.566        2117.841          46.000  
G28  22323929.559   117313029.434       -2403.247          45.000  
G29  21633759.700   113686172.560       -1609.411          47.000  
G31  21746465.101   114278436.667        -835.215          46.000  
E27  24339714.792   127906074.787        1324.776          44.000  
E30  24886541.274   130779674.513       -1267.264          43.000  
E15  25217594.387   132519355.962        2500.311          45.000  
G05  24534597.864   128930191.009        1778.271          42.000  
G16  23726617.422   124684218.451        3411.819          40.000  
E34  24794147.045   130294132.580        -344.226          44.000  
> 2024 02 04 15 21 54.0020000  0 12                     
G18  22336686.180   117380079.710        2712.139          44.000  
G25  23648169.355   124271974.655       -3122.248          41.000  
G26  21557195.926   113283830.542        2117.395          46.000  
G28  22324387.177   117315432.760       -2403.772          45.000  
G29  21634065.513   113687781.800       -1609.562          47.000  
G31  21746624.053   114279271.921        -835.688          46.000  
E27  24339462.857   127904749.752        1324.800          44.000  
E30  24886782.750   130780941.457       -1267.034          43.000  
E15  25217118.836   132516855.442        2500.156          45.000  
G05  24534259.410   128928412.812        1777.692          42.000  
G16  23725967.892   124680806.586        3411.547          40.000  
E34  24794212.355   130294476.746        -344.484          44.000  
> 2024 02 04 15 21 55.0020000  0 12                     
G18  22336170.278   117377367.788        2711.761          44.000  
G25  23648763.249   124275097.055       -3122.503          41.000  
G26  21556792.954   113281713.086        2117.468          45.000  
G28  22324844.960   117317836.755       -2404.236          45.000  
G29  21634372.040   113689391.626       -1609.943          47.000  
G31  21746782.970   114280108.044        -836.436          46.000  
E27  24339210.895   127903425.176        1324.365          44.000  
E30  24887023.746   130782208.877       -1267.589          43.000  
E15  25216642.831   132514355.482        2499.605          45.000  
G05  24533921.299   128926635.355        1777.179          42.000  
G16  23725318.818   124677395.111        3411.267          41.000  
E34  24794277.891   130294821.603        -345.183          44.000  
> 2024 02 04 15 21 56.0020000  0 12                     
G18  22335654.401   117374656.546        2711.388          45.000  
G25  23649357.708   124278219.841       -3122.719          41.000  
G26  21556390.138   113279596.250        2116.992          45.000  
G28  22325302.734   117320241.454       -2404.660          45.000  
G29  21634678.385   113691002.029       -1610.400          46.000  
G31  21746942.290   114280945.004        -837.071          46.000  
E27  24338958.486   127902101.023        1324.229          44.000  
E30  24887264.635   130783476.751       -1267.872          43.000  
E15  25216167.465   132511856.051        2499.490          45.000  
G05  24533583.384   128924858.643        1776.648          42.000  
G16  23724669.934   124673983.990        3411.133          41.000  
E34  24794343.783   130295167.130        -345.646          44.000  
> 2024 02 04 15 21 57.0020000  0 12                     
G18  22335138.717   117371945.734        2711.033          44.000  
G25  23649951.759   124281342.741       -3122.500          41.000  
G26  21555987.188   113277479.746        2116.742          45.000  
G28  22325760.595   117322646.574       -2405.023          45.000  
G29  21634984.939   113692612.736       -1610.414          46.000  
G31  21747102.128   114281782.570        -837.570          46.000  
E27  24338706.206   127900777.057        1324.249          44.000  
E30  24887506.432   130784744.826       -1267.760          44.000  
E15  25215691.752   132509356.915        2499.433          44.000  
G05  24533245.356   128923082.444        1776.263          42.000  
G16  23724021.015   124670572.975        3411.250          41.000  
E34  24794409.848   130295513.079        -345.766          44.000  
> 2024 02 04 15 21 58.0020000  0 12                     
G18  22334622.753   117369235.138        2710.485          44.000  
G25  23650545.699   124284465.604       -3123.143          40.000  
G26  21555584.302   113275363.357        2116.315          45.000  
G28  22326218.327   117325051.900       -2405.480          45.000  
G29  21635291.629   113694223.560       -1610.997          47.000  
G31  21747261.455   114282620.510        -838.072          46.000  
E27  24338454.334   127899453.060        1323.831          44.000  
E30  24887747.806   130786012.896       -1268.161          43.000  
E15  25215216.544   132506857.871        2498.910          44.000  
G05  24532907.278   128921306.512        1775.470          42.000  
G16  23723371.877   124667161.871        3411.222          41.000  
E34  24794475.805   130295859.241        -346.395          44.000  
> 2024 02 04 15 21 59.0020000  0 12                     
G18  22334107.224   117366524.999        2709.821          44.000  
G25  23651139.611   124287588.605       -3123.232          40.000  
G26  21555181.859   113273247.327        2115.814          45.000  
G28  22326675.983   117327457.684       -2406.041          45.000  
G29  21635598.203   113695834.709       -1611.253          47.000  
G31  21747420.817   114283459.078        -838.901          46.000  
E27  24338202.606   127898129.265        1323.669          44.000  
E30  24887989.044   130787281.183       -1268.435          43.000  
E15  25214740.993   132504359.130        2498.593          45.000  
G05  24532569.472   128919531.060        1775.024          42.000  
G16  23722722.474   124663750.903        3410.607          41.000  
E34  24794541.394   130296205.841        -346.869          44.000  
> 2024 02 04 15 22 00.0020000  0 12                     
G18  22333591.711   117363815.357        2709.202          45.000  
G25  23651734.201   124290711.845       -3123.589          40.000  
G26  21554779.273   113271131.709        2115.112          45.000  
G28  22327134.116   117329863.988       -2406.663          45.000  
G29  21635904.677   113697446.267       -1611.954          46.000  
G31  21747580.896   114284298.315        -839.880          46.000  
E27  24337950.762   127896805.730        1323.248          44.000  
E30  24888230.317   130788549.746       -1268.826          43.000  
E15  25214265.592   132501860.778        2498.119          45.000  
G05  24532231.795   128917756.181        1774.402          42.000  
G16  23722073.278   124660340.110        3410.504          41.000  
E34  24794607.218   130296552.943        -347.364          44.000  
> 2024 02 04 15 22 01.0020000  0 12                     
G18  22333076.308   117361106.067        2709.327          45.000  
G25  23652328.331   124293835.124       -3123.323          41.000  
G26  21554376.468   113269016.353        2115.277          45.000  
G28  22327592.135   117332270.614       -2406.443          45.000  
G29  21636211.251   113699058.056       -1611.660          46.000  
G31  21747741.020   114285138.058        -839.714          47.000  
E27  24337699.104   127895482.318        1323.498          44.000  
E30  24888471.848   130789818.442       -1268.467          44.000  
E15  25213790.414   132499362.629        2498.263          45.000  
G05  24531893.926   128915981.733        1774.261          42.000  
G16  23721424.215   124656929.366        3410.909          41.000  
E34  24794673.368   130296900.398        -347.455          44.000  
> 2024 02 04 15 22 02.0020000  0 12                     
G18  22332560.881   117358397.153        2709.054          45.000  
G25  23652922.672   124296958.497       -3123.260          41.000  
G26  21553974.018   113266901.270        2115.155          45.000  
G28  22328050.089   117334677.638       -2406.971          45.000  
G29  21636518.179   113700670.114       -1611.995          46.000  
G31  21747900.942   114285978.352        -840.579          47.000  
E27  24337447.431   127894159.024        1323.540          44.000  
E30  24888713.307   130791087.289       -1268.653          44.000  
E15  25213314.983   132496864.726        2498.016          45.000  
G05  24531556.304   128914207.697        1774.011          42.000  
G16  23720774.980   124653518.668        3411.003          41.000  
E34  24794739.415   130297248.220        -347.799          43.000  
> 2024 02 04 15 22 03.0020000  0 12                     
G18  22332045.024   117355688.765        2708.007          45.000  
G25  23653516.948   124300082.095       -3123.951          40.000  
G26  21553571.742   113264786.624        2114.117          45.000  
G28  22328508.694   117337085.167       -2407.914          45.000  
G29  21636825.073   113702282.570       -1612.859          46.000  
G31  21748060.895   114286819.322        -841.429          47.000  
E27  24337195.809   127892836.007        1322.858          44.000  
E30  24888955.210   130792356.426       -1269.514          44.000  
E15  25212839.556   132494367.205        2497.085          45.000  
G05  24531218.714   128912434.262        1772.955          42.000  
G16  23720125.648   124650108.189        3409.921          41.000  
E34  24794805.601   130297596.551        -348.614          43.000  
> 2024 02 04 15 22 04.0020000  0 12                     
G18  22331529.685   117352980.977        2707.521          45.000  
G25  23654111.355   124303206.023       -3124.237          40.000  
G26  21553169.532   113262672.478        2113.806          45.000  
G28  22328966.956   117339493.303       -2408.455          45.000  
G29  21637132.007   113703895.527       -1613.188          46.000  
G31  21748221.306   114287661.076        -842.275          47.000  
E27  24336944.018   127891513.359        1322.400          44.000  
E30  24889197.044   130793625.947       -1269.891          44.000  
E15  25212364.406   132491870.152        2496.784          45.000  
G05  24530881.390   128910661.486        1772.339          42.000  
G16  23719476.816   124646697.957        3410.196          41.000  
E34  24794871.812   130297945.498        -349.411          43.000  
> 2024 02 04 15 22 05.0020000  0 12                     
G18  22331014.456   117350273.766        2706.932          45.000  
G25  23654706.006   124306330.224       -3124.349          40.000  
G26  21552767.159   113260558.821        2113.556          45.000  
G28  22329425.723   117341902.005       -2408.755          45.000  
G29  21637439.201   113705508.948       -1613.564          46.000  
G31  21748381.824   114288503.556        -842.757          47.000  
E27  24336692.283   127890191.034        1322.329          44.000  
E30  24889438.880   130794895.809       -1269.960          44.000  
E15  25211889.452   132489373.535        2496.610          44.000  
G05  24530544.082   128908889.353        1771.906          42.000  
G16  23718828.201   124643288.019        3409.810          41.000  
E34  24794938.319   130298294.979        -349.488          43.000  
> 2024 02 04 15 22 06.0020000  0 12                     
G18  22330499.336   117347567.065        2706.552          45.000  
G25  23655300.716   124309454.626       -3124.365          40.000  
G26  21552365.101   113258445.573        2113.208          45.000  
G28  22329884.334   117344311.223       -2409.336          45.000  
G29  21637746.246   113707122.753       -1613.752          46.000  
G31  21748542.297   114289346.713        -843.368          47.000  
E27  24336440.961   127888868.969        1322.037          44.000  
E30  24889680.670   130796165.947       -1270.059          44.000  
E15  25211414.392   132486877.303        2496.108          44.000  
G05  24530207.158   128907117.788        1771.399          42.000  
G16  23718179.194   124639878.267        3409.635          41.000  
E34  24795004.795   130298644.990        -350.043          43.000  
> 2024 02 04 15 22 07.0020000  0 12                     
G18  22329984.553   117344860.863        2705.684          45.000  
G25  23655895.345   124312579.261       -3124.721          40.000  
G26  21551963.179   113256332.742        2112.500          45.000  
G28  22330342.889   117346720.944       -2410.291          45.000  
G29  21638053.122   113708736.956       -1614.544          46.000  
G31  21748702.620   114290190.540        -844.353          47.000  
E27  24336189.584   127887547.169        1321.485          44.000  
E30  24889922.696   130797436.367       -1270.623          44.000  
E15  25210939.404   132484381.425        2495.612          44.000  
G05  24529870.000   128905346.784        1770.642          42.000  
G16  23717530.325   124636468.687        3409.433          41.000  
E34  24795071.737   130298995.493        -350.871          43.000  
> 2024 02 04 15 22 08.0020000  0 12                     
G18  22329469.713   117342155.394        2705.196          45.000  
G25  23656490.323   124315704.352       -3125.207          40.000  
G26  21551561.338   113254220.548        2112.024          45.000  
G28  22330801.690   117349131.382       -2410.639          46.000  
G29  21638360.496   113710351.778       -1614.998          46.000  
G31  21748863.261   114291035.257        -844.911          46.000  
E27  24335938.050   127886225.847        1321.181          44.000  
E30  24890164.305   130798707.299       -1270.866          44.000  
E15  25210464.653   132481886.147        2495.124          44.000  
G05  24529533.178   128903576.585        1769.873          42.000  
G16  23716881.422   124633059.545        3408.973          41.000  
E34  24795138.645   130299346.718        -351.337          43.000  
> 2024 02 04 15 22 09.0020000  0 12                     
G18  22328954.879   117339450.450        2704.877          45.000  
G25  23657085.245   124318829.642       -3125.287          40.000  
G26  21551159.378   113252108.775        2111.768          45.000  
G28  22331260.415   117351542.341       -2411.006          46.000  
G29  21638667.838   113711966.999       -1615.279          46.000  
G31  21749024.093   114291880.669        -845.674          46.000  
E27  24335686.804   127884904.811        1321.113          44.000  
E30  24890405.897   130799978.537       -1271.430          44.000  
E15  25209989.870   132479391.255        2494.799          44.000  
G05  24529196.620   128901806.961        1769.537          42.000  
G16  23716232.751   124629650.600        3408.695          42.000  
E34  24795205.619   130299698.475        -351.905          43.000  
> 2024 02 04 15 22 10.0020000  0 12                     
G18  22328440.178   117336745.802        2704.254          45.000  
G25  23657679.647   124321954.973       -3125.389          40.000  
G26  21550757.539   113249997.235        2110.956          45.000  
G28  22331719.270   117353953.620       -2411.794          45.000  
G29  21638975.158   113713582.413       -1615.745          46.000  
G31  21749184.971   114292726.547        -846.508          46.000  
E27  24335435.436   127883583.836        1320.672          44.000  
E30  24890647.873   130801249.813       -1271.531          44.000  
E15  25209515.014   132476896.529        2494.550          44.000  
G05  24528860.374   128900037.691        1769.018          43.000  
G16  23715584.105   124626241.624        3408.686          42.000  
E34  24795272.342   130300050.505        -352.337          43.000  
> 2024 02 04 15 22 11.0020000  0 12                     
G18  22327925.538   117334041.643        2703.873          45.000  
G25  23658274.536   124325080.450       -3125.564          40.000  
G26  21550355.691   113247886.038        2110.864          45.000  
G28  22332177.908   117356365.347       -2411.967          45.000  
G29  21639282.638   113715198.200       -1616.376          46.000  
G31  21749345.822   114293573.064        -847.178          46.000  
E27  24335183.854   127882263.076        1320.365          44.000  
E30  24890889.824   130802521.357       -1271.838          44.000  
E15  25209040.569   132474402.163        2493.954          44.000  
G05  24528523.982   128898268.953        1768.390          43.000  
G16  23714935.365   124622832.824        3408.476          41.000  
E34  24795339.362   130300403.006        -353.041          43.000  
> 2024 02 04 15 22 12.0020000  0 12                     
G18  22327410.724   117331337.946        2703.599          44.000  
G25  23658869.106   124328206.161       -3125.745          40.000  
G26  21549953.891   113245775.287        2110.669          45.000  
G28  22332637.080   117358777.581       -2412.442          45.000  
G29  21639590.433   113716814.349       -1616.341          46.000  
G31  21749507.049   114294420.236        -847.555          46.000  
E27  24334932.693   127880942.589        1320.331          44.000  
E30  24891131.831   130803793.160       -1271.649          43.000  
E15  25208565.598   132471908.123        2493.854          44.000  
G05  24528187.352   128896500.788        1767.932          42.000  
G16  23714286.685   124619424.223        3408.165          41.000  
E34  24795406.421   130300755.991        -353.148          43.000  
> 2024 02 04 15 22 13.0020000  0 12                     
G18  22326896.032   117328634.833        2702.786          44.000  
G25  23659463.648   124331332.104       -3126.143          40.000  
G26  21549552.678   113243664.959        2110.193          46.000  
G28  22333096.291   117361190.350       -2413.011          45.000  
G29  21639897.908   113718430.918       -1616.829          47.000  
G31  21749668.134   114295268.112        -848.126          46.000  
E27  24334680.906   127879622.381        1320.152          44.000  
E30  24891373.691   130805065.296       -1272.184          44.000  
E15  25208091.046   132469414.511        2493.531          44.000  
G05  24527851.223   128894733.218        1767.297          42.000  
G16  23713638.211   124616015.805        3408.351          41.000  
E34  24795473.284   130301109.506        -353.799          43.000  
> 2024 02 04 15 22 14.0020000  0 13                     
G18  22326381.502   117325932.304        2702.363          44.000  
G25  23660058.480   124334458.363       -3126.209          40.000  
G26  21549151.249   113241555.153        2109.637          46.000  
G28  22333555.720   117363603.727       -2413.600          45.000  
G29  21640205.560   113720048.001       -1617.319          47.000  
G31  21749829.409   114296116.782        -849.132          45.000  
E27  24334429.867   127878302.550        1319.553          44.000  
E30  24891615.852   130806337.809       -1272.737          44.000  
E15  25207616.431   132466921.370        2492.832          44.000  
G05  24527515.084   128892966.313        1766.547          42.000  
G16  23712989.617   124612607.692        3407.952          41.000  
E34  24795540.635   130301463.643        -354.490          42.000  
E13  29051118.582   152664668.4601       3491.643          32.000  
> 2024 02 04 15 22 15.0020000  0 13                     
G18  22325867.170   117323230.348        2701.438          44.000  
G25  23660653.535   124337584.894       -3126.250          40.000  
G26  21548750.003   113239445.815        2109.015          46.000  
G28  22334014.740   117366017.663       -2414.255          45.000  
G29  21640513.384   113721665.528       -1617.926          47.000  
G31  21749990.966   114296966.161        -849.880          45.000  
E27  24334179.040   127876983.018        1319.394          44.000  
E30  24891857.910   130807610.662       -1273.142          44.000  
E15  25207142.201   132464428.645        2492.558          44.000  
G05  24527179.091   128891200.019        1765.936          42.000  
G16  23712341.215   124609199.838        3407.446          41.000  
E34  24795607.777   130301818.320        -354.933          43.000  
E13  29050446.956   152661176.668        3491.654          31.000  
> 2024 02 04 15 22 16.0020000  0 13                     
G18  22325353.014   117320529.041        2701.018          44.000  
G25  23661249.013   124340711.841       -3127.118          40.000  
G26  21548348.443   113237337.040        2108.618          46.000  
G28  22334474.023   117368432.260       -2414.875          45.000  
G29  21640821.450   113723283.602       -1618.325          47.000  
G31  21750152.504   114297816.376        -850.635          45.000  
E27  24333928.212   127875663.917        1318.914          44.000  
E30  24892100.370   130808883.931       -1273.373          44.000  
E15  25206668.131   132461936.462        2491.926          44.000  
G05  24526842.950   128889434.448        1765.448          42.000  
G16  23711692.482   124605792.304        3407.261          41.000  
E34  24795675.438   130302173.681        -355.651          42.000  
E13  29049786.884   152657685.024        3491.665          31.000  
> 2024 02 04 15 22 17.0020000  0 13                     
G18  22324838.861   117317828.111        2700.664          44.000  
G25  23661844.196   124343838.812       -3126.960          40.000  
G26  21547947.400   113235228.530        2108.490          46.000  
G28  22334933.446   117370847.210       -2415.117          45.000  
G29  21641129.667   113724901.929       -1618.547          47.000  
G31  21750314.237   114298667.107        -850.945          45.000  
E27  24333677.276   127874344.937        1318.980          44.000  
E30  24892342.697   130810157.360       -1273.574          44.000  
E15  25206194.098   132459444.494        2491.813          44.000  
G05  24526507.127   128887669.311        1764.728          42.000  
G16  23711044.060   124602384.833        3407.360          41.000  
E34  24795743.103   130302529.378        -355.974          42.000  
E13  29049122.053   152654193.243        3491.912          31.000  
> 2024 02 04 15 22 18.0020000  0 13                     
G18  22324324.751   117315127.693        2700.160          44.000  
G25  23662439.458   124346966.047       -3127.556          40.000  
G26  21547546.498   113233120.475        2107.843          46.000  
G28  22335393.045   117373262.680       -2415.856          45.000  
G29  21641437.777   113726520.668       -1619.270          47.000  
G31  21750476.119   114299518.550        -852.043          45.000  
E27  24333426.290   127873026.238        1318.274          44.000  
E30  24892585.058   130811431.060       -1273.973          44.000  
E15  25205719.747   132456952.916        2491.320          44.000  
G05  24526171.247   128885904.756        1764.050          42.000  
G16  23710395.605   124598977.549        3407.179          41.000  
E34  24795810.832   130302885.589        -356.495          42.000  
E13  29048455.771   152650701.516        3491.674          31.000  
> 2024 02 04 15 22 19.0020000  0 13                     
G18  22323810.836   117312427.754        2699.722          44.000  
G25  23663034.807   124350093.432       -3127.693          40.000  
G26  21547145.427   113231012.792        2107.227          46.000  
G28  22335852.893   117375678.624       -2416.289          45.000  
G29  21641745.723   113728139.749       -1619.438          47.000  
G31  21750638.205   114300370.601        -852.280          45.000  
E27  24333175.966   127871707.746        1318.181          44.000  
E30  24892827.523   130812705.024       -1274.347          44.000  
E15  25205245.609   132454461.682        2490.978          44.000  
G05  24525835.810   128884140.725        1763.617          42.000  
G16  23709747.339   124595570.448        3406.793          41.000  
E34  24795878.432   130303242.283        -357.305          42.000  
E13  29047791.159   152647209.748        3491.739          31.000  
> 2024 02 04 15 22 20.0020000  0 13                     
G18  22323297.217   117309728.375        2699.219          44.000  
G25  23663630.003   124353221.086       -3127.808          41.000  
G26  21546744.508   113228905.551        2107.269          46.000  
G28  22336312.778   117378095.110       -2416.594          45.000  
G29  21642053.955   113729759.277       -1619.501          47.000  
G31  21750800.237   114301223.391        -853.051          45.000  
E27  24332924.825   127870389.570        1318.066          44.000  
E30  24893070.247   130813979.302       -1274.389          44.000  
E15  25204771.550   132451970.861        2490.820          44.000  
G05  24525500.391   128882377.325        1763.116          42.000  
G16  23709099.054   124592163.569        3406.863          42.000  
E34  24795946.206   130303599.501        -357.310          42.000  
E13  29047123.159   152643718.076        3491.889          31.000  
> 2024 02 04 15 22 21.0020000  0 13                     
G18  22322783.710   117307029.432        2698.878          44.000  
G25  23664225.440   124356348.899       -3127.838          40.000  
G26  21546343.332   113226798.661        2106.805          46.000  
G28  22336772.736   117380512.038       -2417.149          45.000  
G29  21642362.165   113731379.137       -1619.812          47.000  
G31  21750962.441   114302076.768        -853.780          45.000  
E27  24332673.793   127869071.576        1317.850          44.000  
E30  24893312.861   130815253.796       -1274.558          44.000  
E15  25204297.552   132449480.361        2490.334          44.000  
G05  24525164.932   128880614.418        1762.714          42.000  
G16  23708450.619   124588756.799        3406.780          41.000  
E34  24796014.397   130303957.171        -357.911          43.000  
E13  29046458.253   152640226.334        3491.574          31.000  
> 2024 02 04 15 22 22.0020000  0 13                     
G18  22322270.745   117304331.176        2698.370          44.000  
G25  23664820.965   124359477.083       -3127.650          40.000  
G26  21545942.629   113224692.361        2106.274          46.000  
G28  22337232.688   117382929.633       -2417.359          45.000  
G29  21642670.464   113732999.555       -1620.323          47.000  
G31  21751125.066   114302930.995        -854.390          45.000  
E27  24332423.229   127867754.038        1317.783          44.000  
E30  24893555.260   130816528.732       -1274.708          44.000  
E15  25203823.820   132446990.378        2490.232          44.000  
G05  24524829.633   128878852.250        1762.280          43.000  
G16  23707802.394   124585350.383        3406.807          41.000  
E34  24796082.519   130304315.498        -358.464          43.000  
E13  29045794.560   152636734.756        3491.906          31.000  
> 2024 02 04 15 22 23.0020000  0 13                     
G18  22321757.275   117301633.310        2697.887          44.000  
G25  23665416.493   124362605.394       -3128.148          40.000  
G26  21545541.582   113222586.350        2106.067          45.000  
G28  22337692.892   117385347.629       -2418.038          45.000  
G29  21642978.934   113734620.270       -1620.755          47.000  
G31  21751287.582   114303785.793        -855.131          45.000  
E27  24332172.581   127866436.646        1317.427          44.000  
E30  24893798.320   130817803.848       -1274.750          44.000  
E15  25203350.177   132444500.678        2489.806          44.000  
G05  24524494.410   128877090.564        1761.475          43.000  
G16  23707154.232   124581944.067        3406.403          42.000  
E34  24796150.638   130304674.223        -358.797          43.000  
E13  29045132.651   152633243.079        3492.188          31.000  
> 2024 02 04 15 22 24.0020000  0 13                     
G18  22321243.985   117298936.060        2697.006          44.000  
G25  23666011.886   124365734.010       -3128.645          40.000  
G26  21545140.711   113220480.893        2104.987          46.000  
G28  22338152.838   117387766.253       -2419.196          45.000  
G29  21643287.530   113736241.480       -1621.413          46.000  
G31  21751450.310   114304641.372        -856.095          45.000  
E27  24331922.013   127865119.637        1316.708          44.000  
E30  24894041.083   130819079.378       -1275.863          44.000  
E15  25202876.214   132442011.452        2488.976          44.000  
G05  24524159.673   128875329.549        1760.645          43.000  
G16  23706506.233   124578538.059        3405.517          42.000  
E34  24796219.568   130305033.551        -359.593          44.000  
E13  29044469.168   152629751.610        3490.710          31.000  
> 2024 02 04 15 22 25.0020000  0 13                     
G18  22320731.193   117296239.585        2696.032          44.000  
G25  23666607.272   124368863.119       -3129.531          40.000  
G26  21544740.139   113218376.107        2104.431          46.000  
G28  22338612.922   117390185.630       -2419.843          45.000  
G29  21643596.050   113737863.346       -1622.072          46.000  
G31  21751613.402   114305497.855        -856.957          46.000  
E27  24331671.856   127863803.147        1316.090          44.000  
E30  24894283.798   130820355.418       -1276.279          44.000  
E15  25202402.735   132439522.871        2488.117          44.000  
G05  24523824.865   128873569.373        1759.570          43.000  
G16  23705858.182   124575132.490        3405.443          42.000  
E34  24796288.351   130305393.670        -360.641          44.000  
E13  29043805.464   152626260.331        3491.347          31.000  
> 2024 02 04 15 22 26.0020000  0 13                     
G18  22320218.342   117293543.982        2695.379          44.000  
G25  23667202.885   124371992.782       -3129.694          41.000  
G26  21544339.936   113216272.083        2103.851          46.000  
G28  22339073.374   117392605.863       -2420.393          45.000  
G29  21643904.694   113739485.981       -1623.006          46.000  
G31  21751776.540   114306355.405        -857.974          46.000  
E27  24331420.972   127862487.272        1315.685          44.000  
E30  24894526.714   130821632.112       -1276.751          44.000  
E15  25201929.187   132437035.002        2487.715          44.000  
G05  24523490.106   128871810.108        1758.929          43.000  
G16  23705210.210   124571727.487        3404.818          42.000  
E34  24796357.246   130305754.611        -361.124          44.000  
E13  29043137.356   152622769.460        3490.370          31.000  
> 2024 02 04 15 22 27.0020000  0 13                     
G18  22319705.666   117290848.911        2694.600          45.000  
G25  23667798.738   124375122.699       -3130.118          41.000  
G26  21543939.717   113214168.506        2103.247          46.000  
G28  22339533.984   117395026.640       -2421.223          44.000  
G29  21644213.445   113741109.012       -1623.571          46.000  
G31  21751939.948   114307213.646        -858.821          45.000  
E27  24331170.581   127861171.691        1315.276          44.000  
E30  24894769.523   130822909.112       -1277.328          44.000  
E15  25201456.212   132434547.555        2486.968          44.000  
G05  24523155.339   128870051.459        1758.154          43.000  
G16  23704562.142   124568322.682        3404.620          42.000  
E34  24796426.214   130306116.096        -361.954          44.000  
E13  29042472.894   152619278.584        3490.744          32.000  
> 2024 02 04 15 22 28.0020000  0 13                     
G18  22319193.116   117288154.475        2694.029          44.000  
G25  23668394.266   124378252.966       -3130.440          41.000  
G26  21543539.603   113212065.484        2102.533          46.000  
G28  22339994.438   117397448.031       -2421.917          45.000  
G29  21644522.556   113742732.579       -1624.081          46.000  
G31  21752103.177   114308072.696        -859.647          45.000  
E27  24330920.242   127859856.506        1314.840          44.000  
E30  24895012.462   130824186.526       -1277.831          44.000  
E15  25200982.942   132432060.608        2486.473          44.000  
G05  24522820.729   128868293.498        1757.300          43.000  
G16  23703914.385   124564918.213        3404.357          42.000  
E34  24796495.310   130306478.209        -362.600          44.000  
E13  29041806.346   152615787.928        3489.903          31.000  
> 2024 02 04 15 22 29.0020000  0 13                     
G18  22318680.335   117285460.408        2693.548          44.000  
G25  23668989.746   124381383.307       -3130.747          40.000  
G26  21543139.538   113209962.738        2101.984          46.000  
G28  22340455.061   117399869.813       -2422.635          45.000  
G29  21644831.619   113744356.399       -1624.643          46.000  
G31  21752266.590   114308932.289        -860.525          45.000  
E27  24330670.069   127858541.464        1314.278          44.000  
E30  24895255.197   130825464.099       -1278.410          44.000  
E15  25200509.836   132429573.886        2486.058          44.000  
G05  24522486.040   128866535.985        1756.836          43.000  
G16  23703266.626   124561513.799        3404.115          42.000  
E34  24796564.297   130306840.701        -363.438          44.000  
E13  29041142.808   152612297.085        3490.518          31.000  
> 2024 02 04 15 22 30.0020000  0 13                     
G18  22318167.948   117282766.879        2693.287          44.000  
G25  23669585.608   124384513.889       -3130.442          40.000  
G26  21542739.273   113207860.422        2102.130          46.000  
G28  22340916.074   117402292.102       -2422.509          45.000  
G29  21645140.674   113745980.611       -1624.262          46.000  
G31  21752430.181   114309792.548        -860.551          45.000  
E27  24330419.990   127857226.682        1314.606          44.000  
E30  24895498.492   130826741.922       -1277.793          44.000  
E15  25200036.726   132427087.547        2486.361          44.000  
G05  24522151.664   128864779.054        1756.805          43.000  
G16  23702618.872   124558109.607        3404.338          42.000  
E34  24796633.197   130307203.682        -363.068          44.000  
E13  29040479.941   152608806.298        3491.630          31.000  
> 2024 02 04 15 22 31.0020000  0 13                     
G18  22317655.605   117280073.976        2692.779          44.000  
G25  23670181.221   124387644.814       -3130.917          40.000  
G26  21542339.371   113205758.638        2101.782          46.000  
G28  22341377.091   117404715.011       -2422.896          45.000  
G29  21645449.889   113747605.355       -1624.745          46.000  
G31  21752593.866   114310653.607        -861.147          45.000  
E27  24330169.675   127855912.284        1314.537          44.000  
E30  24895741.807   130828020.180       -1278.186          44.000  
E15  25199563.607   132424601.724        2485.802          44.000  
G05  24521817.431   128863022.819        1756.256          43.000  
G16  23701971.148   124554705.722        3404.045          42.000  
E34  24796702.069   130307567.310        -363.685          44.000  
E13  29039815.655   152605315.657        3490.842          31.000  
> 2024 02 04 15 22 32.0020000  0 14                     
G18  22317143.302   117277381.425        2692.468          45.000  
G25  23670777.146   124390775.771       -3130.908          40.000  
G26  21541939.527   113203657.121        2101.227          46.000  
G28  22341838.176   117407138.273       -2423.402          45.000  
G29  21645759.229   113749230.324       -1625.145          46.000  
G31  21752757.497   114311515.168        -861.701          45.000  
E27  24329919.481   127854597.998        1314.410          44.000  
E30  24895984.983   130829298.553       -1278.374          44.000  
E15  25199090.527   132422116.103        2485.508          44.000  
G05  24521483.211   128861267.001        1755.560          43.000  
G16  23701323.481   124551301.877        3403.625          43.000  
E34  24796771.305   130307931.264        -363.839          44.000  
E13  29039150.837   152601824.840        3491.422          31.000  
G20  25020280.643                        -656.000          29.000  
> 2024 02 04 15 22 33.0020000  0 14                     
G18  22316630.992   117274689.415        2692.162          45.000  
G25  23671373.130   124393906.990       -3130.975          41.000  
G26  21541539.883   113201556.036        2101.263          46.000  
G28  22342299.355   117409562.071       -2423.816          45.000  
G29  21646068.430   113750855.712       -1625.162          46.000  
G31  21752921.437   114312377.431        -862.180          45.000  
E27  24329669.561   127853284.012        1314.020          44.000  
E30  24896228.243   130830577.239       -1278.492          44.000  
E15  25198617.598   132419630.891        2485.346          44.000  
G05  24521149.376   128859511.772        1755.170          43.000  
G16  23700676.061   124547898.226        3403.853          43.000  
E34  24796840.445   130308295.757        -364.508          44.000  
E13  29038492.300   152598334.115        3491.032          31.000  
G20  25020396.931                        -656.000          29.000  
> 2024 02 04 15 22 34.0020000  0 14                     
G18  22316118.760   117271997.846        2691.250          45.000  
G25  23671969.159   124397038.354       -3131.562          41.000  
G26  21541140.120   113199455.307        2100.287          46.000  
G28  22342760.523   117411986.293       -2424.671          45.000  
G29  21646377.774   113752481.446       -1625.995          46.000  
G31  21753085.668   114313240.305        -863.271          45.000  
E27  24329419.242   127851970.207        1313.674          44.000  
E30  24896471.547   130831856.136       -1279.034          44.000  
E15  25198145.299   132417145.978        2484.886          44.000  
G05  24520815.320   128857757.036        1754.517          43.000  
G16  23700028.514   124544494.703        3403.264          43.000  
E34  24796909.775   130308660.683        -365.198          44.000  
E13  29037833.007   152594843.284        3490.850          31.000  
G20  25020514.594   131483691.1243       -654.370          30.000  
> 2024 02 04 15 22 35.0020000  0 14                     
G18  22315606.897   117269306.762        2690.960          44.000  
G25  23672564.940   124400169.921       -3131.765          40.000  
G26  21540740.615   113197354.975        2099.921          46.000  
G28  22343221.941   117414411.011       -2425.137          45.000  
G29  21646687.334   113754107.540       -1626.395          46.000  
G31  21753249.909   114314103.822        -863.914          45.000  
E27  24329169.180   127850656.653        1313.343          44.000  
E30  24896714.912   130833135.298       -1279.380          44.000  
E15  25197672.773   132414661.434        2484.253          44.000  
G05  24520481.562   128856002.871        1753.790          43.000  
G16  23699381.093   124541091.355        3403.286          43.000  
E34  24796979.399   130309026.079        -365.675          44.000  
E13  29037159.488   152591352.541        3490.405          31.000  
G20  25020643.442   131484348.9262       -658.062          30.000  
> 2024 02 04 15 22 36.0020000  0 14                     
G18  22315095.074   117266616.119        2690.676          44.000  
G25  23673160.739   124403301.624       -3131.600          40.000  
G26  21540341.079   113195254.975        2100.153          46.000  
G28  22343683.635   117416836.134       -2424.952          45.000  
G29  21646996.731   113755733.948       -1626.244          46.000  
G31  21753414.393   114314967.929        -864.199          45.000  
E27  24328919.566   127849343.280        1313.608          44.000  
E30  24896958.439   130834414.653       -1279.054          44.000  
E15  25197200.160   132412177.166        2484.251          44.000  
G05  24520147.777   128854249.187        1753.656          43.000  
G16  23698733.660   124537688.135        3403.540          43.000  
E34  24797049.182   130309391.905        -365.875          44.000  
E13  29036496.384   152587861.635        3491.359          31.000  
G20  25020779.002   131485007.1792       -658.788          30.000  
> 2024 02 04 15 22 37.0020000  0 14                     
G18  22314583.246   117263926.071        2689.995          44.000  
G25  23673756.493   124406433.640       -3132.356          40.000  
G26  21539941.595   113193155.490        2099.243          46.000  
G28  22344144.835   117419261.864       -2425.989          45.000  
G29  21647306.534   113757360.845       -1627.138          46.000  
G31  21753578.826   114315832.794        -864.975          45.000  
E27  24328669.866   127848030.279        1312.656          44.000  
E30  24897201.954   130835694.386       -1279.826          44.000  
E15  25196727.429   132409693.365        2483.711          44.000  
G05  24519814.536   128852496.170        1752.686          43.000  
G16  23698086.213   124534285.217        3402.577          43.000  
E34  24797119.031   130309758.327        -366.787          44.000  
E13  29035830.937   152584370.874        3490.649          31.000  
G20  25020898.625   131485666.1242       -659.421          30.000  
> 2024 02 04 15 22 38.0020000  0 14                     
G18  22314071.688   117261236.510        2689.202          44.000  
G25  23674352.460   124409565.848       -3132.687          40.000  
G26  21539542.387   113191056.404        2098.584          46.000  
G28  22344606.662   117421688.086       -2426.745          45.000  
G29  21647616.312   113758988.110       -1627.775          46.000  
G31  21753743.585   114316698.316        -866.109          45.000  
E27  24328420.075   127846717.499        1312.520          44.000  
E30  24897445.531   130836974.382       -1280.255          44.000  
E15  25196254.356   132407209.926        2483.143          44.000  
G05  24519480.877   128850743.689        1752.075          43.000  
G16  23697438.583   124530882.437        3402.364          43.000  
E34  24797188.841   130310125.209        -367.236          44.000  
E13  29035165.183   152580880.113        3490.150          31.000  
G20  25021032.191   131486325.6862       -659.983          30.000  
> 2024 02 04 15 22 39.0020000  0 14                     
G18  22313559.889   117258547.465        2688.684          44.000  
G25  23674948.594   124412698.245       -3132.426          40.000  
G26  21539143.113   113188957.733        2098.309          46.000  
G28  22345068.630   117424114.807       -2427.081          45.000  
G29  21647925.907   113760615.773       -1627.966          46.000  
G31  21753908.328   114317564.502        -866.713          45.000  
E27  24328170.160   127845404.998        1312.421          44.000  
E30  24897689.402   130838254.653       -1280.279          44.000  
E15  25195782.073   132404726.856        2482.827          45.000  
G05  24519147.796   128848991.785        1751.568          43.000  
G16  23696791.158   124527479.869        3402.233          43.000  
E34  24797258.397   130310492.604        -367.530          44.000  
E13  29034506.328   152577389.352        3490.225          31.000  
G20  25021158.995   131486985.8922       -661.023          31.000  
> 2024 02 04 15 22 40.0020000  0 14                     
G18  22313048.473   117255858.801        2688.302          44.000  
G25  23675544.676   124415830.763       -3132.807          40.000  
G26  21538743.793   113186859.343        2098.016          46.000  
G28  22345530.502   117426541.907       -2427.577          45.000  
G29  21648235.478   113762243.706       -1628.272          46.000  
G31  21754073.560   114318431.248        -867.428          45.000  
E27  24327920.517   127844092.638        1312.031          44.000  
E30  24897932.970   130839535.088       -1280.797          44.000  
E15  25195310.145   132402244.040        2482.391          45.000  
G05  24518814.737   128847240.331        1751.068          43.000  
G16  23696143.592   124524077.354        3402.231          43.000  
E34  24797328.032   130310860.391        -368.178          44.000  
E13  29033840.450   152573898.461        3491.012          31.000  
G20  25021281.601   131487646.5712       -661.715          31.000  
> 2024 02 04 15 22 41.0020000  0 14                     
G18  22312537.112   117253170.700        2688.010          44.000  
G25  23676141.040   124418963.545       -3132.821          40.000  
G26  21538344.628   113184761.424        2097.919          46.000  
G28  22345992.342   117428969.551       -2427.864          45.000  
G29  21648545.279   113763872.076       -1628.458          46.000  
G31  21754238.772   114319298.708        -867.707          45.000  
E27  24327670.695   127842780.589        1312.027          44.000  
E30  24898176.702   130840815.863       -1280.933          44.000  
E15  25194837.726   132399761.639        2482.391          45.000  
G05  24518481.809   128845489.494        1750.568          43.000  
G16  23695496.173   124520675.089        3402.212          43.000  
E34  24797398.403   130311228.708        -368.366          44.000  
E13  29033177.451   152570407.661        3490.804          31.000  
G20  25021403.146   131488307.9072       -660.897          31.000  
> 2024 02 04 15 22 42.0020000  0 14                     
G18  22312025.598   117250483.089        2687.389          45.000  
G25  23676737.383   124422096.501       -3133.065          40.000  
G26  21537945.360   113182663.913        2097.314          46.000  
G28  22346454.437   117431397.683       -2428.378          45.000  
G29  21648855.277   113765500.827       -1628.812          46.000  
G31  21754403.918   114320166.820        -868.326          45.000  
E27  24327421.146   127841468.773        1311.752          44.000  
E30  24898420.372   130842096.877       -1281.067          44.000  
E15  25194365.449   132397279.602        2481.822          44.000  
G05  24518149.022   128843739.205        1750.067          43.000  
G16  23694848.755   124517272.991        3402.089          43.000  
E34  24797468.642   130311597.516        -368.999          44.000  
E13  29032509.910   152566916.904        3490.095          31.000  
G20  25021531.961   131488969.8332       -661.669          30.000  
> 2024 02 04 15 22 43.0020000  0 14                     
G18  22311514.414   117247795.951        2686.878          44.000  
G25  23677333.385   124425229.646       -3132.939          40.000  
G26  21537546.512   113180566.762        2096.954          46.000  
G28  22346916.728   117433826.267       -2428.785          45.000  
G29  21649165.043   113767129.920       -1629.096          46.000  
G31  21754569.336   114321035.570        -869.071          45.000  
E27  24327171.479   127840157.197        1311.388          44.000  
E30  24898664.498   130843378.145       -1281.343          44.000  
E15  25193893.134   132394797.907        2481.466          44.000  
G05  24517816.207   128841989.459        1749.487          43.000  
G16  23694201.496   124513871.058        3401.856          43.000  
E34  24797539.221   130311966.787        -369.581          44.000  
E13  29031840.223   152563426.071        3490.712          30.000  
G20  25021657.217   131489632.3622       -662.184          30.000  
> 2024 02 04 15 22 44.0020000  0 14                     
G18  22311003.244   117245109.197        2686.489          45.000  
G25  23677929.523   124428362.873       -3133.143          41.000  
G26  21537147.161   113178469.915        2096.564          47.000  
G28  22347379.168   117436255.238       -2429.218          45.000  
G29  21649475.063   113768759.276       -1629.483          46.000  
G31  21754734.720   114321904.862        -869.859          45.000  
E27  24326921.937   127838845.742        1311.218          44.000  
E30  24898908.210   130844659.556       -1281.357          44.000  
E15  25193420.936   132392316.440        2481.435          45.000  
G05  24517483.307   128840240.146        1748.773          43.000  
G16  23693554.090   124510469.191        3401.518          43.000  
E34  24797609.775   130312336.416        -369.715          44.000  
E13  29031177.407   152559935.104        3490.782          30.000  
G20  25021784.082   131490295.3662       -663.625          30.000  
> 2024 02 04 15 22 45.0020000  0 14                     
G18  22310491.785   117242423.195        2685.671          45.000  
G25  23678525.778   124431496.566       -3133.865          40.000  
G26  21536748.275   113176373.723        2095.880          46.000  
G28  22347841.396   117438684.942       -2429.848          45.000  
G29  21649785.289   113770389.269       -1630.052          46.000  
G31  21754900.506   114322775.072        -870.582          45.000  
E27  24326672.586   127837534.796        1310.796          44.000  
E30  24899152.044   130845941.500       -1282.027          44.000  
E15  25192948.319   132389835.594        2480.681          44.000  
G05  24517150.597   128838491.643        1748.260          43.000  
G16  23692906.552   124507067.740        3401.492          43.000  
E34  24797680.093   130312706.797        -370.657          44.000  
E13  29030511.297   152556444.428        3490.486          30.000  
G20  25021907.970   131490959.1792       -663.665          29.000  
> 2024 02 04 15 22 46.0020000  0 14                     
G18  22309980.757   117239737.688        2684.934          44.000  
G25  23679122.459   124434630.439       -3133.977          40.000  
G26  21536349.499   113174277.916        2095.605          47.000  
G28  22348304.143   117441115.133       -2430.461          45.000  
G29  21650095.571   113772019.636       -1630.505          46.000  
G31  21755065.978   114323645.918        -871.296          45.000  
E27  24326423.168   127836224.091        1310.553          44.000  
E30  24899396.297   130847223.697       -1282.433          44.000  
E15  25192476.345   132387355.107        2480.165          44.000  
G05  24516817.979   128836743.717        1747.546          43.000  
G16  23692259.051   124503666.472        3401.296          43.000  
E34  24797750.563   130313077.663        -371.115          44.000  
E13  29029847.192   152552953.755        3490.171          30.000  
G20  25022034.397   131491623.7012       -664.916          30.000  
> 2024 02 04 15 22 47.0020000  0 14                     
G18  22309469.710   117237052.606        2684.461          45.000  
G25  23679719.004   124437764.454       -3134.177          40.000  
G26  21535950.484   113172182.445        2095.197          47.000  
G28  22348766.674   117443545.748       -2431.019          45.000  
G29  21650406.118   113773650.333       -1631.162          46.000  
G31  21755232.067   114324517.377        -872.201          45.000  
E27  24326174.058   127834913.581        1310.178          44.000  
E30  24899640.415   130848506.084       -1282.630          44.000  
E15  25192004.107   132384874.912        2479.915          45.000  
G05  24516485.399   128834996.264        1747.082          43.000  
G16  23691611.938   124500265.341        3400.523          43.000  
E34  24797821.727   130313448.938        -371.624          44.000  
E13  29029182.550   152549462.938        3491.683          30.000  
G20  25022158.657   131492288.6652       -665.216          29.000  
> 2024 02 04 15 22 48.0020000  0 14                     
G18  22308958.812   117234367.921        2684.633          45.000  
G25  23680315.372   124440898.580       -3134.134          40.000  
G26  21535552.056   113170087.291        2094.977          47.000  
G28  22349229.408   117445976.751       -2431.185          45.000  
G29  21650716.265   113775281.288       -1631.316          46.000  
G31  21755397.979   114325389.356        -872.131          46.000  
E27  24325924.402   127833603.233        1310.170          44.000  
E30  24899884.600   130849788.669       -1282.500          44.000  
E15  25191532.148   132382394.980        2479.887          44.000  
G05  24516153.165   128833249.282        1746.673          43.000  
G16  23690964.928   124496864.243        3400.997          43.000  
E34  24797892.732   130313820.625        -372.026          45.000  
E13  29028518.264   152545972.151        3490.739          30.000  
G20  25022285.959   131492954.1812       -665.660          30.000  
> 2024 02 04 15 22 49.0020000  0 14                     
G18  22308448.090   117231684.020        2683.292          44.000  
G25  23680911.829   124444033.198       -3135.022          40.000  
G26  21535153.491   113167992.830        2093.951          47.000  
G28  22349692.401   117448408.538       -2432.325          45.000  
G29  21651026.514   113776912.908       -1632.017          46.000  
G31  21755564.271   114326262.303        -873.641          46.000  
E27  24325675.590   127832293.397        1309.447          44.000  
E30  24900128.838   130851071.798       -1283.525          44.000  
E15  25191060.598   132379915.699        2478.887          44.000  
G05  24515820.808   128831503.138        1745.483          43.000  
G16  23690317.753   124493463.641        3400.247          43.000  
E34  24797963.617   130314193.066        -373.050          45.000  
E13  29027853.793   152542481.598        3490.677          29.000  
G20  25022413.186   131493620.6112       -667.407          30.000  
> 2024 02 04 15 22 50.0020000  0 14                     
G18  22307937.413   117229000.628        2683.176          45.000  
G25  23681508.340   124447168.027       -3134.864          40.000  
G26  21534754.976   113165898.795        2093.793          47.000  
G28  22350155.515   117450840.824       -2432.452          45.000  
G29  21651337.150   113778544.934       -1632.139          46.000  
G31  21755730.724   114327135.919        -873.795          46.000  
E27  24325426.270   127830983.847        1309.530          44.000  
E30  24900373.003   130852355.204       -1283.445          44.000  
E15  25190588.997   132377436.789        2478.754          44.000  
G05  24515488.405   128829757.584        1745.270          43.000  
G16  23689670.582   124490063.247        3400.379          43.000  
E34  24798034.513   130314566.009        -373.215          45.000  
E13  29027190.377   152538991.099        3489.995          29.000  
G20  25022540.368   131494287.6252       -666.807          30.000  
> 2024 02 04 15 22 51.0020000  0 14                     
G18  22307427.130   117226317.648        2682.876          45.000  
G25  23682104.612   124450302.946       -3134.796          40.000  
G26  21534356.830   113163805.042        2093.713          47.000  
G28  22350618.558   117453273.503       -2432.751          45.000  
G29  21651647.831   113780177.241       -1632.440          46.000  
G31  21755897.210   114328010.099        -874.298          46.000  
E27  24325176.834   127829674.439        1309.415          44.000  
E30  24900617.324   130853638.784       -1283.661          44.000  
E15  25190117.060   132374958.131        2478.687          44.000  
G05  24515156.234   128828012.477        1744.885          43.000  
G16  23689023.344   124486662.914        3400.288          43.000  
E34  24798105.728   130314939.342        -373.363          45.000  
E13  29026532.898   152535500.418        3490.607          30.000  
G20  25022669.384   131494955.1212       -667.378          31.000  
> 2024 02 04 15 22 52.0020000  0 14                     
G18  22306916.829   117223635.075        2681.778          45.000  
G25  23682701.229   124453437.995       -3135.493          40.000  
G26  21533958.306   113161711.617        2092.743          47.000  
G28  22351081.794   117455706.576       -2433.850          45.000  
G29  21651958.495   113781809.837       -1633.200          46.000  
G31  21756063.707   114328884.843        -875.377          46.000  
E27  24324927.778   127828365.195        1308.717          44.000  
E30  24900861.743   130854922.529       -1284.075          44.000  
E15  25189645.189   132372479.765        2477.841          44.000  
G05  24514824.348   128826267.837        1743.951          43.000  
G16  23688376.548   124483262.672        3399.813          43.000  
E34  24798177.304   130315313.072        -374.447          45.000  
E13  29025871.967   152532009.634        3491.059          30.000  
G20  25022800.088   131495623.2372       -669.738          31.000  
> 2024 02 04 15 22 53.0020000  0 14                     
G18  22306406.925   117220953.253        2681.903          45.000  
G25  23683297.701   124456573.502       -3135.442          40.000  
G26  21533560.055   113159618.859        2092.609          47.000  
G28  22351544.962   117458140.395       -2433.960          45.000  
G29  21652269.410   113783443.067       -1633.342          46.000  
G31  21756230.492   114329760.504        -875.694          46.000  
E27  24324678.269   127827056.473        1308.705          44.000  
E30  24901106.233   130856206.832       -1284.211          44.000  
E15  25189173.557   132370002.012        2477.851          44.000  
G05  24514492.563   128824524.036        1743.420          43.000  
G16  23687729.657   124479862.878        3399.854          43.000  
E34  24798248.636   130315687.550        -374.446          45.000  
E13  29025206.913   152528519.209        3491.219          30.000  
G20  25022925.440   131496292.1062       -669.259          31.000  
> 2024 02 04 15 22 54.0020000  0 14                     
G18  22305896.794   117218271.979        2681.127          45.000  
G25  23683894.289   124459709.266       -3135.885          40.000  
G26  21533161.765   113157526.542        2092.151          47.000  
G28  22352008.193   117460574.741       -2434.472          45.000  
G29  21652580.042   113785076.740       -1633.774          46.000  
G31  21756397.270   114330636.894        -876.802          46.000  
E27  24324429.354   127825748.025        1308.444          44.000  
E30  24901350.170   130857491.432       -1284.890          44.000  
E15  25188701.974   132367524.672        2477.142          44.000  
G05  24514160.812   128822780.818        1742.865          43.000  
G16  23687082.817   124476463.300        3399.301          43.000  
E34  24798319.962   130316062.567        -375.339          45.000  
E13  29024543.486   152525028.826        3490.543          29.000  
G20  25023050.549   131496961.6232       -669.329          31.000  
> 2024 02 04 15 22 55.0020000  0 14                     
G18  22305386.868   117215591.233        2680.486          45.000  
G25  23684491.259   124462845.241       -3136.045          39.000  
G26  21532763.549   113155434.665        2091.492          47.000  
G28  22352471.442   117463009.615       -2435.173          45.000  
G29  21652891.033   113786710.803       -1634.404          46.000  
G31  21756564.120   114331513.956        -877.519          46.000  
E27  24324180.556   127824439.878        1308.206          44.000  
E30  24901594.604   130858776.317       -1285.112          44.000  
E15  25188230.803   132365047.729        2476.493          44.000  
G05  24513828.939   128821038.202        1742.151          43.000  
G16  23686435.972   124473063.926        3399.365          43.000  
E34  24798391.154   130316438.091        -375.872          45.000  
E13  29023875.719   152521538.479        3490.175          29.000  
G20  25023178.457   131497631.820        -670.308          31.000  
> 2024 02 04 15 22 56.0020000  0 14                     
G18  22304876.811   117212911.336        2679.116          45.000  
G25  23685088.006   124465981.771       -3137.097          39.000  
G26  21532365.490   113153343.538        2090.387          47.000  
G28  22352935.158   117465445.324       -2436.223          45.000  
G29  21653202.037   113788345.585       -1635.448          46.000  
G31  21756731.359   114332392.007        -878.871          45.000  
E27  24323931.875   127823132.320        1307.046          44.000  
E30  24901839.336   130860061.821       -1285.936          44.000  
E15  25187759.446   132362571.463        2475.925          44.000  
G05  24513497.329   128819296.499        1740.906          42.000  
G16  23685789.402   124469665.103        3398.147          43.000  
E34  24798462.947   130316814.453        -377.079          45.000  
E13  29023216.978   152518048.443        3489.513          29.000  
G20  25023302.432   131498302.994        -672.109          31.000  
> 2024 02 04 15 22 57.0020000  0 14                     
G18  22304366.822   117210232.329        2678.695          45.000  
G25  23685684.932   124469118.904       -3137.054          39.000  
G26  21531967.646   113151253.199        2090.240          46.000  
G28  22353398.937   117467881.911       -2436.679          45.000  
G29  21653513.556   113789981.157       -1635.756          46.000  
G31  21756898.569   114333271.132        -879.456          45.000  
E27  24323683.288   127821825.423        1306.782          44.000  
E30  24902084.122   130861347.994       -1286.175          44.000  
E15  25187288.216   132360095.980        2475.401          44.000  
G05  24513166.045   128817555.747        1740.503          42.000  
G16  23685142.841   124466266.838        3398.069          43.000  
E34  24798534.691   130317191.691        -377.521          45.000  
E13  29022549.592   152514558.816        3489.479          29.000  
G20  25023432.170   131498975.106        -672.433          31.000  
> 2024 02 04 15 22 58.0020000  0 14                     
G18  22303857.254   117207553.900        2677.861          45.000  
G25  23686282.007   124472256.319       -3137.748          40.000  
G26  21531569.559   113149163.358        2089.258          46.000  
G28  22353862.630   117470319.071       -2437.711          45.000  
G29  21653824.977   113791617.194       -1636.782          46.000  
G31  21757066.235   114334150.968        -880.622          46.000  
E27  24323434.827   127820518.836        1305.982          44.000  
E30  24902329.319   130862634.506       -1287.003          44.000  
E15  25186816.971   132357620.925        2474.632          44.000  
G05  24512834.931   128815815.620        1739.288          42.000  
G16  23684496.426   124462868.832        3397.563          43.000  
E34  24798606.712   130317569.491        -378.318          45.000  
E13  29021885.410   152511069.205        3490.176          29.000  
G20  25023565.031   131499647.913        -673.367          31.000  
> 2024 02 04 15 22 59.0020000  0 14                     
G18  22303347.472   117204875.853        2677.920          45.000  
G25  23686878.837   124475393.823       -3137.647          39.000  
G26  21531171.772   113147073.811        2089.380          46.000  
G28  22354326.163   117472756.597       -2437.780          45.000  
G29  21654136.302   113793253.468       -1636.231          46.000  
G31  21757234.014   114335031.366        -880.662          46.000  
E27  24323186.218   127819212.397        1306.477          44.000  
E30  24902574.292   130863921.170       -1286.587          44.000  
E15  25186345.850   132355146.131        2474.806          44.000  
G05  24512503.646   128814075.943        1739.514          43.000  
G16  23683849.743   124459470.894        3397.776          43.000  
E34  24798678.904   130317947.679        -378.293          45.000  
E13  29021220.273   152507579.576        3490.276          30.000  
G20  25023694.621   131500321.218        -672.466          31.000  
> 2024 02 04 15 23 00.0020000  0 14                     
G18  22302838.065   117202198.253        2677.189          45.000  
G25  23687476.023   124478531.462       -3137.881          39.000  
G26  21530774.102   113144984.594        2088.885          46.000  
G28  22354789.996   117475194.566       -2438.354          44.000  
G29  21654447.763   113794890.077       -1636.842          46.000  
G31  21757401.918   114335912.358        -881.329          46.000  
E27  24322937.585   127817906.141        1305.874          44.000  
E30  24902819.245   130865208.054       -1287.207          44.000  
E15  25185875.019   132352671.635        2474.048          44.000  
G05  24512172.737   128812336.787        1738.690          43.000  
G16  23683203.143   124456073.080        3397.555          43.000  
E34  24798750.786   130318326.296        -379.114          45.000  
E13  29020556.112   152504089.928        3489.591          30.000  
G20  25023821.672   131500995.124        -674.677          31.000  
> 2024 02 04 15 23 01.0020000  0 14                     
G18  22302328.562   117199521.038        2677.122          45.000  
G25  23688073.136   124481669.208       -3137.706          39.000  
G26  21530376.791   113142895.674        2088.916          46.000  
G28  22355253.927   117477632.900       -2438.492          44.000  
G29  21654759.194   113796526.962       -1636.994          46.000  
G31  21757569.678   114336793.901        -881.691          46.000  
E27  24322689.216   127816600.046        1305.945          44.000  
E30  24903064.174   130866495.093       -1287.054          44.000  
E15  25185403.745   132350197.387        2474.176          44.000  
G05  24511841.746   128810598.071        1738.666          43.000  
G16  23682556.619   124452675.338        3397.583          43.000  
E34  24798823.328   130318705.273        -379.066          45.000  
E13  29019886.776   152500600.131        3489.885          30.000  
G20  25023952.147   131501669.444        -674.937          31.000  
> 2024 02 04 15 23 02.0020000  0 14                     
G18  22301819.402   117196844.512        2676.647          45.000  
G25  23688670.409   124484807.319       -3138.013          39.000  
G26  21529979.441   113140807.352        2088.525          46.000  
G28  22355717.759   117480071.918       -2439.049          44.000  
G29  21655070.700   113798164.420       -1637.450          46.000  
G31  21757737.562   114337676.301        -882.590          46.000  
E27  24322440.529   127815294.384        1305.762          44.000  
E30  24903308.874   130867782.592       -1287.330          44.000  
E15  25184933.096   132347723.700        2473.693          44.000  
G05  24511510.905   128808860.122        1737.897          43.000  
G16  23681910.199   124449277.966        3397.512          44.000  
E34  24798895.520   130319084.946        -379.625          46.000  
E13  29019227.853   152497110.456        3490.104          30.000  
G20  25024082.208   131502344.618        -675.372          32.000  
> 2024 02 04 15 23 03.0020000  0 14                     
G18  22301310.137   117194168.435        2675.829          45.000  
G25  23689267.490   124487945.572       -3138.382          39.000  
G26  21529582.295   113138719.387        2087.860          46.000  
G28  22356181.980   117482511.361       -2439.716          44.000  
G29  21655382.296   113799802.184       -1638.044          46.000  
G31  21757905.268   114338559.293        -883.525          46.000  
E27  24322191.726   127813988.914        1305.252          44.000  
E30  24903553.975   130869070.305       -1287.879          44.000  
E15  25184462.153   132345250.311        2473.114          44.000  
G05  24511180.038   128807122.651        1737.054          42.000  
G16  23681263.776   124445880.715        3397.075          44.000  
E34  24798968.006   130319465.037        -380.399          46.000  
E13  29018560.688   152493620.817        3489.619          29.000  
G20  25024207.673   131503020.277        -675.701          32.000  
> 2024 02 04 15 23 04.0020000  0 14                     
G18  22300801.256   117191492.779        2675.348          45.000  
G25  23689864.587   124491083.963       -3138.436          39.000  
G26  21529184.917   113136631.745        2087.543          47.000  
G28  22356645.931   117484951.234       -2440.284          44.000  
G29  21655694.072   113801440.259       -1638.336          46.000  
G31  21758073.462   114339442.868        -884.030          46.000  
E27  24321943.595   127812683.614        1305.088          44.000  
E30  24903799.543   130870358.204       -1288.045          44.000  
E15  25183991.602   132342777.203        2473.009          44.000  
G05  24510849.649   128805385.670        1736.597          42.000  
G16  23680617.544   124442483.561        3397.211          43.000  
E34  24799040.464   130319845.535        -380.678          46.000  
E13  29017897.558   152490131.099        3489.816          29.000  
G20  25024334.765   131503696.466        -676.414          31.000  
> 2024 02 04 15 23 05.0020000  0 14                     
G18  22300292.218   117188817.494        2674.990          45.000  
G25  23690461.735   124494222.440       -3138.919          39.000  
G26  21528787.828   113134544.388        2086.963          47.000  
G28  22357110.090   117487391.450       -2440.503          44.000  
G29  21656005.786   113803078.578       -1638.588          46.000  
G31  21758241.664   114340326.967        -884.444          46.000  
E27  24321695.163   127811378.448        1304.956          44.000  
E30  24904044.499   130871646.251       -1288.395          44.000  
E15  25183520.801   132340304.340        2472.734          44.000  
G05  24510518.832   128803649.132        1736.072          42.000  
G16  23679971.197   124439086.469        3396.837          43.000  
E34  24799112.982   130320226.414        -381.231          46.000  
E13  29017233.187   152486641.183        3490.235          29.000  
G20  25024465.991   131504373.163        -676.470          32.000  
> 2024 02 04 15 23 06.0020000  0 14                     
G18  22299783.217   117186142.895        2674.302          45.000  
G25  23691058.960   124497361.286       -3139.101          39.000  
G26  21528390.563   113132457.614        2086.548          47.000  
G28  22357574.621   117489832.348       -2441.309          44.000  
G29  21656317.800   113804717.473       -1639.166          46.000  
G31  21758409.961   114341211.922        -885.293          46.000  
E27  24321446.709   127810073.730        1304.504          44.000  
E30  24904289.779   130872934.758       -1288.855          44.000  
E15  25183050.224   132337832.019        2472.206          44.000  
G05  24510188.412   128801913.327        1735.791          42.000  
G16  23679324.553   124435689.750        3396.306          43.000  
E34  24799185.660   130320607.953        -381.904          46.000  
E13  29016573.959   152483151.527        3489.530          29.000  
G20  25024593.663   131505050.657        -677.714          31.000  
> 2024 02 04 15 23 07.0020000  0 14                     
G18  22299274.571   117183468.763        2673.962          45.000  
G25  23691656.231   124500500.317       -3139.155          39.000  
G26  21527993.654   113130371.209        2086.383          46.000  
G28  22358039.189   117492273.682       -2441.457          44.000  
G29  21656629.679   113806356.705       -1639.329          46.000  
G31  21758578.381   114342097.496        -885.776          46.000  
E27  24321198.621   127808769.207        1304.596          44.000  
E30  24904535.120   130874223.468       -1288.818          44.000  
E15  25182580.102   132335360.031        2471.931          44.000  
G05  24509858.088   128800178.060        1735.278          42.000  
G16  23678678.168   124432293.162        3396.550          44.000  
E34  24799258.698   130320989.942        -382.166          46.000  
E13  29015905.596   152479661.818        3489.624          29.000  
G20  25024723.429   131505728.743        -677.769          31.000  
> 2024 02 04 15 23 08.0020000  0 14                     
G18  22298765.594   117180795.193        2673.285          45.000  
G25  23692253.650   124503639.602       -3139.570          39.000  
G26  21527596.967   113128285.276        2085.687          47.000  
G28  22358503.487   117494715.583       -2442.112          44.000  
G29  21656941.741   113807996.375       -1639.841          46.000  
G31  21758747.132   114342983.786        -886.620          46.000  
E27  24320950.787   127807465.021        1303.941          44.000  
E30  24904780.470   130875512.538       -1289.371          44.000  
E15  25182109.936   132332888.465        2471.373          43.000  
G05  24509528.196   128798443.417        1734.424          42.000  
G16  23678031.710   124428896.824        3396.144          44.000  
E34  24799331.525   130321372.483        -382.840          46.000  
E13  29015243.940   152476172.210        3489.168          29.000  
G20  25024858.263   131506407.419        -678.776          31.000  
> 2024 02 04 15 23 09.0020000  0 14                     
G18  22298256.859   117178121.953        2673.130          45.000  
G25  23692851.028   124506778.919       -3139.183          39.000  
G26  21527200.177   113126199.569        2085.663          46.000  
G28  22358968.272   117497157.810       -2442.339          44.000  
G29  21657253.963   113809636.262       -1639.975          46.000  
G31  21758915.949   114343870.565        -886.986          46.000  
E27  24320702.463   127806160.896        1304.149          44.000  
E30  24905025.642   130876801.691       -1289.162          44.000  
E15  25181639.640   132330417.095        2471.324          43.000  
G05  24509198.012   128796709.156        1734.235          42.000  
G16  23677385.334   124425500.498        3396.384          44.000  
E34  24799404.353   130321755.339        -382.985          46.000  
E13  29014578.928   152472682.383        3490.322          28.000  
G20  25024984.461   131507086.617        -679.458          32.000  
> 2024 02 04 15 23 10.0020000  0 14                     
G18  22297748.116   117175449.045        2672.479          45.000  
G25  23693448.427   124509918.273       -3139.529          39.000  
G26  21526803.150   113124114.111        2085.077          47.000  
G28  22359432.951   117499600.348       -2443.006          44.000  
G29  21657566.034   113811276.364       -1640.474          46.000  
G31  21759084.819   114344757.851        -887.943          46.000  
E27  24320454.105   127804856.862        1303.853          44.000  
E30  24905270.472   130878090.951       -1289.545          44.000  
E15  25181169.354   132327945.918        2470.947          43.000  
G05  24508868.139   128794975.286        1733.600          42.000  
G16  23676739.137   124422104.197        3396.122          44.000  
E34  24799477.035   130322138.519        -383.623          46.000  
E13  29013908.530   152469192.438        3489.948          29.000  
G20  25025110.519   131507766.186        -679.622          31.000  
> 2024 02 04 15 23 11.0020000  0 14                     
G18  22297239.741   117172776.723        2671.933          45.000  
G25  23694046.104   124513057.917       -3139.833          39.000  
G26  21526406.489   113122029.152        2084.552          47.000  
G28  22359898.030   117502043.448       -2443.476          44.000  
G29  21657878.231   113812916.921       -1640.862          46.000  
G31  21759254.025   114345645.866        -888.507          46.000  
E27  24320206.059   127803553.173        1303.374          44.000  
E30  24905515.759   130879380.559       -1289.874          44.000  
E15  25180699.352   132325475.193        2470.311          43.000  
G05  24508538.245   128793242.066        1732.831          42.000  
G16  23676093.030   124418708.146        3395.890          43.000  
E34  24799550.152   130322522.271        -384.231          46.000  
E13  29013244.571   152465702.551        3490.002          29.000  
G20  25025239.000   131508446.510        -680.941          31.000  
> 2024 02 04 15 23 12.0020000  0 14                     
G18  22296731.468   117170104.882        2671.381          45.000  
G25  23694643.704   124516197.736       -3140.177          39.000  
G26  21526009.965   113119944.556        2084.387          46.000  
G28  22360363.055   117504487.021       -2443.940          44.000  
G29  21658190.581   113814557.841       -1641.259          46.000  
G31  21759423.399   114346534.518        -889.161          46.000  
E27  24319958.133   127802249.711        1303.336          44.000  
E30  24905761.552   130880670.415       -1290.145          44.000  
E15  25180229.145   132323004.801        2470.114          43.000  
G05  24508208.394   128791509.390        1732.251          42.000  
G16  23675446.983   124415312.275        3395.539          43.000  
E34  24799623.109   130322906.487        -384.648          46.000  
E13  29012581.380   152462212.650        3490.300          29.000  
G20  25025369.129   131509127.365        -681.349          31.000  
> 2024 02 04 15 23 13.0020000  0 14                     
G18  22296223.126   117167433.314        2671.160          45.000  
G25  23695241.197   124519337.544       -3140.158          39.000  
G26  21525613.352   113117860.158        2084.161          46.000  
G28  22360828.059   117506930.864       -2444.270          44.000  
G29  21658502.918   113816198.921       -1641.581          46.000  
G31  21759592.496   114347423.612        -889.590          46.000  
E27  24319710.240   127800946.278        1303.170          44.000  
E30  24906006.972   130881960.328       -1290.180          44.000  
E15  25179758.569   132320534.573        2469.730          43.000  
G05  24507879.043   128789777.049        1732.050          42.000  
G16  23674800.804   124411916.356        3395.731          43.000  
E34  24799696.415   130323290.967        -384.846          46.000  
E13  29011917.336   152458722.549        3489.897          29.000  
G20  25025501.384   131509808.610        -681.439          31.000  
> 2024 02 04 15 23 14.0020000  0 14                     
G18  22295714.797   117164762.402        2670.960          45.000  
G25  23695838.950   124522477.694       -3140.179          39.000  
G26  21525216.678   113115776.308        2084.052          46.000  
G28  22361293.025   117509375.339       -2444.500          44.000  
G29  21658815.199   113817840.516       -1641.533          46.000  
G31  21759761.927   114348313.499        -889.842          46.000  
E27  24319462.106   127799643.260        1303.071          44.000  
E30  24906252.036   130883250.649       -1290.192          44.000  
E15  25179288.661   132318064.832        2469.861          43.000  
G05  24507549.524   128788045.445        1731.573          42.000  
G16  23674154.738   124408520.768        3395.762          43.000  
E34  24799770.049   130323676.092        -385.207          46.000  
E13  29011254.801   152455232.597        3490.310          29.000  
G20  25025630.121   131510490.599        -681.295          31.000  
> 2024 02 04 15 23 15.0020000  0 14                     
G18  22295206.679   117162091.837        2670.136          45.000  
G25  23696436.594   124525617.893       -3140.554          39.000  
G26  21524820.066   113113692.715        2083.398          46.000  
G28  22361758.149   117511820.149       -2445.195          44.000  
G29  21659127.575   113819482.346       -1642.234          46.000  
G31  21759931.530   114349203.910        -890.875          46.000  
E27  24319214.088   127798340.322        1302.825          44.000  
E30  24906497.393   130884541.092       -1290.605          44.000  
E15  25178818.611   132315595.310        2469.351          43.000  
G05  24507220.173   128786314.242        1730.560          42.000  
G16  23673508.332   124405125.210        3395.480          44.000  
E34  24799843.569   130324061.544        -385.824          46.000  
E13  29010587.540   152451742.531        3489.558          29.000  
G20  25025759.782   131511173.097        -683.241          32.000  
> 2024 02 04 15 23 16.0020000  0 14                     
G18  22294698.341   117159421.687        2669.590          45.000  
G25  23697034.521   124528758.202       -3140.643          40.000  
G26  21524423.536   113111609.451        2082.745          46.000  
G28  22362223.409   117514265.347       -2445.397          44.000  
G29  21659440.178   113821124.473       -1642.693          46.000  
G31  21760101.196   114350094.877        -891.502          46.000  
E27  24318966.169   127797037.567        1302.561          44.000  
E30  24906743.424   130885831.722       -1290.839          44.000  
E15  25178348.862   132313126.065        2468.969          43.000  
G05  24506890.975   128784583.507        1730.273          42.000  
G16  23672862.320   124401729.749        3395.278          44.000  
E34  24799916.735   130324447.392        -386.205          46.000  
E13  29009924.375   152448252.313        3490.543          29.000  
G20  25025889.416   131511856.070        -683.467          31.000  
> 2024 02 04 15 23 17.0020000  0 14                     
G18  22294190.361   117156752.074        2669.348          45.000  
G25  23697632.361   124531898.758       -3140.694          40.000  
G26  21524027.263   113109526.620        2082.532          46.000  
G28  22362688.889   117516711.104       -2446.004          44.000  
G29  21659753.008   113822767.007       -1642.812          46.000  
G31  21760270.804   114350986.552        -892.091          46.000  
E27  24318718.112   127795735.100        1302.301          44.000  
E30  24906989.369   130887122.660       -1291.075          44.000  
E15  25177878.760   132310657.234        2468.646          43.000  
G05  24506561.894   128782853.372        1729.987          42.000  
G16  23672216.346   124398334.515        3395.086          43.000  
E34  24799989.930   130324833.774        -386.659          46.000  
E13  29009259.216   152444762.191        3490.430          29.000  
G20  25026019.453   131512539.676        -684.178          31.000  
> 2024 02 04 15 23 18.0020000  0 14                     
G18  22293682.287   117154082.923        2668.837          45.000  
G25  23698229.948   124535039.487       -3140.945          40.000  
G26  21523630.792   113107444.158        2082.275          46.000  
G28  22363153.957   117519157.284       -2446.457          44.000  
G29  21660065.529   113824409.883       -1643.281          46.000  
G31  21760440.791   114351878.851        -892.946          46.000  
E27  24318470.290   127794432.846        1302.020          44.000  
E30  24907235.350   130888413.814       -1291.287          44.000  
E15  25177409.031   132308188.720        2468.133          43.000  
G05  24506232.827   128781123.777        1729.028          42.000  
G16  23671570.210   124394939.413        3394.908          44.000  
E34  24800063.566   130325220.607        -387.111          46.000  
E13  29008585.358   152441272.044        3490.639          30.000  
G20  25026149.400   131513223.850        -684.259          31.000  
> 2024 02 04 15 23 19.0020000  0 14                     
G18  22293174.719   117151414.379        2668.310          45.000  
G25  23698827.474   124538180.482       -3141.083          40.000  
G26  21523234.438   113105362.213        2081.604          46.000  
G28  22363619.981   117521604.068       -2447.174          44.000  
G29  21660378.605   113826053.234       -1643.611          46.000  
G31  21760610.507   114352771.889        -893.347          46.000  
E27  24318222.818   127793130.952        1301.695          44.000  
E30  24907481.086   130889705.344       -1291.586          44.000  
E15  25176939.397   132305720.665        2467.956          43.000  
G05  24505904.013   128779394.829        1728.632          42.000  
G16  23670924.375   124391544.605        3394.707          44.000  
E34  24800137.428   130325608.028        -387.634          46.000  
E13  29007928.438   152437781.941        3490.804          29.000  
G20  25026279.539   131513908.741        -684.880          31.000  
> 2024 02 04 15 23 20.0020000  0 14                     
G18  22292666.745   117148746.236        2668.059          45.000  
G25  23699425.397   124541321.598       -3140.971          40.000  
G26  21522838.076   113103280.557        2081.561          46.000  
G28  22364085.699   117524051.238       -2447.288          44.000  
G29  21660691.265   113827696.857       -1643.440          46.000  
G31  21760780.686   114353665.494        -893.860          46.000  
E27  24317975.103   127791829.201        1301.710          44.000  
E30  24907726.979   130890997.060       -1291.857          44.000  
E15  25176469.890   132303252.890        2467.487          43.000  
G05  24505574.943   128777666.332        1728.503          42.000  
G16  23670278.381   124388149.869        3394.776          44.000  
E34  24800211.227   130325995.839        -388.067          46.000  
E13  29007263.160   152434291.804        3490.559          29.000  
G20  25026409.971   131514594.184        -686.130          31.000  
> 2024 02 04 15 23 21.0020000  0 14                     
G18  22292159.051   117146078.563        2667.152          45.000  
G25  23700023.146   124544462.911       -3141.655          40.000  
G26  21522442.092   113101199.297        2080.573          46.000  
G28  22364551.663   117526498.865       -2448.199          44.000  
G29  21661004.123   113829340.851       -1644.465          47.000  
G31  21760950.896   114354559.739        -894.917          46.000  
E27  24317727.723   127790527.695        1301.160          44.000  
E30  24907972.613   130892289.000       -1292.259          44.000  
E15  25176000.429   132300785.434        2467.040          43.000  
G05  24505246.122   128775938.402        1727.313          41.000  
G16  23669632.634   124384755.303        3394.140          44.000  
E34  24800284.994   130326384.098        -388.674          45.000  
E13  29006600.941   152430801.631        3489.788          29.000  
G20  25026540.547   131515280.141        -686.614          32.000  
> 2024 02 04 15 23 22.0020000  0 14                     
G18  22291651.574   117143411.661        2666.785          45.000  
G25  23700621.014   124547604.670       -3141.813          40.000  
G26  21522045.677   113099118.700        2080.646          46.000  
G28  22365017.800   117528947.229       -2448.573          44.000  
G29  21661317.015   113830985.468       -1644.662          47.000  
G31  21761121.214   114355454.890        -895.285          46.000  
E27  24317480.204   127789226.692        1300.954          44.000  
E30  24908218.730   130893581.480       -1292.507          44.000  
E15  25175530.630   132298318.609        2466.880          43.000  
G05  24504917.218   128774211.283        1726.837          41.000  
G16  23668986.690   124381361.171        3394.128          43.000  
E34  24800359.266   130326773.116        -389.135          45.000  
E13  29005932.692   152427311.737        3489.644          29.000  
G20  25026671.181   131515966.980        -686.954          32.000  
> 2024 02 04 15 23 23.0020000  0 14                     
G18  22291144.384   117140745.180        2666.297          45.000  
G25  23701219.123   124550746.555       -3141.856          40.000  
G26  21521649.996   113097038.428        2080.420          46.000  
G28  22365483.830   117531396.009       -2448.974          44.000  
G29  21661630.115   113832630.404       -1645.068          47.000  
G31  21761291.583   114356350.629        -896.002          46.000  
E27  24317232.629   127787925.860        1300.825          44.000  
E30  24908464.246   130894874.146       -1292.663          44.000  
E15  25175061.440   132295852.069        2466.607          43.000  
G05  24504588.683   128772484.634        1726.740          41.000  
G16  23668340.653   124377967.147        3394.058          43.000  
E34  24800433.002   130327162.556        -389.554          45.000  
E13  29005273.471   152423821.726        3489.925          29.000  
G20  25026802.025   131516654.329        -686.569          32.000  
> 2024 02 04 15 23 24.0020000  0 14                     
G18  22290637.078   117138079.182        2665.379          45.000  
G25  23701817.283   124553888.620       -3142.418          40.000  
G26  21521254.094   113094958.572        2079.175          46.000  
G28  22365950.060   117533845.255       -2449.974          44.000  
G29  21661943.224   113834275.688       -1646.104          46.000  
G31  21761461.954   114357246.994        -897.131          46.000  
E27  24316985.046   127786625.260        1300.056          44.000  
E30  24908710.216   130896167.054       -1293.430          44.000  
E15  25174592.068   132293385.872        2465.905          43.000  
G05  24504259.932   128770758.555        1725.275          41.000  
G16  23667694.759   124374573.298        3393.043          44.000  
E34  24800507.150   130327552.436        -390.500          45.000  
E13  29004606.364   152420331.722        3489.686          29.000  
G20  25026933.061   131517342.295        -688.495          32.000  
> 2024 02 04 15 23 25.0020000  0 14                     
G18  22290130.016   117135414.090        2664.353          45.000  
G25  23702415.145   124557031.297       -3143.333          40.000  
G26  21520858.382   113092879.499        2078.473          45.000  
G28  22366416.232   117536295.414       -2451.157          45.000  
G29  21662256.318   113835921.750       -1646.615          46.000  
G31  21761633.097   114358144.438        -898.153          46.000  
E27  24316737.702   127785325.339        1299.174          44.000  
E30  24908956.379   130897460.670       -1294.509          44.000  
E15  25174122.915   132290920.467        2464.558          43.000  
G05  24503931.680   128769033.435        1724.426          41.000  
G16  23667049.193   124371180.033        3392.606          44.000  
E34  24800581.392   130327943.227        -391.478          45.000  
E13  29003938.243   152416842.160        3489.302          29.000  
G20  25027064.263   131518031.271        -689.434          32.000  
> 2024 02 04 15 23 26.0020000  0 14                     
G18  22289622.939   117132749.744        2663.998          45.000  
G25  23703013.391   124560174.410       -3143.429          41.000  
G26  21520462.820   113090801.079        2077.960          45.000  
G28  22366882.761   117538746.274       -2451.257          44.000  
G29  21662569.801   113837568.449       -1647.071          46.000  
G31  21761803.941   114359042.760        -898.897          46.000  
E27  24316490.596   127784025.888        1299.106          44.000  
E30  24909202.565   130898754.739       -1294.353          44.000  
E15  25173653.774   132288455.653        2464.215          43.000  
G05  24503603.472   128767309.124        1723.877          41.000  
G16  23666403.362   124367787.186        3392.766          43.000  
E34  24800656.293   130328334.749        -391.971          45.000  
E13  29003273.392   152413352.794        3489.934          29.000  
G20  25027195.857   131518721.047        -689.668          32.000  
> 2024 02 04 15 23 27.0020000  0 14                     
G18  22289116.014   117130086.211        2663.347          45.000  
G25  23703611.715   124563318.064       -3143.806          41.000  
G26  21520067.124   113088723.381        2077.551          45.000  
G28  22367349.249   117541197.944       -2451.832          44.000  
G29  21662883.257   113839215.836       -1647.618          46.000  
G31  21761975.040   114359942.066        -899.633          46.000  
E27  24316243.353   127782727.020        1298.798          44.000  
E30  24909449.089   130900049.437       -1294.933          44.000  
E15  25173184.739   132285991.516        2463.922          43.000  
G05  24503275.501   128765585.702        1723.022          40.000  
G16  23665757.671   124364394.852        3392.273          43.000  
E34  24800730.864   130328727.069        -392.536          45.000  
E13  29002609.396   152409863.795        3489.208          30.000  
G20  25027327.713   131519411.798        -691.053          32.000  
> 2024 02 04 15 23 28.0020000  0 14                     
G18  22288609.258   117127423.157        2662.630          45.000  
G25  23704210.033   124566461.878       -3144.115          41.000  
G26  21519671.756   113086646.057        2077.032          45.000  
G28  22367815.774   117543650.072       -2452.452          44.000  
G29  21663196.558   113840863.559       -1647.878          46.000  
G31  21762146.349   114360842.003        -900.371          46.000  
E27  24315996.035   127781428.376        1298.316          44.000  
E30  24909695.418   130901344.347       -1295.035          44.000  
E15  25172715.816   132283527.693        2463.587          43.000  
G05  24502947.579   128763862.786        1722.528          40.000  
G16  23665112.299   124361002.662        3391.921          43.000  
E34  24800805.527   130329119.832        -392.925          45.000  
E13  29001946.685   152406374.795        3488.483          30.000  
G20  25027459.242   131520103.122        -692.087          32.000  
> 2024 02 04 15 23 29.0020000  0 14                     
G18  22288102.660   117124760.304        2662.742          45.000  
G25  23704808.430   124569605.562       -3143.379          41.000  
G26  21519276.347   113084568.853        2077.197          45.000  
G28  22368282.443   117546102.381       -2452.272          44.000  
G29  21663510.044   113842511.385       -1647.987          46.000  
G31  21762317.669   114361742.306        -900.406          46.000  
E27  24315749.343   127780129.679        1298.631          44.000  
E30  24909941.337   130902639.258       -1294.914          44.000  
E15  25172246.938   132281063.954        2463.815          43.000  
G05  24502619.535   128762140.142        1722.674          41.000  
G16  23664467.097   124357610.344        3392.573          44.000  
E34  24800880.164   130329512.805        -393.080          45.000  
E13  29001282.265   152402885.446        3489.275          29.000  
G20  25027590.873   131520794.744        -692.273          32.000  
> 2024 02 04 15 23 30.0020000  0 14                     
G18  22287596.164   117122097.616        2662.614          45.000  
G25  23705406.660   124572749.196       -3144.151          41.000  
G26  21518880.943   113082491.757        2076.959          46.000  
G28  22368749.498   117548554.874       -2452.777          44.000  
G29  21663823.463   113844159.257       -1648.167          46.000  
G31  21762488.855   114362642.953        -900.865          46.000  
E27  24315502.017   127778830.933        1298.597          44.000  
E30  24910187.691   130903934.107       -1294.896          44.000  
E15  25171778.055   132278600.262        2463.731          43.000  
G05  24502291.492   128760417.753        1721.832          41.000  
G16  23663821.273   124354217.911        3392.454          44.000  
E34  24800954.641   130329905.936        -393.295          45.000  
E13  29000624.994   152399395.786        3489.435          29.000  
G20  25027722.382   131521486.607        -691.637          32.000  
> 2024 02 04 15 23 31.0020000  0 14                     
G18  22287089.638   117119435.542        2661.969          45.000  
G25  23706004.963   124575893.054       -3144.029          41.000  
G26  21518485.630   113080415.109        2076.300          45.000  
G28  22369216.340   117551007.928       -2453.337          45.000  
G29  21664137.061   113845807.584       -1648.537          46.000  
G31  21762660.376   114363544.342        -901.780          46.000  
E27  24315254.854   127777532.511        1298.299          44.000  
E30  24910434.179   130905229.295       -1295.258          44.000  
E15  25171309.458   132276137.032        2463.070          43.000  
G05  24501963.782   128758695.990        1721.777          40.000  
G16  23663175.997   124350825.748        3392.280          44.000  
E34  24801029.453   130330299.645        -393.690          45.000  
E13  28999958.522   152395906.224        3489.893          29.000  
G20  25027854.275   131522179.188        -692.917          32.000  
> 2024 02 04 15 23 32.0020000  0 14                     
G18  22286583.259   117116774.070        2660.798          45.000  
G25  23706603.525   124579037.235       -3144.521          41.000  
G26  21518090.793   113078338.985        2075.629          45.000  
G28  22369683.371   117553461.559       -2454.322          45.000  
G29  21664450.742   113847456.392       -1649.393          46.000  
G31  21762831.961   114364446.459        -902.882          46.000  
E27  24315007.853   127776234.449        1297.608          44.000  
E30  24910680.452   130906524.849       -1296.112          44.000  
E15  25170840.559   132273674.242        2462.340          43.000  
G05  24501636.350   128756974.897        1720.294          40.000  
G16  23662530.819   124347433.860        3391.436          44.000  
E34  24801104.561   130330693.936        -395.071          45.000  
E13  28999290.192   152392416.745        3489.477          29.000  
G20  25027988.422   131522872.470        -693.691          33.000  
> 2024 02 04 15 23 33.0020000  0 14                     
G18  22286076.758   117114113.004        2661.134          45.000  
G25  23707202.091   124582181.553       -3144.154          41.000  
G26  21517695.624   113076263.208        2075.793          45.000  
G28  22370150.402   117555915.617       -2454.099          45.000  
G29  21664764.473   113849105.522       -1649.212          46.000  
G31  21763003.449   114365349.178        -902.834          46.000  
E27  24314760.717   127774936.568        1298.094          44.000  
E30  24910927.414   130907820.618       -1295.676          44.000  
E15  25170372.006   132271211.767        2462.587          43.000  
G05  24501308.927   128755254.298        1720.508          40.000  
G16  23661885.627   124344042.092        3392.008          43.000  
E34  24801179.470   130331088.640        -394.718          45.000  
E13  28998629.200   152388927.280        3489.754          29.000  
G20  25028120.441   131523566.287        -693.981          33.000  
> 2024 02 04 15 23 34.0020000  0 14                     
G18  22285570.363   117111452.229        2660.454          45.000  
G25  23707800.573   124585325.821       -3144.399          41.000  
G26  21517300.662   113074187.593        2075.476          45.000  
G28  22370617.596   117558369.920       -2454.763          45.000  
G29  21665078.228   113850754.773       -1649.461          46.000  
G31  21763175.325   114366252.318        -903.570          46.000  
E27  24314514.101   127773638.700        1297.843          44.000  
E30  24911173.571   130909116.413       -1296.233          44.000  
E15  25169903.594   132268749.412        2461.839          43.000  
G05  24500981.644   128753534.026        1720.001          40.000  
G16  23661240.006   124340650.257        3391.742          43.000  
E34  24801254.676   130331483.595        -395.310          45.000  
E13  28997966.345   152385437.549        3489.625          29.000  
G20  25028252.413   131524260.476        -694.435          33.000  
> 2024 02 04 15 23 35.0020000  0 14                     
G18  22285064.294   117108791.885        2660.057          45.000  
G25  23708398.965   124588470.247       -3144.834          41.000  
G26  21516905.971   113072112.321        2075.159          45.000  
G28  22371084.702   117560824.648       -2455.113          45.000  
G29  21665391.747   113852404.340       -1649.991          46.000  
G31  21763347.223   114367156.063        -904.417          46.000  
E27  24314267.022   127772341.037        1297.342          45.000  
E30  24911420.043   130910412.414       -1296.318          43.000  
E15  25169435.055   132266287.350        2461.727          43.000  
G05  24500654.448   128751814.265        1719.232          40.000  
G16  23660594.658   124337258.556        3391.340          43.000  
E34  24801329.594   130331878.983        -395.952          45.000  
E13  28997298.706   152381947.726        3489.434          29.000  
G20  25028386.269   131524955.217        -695.519          33.000  
> 2024 02 04 15 23 36.0020000  0 14                     
G18  22284558.035   117106132.195        2659.252          45.000  
G25  23708997.459   124591615.001       -3145.165          41.000  
G26  21516511.188   113070037.618        2074.426          45.000  
G28  22371552.114   117563280.007       -2455.712          45.000  
G29  21665705.467   113854054.440       -1650.519          46.000  
G31  21763519.267   114368060.590        -904.908          46.000  
E27  24314020.249   127771043.766        1296.783          45.000  
E30  24911666.662   130911708.824       -1296.725          43.000  
E15  25168966.484   132263825.814        2460.932          43.000  
G05  24500327.313   128750095.193        1718.671          40.000  
G16  23659949.305   124333867.178        3391.111          43.000  
E34  24801405.374   130332274.990        -396.338          45.000  
E13  28996634.731   152378458.048        3489.648          29.000  
G20  25028515.222   131525650.694        -696.448          33.000  
> 2024 02 04 15 23 37.0020000  0 14                     
G18  22284052.179   117103472.914        2658.960          45.000  
G25  23709595.700   124594759.856       -3144.671          41.000  
G26  21516116.434   113067963.213        2074.286          45.000  
G28  22372019.416   117565735.742       -2455.790          45.000  
G29  21666019.680   113855704.814       -1650.301          46.000  
G31  21763691.217   114368965.693        -905.464          46.000  
E27  24313773.396   127769746.642        1297.016          45.000  
E30  24911913.029   130913005.397       -1296.479          44.000  
E15  25168498.236   132261364.524        2461.308          43.000  
G05  24500000.301   128748376.614        1718.353          40.000  
G16  23659303.835   124330475.880        3391.554          43.000  
E34  24801480.587   130332671.391        -396.484          45.000  
E13  28995969.911   152374968.348        3490.093          29.000  
G20  25028648.633   131526346.668        -696.345          33.000  
> 2024 02 04 15 23 38.0020000  0 14                     
G18  22283546.125   117100813.854        2658.818          45.000  
G25  23710194.097   124597904.628       -3144.903          41.000  
G26  21515721.819   113065888.937        2073.981          46.000  
G28  22372486.639   117568191.709       -2456.282          44.000  
G29  21666333.647   113857355.306       -1650.735          46.000  
G31  21763863.359   114369871.166        -905.837          46.000  
E27  24313526.240   127768449.514        1297.072          44.000  
E30  24912159.657   130914301.986       -1296.718          43.000  
E15  25168029.885   132258903.341        2461.027          43.000  
G05  24499673.266   128746658.291        1718.176          40.000  
G16  23658658.539   124327084.510        3391.250          43.000  
E34  24801555.793   130333068.023        -396.946          44.000  
E13  28995305.005   152371478.361        3490.244          28.000  
G20  25028779.859   131527042.992        -696.967          32.000  
> 2024 02 04 15 23 39.0020000  0 14                     
G18  22283040.213   117098155.477        2657.905          45.000  
G25  23710792.665   124601049.817       -3145.591          40.000  
G26  21515327.254   113063815.252        2073.505          46.000  
G28  22372954.261   117570648.326       -2456.877          44.000  
G29  21666648.047   113859006.332       -1651.328          46.000  
G31  21764035.968   114370777.480        -906.791          46.000  
E27  24313279.110   127767152.804        1296.539          44.000  
E30  24912406.728   130915599.014       -1297.026          43.000  
E15  25167561.580   132256442.689        2460.489          42.000  
G05  24499346.511   128744940.737        1717.285          40.000  
G16  23658013.225   124323693.501        3390.811          43.000  
E34  24801631.516   130333465.302        -397.534          44.000  
E13  28994639.748   152367988.497        3490.298          28.000  
G20  25028913.063   131527740.091        -697.981          32.000  
> 2024 02 04 15 23 40.0020000  0 14                     
G18  22282534.481   117095497.604        2657.829          45.000  
G25  23711391.258   124604195.192       -3145.497          40.000  
G26  21514932.739   113061742.008        2073.047          46.000  
G28  22373421.720   117573105.446       -2457.016          44.000  
G29  21666962.496   113860657.768       -1651.656          46.000  
G31  21764208.267   114371684.466        -907.020          46.000  
E27  24313032.702   127765856.380        1296.415          45.000  
E30  24912653.544   130916896.346       -1297.395          43.000  
E15  25167093.768   132253982.443        2460.226          42.000  
G05  24499019.954   128743223.785        1716.711          39.000  
G16  23657367.674   124320302.672        3390.826          43.000  
E34  24801707.160   130333863.083        -397.896          44.000  
E13  28993975.711   152364498.755        3490.096          28.000  
G20  25029045.685   131528437.811        -698.210          33.000  
> 2024 02 04 15 23 41.0020000  0 14                     
G18  22282028.772   117092840.154        2657.063          45.000  
G25  23711989.715   124607340.666       -3145.411          40.000  
G26  21514538.288   113059669.045        2072.662          46.000  
G28  22373889.251   117575562.966       -2457.969          44.000  
G29  21667276.526   113862309.456       -1652.067          46.000  
G31  21764380.974   114372592.008        -907.917          46.000  
E27  24312785.943   127764560.092        1296.046          45.000  
E30  24912900.427   130918193.820       -1297.678          44.000  
E15  25166625.745   132251522.431        2459.780          42.000  
G05  24498693.415   128741507.265        1716.235          39.000  
G16  23656722.346   124316911.924        3390.695          43.000  
E34  24801782.683   130334261.236        -398.436          44.000  
E13  28993308.659   152361008.855        3489.734          28.000  
G20  25029178.529   131529135.991        -698.555          33.000  
> 2024 02 04 15 23 42.0020000  0 14                     
G18  22281523.147   117090183.112        2656.804          45.000  
G25  23712588.247   124610486.273       -3145.814          41.000  
G26  21514143.979   113057596.426        2072.333          46.000  
G28  22374356.666   117578020.870       -2458.244          43.000  
G29  21667591.123   113863961.453       -1652.300          46.000  
G31  21764553.593   114373500.124        -908.428          46.000  
E27  24312539.321   127763263.986        1295.868          44.000  
E30  24913147.429   130919491.478       -1297.810          44.000  
E15  25166157.643   132249062.717        2459.441          42.000  
G05  24498366.683   128739791.246        1715.448          39.000  
G16  23656077.209   124313521.294        3390.488          43.000  
E34  24801858.731   130334659.824        -399.006          44.000  
E13  28992644.885   152357518.911        3489.712          28.000  
G20  25029311.469   131529834.733        -699.012          33.000  
> 2024 02 04 15 23 43.0020000  0 14                     
G18  22281017.689   117087526.685        2656.312          45.000  
G25  23713186.879   124613632.188       -3146.316          41.000  
G26  21513749.722   113055524.313        2071.686          46.000  
G28  22374824.098   117580479.372       -2458.797          43.000  
G29  21667905.527   113865613.931       -1652.816          46.000  
G31  21764726.549   114374408.992        -909.105          46.000  
E27  24312292.623   127761968.239        1295.447          44.000  
E30  24913394.897   130920789.521       -1298.210          44.000  
E15  25165689.643   132246603.463        2459.137          42.000  
G05  24498040.140   128738075.874        1714.990          39.000  
G16  23655432.212   124310130.940        3390.176          43.000  
E34  24801935.084   130335058.984        -399.355          44.000  
E13  28991977.844   152354029.083        3489.436          28.000  
G20  25029444.348   131530534.191        -699.496          33.000  
> 2024 02 04 15 23 44.0020000  0 14                     
G18  22280512.182   117084870.734        2655.711          45.000  
G25  23713785.500   124616778.254       -3146.019          40.000  
G26  21513355.388   113053452.572        2071.680          46.000  
G28  22375292.063   117582938.326       -2459.193          43.000  
G29  21668219.952   113867266.744       -1652.885          46.000  
G31  21764899.609   114375318.510        -909.809          46.000  
E27  24312046.248   127760672.704        1295.493          44.000  
E30  24913641.913   130922087.803       -1298.557          44.000  
E15  25165221.559   132244144.549        2458.870          43.000  
G05  24497713.890   128736361.052        1714.789          39.000  
G16  23654787.086   124306740.757        3389.996          43.000  
E34  24802010.938   130335458.620        -399.826          44.000  
E13  28991310.053   152350539.232        3489.277          28.000  
G20  25029577.386   131531234.206        -700.146          33.000  
> 2024 02 04 15 23 45.0020000  0 14                     
G18  22280006.778   117082215.251        2655.171          45.000  
G25  23714384.396   124619924.519       -3146.434          40.000  
G26  21512961.382   113051381.223        2071.106          46.000  
G28  22375759.986   117585397.737       -2459.743          43.000  
G29  21668534.536   113868919.921       -1653.361          46.000  
G31  21765072.434   114376228.647        -910.605          46.000  
E27  24311799.460   127759377.414        1295.005          44.000  
E30  24913889.054   130923386.322       -1298.837          44.000  
E15  25164754.165   132241685.981        2458.304          43.000  
G05  24497387.656   128734646.773        1713.873          39.000  
G16  23654142.124   124303350.720        3389.921          43.000  
E34  24802086.986   130335858.701        -400.414          44.000  
E13  28990645.900   152347049.323        3489.452          27.000  
G20  25029710.603   131531934.798        -700.521          33.000  
> 2024 02 04 15 23 46.0020000  0 14                     
G18  22279501.583   117079560.206        2654.559          45.000  
G25  23714983.052   124623070.890       -3146.521          40.000  
G26  21512567.031   113049310.197        2070.728          46.000  
G28  22376228.142   117587857.560       -2460.185          43.000  
G29  21668848.950   113870573.398       -1653.906          46.000  
G31  21765245.756   114377139.362        -911.172          46.000  
E27  24311552.956   127758082.286        1294.851          44.000  
E30  24914136.184   130924685.035       -1298.981          44.000  
E15  25164285.895   132239227.686        2458.045          42.000  
G05  24497061.662   128732932.978        1713.269          39.000  
G16  23653497.044   124299960.788        3389.880          43.000  
E34  24802163.289   130336259.184        -400.903          44.000  
E13  28989979.914   152343559.328        3489.904          28.000  
G20  25029844.204   131532635.910        -701.396          33.000  
> 2024 02 04 15 23 47.0020000  0 14                     
G18  22278996.410   117076905.695        2654.138          45.000  
G25  23715581.609   124626217.512       -3146.636          40.000  
G26  21512173.005   113047239.625        2070.343          46.000  
G28  22376695.920   117590317.906       -2460.778          43.000  
G29  21669163.588   113872227.285       -1654.245          46.000  
G31  21765419.019   114378050.780        -911.878          46.000  
E27  24311306.673   127756787.459        1294.458          44.000  
E30  24914383.589   130925984.047       -1299.211          44.000  
E15  25163818.312   132236769.801        2457.668          42.000  
G05  24496735.478   128731219.787        1712.622          39.000  
G16  23652851.892   124296571.089        3389.522          43.000  
E34  24802239.300   130336660.198        -401.330          44.000  
E13  28989318.638   152340069.394        3490.051          28.000  
G20  25029977.461   131533337.724        -702.683          32.000  
> 2024 02 04 15 23 48.0020000  0 14                     
G18  22278491.569   117074251.850        2653.531          44.000  
G25  23716180.407   124629364.517       -3147.368          40.000  
G26  21511779.243   113045169.619        2069.830          46.000  
G28  22377163.980   117592778.898       -2461.330          43.000  
G29  21669478.300   113873881.706       -1654.658          46.000  
G31  21765592.566   114378963.010        -912.677          46.000  
E27  24311060.343   127755493.038        1294.291          44.000  
E30  24914630.848   130927283.499       -1299.621          44.000  
E15  25163350.686   132234312.452        2457.082          43.000  
G05  24496409.593   128729507.307        1712.219          39.000  
G16  23652206.820   124293181.729        3389.161          43.000  
E34  24802315.918   130337061.870        -401.908          44.000  
E13  28988652.470   152336579.622        3489.771          28.000  
G20  25030111.145   131534040.240        -702.745          32.000  
> 2024 02 04 15 23 49.0020000  0 14                     
G18  22277986.302   117071598.470        2652.968          44.000  
G25  23716779.192   124632511.670       -3147.590          40.000  
G26  21511385.389   113043099.983        2069.312          46.000  
G28  22377632.348   117595240.331       -2461.810          43.000  
G29  21669793.022   113875536.467       -1655.083          46.000  
G31  21765766.117   114379875.859        -913.357          46.000  
E27  24310814.047   127754198.837        1294.102          44.000  
E30  24914877.993   130928583.173       -1299.893          44.000  
E15  25162883.498   132231855.427        2456.799          43.000  
G05  24496083.774   128727795.375        1711.651          39.000  
G16  23651561.753   124289792.532        3388.941          43.000  
E34  24802392.489   130337463.987        -402.446          44.000  
E13  28987986.862   152333089.898        3489.724          28.000  
G20  25030244.927   131534743.327        -703.469          32.000  
> 2024 02 04 15 23 50.0020000  0 14                     
G18  22277481.241   117068945.384        2652.677          45.000  
G25  23717378.085   124635658.771       -3147.365          40.000  
G26  21510991.425   113041030.519        2069.086          46.000  
G28  22378100.791   117597702.037       -2462.102          44.000  
G29  21670107.856   113877191.405       -1655.520          46.000  
G31  21765939.697   114380789.130        -913.963          45.000  
E27  24310567.536   127752904.680        1293.748          44.000  
E30  24915125.485   130929882.891       -1299.983          44.000  
E15  25162415.812   132229398.543        2456.423          43.000  
G05  24495757.708   128726083.817        1711.285          39.000  
G16  23650917.016   124286403.277        3388.794          43.000  
E34  24802469.237   130337866.382        -402.934          44.000  
E13  28987322.872   152329599.843        3490.129          28.000  
G20  25030378.532   131535446.830        -704.458          32.000  
> 2024 02 04 15 23 51.0020000  0 14                     
G18  22276976.087   117066292.673        2652.576          44.000  
G25  23717976.820   124638806.009       -3147.453          40.000  
G26  21510597.817   113038961.390        2069.122          45.000  
G28  22378568.965   117600164.101       -2462.167          44.000  
G29  21670422.994   113878846.580       -1655.270          46.000  
G31  21766113.601   114381702.956        -914.129          45.000  
E27  24310321.279   127751610.658        1293.946          43.000  
E30  24915373.158   130931182.783       -1299.978          44.000  
E15  25161948.153   132226941.898        2456.585          43.000  
G05  24495431.912   128724372.638        1710.895          39.000  
G16  23650271.964   124283014.092        3389.126          43.000  
E34  24802545.807   130338269.114        -402.795          45.000  
E13  28986655.855   152326109.800        3490.118          28.000  
G20  25030512.506   131536150.806        -704.431          32.000  
> 2024 02 04 15 23 52.0020000  0 14                     
G18  22276471.002   117063640.734        2651.086          45.000  
G25  23718575.814   124641953.669       -3148.344          40.000  
G26  21510203.964   113036892.899        2067.627          45.000  
G28  22379037.891   117602626.918       -2463.670          44.000  
G29  21670738.045   113880502.410       -1656.704          46.000  
G31  21766287.576   114382617.715        -915.811          45.000  
E27  24310075.019   127750317.146        1292.774          43.000  
E30  24915620.362   130932483.178       -1301.038          43.000  
E15  25161480.867   132224485.899        2455.208          43.000  
G05  24495106.271   128722662.306        1709.351          38.000  
G16  23649626.969   124279625.376        3387.810          43.000  
E34  24802622.141   130338672.639        -404.456          44.000  
E13  28985989.283   152322619.910        3489.965          27.000  
G20  25030646.312   131536855.611        -705.352          33.000  
> 2024 02 04 15 23 53.0020000  0 14                     
G18  22275966.627   117060989.706        2650.426          44.000  
G25  23719174.838   124645101.939       -3148.511          40.000  
G26  21509810.394   113034825.236        2067.053          45.000  
G28  22379506.801   117605090.629       -2464.398          44.000  
G29  21671053.309   113882159.022       -1657.302          46.000  
G31  21766461.967   114383533.524        -916.466          45.000  
E27  24309828.949   127749024.283        1292.474          43.000  
E30  24915868.097   130933784.275       -1301.636          44.000  
E15  25161013.563   132222030.658        2454.792          43.000  
G05  24494780.799   128720952.962        1708.569          38.000  
G16  23648982.321   124276237.232        3387.730          43.000  
E34  24802699.131   130339077.026        -405.049          44.000  
E13  28985325.280   152319130.540        3489.010          27.000  
G20  25030780.646   131537561.482        -706.570          33.000  
> 2024 02 04 15 23 54.0020000  0 14                     
G18  22275461.782   117058339.048        2650.308          44.000  
G25  23719773.878   124648250.277       -3148.431          40.000  
G26  21509417.022   113032757.851        2067.200          45.000  
G28  22379975.697   117607554.684       -2464.281          44.000  
G29  21671368.938   113883815.874       -1657.035          46.000  
G31  21766636.338   114384449.864        -916.670          45.000  
E27  24309582.977   127747731.572        1292.445          43.000  
E30  24916115.619   130935085.516       -1301.746          44.000  
E15  25160546.471   132219575.663        2454.788          43.000  
G05  24494455.501   128719244.053        1708.526          38.000  
G16  23648337.549   124272849.153        3387.866          43.000  
E34  24802776.455   130339481.782        -405.260          45.000  
E13  28984663.001   152315641.012        3488.773          28.000  
G20  25030915.111   131538267.794        -706.664          32.000  
> 2024 02 04 15 23 55.0020000  0 14                     
G18  22274957.342   117055689.194        2649.167          44.000  
G25  23720372.713   124651399.116       -3149.162          40.000  
G26  21509023.470   113030691.150        2066.223          45.000  
G28  22380444.874   117610019.503       -2465.306          44.000  
G29  21671684.298   113885473.404       -1657.997          46.000  
G31  21766810.986   114385367.163        -917.917          45.000  
E27  24309337.073   127746439.389        1291.854          43.000  
E30  24916363.652   130936387.274       -1301.980          44.000  
E15  25160079.385   132217121.323        2453.916          43.000  
G05  24494130.287   128717536.004        1707.520          39.000  
G16  23647692.990   124269461.533        3387.330          43.000  
E34  24802853.373   130339887.296        -405.999          45.000  
E13  28983999.341   152312151.733        3489.123          28.000  
G20  25031049.417   131538975.017        -707.813          32.000  
> 2024 02 04 15 23 56.0020000  0 14                     
G18  22274453.146   117053039.631        2649.744          44.000  
G25  23720971.707   124654547.953       -3148.704          40.000  
G26  21508630.286   113028624.662        2066.589          45.000  
G28  22380913.690   117612484.625       -2464.916          44.000  
G29  21671999.774   113887131.091       -1657.512          46.000  
G31  21766985.776   114386284.904        -917.646          45.000  
E27  24309091.280   127745147.262        1292.320          44.000  
E30  24916611.491   130937689.135       -1301.792          43.000  
E15  25159612.577   132214667.149        2454.186          43.000  
G05  24493805.233   128715828.317        1708.032          39.000  
G16  23647048.355   124266073.914        3387.909          43.000  
E34  24802930.665   130340293.114        -405.820          45.000  
E13  28983340.200   152308662.337        3489.470          29.000  
G20  25031183.893   131539682.636        -707.391          32.000  
> 2024 02 04 15 23 57.0020000  0 14                     
G18  22273948.979   117050390.364        2648.382          45.000  
G25  23721570.875   124657696.749       -3149.302          40.000  
G26  21508237.113   113026558.359        2065.753          46.000  
G28  22381382.758   117614949.990       -2465.971          44.000  
G29  21672315.154   113888788.949       -1658.419          46.000  
G31  21767160.610   114387203.080        -919.021          45.000  
E27  24308845.522   127743855.176        1291.604          43.000  
E30  24916859.025   130938991.028       -1302.342          43.000  
E15  25159145.836   132212213.104        2453.485          43.000  
G05  24493480.029   128714120.985        1706.671          39.000  
G16  23646403.593   124262686.241        3387.353          42.000  
E34  24803008.017   130340699.187        -406.628          45.000  
E13  28982675.493   152305172.683        3489.142          28.000  
G20  25031318.451   131540390.617        -708.462          31.000  
> 2024 02 04 15 23 58.0020000  0 14                     
G18  22273444.951   117047741.942        2648.177          45.000  
G25  23722170.345   124660846.113       -3149.205          40.000  
G26  21507843.970   113024492.842        2065.393          46.000  
G28  22381851.883   117617416.209       -2466.404          44.000  
G29  21672630.519   113890447.537       -1658.795          46.000  
G31  21767335.372   114388122.267        -919.328          45.000  
E27  24308599.610   127742563.681        1291.533          43.000  
E30  24917106.593   130940293.553       -1302.605          43.000  
E15  25158679.210   132209759.787        2453.330          43.000  
G05  24493155.119   128712414.555        1706.219          39.000  
G16  23645758.819   124259299.142        3386.836          42.000  
E34  24803085.269   130341106.103        -406.961          45.000  
E13  28982007.717   152301683.373        3489.756          28.000  
G20  25031453.234   131541099.570        -708.955          31.000  
> 2024 02 04 15 23 59.0020000  0 14                     
G18  22272941.061   117045094.211        2647.072          45.000  
G25  23722769.461   124663995.871       -3150.297          40.000  
G26  21507451.251   113022427.889        2064.398          46.000  
G28  22382321.108   117619883.087       -2467.430          44.000  
G29  21672946.128   113892106.665       -1659.445          46.000  
G31  21767510.546   114389042.291        -920.554          45.000  
E27  24308353.854   127741272.618        1290.804          43.000  
E30  24917354.593   130941596.520       -1303.381          43.000  
E15  25158212.360   132207307.007        2452.401          43.000  
G05  24492830.665   128710708.867        1705.127          39.000  
G16  23645114.326   124255912.380        3386.310          42.000  
E34  24803162.969   130341513.681        -408.038          44.000  
E13  28981345.810   152298194.281        3489.476          28.000  
G20  25031588.074   131541809.387        -711.136          31.000  
> 2024 02 04 15 24 00.0020000  0 14                     
G18  22272437.323   117042446.807        2647.275          45.000  
G25  23723368.830   124667145.636       -3149.678          40.000  
G26  21507058.505   113020363.174        2064.716          46.000  
G28  22382790.515   117622350.274       -2467.329          44.000  
G29  21673261.774   113893766.017       -1659.474          46.000  
G31  21767685.493   114389962.795        -920.615          45.000  
E27  24308108.072   127739981.662        1290.946          43.000  
E30  24917602.552   130942899.594       -1303.144          43.000  
E15  25157745.517   132204854.444        2452.352          43.000  
G05  24492506.200   128709003.594        1705.267          39.000  
G16  23644469.937   124252525.625        3386.789          42.000  
E34  24803240.443   130341921.582        -408.025          44.000  
E13  28980681.649   152294705.013        3489.733          28.000  
G20  25031723.266   131542519.472        -709.482          31.000  
> 2024 02 04 15 24 01.0020000  0 14                     
G18  22271933.476   117039799.606        2646.772          45.000  
G25  23723968.295   124670295.303       -3149.738          40.000  
G26  21506665.614   113018298.566        2064.301          46.000  
G28  22383260.116   117624817.649       -2467.853          44.000  
G29  21673577.714   113895425.414       -1659.711          46.000  
G31  21767861.014   114390883.662        -921.413          45.000  
E27  24307862.510   127738690.635        1290.876          43.000  
E30  24917850.673   130944202.614       -1303.367          43.000  
E15  25157278.442   132202401.926        2452.094          43.000  
G05  24492181.840   128707298.584        1704.492          39.000  
G16  23643825.588   124249138.763        3386.486          42.000  
E34  24803318.376   130342329.639        -408.408          45.000  
E13  28980016.348   152291215.455        3489.617          28.000  
G20  25031858.531   131543229.982        -710.873          31.000  
> 2024 02 04 15 24 02.0020000  0 14                     
G18  22271430.077   117037153.035        2646.367          45.000  
G25  23724567.719   124673445.315       -3150.142          40.000  
G26  21506272.774   113016234.512        2063.782          46.000  
G28  22383729.873   117627285.627       -2468.298          44.000  
G29  21673893.862   113897085.334       -1660.075          46.000  
G31  21768035.959   114391805.302        -921.918          45.000  
E27  24307617.213   127737400.002        1290.447          43.000  
E30  24918098.884   130945506.049       -1303.687          43.000  
E15  25156811.828   132199949.895        2451.809          43.000  
G05  24491857.634   128705594.260        1704.071          39.000  
G16  23643181.153   124245752.202        3386.409          42.000  
E34  24803396.197   130342738.339        -408.945          45.000  
E13  28979351.078   152287726.059        3489.054          28.000  
G20  25031993.692   131543941.174        -710.819          31.000  
> 2024 02 04 15 24 03.0020000  0 14                     
G18  22270926.913   117034506.974        2645.659          45.000  
G25  23725167.029   124676595.490       -3150.343          40.000  
G26  21505880.112   113014170.842        2063.312          46.000  
G28  22384199.629   117629754.085       -2468.986          44.000  
G29  21674209.855   113898745.632       -1660.739          46.000  
G31  21768211.421   114392727.604        -922.859          45.000  
E27  24307371.594   127736109.616        1290.166          43.000  
E30  24918346.883   130946809.742       -1304.088          43.000  
E15  25156345.396   132197498.240        2451.208          43.000  
G05  24491533.459   128703890.504        1703.094          39.000  
G16  23642536.566   124242365.831        3386.079          42.000  
E34  24803474.160   130343147.512        -409.589          45.000  
E13  28978687.468   152284236.598        3489.573          28.000  
G20  25032128.918   131544653.037        -712.743          31.000  
> 2024 02 04 15 24 04.0020000  0 14                     
G18  22270423.603   117031861.271        2645.531          45.000  
G25  23725766.198   124679745.757       -3150.485          40.000  
G26  21505487.440   113012107.462        2062.970          46.000  
G28  22384669.421   117632222.885       -2469.132          44.000  
G29  21674525.861   113900406.147       -1660.730          46.000  
G31  21768386.839   114393650.407        -923.116          45.000  
E27  24307126.030   127734819.349        1289.916          43.000  
E30  24918594.865   130948113.558       -1304.007          43.000  
E15  25155878.625   132195046.804        2451.219          42.000  
G05  24491209.195   128702187.148        1703.113          40.000  
G16  23641892.326   124238979.494        3386.204          42.000  
E34  24803552.285   130343557.041        -409.895          45.000  
E13  28978022.070   152280747.084        3489.413          28.000  
G20  25032261.989   131545365.309        -713.464          31.000  
> 2024 02 04 15 24 05.0020000  0 14                     
G18  22269920.347   117029215.946        2645.004          45.000  
G25  23726365.478   124682896.067       -3150.373          39.000  
G26  21505094.922   113010044.340        2062.811          46.000  
G28  22385139.057   117634692.037       -2469.581          44.000  
G29  21674842.026   113902066.914       -1661.149          46.000  
G31  21768562.462   114394573.735        -923.632          45.000  
E27  24306880.658   127733529.196        1289.825          43.000  
E30  24918842.781   130949417.513       -1304.240          43.000  
E15  25155412.185   132192595.600        2450.810          42.000  
G05  24490885.238   128700484.244        1702.588          40.000  
G16  23641248.009   124235593.229        3386.051          42.000  
E34  24803630.026   130343966.904        -410.208          45.000  
E13  28977358.198   152277257.393        3489.706          28.000  
G20  25032398.393   131546078.031        -713.417          31.000  
> 2024 02 04 15 24 06.0020000  0 14                     
G18  22269417.321   117026571.306        2644.099          45.000  
G25  23726964.997   124686046.769       -3150.899          39.000  
G26  21504702.589   113007981.824        2061.945          46.000  
G28  22385609.076   117637161.856       -2470.264          44.000  
G29  21675158.176   113903728.228       -1661.625          46.000  
G31  21768737.957   114395497.898        -924.597          45.000  
E27  24306635.171   127732239.481        1289.228          43.000  
E30  24919091.017   130950721.920       -1304.854          43.000  
E15  25154945.370   132190144.944        2450.175          42.000  
G05  24490561.417   128698782.089        1701.440          39.000  
G16  23640603.300   124232207.328        3385.571          42.000  
E34  24803708.297   130344377.446        -411.008          45.000  
E13  28976693.757   152273767.907        3489.015          28.000  
G20  25032531.291   131546791.586        -714.713          30.000  
> 2024 02 04 15 24 07.0020000  0 14                     
G18  22268913.991   117023927.075        2644.043          45.000  
G25  23727564.430   124689197.580       -3150.783          39.000  
G26  21504310.391   113005919.612        2061.908          46.000  
G28  22386079.124   117639632.048       -2470.239          44.000  
G29  21675474.422   113905389.832       -1661.814          46.000  
G31  21768914.067   114396422.641        -924.955          45.000  
E27  24306389.391   127730949.927        1289.459          43.000  
E30  24919339.233   130952026.494       -1304.586          43.000  
E15  25154479.082   132187694.564        2450.189          42.000  
G05  24490237.894   128697080.424        1701.093          39.000  
G16  23639958.654   124228821.513        3385.707          42.000  
E34  24803786.698   130344788.383        -411.265          45.000  
E13  28976031.722   152270278.344        3489.637          28.000  
G20  25032672.387   131547505.560        -714.352          31.000  
> 2024 02 04 15 24 08.0020000  0 14                     
G18  22268410.888   117021283.309        2643.761          45.000  
G25  23728163.956   124692348.552       -3150.699          39.000  
G26  21503917.846   113003857.768        2061.841          46.000  
G28  22386549.414   117642102.700       -2470.643          44.000  
G29  21675790.533   113907051.765       -1661.932          46.000  
G31  21769090.150   114397347.985        -925.357          45.000  
E27  24306144.128   127729660.584        1289.387          43.000  
E30  24919587.752   130953331.312       -1304.689          43.000  
E15  25154012.677   132185244.515        2449.827          42.000  
G05  24489914.230   128695379.257        1701.031          39.000  
G16  23639314.778   124225435.851        3385.652          42.000  
E34  24803864.882   130345199.756        -411.402          45.000  
E13  28975369.144   152266788.743        3489.811          28.000  
G20  25032813.961   131548220.168        -714.845          30.000  
> 2024 02 04 15 24 09.0020000  0 14                     
G18  22267907.809   117018639.851        2643.366          45.000  
G25  23728763.404   124695499.510       -3150.967          39.000  
G26  21503525.331   113001796.127        2061.633          46.000  
G28  22387019.697   117644573.625       -2470.936          44.000  
G29  21676106.742   113908713.869       -1662.183          46.000  
G31  21769266.572   114398273.786        -925.896          45.000  
E27  24305898.606   127728371.297        1289.225          43.000  
E30  24919836.032   130954636.180       -1304.763          43.000  
E15  25153546.349   132182794.599        2449.866          42.000  
G05  24489590.624   128693678.455        1700.775          39.000  
G16  23638670.414   124222050.158        3385.497          42.000  
E34  24803943.109   130345611.411        -411.732          45.000  
E13  28974704.402   152263299.003        3489.318          28.000  
G20  25032947.935   131548935.167        -715.433          30.000  
> 2024 02 04 15 24 10.0020000  0 14                     
G18  22267404.573   117015996.809        2642.930          45.000  
G25  23729363.041   124698650.587       -3150.924          39.000  
G26  21503133.293   112999734.821        2061.389          46.000  
G28  22387489.994   117647044.944       -2471.471          44.000  
G29  21676423.278   113910376.268       -1662.334          46.000  
G31  21769442.693   114399200.161        -926.306          45.000  
E27  24305653.269   127727082.170        1289.322          43.000  
E30  24920084.006   130955941.254       -1304.930          43.000  
E15  25153080.428   132180344.982        2449.873          42.000  
G05  24489267.101   128691978.145        1700.329          39.000  
G16  23638026.189   124218664.564        3385.785          42.000  
E34  24804021.493   130346023.477        -412.050          45.000  
E13  28974041.972   152259809.099        3489.954          28.000  
G20  25033084.424   131549650.653        -715.527          30.000  
> 2024 02 04 15 24 11.0020000  0 14                     
G18  22266901.396   117013354.258        2642.099          44.000  
G25  23729962.633   124701801.861       -3151.750          39.000  
G26  21502740.975   112997673.916        2060.461          46.000  
G28  22387960.410   117649516.737       -2472.236          44.000  
G29  21676739.801   113912039.034       -1663.135          46.000  
G31  21769618.691   114400127.181        -927.596          45.000  
E27  24305408.091   127725793.302        1288.610          43.000  
E30  24920332.320   130957246.571       -1305.646          43.000  
E15  25152614.387   132177895.748        2448.693          42.000  
G05  24488943.417   128690278.380        1699.518          39.000  
G16  23637381.877   124215279.161        3385.003          42.000  
E34  24804100.172   130346436.012        -413.021          45.000  
E13  28973377.271   152256319.164        3490.053          28.000  
G20  25033213.370   131550366.773        -716.415          30.000  
> 2024 02 04 15 24 12.0020000  0 14                     
G18  22266398.605   117010712.104        2641.864          44.000  
G25  23730561.888   124704953.190       -3151.357          39.000  
G26  21502348.886   112995613.280        2060.486          46.000  
G28  22388431.036   117651988.883       -2472.181          44.000  
G29  21677056.086   113913702.042       -1663.113          46.000  
G31  21769795.083   114401054.724        -927.768          45.000  
E27  24305162.617   127724504.576        1288.565          43.000  
E30  24920580.794   130958552.024       -1305.458          43.000  
E15  25152148.348   132175446.722        2448.931          42.000  
G05  24488620.276   128688579.096        1698.865          39.000  
G16  23636737.567   124211893.801        3385.443          42.000  
E34  24804178.986   130346848.904        -413.052          45.000  
E13  28972710.396   152252829.182        3490.002          29.000  
G20  25033343.335   131551083.345        -716.673          29.000  
> 2024 02 04 15 24 13.0020000  0 14                     
G18  22265895.697   117008070.371        2641.223          44.000  
G25  23731161.548   124708104.676       -3151.790          39.000  
G26  21501956.729   112993553.005        2059.900          46.000  
G28  22388901.405   117654461.459       -2472.919          44.000  
G29  21677372.696   113915365.356       -1663.630          46.000  
G31  21769971.642   114401982.861        -928.516          45.000  
E27  24304917.747   127723216.009        1288.338          43.000  
E30  24920829.460   130959857.675       -1305.842          43.000  
E15  25151682.177   132172997.994        2448.339          42.000  
G05  24488297.105   128686880.267        1698.407          39.000  
G16  23636093.276   124208508.570        3385.023          42.000  
E34  24804257.592   130347262.217        -413.790          45.000  
E13  28972049.741   152249339.204        3488.898          29.000  
G20  25033480.298   131551800.526        -717.970          29.000  
> 2024 02 04 15 24 14.0020000  0 14                     
G18  22265393.074   117005429.186        2640.626          45.000  
G25  23731761.174   124711256.400       -3152.128          39.000  
G26  21501564.771   112991493.176        2059.570          46.000  
G28  22389372.100   117656934.561       -2473.534          44.000  
G29  21677689.297   113917029.106       -1664.063          46.000  
G31  21770148.548   114402911.693        -929.254          44.000  
E27  24304672.571   127721927.767        1288.021          44.000  
E30  24921077.717   130961163.662       -1306.236          44.000  
E15  25151216.489   132170549.679        2448.024          42.000  
G05  24487974.038   128685182.074        1697.839          38.000  
G16  23635449.010   124205123.583        3384.748          42.000  
E34  24804336.406   130347676.066        -414.193          45.000  
E13  28971384.088   152245849.130        3490.284          29.000  
G20  25033618.427   131552518.214        -717.996          29.000  
> 2024 02 04 15 24 15.0020000  0 14                     
G18  22264890.309   117002788.371        2640.881          44.000  
G25  23732360.672   124714408.170       -3151.338          39.000  
G26  21501172.920   112989433.626        2059.631          46.000  
G28  22389842.743   117659407.993       -2473.377          44.000  
G29  21678006.182   113918693.074       -1663.822          46.000  
G31  21770325.144   114403841.036        -929.286          44.000  
E27  24304427.465   127720639.601        1288.476          44.000  
E30  24921326.335   130962469.765       -1306.082          44.000  
E15  25150750.322   132168101.606        2448.253          42.000  
G05  24487650.893   128683484.321        1697.742          39.000  
G16  23634805.047   124201738.617        3385.026          42.000  
E34  24804415.323   130348090.252        -414.247          45.000  
E13  28970724.755   152242359.030        3490.207          29.000  
G20  25033755.917   131553236.453        -718.254          29.000  
> 2024 02 04 15 24 16.0020000  0 14                     
G18  22264387.594   117000148.246        2639.981          44.000  
G25  23732960.281   124717560.320       -3152.247          39.000  
G26  21500781.016   112987374.654        2058.807          46.000  
G28  22390313.635   117661882.090       -2474.296          44.000  
G29  21678322.891   113920357.597       -1664.627          46.000  
G31  21770502.359   114404771.221        -930.478          45.000  
E27  24304182.717   127719351.897        1287.654          44.000  
E30  24921575.049   130963776.311       -1306.561          44.000  
E15  25150284.735   132165654.086        2447.280          41.000  
G05  24487328.066   128681787.294        1696.783          39.000  
G16  23634160.843   124198354.019        3384.707          42.000  
E34  24804494.377   130348505.097        -414.954          46.000  
E13  28970059.743   152238869.064        3489.842          30.000  
G20  25033900.004   131553955.497        -719.515          29.000  
> 2024 02 04 15 24 17.0020000  0 14                     
G18  22263885.106   116997508.437        2639.787          44.000  
G25  23733560.032   124720712.494       -3152.153          39.000  
G26  21500389.222   112985315.911        2058.655          46.000  
G28  22390784.523   117664356.486       -2474.533          44.000  
G29  21678639.477   113922022.316       -1664.769          46.000  
G31  21770679.702   114405701.875        -930.900          45.000  
E27  24303937.590   127718064.271        1287.643          44.000  
E30  24921823.712   130965082.960       -1306.840          44.000  
E15  25149819.104   132163206.732        2447.185          41.000  
G05  24487005.158   128680090.672        1696.582          39.000  
G16  23633516.933   124194969.445        3384.331          42.000  
E34  24804573.459   130348920.259        -415.239          46.000  
E13  28969394.562   152235378.923        3490.385          30.000  
G20  25034035.526   131554674.884        -719.660          29.000  
> 2024 02 04 15 24 18.0020000  0 14                     
G18  22263382.678   116994869.294        2638.906          44.000  
G25  23734159.868   124723864.997       -3152.468          39.000  
G26  21499997.624   112983257.732        2057.904          46.000  
G28  22391255.312   117666831.503       -2475.131          45.000  
G29  21678956.580   113923687.564       -1665.467          46.000  
G31  21770857.013   114406633.338        -931.766          45.000  
E27  24303692.397   127716777.039        1286.991          44.000  
E30  24922072.554   130966390.010       -1307.226          44.000  
E15  25149353.768   132160759.892        2446.607          41.000  
G05  24486682.342   128678394.764        1695.416          39.000  
G16  23632872.729   124191585.176        3384.138          41.000  
E34  24804652.648   130349336.057        -416.147          46.000  
E13  28968727.266   152231888.969        3489.475          30.000  
G20  25034170.742   131555395.112        -720.880          28.000  
> 2024 02 04 15 24 19.0020000  0 14                     
G18  22262880.386   116992230.710        2638.176          44.000  
G25  23734759.630   124727017.793       -3153.266          39.000  
G26  21499606.220   112981200.026        2057.159          46.000  
G28  22391726.630   117669307.063       -2475.919          45.000  
G29  21679273.352   113925353.242       -1666.110          46.000  
G31  21771034.687   114407565.505        -932.819          45.000  
E27  24303447.771   127715490.117        1286.523          44.000  
E30  24922321.464   130967697.391       -1307.827          44.000  
E15  25148888.102   132158313.479        2446.043          41.000  
G05  24486359.679   128676699.470        1694.550          39.000  
G16  23632228.683   124188201.179        3383.500          41.000  
E34  24804732.345   130349752.387        -416.776          46.000  
E13  28968077.271   152228399.112        3488.985          30.000  
G20  25034303.383   131556115.904        -721.147          28.000  
> 2024 02 04 15 24 20.0020000  0 14                     
G18  22262378.138   116989592.738        2637.484          44.000  
G25  23735359.575   124730170.857       -3153.092          38.000  
G26  21499214.486   112979142.819        2056.854          46.000  
G28  22392198.161   117671783.209       -2476.479          45.000  
G29  21679590.305   113927019.386       -1666.454          46.000  
G31  21771212.411   114408498.423        -933.439          45.000  
E27  24303203.261   127714203.551        1286.383          44.000  
E30  24922570.319   130969005.143       -1308.088          44.000  
E15  25148422.701   132155867.526        2445.495          41.000  
G05  24486036.861   128675004.838        1694.159          39.000  
G16  23631584.598   124184817.431        3383.568          42.000  
E34  24804811.973   130350169.303        -417.232          46.000  
E13  28967412.490   152224909.348        3489.264          30.000  
G20  25034436.812   131556837.478        -721.964          28.000  
> 2024 02 04 15 24 21.0020000  0 14                     
G18  22261876.257   116986954.987        2637.573          45.000  
G25  23735959.280   124733323.842       -3152.841          38.000  
G26  21498823.335   112977085.756        2057.043          46.000  
G28  22392669.546   117674259.571       -2476.584          44.000  
G29  21679907.277   113928685.657       -1666.362          46.000  
G31  21771390.275   114409431.723        -933.251          45.000  
E27  24302958.218   127712916.988        1286.477          44.000  
E30  24922818.865   130970312.890       -1307.743          44.000  
E15  25147957.240   132153421.675        2445.860          42.000  
G05  24485714.359   128673310.514        1694.049          38.000  
G16  23630940.406   124181433.646        3383.662          42.000  
E34  24804891.463   130350586.450        -417.275          46.000  
E13  28966738.914   152221419.243        3490.649          29.000  
G20  25034566.399   131557559.351        -722.130          28.000  
> 2024 02 04 15 24 22.0020000  0 14                     
G18  22261374.448   116984317.548        2637.122          44.000  
G25  23736558.959   124736476.838       -3153.182          38.000  
G26  21498431.892   112975028.887        2056.720          46.000  
G28  22393140.719   117676736.202       -2477.096          45.000  
G29  21680224.315   113930352.069       -1666.539          46.000  
G31  21771568.055   114410365.493        -934.226          46.000  
E27  24302713.636   127711630.455        1286.461          44.000  
E30  24923067.869   130971620.713       -1308.099          44.000  
E15  25147491.690   132150975.993        2445.481          42.000  
G05  24485391.884   128671616.540        1693.774          39.000  
G16  23630296.521   124178049.796        3383.688          42.000  
E34  24804970.798   130351003.854        -417.578          45.000  
E13  28966079.472   152217929.053        3489.972          30.000  
G20  25034705.080   131558281.583        -722.215          28.000  
> 2024 02 04 15 24 23.0020000  0 14                     
G18  22260872.274   116981680.825        2635.932          43.000  
G25  23737159.015   124739630.268       -3154.128          39.000  
G26  21498040.695   112972972.651        2055.518          46.000  
G28  22393612.167   117679213.525       -2478.177          44.000  
G29  21680541.237   113932019.089       -1667.925          46.000  
G31  21771745.934   114411300.129        -935.523          45.000  
E27  24302469.193   127710344.392        1285.511          44.000  
E30  24923316.753   130972928.979       -1308.875          43.000  
E15  25147026.446   132148530.894        2444.277          41.000  
G05  24485069.510   128669923.389        1692.212          38.000  
G16  23629652.444   124174666.401        3382.561          42.000  
E34  24805050.083   130351421.963        -418.863          45.000  
E13  28965404.256   152214438.991        3489.591          30.000  
G20  25034846.656   131559004.709        -723.789          28.000  
> 2024 02 04 15 24 24.0020000  0 14                     
G18  22260370.478   116979044.887        2635.551          43.000  
G25  23737758.995   124742784.136       -3154.274          38.000  
G26  21497649.765   112970917.094        2055.103          46.000  
G28  22394083.991   117681691.597       -2478.687          44.000  
G29  21680858.959   113933686.752       -1668.075          46.000  
G31  21771923.887   114412235.675        -936.003          45.000  
E27  24302224.554   127709058.855        1285.215          44.000  
E30  24923566.182   130974237.829       -1309.263          43.000  
E15  25146561.201   132146086.423        2444.180          41.000  
G05  24484747.502   128668231.044        1691.901          38.000  
G16  23629008.682   124171283.424        3382.689          42.000  
E34  24805129.671   130351840.835        -419.392          45.000  
E13  28964739.668   152210949.231        3489.434          29.000  
G20  25034991.746   131559728.702        -724.849          28.000  
> 2024 02 04 15 24 25.0020000  0 14                     
G18  22259869.017   116976409.620        2634.546          43.000  
G25  23738359.193   124745938.362       -3154.880          38.000  
G26  21497258.941   112968862.113        2054.431          46.000  
G28  22394555.607   117684170.336       -2479.363          45.000  
G29  21681176.455   113935354.949       -1668.796          46.000  
G31  21772102.392   114413172.037        -936.866          46.000  
E27  24301979.593   127707773.736        1284.632          44.000  
E30  24923815.406   130975547.098       -1309.984          43.000  
E15  25146096.255   132143642.498        2443.199          41.000  
G05  24484425.405   128666539.413        1691.016          39.000  
G16  23628364.963   124167900.815        3382.086          42.000  
E34  24805209.517   130352260.346        -420.207          46.000  
E13  28964082.064   152207459.662        3488.858          29.000  
G20  25035130.067   131560453.430        -725.741          29.000  
> 2024 02 04 15 24 26.0020000  0 14                     
G18  22259367.681   116973775.157        2633.906          43.000  
G25  23738959.225   124749093.100       -3154.855          38.000  
G26  21496868.076   112966807.850        2054.047          46.000  
G28  22395027.341   117686649.847       -2479.963          45.000  
G29  21681494.335   113937023.834       -1669.176          46.000  
G31  21772281.219   114414109.374        -937.677          46.000  
E27  24301735.257   127706489.179        1284.452          44.000  
E30  24924064.623   130976856.935       -1310.083          43.000  
E15  25145631.325   132141199.240        2442.918          41.000  
G05  24484103.571   128664848.667        1690.387          39.000  
G16  23627721.251   124164518.691        3382.029          42.000  
E34  24805289.786   130352680.661        -420.691          46.000  
E13  28963415.243   152203970.406        3489.283          30.000  
G20  25035263.472   131561179.072        -726.082          29.000  
> 2024 02 04 15 24 27.0020000  0 14                     
G18  22258866.635   116971141.108        2633.791          43.000  
G25  23739559.280   124752247.968       -3155.044          38.000  
G26  21496477.254   112964753.914        2053.796          46.000  
G28  22395499.369   117689129.757       -2480.286          45.000  
G29  21681811.953   113938693.016       -1669.392          46.000  
G31  21772459.386   114415047.287        -938.222          46.000  
E27  24301490.980   127705204.800        1284.232          44.000  
E30  24924314.083   130978166.959       -1310.193          43.000  
E15  25145166.379   132138756.248        2442.855          41.000  
G05  24483781.907   128663158.426        1689.954          39.000  
G16  23627077.772   124161136.671        3382.082          42.000  
E34  24805369.898   130353101.374        -420.855          46.000  
E13  28962748.396   152200481.073        3489.349          29.000  
G20  25035397.603   131561905.254        -726.354          29.000  
> 2024 02 04 15 24 28.0020000  0 14                     
G18  22258365.784   116968507.593        2633.320          43.000  
G25  23740159.735   124755403.047       -3155.134          38.000  
G26  21496086.541   112962700.409        2053.339          46.000  
G28  22395971.408   117691610.162       -2480.562          44.000  
G29  21682129.743   113940362.576       -1669.765          46.000  
G31  21772638.070   114415985.864        -938.896          46.000  
E27  24301246.775   127703920.690        1284.083          44.000  
E30  24924563.414   130979477.266       -1310.454          43.000  
E15  25144701.557   132136313.662        2442.356          41.000  
G05  24483460.439   128661468.731        1689.624          39.000  
G16  23626434.493   124157754.866        3381.591          42.000  
E34  24805449.994   130353522.594        -421.561          46.000  
E13  28962087.024   152196991.778        3489.626          29.000  
G20  25035531.060   131562632.036        -727.144          29.000  
> 2024 02 04 15 24 29.0020000  0 14                     
G18  22257864.880   116965874.356        2632.921          43.000  
G25  23740760.027   124758558.091       -3155.498          38.000  
G26  21495695.667   112960647.089        2053.101          46.000  
G28  22396443.380   117694090.824       -2480.808          44.000  
G29  21682447.573   113942032.298       -1669.991          46.000  
G31  21772816.636   114416924.868        -939.358          46.000  
E27  24301002.184   127702636.608        1283.991          44.000  
E30  24924812.502   130980787.610       -1310.403          43.000  
E15  25144236.834   132133871.195        2442.304          41.000  
G05  24483139.082   128659779.405        1688.989          38.000  
G16  23625790.831   124154372.992        3382.044          42.000  
E34  24805530.420   130353944.058        -421.630          46.000  
E13  28961419.754   152193502.236        3489.900          29.000  
G20  25035673.282   131563359.169        -727.114          29.000  
> 2024 02 04 15 24 30.0020000  0 14                     
G18  22257364.119   116963241.674        2632.524          43.000  
G25  23741360.676   124761713.358       -3155.399          38.000  
G26  21495305.177   112958594.199        2052.893          46.000  
G28  22396915.369   117696571.990       -2481.324          44.000  
G29  21682765.374   113943702.412       -1670.165          46.000  
G31  21772995.660   114417864.571        -939.897          46.000  
E27  24300757.676   127701352.840        1283.594          44.000  
E30  24925061.504   130982098.274       -1310.796          43.000  
E15  25143772.178   132131429.153        2441.849          41.000  
G05  24482817.865   128658090.665        1688.617          38.000  
G16  23625147.492   124150991.373        3381.475          42.000  
E34  24805610.713   130354366.058        -422.204          46.000  
E13  28960757.481   152190012.831        3489.329          29.000  
G20  25035817.530   131564086.997        -728.083          29.000  
> 2024 02 04 15 24 31.0020000  0 14                     
G18  22256863.481   116960609.489        2632.211          44.000  
G25  23741961.437   124764868.835       -3155.312          39.000  
G26  21494914.851   112956541.728        2052.869          47.000  
G28  22397387.821   117699053.637       -2481.406          45.000  
G29  21683083.232   113945372.895       -1670.037          46.000  
G31  21773175.030   114418804.913        -940.294          46.000  
E27  24300513.733   127700069.291        1283.839          44.000  
E30  24925311.179   130983409.195       -1310.769          43.000  
E15  25143307.257   132128987.440        2441.967          41.000  
G05  24482496.227   128656402.514        1688.281          38.000  
G16  23624503.928   124147609.917        3381.860          42.000  
E34  24805691.206   130354788.523        -422.284          46.000  
E13  28960092.972   152186523.354        3489.654          28.000  
G20  25035963.313   131564815.345        -727.952          29.000  
> 2024 02 04 15 24 32.0020000  0 14                     
G18  22256362.933   116957977.587        2631.104          44.000  
G25  23742562.137   124768024.288       -3155.867          39.000  
G26  21494524.701   112954489.485        2051.727          47.000  
G28  22397860.309   117701535.586       -2482.440          45.000  
G29  21683401.039   113947043.580       -1671.107          46.000  
G31  21773354.126   114419745.684        -941.407          46.000  
E27  24300269.543   127698785.801        1283.253          44.000  
E30  24925560.384   130984720.186       -1311.415          44.000  
E15  25142842.344   132126545.898        2441.012          41.000  
G05  24482175.137   128654714.703        1687.140          39.000  
G16  23623860.240   124144228.469        3380.950          42.000  
E34  24805771.530   130355211.293        -423.239          46.000  
E13  28959436.272   152183033.686        3490.107          29.000  
G20  25036103.434   131565544.107        -729.123          29.000  
> 2024 02 04 15 24 33.0020000  0 14                     
G18  22255862.419   116955346.276        2631.055          45.000  
G25  23743163.018   124771180.029       -3155.345          39.000  
G26  21494134.183   112952437.696        2051.807          46.000  
G28  22398332.831   117704018.058       -2482.524          45.000  
G29  21683718.742   113948714.686       -1671.058          46.000  
G31  21773533.462   114420687.220        -941.743          46.000  
E27  24300025.639   127697502.656        1283.040          44.000  
E30  24925809.813   130986031.516       -1311.555          44.000  
E15  25142377.633   132124104.818        2440.948          41.000  
G05  24481854.317   128653027.544        1686.920          38.000  
G16  23623216.861   124140847.253        3381.252          42.000  
E34  24805852.147   130355634.621        -423.523          46.000  
E13  28958769.626   152179544.137        3489.113          29.000  
G20  25036232.705   131566273.645        -729.712          29.000  
> 2024 02 04 15 24 34.0020000  0 14                     
G18  22255362.008   116952715.428        2630.485          44.000  
G25  23743763.966   124774335.910       -3156.066          39.000  
G26  21493743.625   112950386.275        2051.166          46.000  
G28  22398805.553   117706500.960       -2483.128          45.000  
G29  21684036.880   113950386.115       -1671.657          46.000  
G31  21773713.021   114421629.340        -942.345          46.000  
E27  24299781.705   127696219.698        1282.591          44.000  
E30  24926059.262   130987343.049       -1311.623          43.000  
E15  25141913.120   132121664.036        2440.716          41.000  
G05  24481533.446   128651340.891        1686.432          38.000  
G16  23622573.687   124137466.184        3380.981          42.000  
E34  24805932.493   130356058.366        -424.048          46.000  
E13  28958096.576   152176054.455        3489.933          28.000  
G20  25036367.059   131567003.584        -729.632          29.000  
> 2024 02 04 15 24 35.0020000  0 14                     
G18  22254861.695   116950084.924        2630.163          44.000  
G25  23744364.871   124777491.856       -3156.197          39.000  
G26  21493353.425   112948335.112        2050.867          46.000  
G28  22399277.965   117708984.205       -2483.765          44.000  
G29  21684355.348   113952057.771       -1672.075          46.000  
G31  21773892.374   114422571.968        -942.976          46.000  
E27  24299537.472   127694936.846        1282.554          44.000  
E30  24926309.105   130988654.703       -1311.887          43.000  
E15  25141448.641   132119223.474        2440.473          41.000  
G05  24481212.781   128649654.669        1685.822          38.000  
G16  23621930.197   124134085.139        3380.822          42.000  
E34  24806013.008   130356482.439        -424.423          46.000  
E13  28957435.289   152172564.710        3489.601          28.000  
G20  25036508.929   131567734.105        -731.021          29.000  
> 2024 02 04 15 24 36.0020000  0 14                     
G18  22254361.273   116947454.985        2629.451          44.000  
G25  23744965.730   124780648.031       -3156.502          39.000  
G26  21492963.085   112946284.406        2050.482          46.000  
G28  22399750.543   117711467.960       -2484.135          44.000  
G29  21684673.786   113953729.841       -1672.475          46.000  
G31  21774071.911   114423515.296        -943.795          46.000  
E27  24299293.515   127693654.284        1282.315          44.000  
E30  24926559.247   130989966.671       -1312.183          43.000  
E15  25140984.240   132116783.332        2440.108          41.000  
G05  24480891.691   128647969.062        1685.187          39.000  
G16  23621286.900   124130704.330        3380.868          42.000  
E34  24806094.003   130356907.045        -424.914          46.000  
E13  28956773.402   152169074.991        3490.087          28.000  
G20  25036645.998   131568465.202        -731.295          28.000  
> 2024 02 04 15 24 37.0020000  0 14                     
G18  22253861.156   116944825.515        2629.070          44.000  
G25  23745566.639   124783804.342       -3156.466          39.000  
G26  21492573.084   112944234.081        2050.183          47.000  
G28  22400223.612   117713952.166       -2484.577          45.000  
G29  21684991.985   113955402.234       -1672.562          46.000  
G31  21774251.589   114424459.236        -944.198          46.000  
E27  24299049.670   127692371.962        1282.083          44.000  
E30  24926808.984   130991278.885       -1312.193          44.000  
E15  25140520.272   132114343.523        2439.539          41.000  
G05  24480571.148   128646283.996        1684.717          39.000  
G16  23620643.623   124127323.688        3380.484          42.000  
E34  24806174.669   130357332.098        -425.274          45.000  
E13  28956116.584   152165585.349        3489.527          30.000  
G20  25036791.551   131569196.895        -732.269          29.000  
> 2024 02 04 15 24 38.0020000  0 14                     
G18  22253360.747   116942196.393        2628.818          44.000  
G25  23746167.372   124786960.744       -3156.387          39.000  
G26  21492183.144   112942184.006        2049.841          47.000  
G28  22400696.375   117716436.686       -2484.579          44.000  
G29  21685310.133   113957074.852       -1672.719          46.000  
G31  21774431.073   114425403.666        -944.573          47.000  
E27  24298805.607   127691089.720        1282.135          44.000  
E30  24927058.315   130992591.198       -1312.486          44.000  
E15  25140055.847   132111903.904        2439.592          41.000  
G05  24480250.406   128644599.340        1684.698          39.000  
G16  23620000.275   124123943.047        3380.690          43.000  
E34  24806255.431   130357757.475        -425.514          45.000  
E13  28955449.925   152162095.475        3489.290          30.000  
G20  25036931.809   131569929.009        -731.908          29.000  
> 2024 02 04 15 24 39.0020000  0 14                     
G18  22252860.574   116939567.782        2628.519          44.000  
G25  23746768.523   124790117.351       -3156.727          40.000  
G26  21491793.048   112940134.347        2049.347          47.000  
G28  22401169.383   117718921.712       -2485.264          44.000  
G29  21685628.296   113958747.869       -1673.222          46.000  
G31  21774610.909   114426348.779        -945.320          47.000  
E27  24298561.501   127689807.753        1281.885          44.000  
E30  24927307.905   130993903.790       -1312.716          44.000  
E15  25139592.426   132109464.677        2439.105          42.000  
G05  24479929.952   128642915.293        1683.765          39.000  
G16  23619356.932   124120562.631        3380.185          43.000  
E34  24806336.321   130358183.368        -425.971          45.000  
E13  28954776.667   152158605.534        3490.344          30.000  
G20  25037070.909   131570661.769        -733.107          29.000  
> 2024 02 04 15 24 40.0020000  0 14                     
G18  22252360.557   116936939.839        2627.840          44.000  
G25  23747369.487   124793274.263       -3156.969          40.000  
G26  21491403.267   112938085.236        2049.127          47.000  
G28  22401642.140   117721407.355       -2485.674          44.000  
G29  21685946.826   113960421.399       -1673.662          46.000  
G31  21774791.058   114427294.695        -946.081          47.000  
E27  24298317.538   127688526.174        1281.608          44.000  
E30  24927557.753   130995216.780       -1312.868          44.000  
E15  25139128.163   132107025.955        2438.627          41.000  
G05  24479609.710   128641231.927        1683.002          39.000  
G16  23618713.869   124117182.522        3380.134          43.000  
E34  24806417.469   130358609.886        -426.643          45.000  
E13  28954122.871   152155115.941        3488.407          30.000  
G20  25037211.774   131571395.144        -731.812          29.000  
> 2024 02 04 15 24 41.0020000  0 14                     
G18  22251860.820   116934312.439        2627.041          45.000  
G25  23747970.339   124796431.439       -3157.144          40.000  
G26  21491013.198   112936036.608        2048.291          46.000  
G28  22402115.346   117723893.527       -2486.525          44.000  
G29  21686265.562   113962095.338       -1674.166          46.000  
G31  21774971.369   114428241.313        -946.807          47.000  
E27  24298073.285   127687244.907        1281.149          44.000  
E30  24927808.118   130996530.129       -1313.597          44.000  
E15  25138664.234   132104587.650        2438.203          41.000  
G05  24479289.697   128639549.180        1682.410          38.000  
G16  23618070.502   124113802.660        3379.659          42.000  
E34  24806498.839   130359036.926        -427.333          46.000  
E13  28953463.043   152151626.269        3489.124          29.000  
G20  25037348.038   131572129.322        -733.280          29.000  
> 2024 02 04 15 24 42.0020000  0 14                     
G18  22251360.926   116931685.607        2626.280          44.000  
G25  23748571.641   124799588.877       -3157.851          39.000  
G26  21490623.432   112933988.426        2048.004          47.000  
G28  22402588.607   117726380.246       -2487.311          44.000  
G29  21686584.385   113963769.711       -1674.734          46.000  
G31  21775151.737   114429188.643        -947.812          46.000  
E27  24297829.512   127685963.979        1280.432          44.000  
E30  24928058.097   130997843.761       -1313.983          44.000  
E15  25138200.112   132102149.785        2437.264          41.000  
G05  24478969.909   128637867.059        1681.653          39.000  
G16  23617427.649   124110423.035        3379.320          43.000  
E34  24806580.260   130359464.506        -428.034          46.000  
E13  28952801.615   152148136.660        3489.340          30.000  
G20  25037483.833   131572864.157        -735.046          30.000  
> 2024 02 04 15 24 43.0020000  0 14                     
G18  22250861.062   116929059.061        2625.936          44.000  
G25  23749172.356   124802746.286       -3157.760          39.000  
G26  21490233.699   112931940.439        2047.382          47.000  
G28  22403061.807   117728867.187       -2487.269          44.000  
G29  21686902.975   113965444.221       -1674.748          46.000  
G31  21775332.268   114430136.359        -948.063          46.000  
E27  24297585.846   127684683.031        1280.585          44.000  
E30  24928307.855   130999157.439       -1314.124          44.000  
E15  25137736.587   132099712.042        2437.171          41.000  
G05  24478649.841   128636185.294        1680.975          38.000  
G16  23616784.636   124107043.360        3379.385          42.000  
E34  24806661.613   130359892.328        -428.330          46.000  
E13  28952129.343   152144646.827        3489.669          30.000  
G20  25037631.748   131573599.292        -735.022          30.000  
> 2024 02 04 15 24 44.0020000  0 14                     
G18  22250361.452   116926433.104        2625.814          44.000  
G25  23749773.095   124805903.958       -3157.693          39.000  
G26  21489844.164   112929892.942        2047.437          47.000  
G28  22403535.057   117731354.722       -2487.685          44.000  
G29  21687221.551   113967119.224       -1675.125          46.000  
G31  21775512.958   114431084.863        -948.823          47.000  
E27  24297342.446   127683402.458        1280.406          44.000  
E30  24928557.862   131000471.489       -1314.112          44.000  
E15  25137272.415   132097274.751        2437.219          41.000  
G05  24478330.064   128634504.163        1681.146          38.000  
G16  23616141.164   124103663.996        3379.088          42.000  
E34  24806742.953   130360320.746        -428.629          46.000  
E13  28951464.143   152141157.071        3490.906          30.000  
G20  25037766.200   131574335.156        -735.664          30.000  
> 2024 02 04 15 24 45.0020000  0 14                     
G18  22249861.963   116923807.805        2624.821          44.000  
G25  23750374.131   124809062.018       -3158.417          39.000  
G26  21489454.654   112927846.024        2046.509          47.000  
G28  22404008.695   117733842.886       -2488.532          44.000  
G29  21687540.606   113968794.727       -1675.720          46.000  
G31  21775693.675   114432034.154        -949.745          47.000  
E27  24297098.804   127682122.274        1279.969          44.000  
E30  24928808.037   131001785.952       -1314.724          44.000  
E15  25136808.726   132094837.984        2436.592          41.000  
G05  24478010.256   128632823.787        1679.590          38.000  
G16  23615498.115   124100284.946        3378.784          42.000  
E34  24806824.585   130360749.787        -429.254          45.000  
E13  28950808.187   152137667.564        3490.048          31.000  
G20  25037914.780   131575071.818        -737.930          30.000  
> 2024 02 04 15 24 46.0020000  0 14                     
G18  22249362.344   116921182.697        2625.245          44.000  
G25  23750975.022   124812219.921       -3157.644          39.000  
G26  21489065.276   112925799.201        2046.802          47.000  
G28  22404482.108   117736331.199       -2488.230          44.000  
G29  21687859.459   113970470.302       -1675.494          46.000  
G31  21775874.429   114432983.785        -949.548          46.000  
E27  24296855.048   127680842.045        1280.398          44.000  
E30  24929058.293   131003100.375       -1314.368          44.000  
E15  25136345.318   132092401.279        2436.893          41.000  
G05  24477690.223   128631143.617        1680.103          38.000  
G16  23614855.020   124096905.777        3379.183          42.000  
E34  24806906.221   130361179.011        -429.083          45.000  
E13  28950147.347   152134177.737        3490.520          30.000  
G20  25038054.626   131575808.681        -737.445          30.000  
> 2024 02 04 15 24 47.0020000  0 14                     
G18  22248862.604   116918558.099        2624.277          44.000  
G25  23751575.925   124815378.029       -3158.397          39.000  
G26  21488675.597   112923752.760        2046.442          47.000  
G28  22404955.664   117738819.979       -2488.904          45.000  
G29  21688178.290   113972146.240       -1676.163          46.000  
G31  21776055.320   114433934.080        -950.811          47.000  
E27  24296611.382   127679562.057        1279.775          44.000  
E30  24929308.629   131004415.040       -1314.718          44.000  
E15  25135881.591   132089964.922        2436.161          41.000  
G05  24477370.429   128629464.030        1679.132          38.000  
G16  23614211.805   124093526.782        3378.951          43.000  
E34  24806987.827   130361608.703        -429.780          45.000  
E13  28949481.218   152130687.892        3489.976          31.000  
G20  25038196.260   131576546.160        -738.018          30.000  
> 2024 02 04 15 24 48.0020000  0 14                     
G18  22248363.304   116915933.881        2624.101          44.000  
G25  23752176.969   124818536.203       -3157.997          39.000  
G26  21488286.157   112921706.634        2046.222          47.000  
G28  22405429.466   117741309.143       -2489.310          45.000  
G29  21688497.203   113973822.434       -1676.249          46.000  
G31  21776235.753   114434884.900        -951.017          46.000  
E27  24296368.030   127678282.215        1279.879          44.000  
E30  24929558.918   131005729.879       -1314.873          44.000  
E15  25135417.972   132087528.828        2436.170          41.000  
G05  24477050.902   128627784.890        1678.821          38.000  
G16  23613569.190   124090147.868        3379.051          43.000  
E34  24807069.599   130362038.781        -430.199          45.000  
E13  28948814.968   152127197.981        3489.973          31.000  
G20  25038333.868   131577284.180        -738.655          30.000  
> 2024 02 04 15 24 49.0020000  0 14                     
G18  22247864.173   116913310.242        2623.115          44.000  
G25  23752778.105   124821694.677       -3158.866          39.000  
G26  21487896.853   112919660.985        2045.111          47.000  
G28  22405903.158   117743798.842       -2490.242          44.000  
G29  21688816.311   113975499.065       -1677.109          46.000  
G31  21776416.788   114435836.455        -952.011          47.000  
E27  24296124.213   127677002.688        1279.283          44.000  
E30  24929809.121   131007045.048       -1315.488          44.000  
E15  25134954.263   132085093.149        2435.301          41.000  
G05  24476731.362   128626106.365        1677.795          38.000  
G16  23612926.223   124086769.201        3378.392          43.000  
E34  24807151.288   130362469.384        -430.984          45.000  
E13  28948152.914   152123708.078        3489.839          31.000  
G20  25038468.359   131578022.847        -740.133          30.000  
> 2024 02 04 15 24 50.0020000  0 14                     
G18  22247364.957   116910687.189        2622.885          44.000  
G25  23753379.237   124824853.395       -3158.418          39.000  
G26  21487507.652   112917615.825        2045.123          47.000  
G28  22406377.032   117746289.078       -2490.310          44.000  
G29  21689135.399   113977176.147       -1677.279          46.000  
G31  21776598.098   114436788.730        -952.631          46.000  
E27  24295880.757   127675723.506        1279.064          44.000  
E30  24930059.309   131008360.555       -1315.614          44.000  
E15  25134491.066   132082657.938        2435.193          41.000  
G05  24476412.074   128624428.494        1678.070          37.000  
G16  23612283.324   124083390.793        3378.499          43.000  
E34  24807233.241   130362900.569        -431.380          45.000  
E13  28947488.933   152120218.317        3489.273          31.000  
G20  25038608.096   131578762.149        -740.066          31.000  
> 2024 02 04 15 24 51.0020000  0 14                     
G18  22246865.722   116908064.331        2622.578          44.000  
G25  23753980.532   124828012.007       -3158.748          38.000  
G26  21487118.916   112915570.773        2045.019          47.000  
G28  22406850.821   117748779.526       -2490.566          45.000  
G29  21689454.557   113978853.292       -1677.155          46.000  
G31  21776779.225   114437741.365        -952.905          46.000  
E27  24295637.525   127674444.265        1279.208          44.000  
E30  24930309.681   131009676.034       -1315.531          44.000  
E15  25134027.709   132080222.778        2434.955          41.000  
G05  24476092.807   128622750.888        1677.826          38.000  
G16  23611640.866   124080012.276        3378.577          43.000  
E34  24807315.409   130363331.931        -431.462          45.000  
E13  28946824.736   152116728.271        3489.811          32.000  
G20  25038754.364   131579501.725        -738.750          31.000  
> 2024 02 04 15 24 52.0020000  0 14                     
G18  22246366.606   116905442.114        2621.886          44.000  
G25  23754581.690   124831170.954       -3159.155          39.000  
G26  21486729.726   112913526.229        2044.312          47.000  
G28  22407324.825   117751270.536       -2491.396          45.000  
G29  21689773.636   113980530.921       -1677.865          46.000  
G31  21776960.336   114438694.727        -953.897          46.000  
E27  24295394.203   127673165.380        1278.765          44.000  
E30  24930560.194   131010991.892       -1316.174          44.000  
E15  25133564.135   132077788.105        2434.329          41.000  
G05  24475773.705   128621073.997        1676.270          37.000  
G16  23610998.055   124076634.077        3377.889          43.000  
E34  24807397.480   130363763.876        -432.398          45.000  
E13  28946160.190   152113238.281        3489.765          31.000  
G20  25038895.482   131580242.139        -741.217          30.000  
> 2024 02 04 15 24 53.0020000  0 14                     
G18  22245867.632   116902820.745        2621.414          45.000  
G25  23755182.723   124834330.441       -3159.082          39.000  
G26  21486340.623   112911482.454        2043.774          46.000  
G28  22407799.103   117753762.374       -2491.736          44.000  
G29  21690092.903   113982209.294       -1678.210          46.000  
G31  21777141.973   114439649.138        -954.274          46.000  
E27  24295150.792   127671887.121        1278.425          44.000  
E30  24930810.517   131012308.371       -1316.385          44.000  
E15  25133101.346   132075354.138        2434.022          41.000  
G05  24475454.746   128619397.960        1676.483          37.000  
G16  23610355.054   124073256.401        3377.804          43.000  
E34  24807479.869   130364196.663        -432.606          45.000  
E13  28945496.554   152109748.673        3489.555          31.000  
G20  25039033.753   131580983.353        -740.514          30.000  
> 2024 02 04 15 24 54.0020000  0 14                     
G18  22245369.186   116900199.767        2620.526          45.000  
G25  23755783.903   124837489.971       -3159.484          39.000  
G26  21485951.778   112909438.981        2043.420          47.000  
G28  22408273.417   117756254.580       -2492.701          45.000  
G29  21690412.404   113983887.897       -1678.817          46.000  
G31  21777323.591   114440604.031        -955.308          46.000  
E27  24294907.711   127670608.987        1277.956          44.000  
E30  24931061.083   131013624.983       -1316.733          44.000  
E15  25132638.429   132072920.417        2433.541          42.000  
G05  24475135.919   128617722.456        1675.226          37.000  
G16  23609712.351   124069878.779        3377.424          43.000  
E34  24807562.306   130364629.803        -433.377          45.000  
E13  28944831.407   152106258.912        3490.188          30.000  
G20  25039178.258   131581725.197        -742.820          30.000  
> 2024 02 04 15 24 55.0020000  0 14                     
G18  22244870.553   116897579.390        2620.084          45.000  
G25  23756385.334   124840649.838       -3160.280          39.000  
G26  21485563.102   112907396.013        2042.804          47.000  
G28  22408747.954   117758747.354       -2493.069          45.000  
G29  21690731.876   113985566.984       -1679.273          46.000  
G31  21777505.682   114441559.719        -955.903          46.000  
E27  24294664.435   127669331.213        1277.636          44.000  
E30  24931311.544   131014941.979       -1317.206          44.000  
E15  25132175.606   132070487.173        2433.068          42.000  
G05  24474817.268   128616047.582        1674.799          37.000  
G16  23609069.590   124066501.457        3377.238          43.000  
E34  24807644.743   130365063.541        -433.985          44.000  
E13  28944165.491   152102769.355        3489.246          30.000  
G20  25039320.351   131582467.638        -742.402          30.000  
> 2024 02 04 15 24 56.0020000  0 14                     
G18  22244371.924   116894959.798        2619.285          44.000  
G25  23756986.873   124843810.146       -3160.208          39.000  
G26  21485174.281   112905353.745        2041.852          47.000  
G28  22409222.412   117761240.895       -2493.931          45.000  
G29  21691051.549   113987246.722       -1680.053          46.000  
G31  21777687.301   114442516.329        -957.157          46.000  
E27  24294421.467   127668053.972        1277.105          44.000  
E30  24931562.452   131016259.524       -1317.965          43.000  
E15  25131712.835   132068054.581        2432.238          42.000  
G05  24474498.786   128614373.571        1673.602          37.000  
G16  23608427.010   124063124.599        3376.580          43.000  
E34  24807727.509   130365498.039        -434.859          44.000  
E13  28943505.489   152099280.078        3489.004          30.000  
G20  25039454.257   131583211.006        -743.860          30.000  
> 2024 02 04 15 24 57.0020000  0 14                     
G18  22243873.548   116892340.731        2619.082          44.000  
G25  23757588.157   124846970.675       -3160.387          39.000  
G26  21484785.726   112903311.876        2041.919          47.000  
G28  22409696.862   117763734.911       -2494.034          45.000  
G29  21691371.409   113988926.834       -1680.043          46.000  
G31  21777869.106   114443473.596        -957.460          46.000  
E27  24294178.087   127666776.999        1277.029          44.000  
E30  24931813.150   131017577.320       -1317.715          44.000  
E15  25131250.164   132065622.359        2432.105          42.000  
G05  24474180.191   128612700.150        1673.376          37.000  
G16  23607784.192   124059747.925        3376.754          43.000  
E34  24807810.186   130365933.022        -435.064          44.000  
E13  28942834.116   152095790.774        3489.097          30.000  
G20  25039590.919   131583954.944        -743.918          30.000  
> 2024 02 04 15 24 58.0020000  0 14                     
G18  22243375.440   116889722.122        2618.028          45.000  
G25  23758189.551   124850131.340       -3160.872          39.000  
G26  21484396.942   112901270.384        2040.887          47.000  
G28  22410171.735   117766229.363       -2495.045          45.000  
G29  21691691.147   113990607.281       -1681.083          46.000  
G31  21778051.548   114444431.467        -958.476          46.000  
E27  24293935.267   127665500.218        1276.323          44.000  
E30  24932064.036   131018895.341       -1318.398          44.000  
E15  25130787.308   132063190.447        2431.338          42.000  
G05  24473861.633   128611027.240        1672.089          37.000  
G16  23607141.770   124056371.400        3376.040          43.000  
E34  24807892.654   130366368.441        -435.963          44.000  
E13  28942169.452   152092301.416        3488.900          30.000  
G20  25039736.846   131584699.445        -745.034          29.000  
