     3.00           OBSERVATION DATA    M: Mixed            RINEX VERSION / TYPE
RTKCONV demo5 b34f.1                    20240204 165344 UTC PGM / RUN BY / DATE 
format: u-blox UBX                                          COMMENT             
log: C:\Users\oo\Desktop\divers\verniquet\Reseau\micro\prepaCOMMENT             
                                                            MARKER NAME         
                                                            MARKER NUMBER       
                                                            MARKER TYPE         
                                                            OBSERVER / AGENCY   
                                                            REC # / TYPE / VERS 
                                                            ANT # / TYPE        
  4200221.3673   177864.8324  4780702.4067                  APPROX POSITION XYZ 
        0.0000        0.0000        0.0000                  ANTENNA: DELTA H/E/N
G    4 C1C L1C D1C S1C                                      SYS / # / OBS TYPES 
E    4 C1X L1X D1X S1X                                      SYS / # / OBS TYPES 
  2024    02    04    12    32   48.0050000     GPS         TIME OF FIRST OBS   
  2024    02    04    13    20   37.0050000     GPS         TIME OF LAST OBS    
                                                            END OF HEADER       
> 2024 02 04 12 32 48.0050000  0 11                     
G11  25076375.997   131777239.3323       1576.486          35.000  
G25  21479242.871   112874159.3453        630.264          42.000  
G12  22417520.717   117804865.0763      -1538.568          43.000  
G28  24204554.508   127195796.1133       3159.538          39.000  
G32  23771143.168   124918197.8283       -876.010          44.000  
E18  22669013.526   119126481.9171       2629.366          42.000  
E02  25751420.677   135324664.8821      -1249.728          41.000  
G29  24109970.061   126698754.0843       3433.427          41.000  
G24  25619076.524   134629136.9583      -3451.303          32.000  
E36  27662459.658   145367155.6211       1785.813          36.000  
E30  25576971.107   134407900.2771       1176.991          41.000  
> 2024 02 04 12 32 49.0050000  0 11                     
G11  25076073.843   131775663.0842       1576.769          32.000  
G25  21479122.465   112873529.9902        629.646          43.000  
G12  22417815.144   117806404.6952      -1539.203          41.000  
G28  24203955.005   127192637.3092       3158.987          41.000  
G32  23771307.721   124919074.7792       -876.776          44.000  
E18  22668515.507   119123853.568        2628.936          41.000  
E02  25751659.989   135325915.345       -1249.767          39.000  
G29  24109317.868   126695321.1702       3433.257          42.000  
G24  25619735.464   134632589.3972      -3451.388          32.000  
E36  27662115.029   145365370.893        1785.234          35.000  
E30  25576751.163   134406723.957        1176.729          40.000  
> 2024 02 04 12 32 50.0050000  0 11                     
G11  25075774.078   131774087.9232       1575.174          36.000  
G25  21479003.917   112872901.4482        628.593          44.000  
G12  22418106.082   117807945.0422      -1540.387          42.000  
G28  24203353.553   127189479.1062       3158.167          42.000  
G32  23771475.651   124919952.7062       -878.061          42.000  
E18  22668015.408   119121226.378        2626.968          43.000  
E02  25751896.677   135327166.357       -1250.852          42.000  
G29  24108664.246   126691888.9952       3431.976          42.000  
G24  25620393.341   134636042.4182      -3453.284          38.000  
E36  27661779.034   145363587.012        1783.681          39.000  
E30  25576524.465   134405548.217        1176.137          40.000  
> 2024 02 04 12 32 51.0050000  0 11                     
G11  25075478.236   131772513.2772       1574.432          46.000  
G25  21478881.078   112872273.3422        627.565          48.000  
G12  22418399.412   117809485.7262      -1541.052          48.000  
G28  24202753.471   127186321.2532       3158.083          48.000  
G32  23771643.736   124920831.3222       -878.948          51.000  
E18  22667516.022   119118599.912        2626.119          48.000  
E02  25752136.642   135328417.498       -1251.071          45.000  
G29  24108012.482   126688457.1932       3431.748          48.000  
G24  25621049.423   134639495.6722      -3453.003          43.000  
E36  27661437.405   145361803.515        1783.539          43.000  
E30  25576303.650   134404372.668        1175.582          45.000  
> 2024 02 04 12 32 52.0050000  0 11                     
G11  25075179.737   131770939.2892       1573.834          46.000  
G25  21478763.095   112871645.7652        627.605          47.000  
G12  22418693.086   117811026.8842      -1541.131          47.000  
G28  24202152.487   127183163.6602       3157.827          46.000  
G32  23771810.338   124921710.5462       -879.215          50.000  
E18  22667015.711   119115974.199        2625.821          47.000  
E02  25752374.562   135329668.909       -1251.130          44.000  
G29  24107359.002   126685025.7262       3431.513          47.000  
G24  25621706.359   134642949.0142      -3452.894          41.000  
E36  27661096.680   145360020.540        1783.085          42.000  
E30  25576079.292   134403197.393        1175.404          45.000  
> 2024 02 04 12 33 55.0050000  0 16                     
G06  25238287.064   132628102.1191       -578.552          40.000  
G11  25056509.941   131672844.904        1539.869          41.000  
G25  21471405.176   112832980.839         599.377          46.000  
G12  22437299.234   117908797.245       -1562.781          46.000  
G28  24164385.662   126984704.058        3142.221          44.000  
G32  23782574.564   124978291.3171       -917.566          47.000  
E18  22635805.242   118951966.403        2579.805          46.000  
E02  25767430.501   135408780.243       -1261.323          43.000  
G29  24066339.517   126469467.1931       3411.003          46.000  
G24  25663147.987   134860722.4811      -3461.570          38.000  
E36  27639873.078   145248487.859        1756.775          43.000  
E30  25562058.616   134329524.807        1162.656          46.000  
E10  30311257.584   159286756.9981      -1882.135          35.000  
E07  26564940.983   139599721.6511       -830.317          45.000  
E08  28190554.801   148142364.8601      -2850.967          42.000  
G31  26339284.436   138413884.5971       3781.645          37.000  
> 2024 02 04 12 33 56.0050000  0 16                     
G06  25238397.469   132628681.029        -580.273          40.000  
G11  25056217.129   131671305.302        1538.442          41.000  
G25  21471291.455   112832381.359         598.551          46.000  
G12  22437596.741   117910360.297       -1563.947          46.000  
G28  24163787.701   126981561.846        3141.425          44.000  
G32  23782749.044   124979208.697        -918.447          47.000  
E18  22635314.034   118949385.976        2579.552          46.000  
E02  25767670.012   135410040.689       -1261.123          43.000  
G29  24065690.094   126466055.998        3410.383          46.000  
G24  25663806.538   134864182.960       -3461.317          38.000  
E36  27639538.786   145246730.559        1756.659          42.000  
E30  25561837.303   134328361.678        1162.673          45.000  
E10  30311615.826   159288639.082       -1882.365          35.000  
E07  26565099.271   139600551.395        -830.369          45.000  
E08  28191097.132   148145215.236       -2850.941          42.000  
G31  26338564.593   138410102.715        3781.034          38.000  
> 2024 02 04 12 33 57.0050000  0 16                     
G06  25238507.334   132629258.621        -576.788          40.000  
G11  25055923.799   131669764.276        1542.251          40.000  
G25  21471177.296   112831780.404         602.754          46.000  
G12  22437893.724   117911921.781       -1559.790          46.000  
G28  24163189.617   126978417.945        3145.656          44.000  
G32  23782923.365   124980124.754        -914.298          46.000  
E18  22634822.645   118946804.363        2583.683          46.000  
E02  25767909.512   135411299.356       -1256.207          43.000  
G29  24065040.804   126462643.218        3414.622          46.000  
G24  25664464.608   134867641.636       -3456.535          38.000  
E36  27639203.696   145244971.747        1761.205          42.000  
E30  25561615.638   134327196.802        1167.615          45.000  
E10  30311973.464   159290519.520       -1877.688          35.000  
E07  26565257.187   139601379.658        -826.161          45.000  
E08  28191639.315   148148063.785       -2845.947          42.000  
G31  26337844.721   138406318.982        3785.504          38.000  
> 2024 02 04 12 33 58.0050000  0 16                     
G06  25238617.179   132629836.455        -579.596          40.000  
G11  25055630.812   131668223.467        1538.721          41.000  
G25  21471063.163   112831179.564         599.063          46.000  
G12  22438190.934   117913483.263       -1563.257          46.000  
G28  24162591.445   126975273.953        3142.285          44.000  
G32  23783097.880   124981041.090        -918.331          46.000  
E18  22634331.724   118944223.149        2579.232          46.000  
E02  25768148.778   135412557.866       -1260.059          43.000  
G29  24064391.261   126459230.411        3411.143          46.000  
G24  25665122.664   134871100.096       -3459.951          38.000  
E36  27638869.328   145243213.036        1756.963          42.000  
E30  25561394.022   134326031.833        1163.362          45.000  
E10  30312331.477   159292400.015       -1882.010          35.000  
E07  26565414.804   139602208.034        -830.111          45.000  
E08  28192181.253   148150912.146       -2849.921          43.000  
G31  26337124.677   138402534.937        3782.668          37.000  
> 2024 02 04 12 33 59.0050000  0 16                     
G06  25238726.439   132630408.808        -565.106          41.000  
G11  25055336.346   131666677.048        1553.859          40.000  
G25  21470947.450   112830573.007         614.014          46.000  
G12  22438487.014   117915038.943       -1548.151          46.000  
G28  24161992.102   126972124.065        3157.306          44.000  
G32  23783270.984   124981951.863        -903.400          46.000  
E18  22633839.582   118941636.491        2593.615          46.000  
E02  25768387.403   135413810.375       -1245.168          43.000  
G29  24063740.850   126455811.792        3426.187          46.000  
G24  25665779.898   134874552.535       -3444.875          38.000  
E36  27638533.878   145241448.564        1771.677          43.000  
E30  25561171.351   134324860.895        1178.016          45.000  
E10  30312688.207   159294274.662       -1867.315          35.000  
E07  26565571.193   139603030.703        -815.488          45.000  
E08  28192722.419   148153754.465       -2835.122          43.000  
G31  26336403.257   138398744.826        3797.985          37.000  
> 2024 02 04 12 34 00.0050000  0 16                     
G06  25238834.822   132630977.885        -568.372          41.000  
G11  25055041.431   131665127.292        1550.629          40.000  
G25  21470831.421   112829962.986         610.931          46.000  
G12  22438782.381   117916591.058       -1551.074          46.000  
G28  24161391.708   126968970.509        3154.732          44.000  
G32  23783443.768   124982859.323        -906.448          46.000  
E18  22633346.901   118939046.623        2590.945          46.000  
E02  25768624.768   135415059.105       -1247.411          43.000  
G29  24063089.610   126452389.593        3423.175          46.000  
G24  25666436.020   134878001.189       -3447.253          38.000  
E36  27638197.209   145239680.588        1769.232          43.000  
E30  25560947.713   134323686.217        1176.022          45.000  
E10  30313044.288   159296145.702       -1869.116          35.000  
E07  26565726.977   139603849.878        -817.821          45.000  
E08  28193262.530   148156592.951       -2837.019          42.000  
G31  26335681.376   138394950.845        3795.381          38.000  
> 2024 02 04 12 34 01.0050000  0 16                     
G06  25238943.068   132631547.519        -573.236          41.000  
G11  25054746.610   131663578.005        1545.486          40.000  
G25  21470715.397   112829353.373         605.711          46.000  
G12  22439077.667   117918143.474       -1556.146          46.000  
G28  24160791.674   126965817.158        3149.760          44.000  
G32  23783616.479   124983767.345        -911.851          46.000  
E18  22632854.260   118936457.459        2585.049          46.000  
E02  25768862.309   135416307.941       -1252.739          43.000  
G29  24062438.676   126448967.659        3418.199          46.000  
G24  25667092.200   134881449.908       -3452.578          38.000  
E36  27637861.103   145237912.982        1763.836          42.000  
E30  25560724.252   134322511.711        1170.708          45.000  
E10  30313400.600   159298017.062       -1874.778          35.000  
E07  26565883.283   139604669.456        -823.340          45.000  
E08  28193802.791   148159431.512       -2842.276          42.000  
G31  26334959.332   138391156.883        3790.527          37.000  
> 2024 02 04 12 34 02.0050000  0 16                     
G06  25239052.018   132632119.287        -568.256          41.000  
G11  25054452.113   131662030.761        1550.516          40.000  
G25  21470599.192   112828745.647         611.445          46.000  
G12  22439373.553   117919697.697       -1550.488          46.000  
G28  24160191.977   126962665.544        3155.135          44.000  
G32  23783790.037   124984677.443        -906.584          46.000  
E18  22632362.445   118933870.459        2590.434          46.000  
E02  25769100.443   135417558.397       -1246.874          43.000  
G29  24061787.852   126445547.524        3423.580          46.000  
G24  25667748.800   134884900.213       -3446.843          38.000  
E36  27637524.983   145236147.261        1769.202          42.000  
E30  25560501.086   134321338.877        1176.551          45.000  
E10  30313757.280   159299890.215       -1869.522          35.000  
E07  26566039.365   139605490.966        -817.912          45.000  
E08  28194343.340   148162271.655       -2836.221          42.000  
G31  26334237.519   138387364.466        3795.868          38.000  
> 2024 02 04 12 34 03.0050000  0 16                     
G06  25239160.751   132632688.796        -566.156          41.000  
G11  25054156.746   131660481.154        1553.270          40.000  
G25  21470483.133   112828135.512         613.832          46.000  
G12  22439668.769   117921249.394       -1547.858          46.000  
G28  24159591.910   126959511.274        3158.030          44.000  
G32  23783963.346   124985585.256        -904.221          47.000  
E18  22631869.941   118931281.315        2592.668          46.000  
E02  25769337.856   135418806.084       -1243.554          44.000  
G29  24061136.311   126442124.816        3426.570          46.000  
G24  25668404.817   134888347.704       -3443.671          38.000  
E36  27637188.855   145234379.042        1772.160          42.000  
E30  25560277.402   134320163.307        1179.804          45.000  
E10  30314112.915   159301760.807       -1866.548          35.000  
E07  26566195.350   139606310.007        -815.233          45.000  
E08  28194883.284   148165108.997       -2833.156          42.000  
G31  26333515.569   138383569.157        3799.528          38.000  
> 2024 02 04 12 34 04.0050000  0 16                     
G06  25239269.284   132633257.936        -572.620          42.000  
G11  25053861.956   131658931.132        1546.553          41.000  
G25  21470366.583   112827524.832         607.028          46.000  
G12  22439963.913   117922800.466       -1554.681          46.000  
G28  24158991.505   126956356.284        3151.755          44.000  
G32  23784135.983   124986492.686        -911.029          47.000  
E18  22631377.149   118928691.916        2585.332          46.000  
E02  25769574.998   135420052.974       -1250.467          44.000  
G29  24060484.705   126438701.507        3419.810          46.000  
G24  25669060.884   134891794.381       -3449.461          37.000  
E36  27636852.207   145232610.295        1765.116          41.000  
E30  25560053.599   134318987.028        1172.716          45.000  
E10  30314469.035   159303630.731       -1873.530          34.000  
E07  26566351.194   139607128.543        -822.466          45.000  
E08  28195423.074   148167945.509       -2839.931          42.000  
G31  26332793.431   138379772.966        3793.112          38.000  
> 2024 02 04 12 34 05.0050000  0 17                     
G06  25239378.320   132633828.287        -569.745          42.000  
G11  25053567.433   131657382.215        1549.853          41.000  
G25  21470250.460   112826915.168         610.261          46.000  
G12  22440259.339   117924352.426       -1551.007          46.000  
G28  24158391.366   126953202.122        3154.866          44.000  
G32  23784309.011   124987401.279        -907.839          47.000  
E18  22630884.859   118926103.756        2588.676          46.000  
E02  25769812.329   135421300.581       -1246.848          44.000  
G29  24059833.166   126435279.042        3423.197          46.000  
G24  25669717.258   134895241.709       -3446.093          38.000  
E36  27636515.671   145230842.492        1768.584          41.000  
E30  25559829.972   134317811.469        1176.479          45.000  
E10  30314825.115   159305501.598       -1870.389          34.000  
E07  26566506.926   139607948.046        -818.856          45.000  
E08  28195962.434   148170782.704       -2836.645          42.000  
G03  27000145.406   141886721.5713       -157.356          33.000  
G31  26332071.186   138375977.421        3796.194          38.000  
> 2024 02 04 12 34 06.0050000  0 17                     
G06  25239487.513   132634399.284        -572.302          42.000  
G11  25053272.664   131655833.885        1547.055          41.000  
G25  21470134.366   112826305.980         607.814          46.000  
G12  22440554.407   117925904.776       -1553.625          46.000  
G28  24157791.571   126950048.235        3152.554          44.000  
G32  23784482.333   124988310.530        -910.803          47.000  
E18  22630392.468   118923516.392        2585.643          46.000  
E02  25770049.497   135422548.358       -1249.013          43.000  
G29  24059182.155   126431856.952        3420.763          46.000  
G24  25670373.354   134898689.270       -3448.769          38.000  
E36  27636179.698   145229075.135        1765.943          42.000  
E30  25559606.559   134316636.146        1174.186          45.000  
E10  30315181.032   159307372.807       -1873.115          34.000  
E07  26566662.959   139608768.035        -821.609          45.000  
E08  28196502.510   148173619.998       -2838.673          42.000  
G03  27000173.943   141886879.5582       -159.900          32.000  
G31  26331348.686   138372181.928        3794.316          38.000  
> 2024 02 04 12 34 07.0050000  0 17                     
G06  25239596.404   132634971.175        -573.010          42.000  
G11  25052978.109   131654286.360        1546.475          41.000  
G25  21470018.093   112825697.472         607.450          45.000  
G12  22440849.841   117927457.714       -1553.955          46.000  
G28  24157191.534   126946894.819        3152.508          44.000  
G32  23784655.903   124989220.587        -911.241          47.000  
E18  22629900.274   118920929.960        2585.089          46.000  
E02  25770286.600   135423796.520       -1249.095          43.000  
G29  24058530.972   126428435.432        3420.379          46.000  
G24  25671029.774   134902137.086       -3448.581          38.000  
E36  27635843.600   145227308.430        1765.414          42.000  
E30  25559383.092   134315461.245        1173.965          45.000  
E10  30315536.997   159309244.589       -1873.181          34.000  
E07  26566818.853   139609588.690        -821.760          45.000  
E08  28197042.616   148176457.644       -2838.537          42.000  
G03  27000202.091   141887038.3022       -159.718          32.000  
G31  26330626.722   138368386.745        3794.329          38.000  
> 2024 02 04 12 34 08.0050000  0 17                     
G06  25239705.413   132635544.257        -574.658          42.000  
G11  25052684.253   131652739.926        1545.457          41.000  
G25  21469902.309   112825089.981         606.553          45.000  
G12  22441145.282   117929011.559       -1554.480          46.000  
G28  24156591.605   126943742.265        3151.802          45.000  
G32  23784829.287   124990131.824        -912.115          47.000  
E18  22629408.335   118918344.830        2584.292          46.000  
E02  25770524.115   135425045.389       -1249.464          43.000  
G29  24057879.926   126425014.808        3419.732          46.000  
G24  25671686.470   134905585.660       -3449.199          38.000  
E36  27635507.607   145225542.694        1764.966          42.000  
E30  25559159.203   134314287.124        1173.651          45.000  
E10  30315893.455   159311117.233       -1873.005          34.000  
E07  26566975.202   139610410.361        -822.422          45.000  
E08  28197582.641   148179295.975       -2839.083          42.000  
G03  27000231.553   141887198.3402       -161.912          32.000  
G31  26329904.486   138364592.181        3793.601          38.000  
> 2024 02 04 12 34 09.0050000  0 17                     
G06  25239814.458   132636118.540        -574.585          42.000  
G11  25052390.117   131651194.599        1545.601          40.000  
G25  21469786.908   112824483.515         606.844          45.000  
G12  22441440.634   117930566.350       -1554.449          45.000  
G28  24155991.871   126940590.499        3151.860          44.000  
G32  23785002.788   124991044.249        -912.238          47.000  
E18  22628916.655   118915761.013        2583.925          46.000  
E02  25770761.922   135426295.004       -1249.361          43.000  
G29  24057228.979   126421595.065        3420.147          46.000  
G24  25672342.781   134909034.890       -3449.053          39.000  
E36  27635171.610   145223777.963        1764.963          42.000  
E30  25558935.904   134313113.789        1173.559          44.000  
E10  30316250.200   159312990.829       -1873.350          35.000  
E07  26567131.921   139611233.037        -822.509          45.000  
E08  28198122.610   148182135.008       -2838.778          42.000  
G03  27000262.870   141887359.4632       -160.953          32.000  
G31  26329182.263   138360798.253        3794.354          38.000  
> 2024 02 04 12 34 10.0050000  0 17                     
G06  25239924.001   132636693.591        -575.525          42.000  
G11  25052096.172   131649650.017        1544.004          41.000  
G25  21469671.490   112823877.630         605.458          45.000  
G12  22441736.223   117932121.620       -1555.750          46.000  
G28  24155392.452   126937439.137        3150.967          45.000  
G32  23785176.821   124991957.420        -913.870          47.000  
E18  22628425.048   118913178.053        2582.438          47.000  
E02  25770999.311   135427544.891       -1250.112          43.000  
G29  24056578.114   126418175.820        3418.831          46.000  
G24  25672999.444   134912484.380       -3449.880          39.000  
E36  27634836.016   145222013.783        1763.815          42.000  
E30  25558712.445   134311940.771        1172.680          44.000  
E10  30316606.990   159314864.884       -1874.407          35.000  
E07  26567288.787   139612056.319        -823.713          45.000  
E08  28198663.102   148184974.247       -2839.385          42.000  
G03  27000295.209   141887521.3862       -162.899          32.000  
G31  26328460.064   138357004.519        3793.685          37.000  
> 2024 02 04 12 34 11.0050000  0 17                     
G06  25240033.754   132637270.062        -577.527          42.000  
G11  25051802.723   131648106.711        1542.546          41.000  
G25  21469556.253   112823272.989         603.841          45.000  
G12  22442032.202   117933678.019       -1557.001          46.000  
G28  24154792.934   126934288.808        3150.001          45.000  
G32  23785350.837   124992871.963        -915.349          47.000  
E18  22627933.737   118910596.583        2580.773          47.000  
E02  25771237.275   135428795.717       -1251.343          43.000  
G29  24055927.729   126414757.670        3417.674          46.000  
G24  25673656.052   134915934.789       -3451.284          39.000  
E36  27634500.485   145220250.794        1762.402          42.000  
E30  25558489.612   134310768.741        1171.576          44.000  
E10  30316964.026   159316740.019       -1875.196          35.000  
E07  26567445.573   139612880.805        -825.160          45.000  
E08  28199203.518   148187814.422       -2840.490          42.000  
G03  27000326.373   141887684.6202       -164.031          31.000  
G31  26327738.041   138353211.645        3792.244          37.000  
> 2024 02 04 12 34 12.0050000  0 17                     
G06  25240143.281   132637847.739        -577.942          42.000  
G11  25051508.938   131646564.567        1542.136          41.000  
G25  21469441.102   112822669.379         603.566          45.000  
G12  22442328.134   117935235.390       -1557.690          45.000  
G28  24154193.288   126931139.326        3149.531          45.000  
G32  23785525.018   124993787.695        -915.759          47.000  
E18  22627442.725   118908016.438        2579.638          46.000  
E02  25771474.942   135430047.304       -1251.849          43.000  
G29  24055277.425   126411340.453        3417.195          45.000  
G24  25674313.094   134919385.872       -3451.480          39.000  
E36  27634165.157   145218488.816        1761.873          42.000  
E30  25558266.585   134309597.507        1171.185          45.000  
E10  30317321.539   159318616.144       -1876.632          36.000  
E07  26567602.754   139613706.339        -825.866          45.000  
E08  28199744.195   148190655.315       -2841.101          42.000  
G03  27000357.882   141887849.0702       -164.699          32.000  
G31  26327016.231   138349419.430        3791.922          37.000  
> 2024 02 04 12 34 13.0050000  0 17                     
G06  25240253.309   132638426.350        -579.230          42.000  
G11  25051215.730   131645023.262        1540.654          41.000  
G25  21469325.941   112822066.513         601.979          45.000  
G12  22442624.212   117936793.372       -1558.581          45.000  
G28  24153594.340   126927990.397        3148.331          45.000  
G32  23785699.627   124994704.335        -917.458          47.000  
E18  22626951.938   118905437.294        2578.317          46.000  
E02  25771713.506   135431299.300       -1252.528          43.000  
G29  24054627.217   126407923.844        3416.122          45.000  
G24  25674969.890   134922837.403       -3452.372          38.000  
E36  27633829.784   145216727.528        1760.523          42.000  
E30  25558043.604   134308426.744        1170.354          45.000  
E10  30317678.935   159320492.836       -1877.387          35.000  
E07  26567759.795   139614532.585        -826.995          45.000  
E08  28200284.945   148193496.575       -2841.860          41.000  
G03  27000389.301   141888014.4452       -165.404          32.000  
G31  26326294.557   138345627.516        3791.489          37.000  
> 2024 02 04 12 34 14.0050000  0 17                     
G06  25240363.393   132639006.055        -580.035          42.000  
G11  25050922.924   131643482.960        1539.627          41.000  
G25  21469211.668   112821464.528         601.397          45.000  
G12  22442920.464   117938352.170       -1559.411          45.000  
G28  24152995.396   126924842.171        3147.813          45.000  
G32  23785874.016   124995622.018        -918.295          47.000  
E18  22626461.257   118902859.325        2577.509          46.000  
E02  25771951.514   135432551.904       -1252.804          43.000  
G29  24053977.652   126404508.033        3415.377          47.000  
G24  25675626.956   134926289.465       -3452.285          38.000  
E36  27633494.805   145214967.110        1760.100          42.000  
E30  25557821.038   134307256.660        1169.691          45.000  
E10  30318035.683   159322370.332       -1877.887          34.000  
E07  26567917.274   139615359.721        -827.540          45.000  
E08  28200825.843   148196338.400       -2841.997          42.000  
G03  27000420.794   141888180.9012       -167.688          31.000  
G31  26325573.034   138341836.143        3791.276          37.000  
> 2024 02 04 12 34 15.0050000  0 17                     
G06  25240473.493   132639586.571        -580.975          41.000  
G11  25050630.001   131641943.380        1539.214          41.000  
G25  21469096.898   112820863.191         600.822          45.000  
G12  22443217.026   117939911.490       -1559.613          45.000  
G28  24152396.479   126921694.367        3147.581          45.000  
G32  23786048.426   124996540.479        -918.797          47.000  
E18  22625970.954   118900282.269        2576.632          46.000  
E02  25772190.201   135433804.845       -1253.115          43.000  
G29  24053327.971   126401092.703        3415.188          46.000  
G24  25676283.836   134929741.827       -3452.786          38.000  
E36  27633160.069   145213207.271        1759.482          42.000  
E30  25557598.355   134306086.933        1169.473          45.000  
E10  30318393.510   159324248.325       -1878.295          35.000  
E07  26568074.800   139616187.499        -828.135          45.000  
E08  28201366.705   148199180.511       -2842.209          42.000  
G03  27000452.455   141888348.0832       -168.458          31.000  
G31  26324851.503   138338045.036        3790.833          37.000  
> 2024 02 04 12 34 16.0050000  0 17                     
G06  25240583.921   132640168.206        -582.001          41.000  
G11  25050337.361   131640404.845        1537.827          42.000  
G25  21468982.560   112820262.785         599.866          45.000  
G12  22443513.970   117941471.655       -1560.754          45.000  
G28  24151798.004   126918547.317        3146.655          45.000  
G32  23786223.461   124997460.056        -920.219          47.000  
E18  22625480.775   118897706.429        2575.030          46.000  
E02  25772429.022   135435058.435       -1254.138          43.000  
G29  24052678.359   126397678.211        3414.036          46.000  
G24  25676940.905   134933194.806       -3453.351          37.000  
E36  27632825.567   145211448.359        1758.212          42.000  
E30  25557376.203   134304917.909        1168.414          45.000  
E10  30318751.242   159326127.170       -1879.786          35.000  
E07  26568232.131   139617016.203        -829.361          45.000  
E08  28201907.623   148202023.248       -2843.245          42.000  
G03  27000484.156   141888516.3432       -169.320          31.000  
G31  26324130.237   138334254.420        3790.324          37.000  
> 2024 02 04 12 34 17.0050000  0 17                     
G06  25240694.839   132640751.095        -583.368          41.000  
G11  25050045.072   131638867.477        1536.740          42.000  
G25  21468868.673   112819663.440         598.713          45.000  
G12  22443811.217   117943032.781       -1561.719          45.000  
G28  24151199.472   126915401.137        3145.694          45.000  
G32  23786398.550   124998380.821        -921.355          47.000  
E18  22624990.660   118895131.919        2573.824          46.000  
E02  25772667.615   135436312.769       -1254.650          43.000  
G29  24052028.846   126394264.670        3412.924          47.000  
G24  25677598.038   134936648.517       -3454.115          38.000  
E36  27632491.114   145209690.453        1757.508          42.000  
E30  25557154.014   134303749.675        1167.906          45.000  
E10  30319108.941   159328006.956       -1880.339          34.000  
E07  26568390.051   139617845.949        -830.211          45.000  
E08  28202448.486   148204866.688       -2843.659          42.000  
G03  27000516.515   141888685.8202       -170.066          30.000  
G31  26323409.009   138330464.531        3789.607          37.000  
> 2024 02 04 12 34 18.0050000  0 17                     
G06  25240806.129   132641335.139        -584.644          41.000  
G11  25049752.695   131637331.198        1535.863          41.000  
G25  21468755.064   112819065.059         598.139          45.000  
G12  22444108.410   117944594.784       -1562.366          45.000  
G28  24150600.842   126912255.723        3145.294          45.000  
G32  23786573.925   124999302.744        -922.427          47.000  
E18  22624501.085   118892558.660        2573.009          46.000  
E02  25772906.504   135437567.781       -1255.048          43.000  
G29  24051379.668   126390851.966        3412.573          47.000  
G24  25678255.122   134940102.871       -3454.333          37.000  
E36  27632156.742   145207933.498        1756.976          42.000  
E30  25556931.559   134302582.179        1167.577          45.000  
E10  30319466.690   159329887.577       -1880.822          34.000  
E07  26568548.431   139618676.678        -830.939          45.000  
E08  28202989.456   148207710.756       -2844.045          42.000  
G03  27000548.850   141888856.4462       -170.568          30.000  
G31  26322687.735   138326675.210        3789.280          37.000  
> 2024 02 04 12 34 19.0050000  0 17                     
G06  25240917.423   132641920.027        -585.492          42.000  
G11  25049460.936   131635795.670        1535.297          42.000  
G25  21468641.415   112818467.370         597.236          45.000  
G12  22444405.905   117946157.346       -1562.750          45.000  
G28  24150002.437   126909110.805        3144.516          45.000  
G32  23786749.096   125000225.475        -923.224          47.000  
E18  22624011.284   118889986.361        2571.776          46.000  
E02  25773145.463   135438823.183       -1255.604          44.000  
G29  24050730.694   126387439.839        3411.862          47.000  
G24  25678912.581   134943557.571       -3454.719          38.000  
E36  27631822.287   145206177.195        1755.958          42.000  
E30  25556709.991   134301415.120        1166.755          45.000  
E10  30319824.467   159331768.777       -1881.990          34.000  
E07  26568706.563   139619508.070        -831.847          45.000  
E08  28203530.526   148210555.175       -2844.724          42.000  
G03  27000581.423   141889027.8772       -171.727          30.000  
G31  26321966.748   138322886.190        3788.564          37.000  
> 2024 02 04 12 34 20.0050000  0 17                     
G06  25241029.246   132642506.062        -586.713          42.000  
G11  25049169.226   131634261.196        1534.269          42.000  
G25  21468527.999   112817870.604         596.660          45.000  
G12  22444703.272   117947720.754       -1563.483          45.000  
G28  24149404.032   126905966.603        3144.327          45.000  
G32  23786924.938   125001149.292        -923.768          47.000  
E18  22623521.803   118887415.253        2570.901          46.000  
E02  25773385.000   135440079.203       -1255.834          43.000  
G29  24050081.819   126384028.526        3411.291          47.000  
G24  25679569.920   134947012.881       -3455.260          38.000  
E36  27631488.700   145204421.772        1755.427          42.000  
E30  25556488.245   134300248.729        1166.597          45.000  
E10  30320182.670   159333650.747       -1882.237          34.000  
E07  26568865.157   139620340.388        -832.369          45.000  
E08  28204071.640   148213400.177       -2844.678          42.000  
G03  27000611.226   141889200.4762       -172.999          29.000  
G31  26321245.945   138319097.682        3788.103          37.000  
> 2024 02 04 12 34 21.0050000  0 17                     
G06  25241141.158   132643092.799        -587.085          42.000  
G11  25048876.995   131632727.384        1533.515          42.000  
G25  21468414.396   112817274.421         595.684          45.000  
G12  22445000.772   117949284.634       -1564.032          45.000  
G28  24148805.824   126902822.802        3143.599          45.000  
G32  23787100.910   125002073.853        -925.140          47.000  
E18  22623032.547   118884845.011        2569.854          46.000  
E02  25773623.662   135441335.504       -1256.396          44.000  
G29  24049433.127   126380617.671        3410.520          47.000  
G24  25680227.631   134950468.418       -3455.460          38.000  
E36  27631154.646   145202666.894        1754.619          42.000  
E30  25556266.448   134299082.668        1165.929          45.000  
E10  30320540.426   159335533.210       -1882.632          34.000  
E07  26569023.470   139621173.268        -833.048          45.000  
E08  28204613.076   148216245.429       -2845.380          42.000  
G03  27000643.402   141889373.7232       -173.837          29.000  
G31  26320525.149   138315309.381        3787.941          37.000  
> 2024 02 04 12 34 22.0050000  0 17                     
G06  25241253.152   132643680.539        -588.544          42.000  
G11  25048585.357   131631194.433        1532.695          42.000  
G25  21468301.168   112816678.984         595.050          45.000  
G12  22445298.683   117950849.174       -1564.819          45.000  
G28  24148207.678   126899679.556        3142.916          45.000  
G32  23787276.917   125002999.309        -925.944          47.000  
E18  22622543.454   118882275.804        2568.608          46.000  
E02  25773862.974   135442592.261       -1256.945          43.000  
G29  24048784.432   126377207.445        3409.997          47.000  
G24  25680885.084   134953924.420       -3456.460          38.000  
E36  27630820.845   145200912.748        1753.841          42.000  
E30  25556044.538   134297917.120        1165.192          45.000  
E10  30320897.675   159337416.314       -1883.328          34.000  
E07  26569182.515   139622006.906        -834.073          45.000  
E08  28205154.646   148219091.097       -2845.858          42.000  
G03  27000677.544   141889547.8502       -173.908          29.000  
G31  26319804.112   138311521.422        3788.265          37.000  
> 2024 02 04 12 34 23.0050000  0 17                     
G06  25241365.374   132644269.055        -589.209          42.000  
G11  25048294.043   131629662.222        1531.682          42.000  
G25  21468188.300   112816084.185         594.229          46.000  
G12  22445596.656   117952414.235       -1565.448          45.000  
G28  24147609.930   126896536.759        3142.211          45.000  
G32  23787453.285   125003925.564        -927.016          47.000  
E18  22622054.667   118879707.495        2567.663          46.000  
E02  25774102.439   135443849.360       -1257.534          44.000  
G29  24048135.550   126373797.747        3409.272          47.000  
G24  25681542.966   134957380.644       -3456.372          38.000  
E36  27630487.350   145199159.201        1752.921          42.000  
E30  25555823.068   134296751.965        1164.527          45.000  
E10  30321255.944   159339299.952       -1884.307          34.000  
E07  26569341.210   139622841.170        -834.853          45.000  
E08  28205696.115   148221937.064       -2846.373          42.000  
G03  27000707.063   141889722.8802       -176.091          29.000  
G31  26319083.165   138307733.766        3787.100          37.000  
> 2024 02 04 12 34 24.0050000  0 17                     
G06  25241477.793   132644858.329        -589.191          42.000  
G11  25048002.561   131628130.681        1531.544          42.000  
G25  21468075.397   112815489.963         594.184          46.000  
G12  22445894.743   117953979.794       -1565.552          45.000  
G28  24147011.799   126893394.326        3142.683          45.000  
G32  23787629.466   125004852.545        -927.114          47.000  
E18  22621566.416   118877140.049        2567.313          46.000  
E02  25774341.437   135445106.746       -1257.213          44.000  
G29  24047486.701   126370388.507        3409.335          47.000  
G24  25682201.005   134960837.195       -3456.302          38.000  
E36  27630153.265   145197406.188        1753.051          42.000  
E30  25555601.457   134295587.112        1165.090          45.000  
E10  30321614.096   159341184.009       -1883.988          34.000  
E07  26569499.939   139623676.001        -834.766          45.000  
E08  28206237.818   148224783.268       -2846.083          42.000  
G03  27000738.441   141889898.5662       -175.937          29.000  
G31  26318362.454   138303946.241        3787.692          37.000  
> 2024 02 04 12 34 25.0050000  0 17                     
G06  25241590.303   132645448.553        -590.869          42.000  
G11  25047711.304   131626599.990        1530.242          42.000  
G25  21467962.728   112814896.475         593.132          46.000  
G12  22446193.045   117955545.974       -1566.461          45.000  
G28  24146413.724   126890252.437        3141.546          45.000  
G32  23787806.298   125005780.413        -928.279          47.000  
E18  22621078.262   118874573.605        2565.825          47.000  
E02  25774580.902   135446364.539       -1257.961          44.000  
G29  24046838.264   126366979.881        3408.267          47.000  
G24  25682859.026   134964294.093       -3456.929          39.000  
E36  27629819.610   145195653.865        1752.025          42.000  
E30  25555379.883   134294422.757        1164.134          45.000  
E10  30321972.692   159343068.679       -1884.438          34.000  
E07  26569659.013   139624511.543        -835.826          45.000  
E08  28206779.861   148227629.852       -2846.795          42.000  
G03  27000774.680   141890075.124        -176.973          29.000  
G31  26317642.105   138300159.097        3786.956          37.000  
> 2024 02 04 12 34 26.0050000  0 17                     
G06  25241702.800   132646039.910        -591.962          42.000  
G11  25047420.419   131625070.356        1529.056          42.000  
G25  21467850.333   112814303.955         591.985          46.000  
G12  22446491.527   117957113.028       -1567.487          45.000  
G28  24145815.742   126887111.338        3140.589          45.000  
G32  23787983.032   125006709.408        -929.577          47.000  
E18  22620589.889   118872008.414        2564.554          47.000  
E02  25774820.662   135447623.022       -1258.775          44.000  
G29  24046189.589   126363572.101        3407.327          47.000  
G24  25683517.063   134967751.659       -3457.394          38.000  
E36  27629486.300   145193902.488        1750.854          41.000  
E30  25555158.453   134293259.116        1163.271          45.000  
E10  30322331.198   159344954.226       -1885.582          34.000  
E07  26569817.887   139625348.069        -837.030          45.000  
E08  28207321.741   148230477.085       -2847.600          42.000  
G03  27000810.682   141890252.858        -178.363          29.000  
G31  26316921.483   138296372.531        3786.232          37.000  
> 2024 02 04 12 34 27.0050000  0 17                     
G06  25241815.557   132646632.144        -593.274          42.000  
G11  25047129.692   131623541.515        1528.411          42.000  
G25  21467737.406   112813712.116         591.308          46.000  
G12  22446790.598   117958680.659       -1568.079          46.000  
G28  24145217.869   126883970.711        3140.137          45.000  
G32  23788160.409   125007639.229        -930.341          47.000  
E18  22620101.916   118869444.179        2563.522          47.000  
E02  25775060.070   135448881.888       -1259.336          44.000  
G29  24045541.320   126360164.883        3406.806          47.000  
G24  25684175.274   134971209.572       -3458.347          39.000  
E36  27629152.992   145192151.750        1750.111          42.000  
E30  25554936.818   134292095.923        1162.757          45.000  
E10  30322690.288   159346840.324       -1886.230          34.000  
E07  26569977.192   139626185.275        -837.852          45.000  
E08  28207863.757   148233324.644       -2847.911          42.000  
G03  27000844.276   141890431.400        -179.346          29.000  
G31  26316200.880   138292586.225        3786.298          37.000  
> 2024 02 04 12 34 28.0050000  0 17                     
G06  25241928.309   132647225.173        -593.927          42.000  
G11  25046838.780   131622013.404        1527.629          42.000  
G25  21467624.966   112813120.915         590.508          46.000  
G12  22447089.343   117960248.808       -1568.542          46.000  
G28  24144620.206   126880830.536        3139.686          44.000  
G32  23788337.638   125008569.839        -931.239          47.000  
E18  22619614.269   118866880.845        2562.781          46.000  
E02  25775299.784   135450141.087       -1259.786          44.000  
G29  24044892.929   126356758.179        3406.160          47.000  
G24  25684833.518   134974667.784       -3458.609          39.000  
E36  27628820.199   145190401.606        1749.725          41.000  
E30  25554715.970   134290933.081        1162.469          44.000  
E10  30323049.198   159348726.964       -1886.677          33.000  
E07  26570136.410   139627023.076        -838.437          45.000  
E08  28208405.927   148236172.496       -2848.099          42.000  
G03  27000879.155   141890610.700        -179.839          29.000  
G31  26315480.485   138288800.211        3785.701          37.000  
> 2024 02 04 12 34 29.0050000  0 17                     
G06  25242041.559   132647818.868        -593.933          42.000  
G11  25046548.146   131620485.878        1527.320          42.000  
G25  21467512.839   112812530.179         590.303          46.000  
G12  22447388.172   117961817.324       -1568.610          46.000  
G28  24144022.693   126877690.620        3139.817          44.000  
G32  23788514.720   125009501.080        -931.620          47.000  
E18  22619126.957   118864318.267        2562.057          46.000  
E02  25775539.698   135451400.439       -1259.515          44.000  
G29  24044244.808   126353351.821        3406.146          47.000  
G24  25685491.372   134978126.149       -3458.330          39.000  
E36  27628486.920   145188651.924        1749.318          41.000  
E30  25554494.895   134289770.488        1162.497          44.000  
E10  30323408.893   159350613.938       -1887.144          33.000  
E07  26570295.955   139627861.354        -838.551          45.000  
E08  28208947.632   148239020.485       -2848.184          42.000  
G03  27000915.259   141890790.704        -180.804          29.000  
G31  26314759.966   138285014.256        3785.965          37.000  
> 2024 02 04 12 34 30.0050000  0 17                     
G06  25242154.582   132648413.578        -594.916          42.000  
G11  25046257.469   131618959.276        1526.374          43.000  
G25  21467400.682   112811940.278         589.684          46.000  
G12  22447686.950   117963386.590       -1569.312          46.000  
G28  24143425.206   126874551.364        3139.200          44.000  
G32  23788691.953   125010433.315        -932.601          47.000  
E18  22618639.437   118861756.810        2561.013          46.000  
E02  25775779.244   135452660.349       -1259.971          44.000  
G29  24043596.639   126349946.188        3405.691          47.000  
G24  25686149.439   134981585.002       -3458.468          39.000  
E36  27628154.260   145186903.018        1748.830          41.000  
E30  25554273.537   134288608.483        1161.966          45.000  
E10  30323768.550   159352501.624       -1887.694          33.000  
E07  26570456.163   139628700.469        -839.302          45.000  
E08  28209489.679   148241868.966       -2848.488          42.000  
G03  27000952.734   141890971.625        -181.302          29.000  
G31  26314039.333   138281228.767        3785.446          37.000  
> 2024 02 04 12 34 31.0050000  0 17                     
G06  25242267.995   132649009.244        -596.283          42.000  
G11  25045967.080   131617433.550        1524.964          43.000  
G25  21467288.748   112811351.106         588.772          46.000  
G12  22447985.820   117964956.494       -1570.306          46.000  
G28  24142828.018   126871412.651        3138.406          45.000  
G32  23788869.592   125011366.440        -933.821          47.000  
E18  22618152.068   118859196.357        2559.756          46.000  
E02  25776019.060   135453920.705       -1260.776          44.000  
G29  24042948.750   126346541.185        3404.570          47.000  
G24  25686807.705   134985044.291       -3459.675          38.000  
E36  27627821.678   145185154.837        1747.478          41.000  
E30  25554052.576   134287446.965        1161.101          45.000  
E10  30324127.667   159354389.971       -1888.879          33.000  
E07  26570615.839   139629540.308        -840.255          45.000  
E08  28210032.174   148244717.868       -2849.144          41.000  
G03  27000982.349   141891153.428        -182.270          29.000  
G31  26313318.916   138277443.621        3784.820          37.000  
> 2024 02 04 12 34 32.0050000  0 17                     
G06  25242381.134   132649605.699        -597.119          42.000  
G11  25045676.763   131615908.531        1524.651          43.000  
G25  21467176.643   112810762.573         588.239          46.000  
G12  22448284.701   117966526.919       -1570.685          46.000  
G28  24142230.584   126868274.376        3138.181          44.000  
G32  23789047.225   125012300.342        -934.287          48.000  
E18  22617664.962   118856636.816        2559.102          46.000  
E02  25776259.098   135455181.378       -1260.857          44.000  
G29  24042301.146   126343136.685        3404.177          47.000  
G24  25687466.425   134988503.847       -3459.528          39.000  
E36  27627488.994   145183407.244        1747.388          41.000  
E30  25553831.739   134286285.826        1160.930          44.000  
E10  30324487.731   159356278.821       -1889.145          33.000  
E07  26570775.736   139630380.789        -840.802          45.000  
E08  28210574.631   148247567.053       -2849.466          42.000  
G03  27001013.659   141891336.049        -183.142          29.000  
G31  26312598.592   138273658.723        3784.797          36.000  
> 2024 02 04 12 34 33.0050000  0 17                     
G06  25242495.184   132650202.931        -597.473          41.000  
G11  25045386.538   131614384.220        1523.776          42.000  
G25  21467064.897   112810174.645         587.617          46.000  
G12  22448583.494   117968097.850       -1571.460          46.000  
G28  24141633.760   126865136.508        3137.604          45.000  
G32  23789225.459   125013235.016        -935.235          48.000  
E18  22617177.992   118854078.164        2558.083          46.000  
E02  25776499.486   135456442.366       -1261.404          44.000  
G29  24041653.087   126339732.667        3403.595          47.000  
G24  25688124.972   134991963.660       -3459.633          39.000  
E36  27627156.574   145181660.211        1746.589          41.000  
E30  25553610.965   134285125.034        1160.506          45.000  
E10  30324847.742   159358168.144       -1889.989          34.000  
E07  26570935.477   139631221.854        -841.589          45.000  
E08  28211116.812   148250416.499       -2849.759          42.000  
G03  27001048.950   141891519.418        -184.113          29.000  
G31  26311878.618   138269874.018        3784.836          36.000  
> 2024 02 04 12 34 34.0050000  0 17                     
G06  25242608.829   132650801.113        -598.480          41.000  
G11  25045096.853   131612860.746        1522.985          42.000  
G25  21466953.368   112809587.478         586.567          46.000  
G12  22448882.329   117969669.418       -1571.997          46.000  
G28  24141036.675   126861999.197        3136.968          44.000  
G32  23789403.654   125014170.579        -936.105          48.000  
E18  22616691.360   118851520.542        2556.890          46.000  
E02  25776739.693   135457703.805       -1261.822          44.000  
G29  24041005.217   126336329.277        3403.111          47.000  
G24  25688783.637   134995423.935       -3460.653          39.000  
E36  27626824.274   145179913.900        1745.720          41.000  
E30  25553390.419   134283964.757        1160.010          45.000  
E10  30325207.720   159360058.091       -1890.109          34.000  
E07  26571095.866   139632063.660        -842.384          45.000  
E08  28211659.243   148253266.362       -2850.275          42.000  
G03  27001083.988   141891703.717        -185.312          29.000  
G31  26311158.505   138266089.718        3783.754          37.000  
> 2024 02 04 12 34 35.0050000  0 17                     
G06  25242722.960   132651400.142        -599.292          42.000  
G11  25044807.230   131611338.066        1522.399          43.000  
G25  21466842.070   112809000.965         586.113          46.000  
G12  22449181.358   117971241.563       -1572.388          46.000  
G28  24140439.884   126858862.366        3136.532          44.000  
G32  23789582.159   125015106.975        -936.797          48.000  
E18  22616204.879   118848963.855        2556.294          46.000  
E02  25776979.620   135458965.588       -1261.828          44.000  
G29  24040357.499   126332926.464        3402.398          46.000  
G24  25689442.369   134998884.529       -3460.678          39.000  
E36  27626492.026   145178168.222        1745.434          41.000  
E30  25553169.440   134282804.881        1159.720          45.000  
E10  30325567.973   159361948.589       -1890.722          34.000  
E07  26571256.105   139632906.124        -842.819          45.000  
E08  28212201.194   148256116.553       -2850.285          42.000  
G03  27001121.063   141891888.749        -185.483          29.000  
G31  26310438.463   138262305.646        3784.108          37.000  
> 2024 02 04 12 34 36.0050000  0 17                     
G06  25242837.346   132651999.947        -600.580          42.000  
G11  25044517.846   131609816.066        1521.507          43.000  
G25  21466730.503   112808415.035         585.675          46.000  
G12  22449480.824   117972814.187       -1573.022          46.000  
G28  24139842.639   126855725.917        3136.126          45.000  
G32  23789760.589   125016044.103        -937.435          48.000  
E18  22615719.152   118846408.037        2555.032          46.000  
E02  25777219.643   135460227.680       -1262.273          43.000  
G29  24039709.961   126329524.107        3401.939          46.000  
G24  25690101.246   135002345.368       -3460.910          39.000  
E36  27626159.964   145176423.074        1744.880          41.000  
E30  25552948.612   134281645.367        1159.116          45.000  
E10  30325928.000   159363839.552       -1891.051          34.000  
E07  26571416.470   139633749.163        -843.472          45.000  
E08  28212743.850   148258966.971       -2850.577          42.000  
G03  27001165.515   141892074.556        -186.064          30.000  
G31  26309718.486   138258521.805        3783.582          37.000  
> 2024 02 04 12 34 37.0050000  0 17                     
G06  25242951.800   132652600.271        -601.105          41.000  
G11  25044228.467   131608294.522        1521.000          43.000  
G25  21466619.052   112807829.474         584.975          46.000  
G12  22449780.073   117974387.081       -1573.431          46.000  
G28  24139245.680   126852589.638        3135.951          45.000  
G32  23789938.996   125016981.757        -938.528          48.000  
E18  22615233.139   118843852.849        2554.505          46.000  
E02  25777459.854   135461489.846       -1262.689          43.000  
G29  24039062.416   126326121.995        3401.596          46.000  
G24  25690759.693   135005806.235       -3460.921          38.000  
E36  27625827.875   145174678.303        1744.202          41.000  
E30  25552727.947   134280485.946        1158.884          44.000  
E10  30326288.327   159365730.763       -1891.588          34.000  
E07  26571576.814   139634592.548        -843.856          45.000  
E08  28213286.328   148261817.439       -2850.808          42.000  
G03  27001198.055   141892260.936        -186.968          30.000  
G31  26308998.126   138254737.906        3783.884          37.000  
> 2024 02 04 12 34 38.0050000  0 17                     
G06  25243066.232   132653201.746        -601.843          41.000  
G11  25043939.441   131606774.069        1519.895          43.000  
G25  21466507.740   112807244.865         584.193          46.000  
G12  22450079.495   117975960.820       -1574.133          46.000  
G28  24138649.201   126849454.142        3135.290          45.000  
G32  23790117.830   125017920.501        -939.261          48.000  
E18  22614747.297   118841298.910        2553.351          46.000  
E02  25777700.072   135462752.674       -1263.251          43.000  
G29  24038415.087   126322720.722        3400.941          46.000  
G24  25691418.543   135009267.770       -3462.027          39.000  
E36  27625495.972   145172934.449        1743.130          41.000  
E30  25552507.148   134279327.232        1158.468          44.000  
E10  30326648.805   159367622.831       -1892.494          34.000  
E07  26571737.677   139635436.915        -844.770          45.000  
E08  28213828.855   148264668.511       -2851.396          41.000  
G03  27001236.917   141892448.350        -187.268          31.000  
G31  26308278.119   138250954.590        3783.515          37.000  
> 2024 02 04 12 34 39.0050000  0 17                     
G06  25243180.526   132653803.950        -602.979          42.000  
G11  25043650.695   131605254.235        1519.235          43.000  
G25  21466396.625   112806660.793         583.471          46.000  
G12  22450378.975   117977535.005       -1574.915          46.000  
G28  24138052.373   126846318.979        3134.510          45.000  
G32  23790296.765   125018859.942        -940.098          48.000  
E18  22614261.134   118838745.776        2552.554          46.000  
E02  25777940.534   135464015.698       -1263.333          43.000  
G29  24037767.553   126319319.877        3400.460          46.000  
G24  25692077.372   135012729.456       -3461.873          38.000  
E36  27625164.054   145171191.063        1742.756          41.000  
E30  25552286.527   134278168.813        1158.007          44.000  
E10  30327008.678   159369515.315       -1893.126          34.000  
E07  26571898.664   139636281.779        -845.378          45.000  
E08  28214371.312   148267519.788       -2851.552          41.000  
G03  27001268.175   141892636.558        -189.294          31.000  
G31  26307558.143   138247171.447        3782.703          37.000  
> 2024 02 04 12 34 40.0050000  0 17                     
G06  25243295.165   132654407.007        -603.271          42.000  
G11  25043361.752   131603735.185        1518.914          44.000  
G25  21466285.498   112806077.397         583.293          46.000  
G12  22450678.580   117979109.747       -1574.884          46.000  
G28  24137455.899   126843184.289        3134.779          45.000  
G32  23790475.667   125019800.205        -940.281          48.000  
E18  22613775.442   118836193.597        2552.032          46.000  
E02  25778181.124   135465279.143       -1263.531          43.000  
G29  24037120.133   126315919.583        3400.216          46.000  
G24  25692736.220   135016191.516       -3462.226          38.000  
E36  27624832.495   145169448.346        1742.527          41.000  
E30  25552066.377   134277010.818        1158.028          44.000  
E10  30327368.777   159371408.355       -1893.476          34.000  
E07  26572059.997   139637127.324        -845.656          45.000  
E08  28214914.010   148270371.394       -2851.669          41.000  
G03  27001301.810   141892825.528        -188.917          31.000  
G31  26306838.564   138243388.565        3783.092          37.000  
> 2024 02 04 12 34 41.0050000  0 17                     
G06  25243409.706   132655010.906        -604.156          41.000  
G11  25043072.741   131602216.882        1518.268          43.000  
G25  21466174.462   112805494.651         582.692          46.000  
G12  22450978.242   117980685.064       -1575.244          46.000  
G28  24136859.538   126840050.082        3134.234          45.000  
G32  23790654.782   125020741.292        -941.124          48.000  
E18  22613289.615   118833642.365        2551.088          46.000  
E02  25778421.859   135466542.928       -1263.886          43.000  
G29  24036473.061   126312519.826        3399.761          46.000  
G24  25693394.898   135019653.887       -3462.356          38.000  
E36  27624500.996   145167706.200        1742.216          40.000  
E30  25551845.736   134275853.228        1157.563          44.000  
E10  30327729.115   159373301.926       -1893.808          34.000  
E07  26572220.740   139637973.515        -846.125          45.000  
E08  28215456.594   148273223.320       -2851.868          41.000  
G03  27001341.116   141893015.313        -189.868          30.000  
G31  26306118.908   138239605.967        3782.711          37.000  
> 2024 02 04 12 34 42.0050000  0 17                     
G06  25243524.799   132655615.608        -605.457          41.000  
G11  25042783.790   131600699.288        1517.069          44.000  
G25  21466063.664   112804912.502         581.679          46.000  
G12  22451278.209   117982260.859       -1576.166          45.000  
G28  24136263.299   126836916.255        3133.392          45.000  
G32  23790833.983   125021683.108        -942.288          48.000  
E18  22612804.167   118831091.987        2549.948          46.000  
E02  25778662.325   135467806.999       -1264.460          43.000  
G29  24035826.033   126309120.545        3398.967          46.000  
G24  25694053.659   135023116.543       -3463.089          38.000  
E36  27624169.590   145165964.670        1741.084          41.000  
E30  25551625.094   134274695.975        1156.889          45.000  
E10  30328089.216   159375195.966       -1894.606          34.000  
E07  26572382.148   139638820.294        -847.414          45.000  
E08  28215999.167   148276075.482       -2852.244          41.000  
G03  27001377.310   141893205.798        -191.501          30.000  
G31  26305399.250   138235823.544        3782.643          37.000  
> 2024 02 04 12 34 43.0050000  0 17                     
G06  25243639.626   132656221.262        -605.865          41.000  
G11  25042495.174   131599182.624        1516.378          43.000  
G25  21465952.738   112804331.180         580.932          46.000  
G12  22451577.967   117983837.393       -1577.020          46.000  
G28  24135667.258   126833783.077        3132.781          45.000  
G32  23791013.565   125022625.923        -943.285          48.000  
E18  22612318.927   118828542.745        2548.611          46.000  
E02  25778902.848   135469071.599       -1264.856          43.000  
G29  24035179.427   126305721.986        3398.153          46.000  
G24  25694712.608   135026579.656       -3463.081          39.000  
E36  27623837.890   145164223.932        1740.295          41.000  
E30  25551405.110   134273539.303        1156.484          45.000  
E10  30328449.693   159377090.690       -1895.272          34.000  
E07  26572543.152   139639667.897        -848.039          45.000  
E08  28216542.047   148278928.149       -2852.970          40.000  
G03  27001408.040   141893397.325        -192.124          30.000  
G31  26304679.330   138232041.611        3781.807          37.000  
> 2024 02 04 12 34 44.0050000  0 17                     
G06  25243754.571   132656827.964        -607.410          41.000  
G11  25042206.371   131597666.879        1515.321          43.000  
G25  21465842.474   112803750.684         579.968          46.000  
G12  22451877.877   117985414.641       -1577.582          45.000  
G28  24135071.244   126830650.532        3132.160          45.000  
G32  23791193.329   125023569.705        -944.284          48.000  
E18  22611834.079   118825994.582        2547.367          46.000  
E02  25779143.831   135470336.730       -1265.479          43.000  
G29  24034532.983   126302324.127        3397.551          46.000  
G24  25695371.689   135030043.302       -3464.296          38.000  
E36  27623506.942   145162483.978        1739.366          41.000  
E30  25551185.130   134272383.211        1155.687          45.000  
E10  30328810.165   159378986.178       -1895.821          34.000  
E07  26572704.290   139640516.307        -848.910          45.000  
E08  28217084.767   148281781.289       -2853.621          40.000  
G03  27001433.989   141893589.815        -193.245          29.000  
G31  26303959.511   138228260.087        3781.797          37.000  
> 2024 02 04 12 34 45.0050000  0 17                     
G06  25243869.853   132657435.962        -608.258          40.000  
G11  25041917.827   131596152.377        1514.399          43.000  
G25  21465732.245   112803171.322         579.162          46.000  
G12  22452177.770   117986992.929       -1578.381          45.000  
G28  24134475.635   126827518.928        3131.403          45.000  
G32  23791373.190   125024514.792        -945.387          48.000  
E18  22611348.828   118823447.830        2546.467          46.000  
E02  25779384.439   135471602.698       -1266.013          43.000  
G29  24033886.680   126298927.301        3396.711          46.000  
G24  25696030.747   135033507.710       -3464.410          39.000  
E36  27623175.833   145160745.119        1738.394          41.000  
E30  25550965.419   134271228.004        1155.122          45.000  
E10  30329171.173   159380882.596       -1895.909          34.000  
E07  26572865.929   139641365.842        -849.789          45.000  
E08  28217627.902   148284635.242       -2853.915          40.000  
G03  27001472.874   141893783.586        -194.145          29.000  
G31  26303240.119   138224479.350        3780.582          38.000  
> 2024 02 04 12 34 46.0050000  0 17                     
G06  25243985.629   132658044.618        -609.210          40.000  
G11  25041629.641   131594638.455        1513.223          43.000  
G25  21465622.137   112802592.411         578.491          46.000  
G12  22452478.136   117988571.575       -1578.973          45.000  
G28  24133879.599   126824387.586        3130.875          45.000  
G32  23791552.906   125025460.466        -946.262          48.000  
E18  22610864.595   118820901.826        2545.353          46.000  
E02  25779625.315   135472868.827       -1266.518          43.000  
G29  24033240.542   126295530.795        3396.287          46.000  
G24  25696689.964   135036972.256       -3464.646          39.000  
E36  27622845.190   145159006.659        1738.103          41.000  
E30  25550745.367   134270072.994        1154.745          45.000  
E10  30329532.565   159382779.444       -1896.898          34.000  
E07  26573028.020   139642215.837        -850.545          45.000  
E08  28218170.722   148287489.288       -2854.304          40.000  
G03  27001512.820   141893977.883        -194.415          29.000  
G31  26302520.765   138220698.659        3780.382          38.000  
> 2024 02 04 12 34 47.0050000  0 17                     
G06  25244101.435   132658654.092        -609.613          40.000  
G11  25041341.490   131593125.247        1512.946          43.000  
G25  21465512.172   112802014.144         578.148          46.000  
G12  22452778.548   117990150.755       -1579.364          46.000  
G28  24133283.829   126821256.688        3130.801          45.000  
G32  23791732.944   125026406.928        -946.641          48.000  
E18  22610380.428   118818356.730        2544.717          46.000  
E02  25779866.100   135474135.285       -1266.614          43.000  
G29  24032594.593   126292134.836        3395.628          46.000  
G24  25697349.139   135040437.123       -3464.906          39.000  
E36  27622514.650   145157268.826        1737.487          41.000  
E30  25550525.680   134268918.386        1154.542          45.000  
E10  30329893.516   159384676.799       -1897.610          34.000  
E07  26573190.200   139643066.454        -850.876          45.000  
E08  28218713.945   148290343.667       -2854.691          40.000  
G03  27001554.949   141894173.100        -195.345          29.000  
G31  26301801.768   138216918.203        3780.211          38.000  
> 2024 02 04 12 34 48.0050000  0 17                     
G06  25244217.464   132659264.251        -610.150          40.000  
G11  25041053.422   131591612.652        1512.427          42.000  
G25  21465402.102   112801436.391         577.352          46.000  
G12  22453079.072   117991730.345       -1579.919          45.000  
G28  24132687.950   126818126.091        3130.571          45.000  
G32  23791912.860   125027354.067        -947.500          47.000  
E18  22609896.169   118815812.421        2543.906          46.000  
E02  25780107.103   135475401.961       -1266.972          43.000  
G29  24031948.818   126288739.232        3395.446          47.000  
G24  25698008.683   135043902.137       -3465.144          39.000  
E36  27622183.934   145155531.460        1737.333          40.000  
E30  25550306.069   134267764.022        1154.218          45.000  
E10  30330254.984   159386574.519       -1897.759          34.000  
E07  26573352.365   139643917.564        -851.477          45.000  
E08  28219256.584   148293198.182       -2854.796          40.000  
G03  27001595.674   141894368.938        -196.753          30.000  
G31  26301082.470   138213137.875        3780.371          38.000  
> 2024 02 04 12 34 49.0050000  0 17                     
G06  25244333.809   132659875.395        -612.012          41.000  
G11  25040765.414   131590100.950        1511.124          42.000  
G25  21465292.406   112800859.387         576.545          46.000  
G12  22453379.983   117993310.591       -1580.640          46.000  
G28  24132092.053   126814996.095        3129.695          45.000  
G32  23792093.031   125028302.110        -948.464          48.000  
E18  22609411.901   118813269.169        2542.638          46.000  
E02  25780347.822   135476669.090       -1267.252          43.000  
G29  24031303.081   126285344.319        3394.458          46.000  
G24  25698667.883   135047367.612       -3465.935          38.000  
E36  27621853.477   145153794.856        1735.941          40.000  
E30  25550086.058   134266610.184        1153.598          45.000  
E10  30330616.563   159388472.884       -1898.368          34.000  
E07  26573514.087   139644769.453        -852.493          45.000  
E08  28219800.051   148296053.131       -2855.273          40.000  
G03  27001638.071   141894565.680        -196.772          31.000  
G31  26300363.385   138209357.951        3780.066          38.000  
> 2024 02 04 12 34 50.0050000  0 17                     
G06  25244450.429   132660487.276        -612.256          41.000  
G11  25040477.560   131588589.939        1510.644          42.000  
G25  21465182.723   112800282.984         575.970          46.000  
G12  22453680.868   117994891.338       -1580.945          46.000  
G28  24131496.344   126811866.482        3129.342          44.000  
G32  23792273.364   125029250.924        -949.195          47.000  
E18  22608928.033   118810726.784        2542.014          46.000  
E02  25780588.652   135477936.531       -1267.585          43.000  
G29  24030657.196   126281949.862        3394.334          46.000  
G24  25699327.311   135050833.368       -3466.528          39.000  
E36  27621523.232   145152058.775        1735.813          40.000  
E30  25549866.740   134265456.692        1153.375          45.000  
E10  30330978.132   159390371.728       -1898.960          34.000  
E07  26573676.457   139645621.908        -852.825          45.000  
E08  28220343.460   148298908.319       -2855.067          40.000  
G03  27001678.427   141894763.195        -198.390          31.000  
G31  26299644.199   138205578.217        3779.652          38.000  
> 2024 02 04 12 34 51.0050000  0 17                     
G06  25244567.009   132661099.933        -612.927          41.000  
G11  25040190.271   131587079.619        1509.909          42.000  
G25  21465073.033   112799707.180         575.433          46.000  
G12  22453981.664   117996472.570       -1581.293          46.000  
G28  24130900.687   126808737.286        3129.012          45.000  
G32  23792453.972   125030200.477        -949.909          47.000  
E18  22608444.498   118808185.293        2540.965          46.000  
E02  25780829.452   135479204.271       -1267.923          43.000  
G29  24030011.414   126278555.905        3393.765          46.000  
G24  25699986.757   135054299.336       -3466.177          39.000  
E36  27621192.838   145150323.282        1735.066          40.000  
E30  25549647.343   134264303.566        1152.725          45.000  
E10  30331339.733   159392271.071       -1899.286          34.000  
E07  26573838.639   139646474.964        -853.294          45.000  
E08  28220886.962   148301763.790       -2855.603          40.000  
G03  27001714.787   141894961.431        -198.229          32.000  
G31  26298925.224   138201798.721        3779.495          38.000  
> 2024 02 04 12 34 52.0050000  0 17                     
G06  25244683.692   132661713.209        -613.824          41.000  
G11  25039902.623   131585569.810        1509.454          42.000  
G25  21464963.424   112799131.781         575.027          46.000  
G12  22454282.569   117998054.120       -1581.872          46.000  
G28  24130305.303   126805608.309        3128.670          45.000  
G32  23792634.730   125031150.576        -950.463          47.000  
E18  22607960.896   118805644.467        2540.312          46.000  
E02  25781070.573   135480472.129       -1268.404          43.000  
G29  24029365.341   126275162.257        3393.222          46.000  
G24  25700646.048   135057765.414       -3466.492          39.000  
E36  27620862.590   145148588.144        1734.910          40.000  
E30  25549427.679   134263150.563        1152.752          45.000  
E10  30331701.304   159394170.697       -1899.860          34.000  
E07  26574001.118   139647328.419        -853.913          45.000  
E08  28221430.551   148304619.330       -2855.832          39.000  
G03  27001751.637   141895160.245        -200.012          31.000  
G31  26298206.211   138198019.228        3779.210          38.000  
> 2024 02 04 12 34 53.0050000  0 17                     
G06  25244800.345   132662327.087        -614.124          41.000  
G11  25039615.508   131584060.543        1509.347          42.000  
G25  21464853.904   112798556.827         574.823          46.000  
G12  22454583.339   117999636.015       -1581.995          45.000  
G28  24129709.902   126802479.579        3128.605          44.000  
G32  23792815.669   125032101.292        -950.970          47.000  
E18  22607477.434   118803104.390        2539.694          46.000  
E02  25781311.730   135481740.104       -1267.907          43.000  
G29  24028719.245   126271768.934        3393.120          46.000  
G24  25701305.880   135061231.586       -3466.047          39.000  
E36  27620532.757   145146853.443        1734.535          40.000  
E30  25549208.347   134261997.783        1152.778          45.000  
E10  30332063.269   159396070.641       -1899.995          34.000  
E07  26574163.545   139648182.312        -854.037          45.000  
E08  28221973.940   148307474.984       -2855.797          39.000  
G03  27001787.868   141895359.619        -198.565          32.000  
G31  26297486.994   138194239.791        3779.188          39.000  
> 2024 02 04 12 34 54.0050000  0 17                     
G06  25244917.259   132662941.822        -615.112          41.000  
G11  25039328.404   131582552.063        1508.355          42.000  
G25  21464744.238   112797982.529         573.939          46.000  
G12  22454884.469   118001218.455       -1582.654          45.000  
G28  24129114.483   126799351.300        3128.295          44.000  
G32  23792996.512   125033052.811        -951.715          48.000  
E18  22606994.510   118800565.216        2539.083          46.000  
E02  25781553.401   135483008.448       -1268.178          43.000  
G29  24028073.493   126268376.162        3392.583          46.000  
G24  25701965.512   135064698.113       -3466.903          39.000  
E36  27620202.534   145145119.366        1733.653          40.000  
E30  25548989.151   134260845.393        1152.409          45.000  
E10  30332424.785   159397971.147       -1900.648          35.000  
E07  26574325.825   139649036.840        -854.531          45.000  
E08  28222516.799   148310330.914       -2855.947          39.000  
G03  27001825.181   141895559.856        -200.116          32.000  
G31  26296767.714   138190460.623        3779.255          39.000  
> 2024 02 04 12 34 55.0050000  0 17                     
G06  25245034.542   132663557.297        -615.607          41.000  
G11  25039041.392   131581044.252        1507.778          42.000  
G25  21464634.995   112797408.803         573.621          46.000  
G12  22455185.535   118002801.380       -1583.008          45.000  
G28  24128519.103   126796223.423        3127.976          44.000  
G32  23793177.872   125034005.056        -952.366          48.000  
E18  22606511.267   118798026.928        2538.118          46.000  
E02  25781794.558   135484277.069       -1268.529          43.000  
G29  24027427.870   126264983.856        3392.109          46.000  
G24  25702625.160   135068164.825       -3466.439          39.000  
E36  27619872.936   145143385.797        1733.612          41.000  
E30  25548769.871   134259693.339        1152.081          45.000  
E10  30332786.812   159399872.104       -1901.333          35.000  
E07  26574488.457   139649891.953        -855.213          45.000  
E08  28223060.249   148313187.109       -2856.192          39.000  
G03  27001863.517   141895760.805        -200.542          32.000  
G31  26296048.797   138186681.634        3779.481          39.000  
> 2024 02 04 12 34 56.0050000  0 17                     
G06  25245152.126   132664173.404        -616.510          41.000  
G11  25038754.462   131579536.993        1506.797          42.000  
G25  21464525.676   112796835.516         573.259          46.000  
G12  22455486.709   118004384.627       -1583.344          45.000  
G28  24127923.962   126793095.786        3127.790          44.000  
G32  23793359.265   125034957.903        -953.128          48.000  
E18  22606028.049   118795489.355        2537.245          46.000  
E02  25782036.115   135485545.839       -1268.692          43.000  
G29  24026782.260   126261591.853        3391.979          46.000  
G24  25703285.080   135071631.690       -3466.879          39.000  
E36  27619543.007   145141652.664        1733.096          41.000  
E30  25548550.697   134258541.480        1151.748          45.000  
E10  30333148.518   159401773.339       -1901.134          35.000  
E07  26574651.124   139650747.492        -855.690          45.000  
E08  28223603.557   148316043.398       -2856.197          39.000  
G03  27001901.360   141895962.374        -202.620          31.000  
G31  26295329.534   138182902.701        3779.251          38.000  
> 2024 02 04 12 34 57.0050000  0 17                     
G06  25245269.701   132664790.541        -617.621          41.000  
G11  25038467.533   131578030.676        1505.681          42.000  
G25  21464416.575   112796263.077         572.024          45.000  
G12  22455788.006   118005968.620       -1584.332          45.000  
G28  24127329.077   126789968.828        3126.492          44.000  
G32  23793540.854   125035911.731        -954.438          48.000  
E18  22605545.304   118792952.905        2535.758          45.000  
E02  25782277.526   135486815.145       -1269.683          43.000  
G29  24026136.920   126258200.593        3390.696          46.000  
G24  25703945.062   135075099.049       -3467.501          39.000  
E36  27619213.013   145139920.333        1731.963          41.000  
E30  25548331.851   134257390.201        1150.895          45.000  
E10  30333510.586   159403675.323       -1902.153          35.000  
E07  26574814.318   139651603.869        -856.916          45.000  
E08  28224146.920   148318900.187       -2857.187          39.000  
G03  27001939.799   141896164.871        -203.281          31.000  
G31  26294610.635   138179124.255        3778.136          39.000  
> 2024 02 04 12 34 58.0050000  0 17                     
G06  25245387.440   132665408.545        -618.634          41.000  
G11  25038181.009   131576525.115        1505.341          42.000  
G25  21464307.692   112795691.306         571.457          45.000  
G12  22456089.561   118007553.203       -1585.022          45.000  
G28  24126734.204   126786842.333        3126.037          44.000  
G32  23793722.526   125036866.395        -955.212          48.000  
E18  22605062.360   118790417.399        2534.988          45.000  
E02  25782518.865   135488084.830       -1269.964          43.000  
G29  24025491.367   126254809.872        3390.393          46.000  
G24  25704605.097   135078566.752       -3467.830          39.000  
E36  27618883.670   145138188.643        1731.476          41.000  
E30  25548113.052   134256239.350        1150.526          45.000  
E10  30333872.728   159405577.877       -1903.062          35.000  
E07  26574977.216   139652460.898        -857.345          45.000  
E08  28224690.433   148321757.307       -2857.421          39.000  
G03  27001978.473   141896368.209        -203.828          31.000  
G31  26293891.329   138175346.079        3778.018          38.000  
> 2024 02 04 12 34 59.0050000  0 17                     
G06  25245505.338   132666027.323        -619.226          41.000  
G11  25037894.976   131575020.270        1504.521          42.000  
G25  21464199.111   112795120.139         570.842          45.000  
G12  22456391.040   118009138.255       -1585.242          45.000  
G28  24126139.483   126783716.217        3126.193          44.000  
G32  23793904.181   125037821.785        -955.737          48.000  
E18  22604579.914   118787882.783        2534.230          46.000  
E02  25782760.864   135489354.802       -1270.157          43.000  
G29  24024846.075   126251419.641        3390.033          46.000  
G24  25705264.707   135082034.729       -3468.318          39.000  
E36  27618553.929   145136457.525        1730.837          41.000  
E30  25547894.086   134255088.862        1150.253          45.000  
E10  30334235.117   159407480.894       -1903.663          35.000  
E07  26575140.530   139653318.536        -857.939          45.000  
E08  28225234.034   148324614.693       -2857.519          39.000  
G03  27002017.851   141896572.320        -204.980          32.000  
G31  26293172.607   138171568.116        3777.744          39.000  
> 2024 02 04 12 35 00.0050000  0 17                     
G06  25245623.232   132666646.676        -619.739          41.000  
G11  25037608.722   131573515.941        1504.167          42.000  
G25  21464090.409   112794549.374         570.549          45.000  
G12  22456692.828   118010723.637       -1585.333          45.000  
G28  24125544.736   126780590.357        3125.888          44.000  
G32  23794086.025   125038777.753        -956.081          48.000  
E18  22604097.743   118785348.855        2533.692          45.000  
E02  25783002.473   135490624.880       -1269.870          43.000  
G29  24024200.960   126248029.692        3389.945          46.000  
G24  25705924.266   135085502.764       -3467.972          39.000  
E36  27618224.674   145134726.772        1730.719          41.000  
E30  25547675.239   134253938.512        1150.459          45.000  
E10  30334596.847   159409384.213       -1903.410          35.000  
E07  26575304.026   139654176.551        -858.067          45.000  
E08  28225777.902   148327472.134       -2857.577          39.000  
G03  27002060.384   141896776.986        -205.585          32.000  
G31  26292453.555   138167790.166        3777.956          39.000  
> 2024 02 04 12 35 01.0050000  0 17                     
G06  25245741.753   132667266.792        -620.691          41.000  
G11  25037322.857   131572012.295        1503.072          42.000  
G25  21463981.831   112793979.163         569.827          45.000  
G12  22456994.656   118012309.466       -1586.169          45.000  
G28  24124949.757   126777464.847        3125.306          44.000  
G32  23794268.282   125039734.432        -957.383          48.000  
E18  22603615.855   118782815.759        2532.735          45.000  
E02  25783244.503   135491895.230       -1270.426          43.000  
G29  24023556.116   126244640.208        3388.913          46.000  
G24  25706584.089   135088971.024       -3468.428          39.000  
E36  27617895.691   145132996.547        1729.874          41.000  
E30  25547456.677   134252788.466        1149.949          45.000  
E10  30334959.133   159411287.937       -1904.013          35.000  
E07  26575467.357   139655035.122        -858.830          45.000  
E08  28226321.564   148330329.793       -2857.883          39.000  
G03  27002101.739   141896982.331        -205.782          33.000  
G31  26291734.890   138164012.399        3777.336          39.000  
> 2024 02 04 12 35 02.0050000  0 17                     
G06  25245860.206   132667887.660        -621.515          41.000  
G11  25037036.811   131570509.304        1502.675          42.000  
G25  21463873.832   112793409.549         569.296          45.000  
G12  22457296.935   118013895.771       -1586.627          46.000  
G28  24124354.932   126774339.731        3124.945          44.000  
G32  23794450.857   125040691.846        -957.854          48.000  
E18  22603134.122   118780283.550        2531.614          46.000  
E02  25783486.246   135493165.876       -1270.978          43.000  
G29  24022911.236   126241251.165        3388.793          46.000  
G24  25707243.801   135092439.550       -3468.506          39.000  
E36  27617567.108   145131266.891        1729.210          41.000  
E30  25547238.078   134251638.796        1149.284          45.000  
E10  30335321.384   159413192.142       -1904.302          35.000  
E07  26575631.187   139655894.288        -859.577          45.000  
E08  28226865.577   148333187.713       -2858.313          38.000  
G03  27002141.554   141897188.506        -207.250          33.000  
G31  26291016.067   138160234.821        3777.619          39.000  
> 2024 02 04 12 35 03.0050000  0 17                     
G06  25245979.092   132668509.470        -622.351          41.000  
G11  25036750.663   131569007.208        1501.455          42.000  
G25  21463765.606   112792840.708         568.183          45.000  
G12  22457599.326   118015482.754       -1587.500          46.000  
G28  24123760.396   126771215.211        3124.021          44.000  
G32  23794633.746   125041650.175        -958.788          48.000  
E18  22602652.021   118777752.375        2530.561          46.000  
E02  25783727.981   135494436.980       -1271.404          43.000  
G29  24022266.601   126237862.795        3387.886          46.000  
G24  25707903.762   135095908.524       -3469.467          38.000  
E36  27617238.093   145129537.929        1728.747          41.000  
E30  25547019.538   134250489.613        1148.793          45.000  
E10  30335683.683   159415097.026       -1905.023          35.000  
E07  26575794.824   139656754.196        -860.279          45.000  
E08  28227408.981   148336046.039       -2858.598          38.000  
G03  27002177.399   141897395.498        -207.886          32.000  
G31  26290297.384   138156457.641        3777.082          39.000  
> 2024 02 04 12 35 04.0050000  0 17                     
G06  25246097.439   132669132.113        -622.748          41.000  
G11  25036465.024   131567505.842        1501.203          42.000  
G25  21463657.277   112792272.492         568.036          45.000  
G12  22457901.485   118017070.265       -1587.726          46.000  
G28  24123165.665   126768091.119        3123.792          44.000  
G32  23794816.659   125042609.303        -959.477          48.000  
E18  22602170.646   118775222.131        2529.847          46.000  
E02  25783970.042   135495708.410       -1271.383          43.000  
G29  24021622.115   126234474.943        3387.727          46.000  
G24  25708563.956   135099377.766       -3469.251          39.000  
E36  27616909.597   145127809.621        1728.036          41.000  
E30  25546801.048   134249340.822        1148.770          45.000  
E10  30336046.506   159417002.405       -1905.377          35.000  
E07  26575958.295   139657614.746        -860.766          45.000  
E08  28227953.168   148338904.692       -2859.068          38.000  
G03  27002217.074   141897603.341        -208.632          32.000  
G31  26289578.623   138152680.736        3776.619          39.000  
> 2024 02 04 12 35 05.0050000  0 17                     
G06  25246216.146   132669755.422        -624.060          41.000  
G11  25036179.366   131566005.060        1500.309          42.000  
G25  21463549.166   112791704.752         567.114          45.000  
G12  22458203.646   118018658.151       -1588.446          46.000  
G28  24122571.454   126764967.308        3123.453          44.000  
G32  23794999.121   125043569.041        -960.461          48.000  
E18  22601689.428   118772692.626        2528.899          46.000  
E02  25784212.013   135496980.039       -1271.994          43.000  
G29  24020977.534   126231087.442        3386.958          46.000  
G24  25709224.287   135102847.167       -3469.712          38.000  
E36  27616580.745   145126081.729        1727.318          41.000  
E30  25546582.537   134248192.250        1148.406          45.000  
E10  30336409.189   159418908.119       -1906.155          35.000  
E07  26576122.157   139658475.750        -861.369          45.000  
E08  28228497.453   148341763.438       -2858.980          38.000  
G03  27002255.035   141897811.785        -209.266          32.000  
G31  26288859.897   138148903.879        3776.519          39.000  
> 2024 02 04 12 35 06.0050000  0 17                     
G06  25246334.581   132670379.532        -624.329          41.000  
G11  25035893.706   131564505.029        1499.736          42.000  
G25  21463441.411   112791137.656         566.861          45.000  
G12  22458506.294   118020246.581       -1588.800          46.000  
G28  24121976.940   126761843.958        3123.243          44.000  
G32  23795181.921   125044529.589        -961.017          48.000  
E18  22601208.445   118770164.055        2528.112          46.000  
E02  25784454.048   135498251.997       -1272.155          43.000  
G29  24020333.436   126227700.482        3386.671          46.000  
G24  25709884.028   135106316.884       -3469.890          38.000  
E36  27616252.356   145124354.449        1727.023          41.000  
E30  25546364.073   134247044.093        1147.865          45.000  
E10  30336771.475   159420814.377       -1906.120          35.000  
E07  26576285.709   139659337.397        -861.853          45.000  
E08  28229041.191   148344622.493       -2859.047          38.000  
G03  27002294.079   141898020.997        -209.263          32.000  
G31  26288141.345   138145127.291        3776.414          39.000  
> 2024 02 04 12 35 07.0050000  0 17                     
G06  25246453.332   132671004.516        -625.574          41.000  
G11  25035608.421   131563005.764        1498.783          42.000  
G25  21463333.874   112790571.229         565.819          45.000  
G12  22458808.816   118021835.572       -1589.502          46.000  
G28  24121382.800   126758721.086        3122.555          44.000  
G32  23795364.901   125045490.951        -961.898          48.000  
E18  22600727.443   118767636.427        2527.149          46.000  
E02  25784696.063   135499524.317       -1272.546          43.000  
G29  24019689.126   126224314.076        3385.893          46.000  
G24  25710544.078   135109786.926       -3470.301          38.000  
E36  27615924.009   145122627.793        1726.417          41.000  
E30  25546145.448   134245896.323        1147.539          45.000  
E10  30337134.702   159422721.200       -1907.209          35.000  
E07  26576449.748   139660199.694        -862.662          45.000  
E08  28229585.134   148347481.890       -2859.624          38.000  
G03  27002333.894   141898231.052        -209.941          32.000  
G31  26287422.827   138141350.984        3776.111          39.000  
> 2024 02 04 12 35 08.0050000  0 17                     
G06  25246572.249   132671630.295        -626.355          41.000  
G11  25035323.479   131561507.232        1498.070          42.000  
G25  21463226.409   112790005.404         565.433          45.000  
G12  22459111.269   118023425.065       -1589.703          46.000  
G28  24120788.354   126755598.646        3122.090          44.000  
G32  23795548.076   125046453.085        -962.654          48.000  
E18  22600246.724   118765109.704        2526.122          46.000  
E02  25784938.488   135500796.962       -1272.921          43.000  
G29  24019045.019   126220928.155        3385.479          46.000  
G24  25711204.375   135113257.259       -3470.693          38.000  
E36  27615595.375   145120901.743        1725.666          41.000  
E30  25545927.150   134244748.956        1146.964          45.000  
E10  30337497.298   159424628.501       -1907.567          35.000  
E07  26576614.127   139661062.613        -863.387          45.000  
E08  28230129.662   148350341.557       -2859.957          38.000  
G03  27002373.775   141898441.903        -211.293          31.000  
G31  26286704.254   138137574.920        3775.650          40.000  
> 2024 02 04 12 35 09.0050000  0 17                     
G06  25246691.650   132672256.692        -626.453          41.000  
G11  25035038.249   131560009.226        1498.129          42.000  
G25  21463118.779   112789440.042         565.078          46.000  
G12  22459414.085   118025014.921       -1589.819          46.000  
G28  24120194.039   126752476.451        3122.171          44.000  
G32  23795731.258   125047415.814        -962.874          48.000  
E18  22599765.921   118762583.720        2525.638          46.000  
E02  25785181.236   135502069.758       -1272.701          43.000  
G29  24018400.724   126217542.574        3385.533          46.000  
G24  25711864.684   135116727.704       -3470.511          39.000  
E36  27615267.263   145119176.107        1725.566          41.000  
E30  25545709.057   134243601.765        1147.204          45.000  
E10  30337860.467   159426536.127       -1907.746          35.000  
E07  26576778.211   139661925.960        -863.486          45.000  
E08  28230673.868   148353201.326       -2859.683          38.000  
G03  27002413.932   141898653.289        -211.279          31.000  
G31  26285985.758   138133798.897        3776.182          40.000  
> 2024 02 04 12 35 10.0050000  0 17                     
G06  25246811.009   132672883.889        -628.162          41.000  
G11  25034753.256   131558511.941        1496.795          43.000  
G25  21463011.246   112788875.243         564.337          46.000  
G12  22459716.914   118026605.260       -1590.839          46.000  
G28  24119600.365   126749354.659        3121.181          44.000  
G32  23795914.588   125048379.279        -964.148          48.000  
E18  22599285.390   118760058.586        2524.406          46.000  
E02  25785423.602   135503342.826       -1273.376          43.000  
G29  24017756.769   126214157.447        3384.659          46.000  
G24  25712525.162   135120198.392       -3471.002          39.000  
E36  27614938.835   145117451.018        1724.399          41.000  
E30  25545490.797   134242454.905        1146.576          45.000  
E10  30338223.275   159428444.222       -1908.727          35.000  
E07  26576942.701   139662789.876        -864.398          45.000  
E08  28231218.357   148356061.345       -2860.340          38.000  
G03  27002454.320   141898865.521        -213.932          31.000  
G31  26285267.658   138130023.091        3775.481          40.000  
> 2024 02 04 12 35 11.0050000  0 17                     
G06  25246930.362   132673511.892        -628.241          41.000  
G11  25034468.802   131557015.410        1496.428          43.000  
G25  21462903.997   112788311.128         564.159          45.000  
G12  22460019.996   118028196.138       -1590.686          46.000  
G28  24119006.226   126746233.323        3121.543          44.000  
G32  23796097.911   125049343.551        -964.164          48.000  
E18  22598805.548   118757534.398        2524.245          45.000  
E02  25785666.190   135504616.257       -1273.094          43.000  
G29  24017112.437   126210772.882        3384.760          46.000  
G24  25713185.637   135123669.422       -3470.749          39.000  
E36  27614610.600   145115726.546        1724.526          41.000  
E30  25545272.521   134241308.465        1146.726          45.000  
E10  30338586.335   159430352.822       -1907.766          35.000  
E07  26577107.501   139663654.459        -864.489          45.000  
E08  28231762.579   148358921.665       -2860.073          38.000  
G03  27002494.585   141899078.481        -213.454          31.000  
G31  26284549.601   138126247.564        3775.698          40.000  
> 2024 02 04 12 35 12.0050000  0 17                     
G06  25247049.889   132674140.415        -628.931          41.000  
G11  25034184.433   131555519.307        1495.594          43.000  
G25  21462796.648   112787747.330         563.522          45.000  
G12  22460322.716   118029787.273       -1591.492          46.000  
G28  24118412.177   126743112.138        3120.948          44.000  
G32  23796281.629   125050308.319        -965.360          48.000  
E18  22598325.093   118755010.846        2523.113          45.000  
E02  25785908.622   135505889.742       -1273.512          43.000  
G29  24016468.117   126207388.536        3384.118          46.000  
G24  25713846.348   135127140.449       -3471.510          39.000  
E36  27614282.026   145114002.391        1723.795          41.000  
E30  25545054.317   134240162.115        1146.250          45.000  
E10  30338948.868   159432261.718       -1909.201          35.000  
E07  26577272.113   139664519.353        -865.036          45.000  
E08  28232306.589   148361781.978       -2860.271          38.000  
G03  27002538.280   141899291.938        -213.353          31.000  
G31  26283831.075   138122471.983        3775.370          40.000  
> 2024 02 04 12 35 13.0050000  0 17                     
G06  25247169.513   132674769.724        -629.938          41.000  
G11  25033900.082   131554023.921        1494.818          43.000  
G25  21462689.451   112787184.153         562.576          45.000  
G12  22460625.645   118031378.894       -1592.108          46.000  
G28  24117818.442   126739991.366        3120.324          44.000  
G32  23796465.423   125051273.830        -966.180          48.000  
E18  22597845.112   118752488.166        2522.018          45.000  
E02  25786150.922   135507163.503       -1274.021          43.000  
G29  24015823.545   126204004.672        3383.510          46.000  
G24  25714506.985   135130611.737       -3471.824          39.000  
E36  27613953.947   145112278.800        1722.903          41.000  
E30  25544836.342   134239016.109        1145.564          45.000  
E10  30339312.365   159434171.021       -1909.676          35.000  
E07  26577436.905   139665384.846        -866.048          45.000  
E08  28232851.019   148364642.575       -2861.062          38.000  
G03  27002581.923   141899506.129        -214.442          31.000  
G31  26283112.704   138118696.601        3775.150          40.000  
> 2024 02 04 12 35 14.0050000  0 17                     
G06  25247289.086   132675400.124        -630.707          41.000  
G11  25033615.648   131552529.552        1494.047          43.000  
G25  21462582.464   112786621.854         562.207          45.000  
G12  22460928.535   118032971.314       -1592.505          46.000  
G28  24117224.869   126736871.301        3120.121          44.000  
G32  23796649.185   125052240.398        -966.875          48.000  
E18  22597365.414   118749966.671        2521.221          45.000  
E02  25786393.607   135508437.889       -1274.496          43.000  
G29  24015179.623   126200621.598        3382.922          46.000  
G24  25715167.561   135134083.605       -3472.131          39.000  
E36  27613626.059   145110556.072        1722.470          41.000  
E30  25544618.314   134237870.756        1145.317          45.000  
E10  30339675.966   159436081.141       -1910.111          35.000  
E07  26577601.809   139666251.233        -866.431          45.000  
E08  28233395.697   148367503.711       -2861.196          38.000  
G03  27002623.406   141899721.427        -215.762          32.000  
G31  26282394.325   138114921.749        3775.175          40.000  
> 2024 02 04 12 35 15.0050000  0 17                     
G06  25247409.172   132676031.167        -631.854          41.000  
G11  25033331.347   131551035.725        1493.228          43.000  
G25  21462475.712   112786060.016         561.318          45.000  
G12  22461231.506   118034564.091       -1593.231          46.000  
G28  24116631.387   126733751.504        3119.411          45.000  
G32  23796833.241   125053207.562        -967.746          48.000  
E18  22596885.832   118747445.909        2519.990          45.000  
E02  25786636.758   135509712.420       -1275.136          43.000  
G29  24014535.496   126197238.845        3382.413          46.000  
G24  25715828.327   135137555.544       -3472.165          39.000  
E36  27613298.338   145108833.765        1721.755          41.000  
E30  25544400.197   134236725.613        1144.623          45.000  
E10  30340039.033   159437991.612       -1911.299          35.000  
E07  26577766.561   139667118.071        -867.440          45.000  
E08  28233940.137   148370364.966       -2861.577          38.000  
G03  27002660.220   141899937.292        -216.281          32.000  
G31  26281675.821   138111146.987        3774.224          40.000  
> 2024 02 04 12 35 16.0050000  0 17                     
G06  25247529.419   132676663.154        -631.873          41.000  
G11  25033047.118   131549542.820        1492.829          43.000  
G25  21462368.866   112785498.964         561.278          46.000  
G12  22461534.372   118036157.561       -1593.427          45.000  
G28  24116037.874   126730632.324        3119.230          45.000  
G32  23797017.487   125054175.687        -968.066          48.000  
E18  22596406.115   118744926.225        2519.628          45.000  
E02  25786879.364   135510987.430       -1274.707          44.000  
G29  24013891.642   126193856.791        3382.192          46.000  
G24  25716489.219   135141027.995       -3472.573          39.000  
E36  27612970.670   145107112.226        1721.568          42.000  
E30  25544182.327   134235581.012        1144.524          45.000  
E10  30340402.765   159439902.696       -1910.927          35.000  
E07  26577931.884   139667985.685        -867.555          45.000  
E08  28234484.470   148373226.670       -2861.396          38.000  
G03  27002699.841   141900154.136        -217.482          31.000  
G31  26280957.356   138107372.611        3774.447          40.000  
> 2024 02 04 12 35 17.0050000  0 17                     
G06  25247649.767   132677295.765        -632.660          41.000  
G11  25032763.244   131548050.436        1492.359          43.000  
G25  21462262.112   112784938.369         560.541          45.000  
G12  22461837.641   118037751.365       -1593.805          45.000  
G28  24115444.894   126727513.369        3118.978          45.000  
G32  23797201.825   125055144.395        -968.740          48.000  
E18  22595926.718   118742407.255        2518.898          45.000  
E02  25787121.909   135512262.595       -1274.952          44.000  
G29  24013247.921   126190475.056        3381.708          46.000  
G24  25717150.063   135144500.495       -3472.422          38.000  
E36  27612643.030   145105391.081        1721.249          42.000  
E30  25543964.636   134234436.583        1144.712          45.000  
E10  30340766.712   159441814.131       -1911.081          35.000  
E07  26578096.686   139668853.726        -868.008          45.000  
E08  28235029.057   148376088.464       -2861.568          38.000  
G03  27002740.511   141900371.552        -218.375          32.000  
G31  26280239.157   138103598.297        3774.659          39.000  
> 2024 02 04 12 35 18.0050000  0 17                     
G06  25247770.341   132677929.306        -634.296          42.000  
G11  25032479.621   131546558.891        1491.007          43.000  
G25  21462155.400   112784378.478         559.386          45.000  
G12  22462141.070   118039345.784       -1594.983          45.000  
G28  24114851.541   126724394.948        3117.964          45.000  
G32  23797386.167   125056113.986        -970.112          48.000  
E18  22595447.631   118739889.291        2517.523          45.000  
E02  25787364.517   135513538.174       -1275.730          43.000  
G29  24012604.414   126187093.924        3380.667          46.000  
G24  25717811.012   135147973.416       -3473.015          39.000  
E36  27612315.892   145103670.635        1720.064          42.000  
E30  25543746.900   134233292.644        1143.535          45.000  
E10  30341130.276   159443726.165       -1912.362          34.000  
E07  26578262.075   139669722.461        -869.004          45.000  
E08  28235573.752   148378950.629       -2862.222          38.000  
G03  27002779.195   141900589.771        -218.433          31.000  
G31  26279520.981   138099824.319        3773.605          39.000  
> 2024 02 04 12 35 19.0050000  0 17                     
G06  25247891.629   132678563.823        -635.010          42.000  
G11  25032196.295   131545068.245        1490.306          43.000  
G25  21462049.213   112783819.399         558.702          45.000  
G12  22462444.468   118040940.906       -1595.367          45.000  
G28  24114258.482   126721277.156        3117.456          45.000  
G32  23797570.969   125057084.517        -970.931          48.000  
E18  22594968.511   118737372.428        2516.508          45.000  
E02  25787607.409   135514814.267       -1276.267          43.000  
G29  24011961.207   126183713.482        3380.151          46.000  
G24  25718472.146   135151446.823       -3473.575          39.000  
E36  27611988.537   145101950.965        1719.388          42.000  
E30  25543529.102   134232149.254        1143.199          45.000  
E10  30341494.527   159445638.923       -1913.379          34.000  
E07  26578427.547   139670592.023        -869.788          45.000  
E08  28236118.450   148381813.300       -2862.887          38.000  
G03  27002821.218   141900809.028        -219.613          31.000  
G31  26278802.871   138096050.745        3773.701          39.000  
> 2024 02 04 12 35 20.0050000  0 17                     
G06  25248012.648   132679199.264        -635.760          42.000  
G11  25031913.080   131543578.467        1489.365          43.000  
G25  21461942.782   112783261.068         557.998          45.000  
G12  22462747.849   118042536.687       -1595.984          45.000  
G28  24113665.736   126718159.919        3117.032          45.000  
G32  23797755.902   125058055.947        -971.800          48.000  
E18  22594489.559   118734856.591        2515.675          45.000  
E02  25787850.543   135516090.787       -1276.545          44.000  
G29  24011318.110   126180333.672        3379.576          46.000  
G24  25719133.261   135154920.612       -3473.577          38.000  
E36  27611661.381   145100232.007        1718.906          42.000  
E30  25543311.843   134231006.358        1142.809          45.000  
E10  30341858.624   159447552.231       -1913.589          35.000  
E07  26578593.285   139671462.315        -870.432          45.000  
E08  28236663.376   148384676.320       -2863.022          38.000  
G03  27002863.214   141901029.121        -219.775          30.000  
G31  26278084.786   138092277.572        3773.022          39.000  
> 2024 02 04 12 35 21.0050000  0 17                     
G06  25248133.755   132679835.234        -636.560          42.000  
G11  25031629.399   131542089.143        1488.396          43.000  
G25  21461836.393   112782703.069         557.408          45.000  
G12  22463051.275   118044132.724       -1596.490          45.000  
G28  24113072.579   126715042.828        3116.705          45.000  
G32  23797940.988   125059027.879        -972.481          48.000  
E18  22594010.832   118732341.379        2514.694          45.000  
E02  25788093.729   135517367.372       -1276.935          44.000  
G29  24010675.395   126176954.106        3379.054          46.000  
G24  25719794.030   135158394.414       -3474.052          39.000  
E36  27611334.425   145098513.361        1718.252          42.000  
E30  25543094.009   134229863.562        1142.370          45.000  
E10  30342222.806   159449465.803       -1914.338          35.000  
E07  26578758.903   139672332.934        -871.010          45.000  
E08  28237208.406   148387539.384       -2863.414          38.000  
G03  27002905.402   141901249.753        -220.813          30.000  
G31  26277366.596   138088504.325        3772.975          40.000  
> 2024 02 04 12 35 22.0050000  0 17                     
G06  25248254.587   132680471.516        -636.401          41.000  
G11  25031345.750   131540600.014        1488.818          43.000  
G25  21461729.835   112782145.186         557.573          45.000  
G12  22463354.776   118045728.759       -1596.283          45.000  
G28  24112479.367   126711925.672        3116.966          45.000  
G32  23798125.777   125060000.072        -972.454          48.000  
E18  22593532.692   118729826.583        2514.280          46.000  
E02  25788336.566   135518643.769       -1276.586          43.000  
G29  24010032.459   126173574.528        3379.409          46.000  
G24  25720454.848   135161868.008       -3473.914          39.000  
E36  27611007.368   145096794.798        1718.380          42.000  
E30  25542876.745   134228720.634        1142.659          45.000  
E10  30342587.330   159451379.367       -1913.902          35.000  
E07  26578924.680   139673203.680        -871.225          45.000  
E08  28237753.297   148390402.222       -2863.082          38.000  
G03  27002942.807   141901470.643        -221.673          30.000  
G31  26276648.177   138084730.825        3773.349          40.000  
> 2024 02 04 12 35 23.0050000  0 17                     
G06  25248375.635   132681108.520        -637.579          42.000  
G11  25031062.426   131539111.541        1487.931          43.000  
G25  21461623.864   112781587.845         557.038          45.000  
G12  22463658.643   118047325.248       -1597.040          45.000  
G28  24111886.173   126708808.864        3116.441          45.000  
G32  23798310.786   125060972.961        -973.418          48.000  
E18  22593054.440   118727312.596        2513.294          46.000  
E02  25788579.301   135519920.391       -1276.880          43.000  
G29  24009389.617   126170195.380        3378.686          46.000  
G24  25721115.771   135165341.801       -3474.297          38.000  
E36  27610680.443   145095076.748        1717.484          42.000  
E30  25542658.888   134227577.991        1142.261          44.000  
E10  30342951.407   159453293.322       -1914.504          35.000  
E07  26579090.607   139674074.933        -871.746          45.000  
E08  28238298.013   148393265.239       -2863.450          38.000  
G03  27002990.171   141901692.210        -222.343          29.000  
G31  26275930.690   138080957.445        3773.258          40.000  
> 2024 02 04 12 35 24.0050000  0 17                     
G06  25248496.846   132681746.512        -638.550          41.000  
G11  25030779.148   131537624.008        1486.941          43.000  
G25  21461517.828   112781031.325         556.053          45.000  
G12  22463962.476   118048922.435       -1597.607          45.000  
G28  24111293.221   126705692.701        3115.746          45.000  
G32  23798496.245   125061946.808        -974.338          48.000  
E18  22592576.254   118724799.714        2512.244          46.000  
E02  25788822.361   135521197.537       -1277.362          43.000  
G29  24008747.115   126166816.944        3377.837          46.000  
G24  25721776.517   135168816.056       -3474.167          37.000  
E36  27610353.635   145093359.465        1717.004          42.000  
E30  25542441.668   134226435.923        1141.761          44.000  
E10  30343316.051   159455208.001       -1914.765          35.000  
E07  26579256.962   139674947.001        -872.538          45.000  
E08  28238842.900   148396128.708       -2863.500          38.000  
G03  27003031.362   141901914.785        -222.771          29.000  
G31  26275212.836   138077184.555        3772.492          40.000  
> 2024 02 04 12 35 25.0050000  0 17                     
G06  25248618.180   132682385.229        -638.770          41.000  
G11  25030496.179   131536137.118        1487.042          42.000  
G25  21461412.051   112780475.339         555.954          45.000  
G12  22464266.467   118050520.059       -1597.675          45.000  
G28  24110700.248   126702576.861        3115.895          45.000  
G32  23798681.972   125062921.367        -974.651          48.000  
E18  22592098.371   118722287.631        2512.163          46.000  
E02  25789065.427   135522474.935       -1277.172          43.000  
G29  24008104.454   126163438.916        3378.071          46.000  
G24  25722437.540   135172290.572       -3474.065          37.000  
E36  27610027.290   145091642.731        1716.678          40.000  
E30  25542224.149   134225294.122        1142.126          44.000  
E10  30343680.462   159457123.114       -1914.803          35.000  
E07  26579422.827   139675819.587        -872.381          45.000  
E08  28239387.609   148398992.384       -2863.136          38.000  
G03  27003073.701   141902137.990        -223.111          30.000  
G31  26274495.180   138073411.790        3772.911          40.000  
> 2024 02 04 12 35 26.0050000  0 17                     
G06  25248739.522   132683024.392        -639.575          41.000  
G11  25030213.231   131534650.588        1486.163          43.000  
G25  21461306.469   112779919.616         555.484          45.000  
G12  22464570.382   118052117.827       -1597.815          45.000  
G28  24110107.254   126699461.098        3115.745          45.000  
G32  23798867.470   125063896.316        -975.310          48.000  
E18  22591620.253   118719776.139        2510.973          46.000  
E02  25789308.162   135523752.299       -1277.589          44.000  
G29  24007461.688   126160061.055        3377.707          46.000  
G24  25723098.449   135175764.999       -3474.583          38.000  
E36  27609700.535   145089926.217        1716.216          41.000  
E30  25542006.998   134224152.382        1141.405          44.000  
E10  30344044.962   159459038.356       -1915.354          35.000  
E07  26579588.833   139676692.458        -873.203          45.000  
E08  28239932.592   148401856.030       -2863.924          38.000  
G03  27003123.368   141902361.702        -223.768          30.000  
G31  26273777.374   138069638.896        3772.901          40.000  
> 2024 02 04 12 35 27.0050000  0 17                     
G06  25248861.117   132683664.230        -640.515          41.000  
G11  25029930.446   131533164.642        1485.418          43.000  
G25  21461201.115   112779364.373         554.790          45.000  
G12  22464874.583   118053715.995       -1598.639          45.000  
G28  24109514.484   126696345.643        3114.999          45.000  
G32  23799052.782   125064871.906        -976.161          48.000  
E18  22591142.660   118717265.388        2510.118          45.000  
E02  25789551.025   135525029.841       -1278.050          44.000  
G29  24006818.822   126156683.561        3376.864          46.000  
G24  25723759.575   135179239.552       -3474.672          37.000  
E36  27609374.255   145088210.130        1715.552          42.000  
E30  25541790.040   134223010.832        1140.994          44.000  
E10  30344409.069   159460953.983       -1915.982          35.000  
E07  26579755.140   139677565.785        -873.814          45.000  
E08  28240477.026   148404719.776       -2864.503          37.000  
G03  27003166.154   141902585.997        -224.471          30.000  
G31  26273059.492   138065866.107        3772.679          40.000  
> 2024 02 04 12 35 28.0050000  0 17                     
G06  25248983.066   132684304.935        -641.138          41.000  
G11  25029647.743   131531679.532        1484.681          42.000  
G25  21461095.526   112778809.853         554.271          45.000  
G12  22465178.991   118055314.775       -1598.987          45.000  
G28  24108921.769   126693230.718        3114.462          45.000  
G32  23799238.710   125065848.372        -976.935          48.000  
E18  22590665.030   118714755.659        2509.192          46.000  
E02  25789794.113   135526307.790       -1278.149          44.000  
G29  24006176.321   126153306.670        3376.454          46.000  
G24  25724420.657   135182714.501       -3475.732          36.000  
E36  27609048.315   145086494.726        1715.139          42.000  
E30  25541572.370   134221869.775        1140.746          44.000  
E10  30344774.065   159462870.200       -1916.855          35.000  
E07  26579921.030   139678439.824        -874.488          45.000  
E08  28241022.251   148407583.897       -2864.250          38.000  
G03  27003207.751   141902811.174        -225.145          30.000  
G31  26272342.002   138062093.672        3772.142          40.000  
> 2024 02 04 12 35 29.0050000  0 17                     
G06  25249105.344   132684946.417        -641.998          41.000  
G11  25029365.205   131530195.083        1484.296          43.000  
G25  21460989.968   112778255.895         553.750          45.000  
G12  22465483.216   118056914.009       -1599.402          45.000  
G28  24108328.669   126690116.148        3114.469          45.000  
G32  23799424.516   125066825.537        -977.463          48.000  
E18  22590187.788   118712246.763        2508.490          46.000  
E02  25790037.542   135527586.008       -1278.251          43.000  
G29  24005533.841   126149930.228        3376.235          46.000  
G24  25725081.667   135186189.663       -3475.002          37.000  
E36  27608722.040   145084779.878        1714.392          41.000  
E30  25541355.099   134220729.013        1140.742          44.000  
E10  30345138.669   159464786.805       -1916.631          35.000  
E07  26580087.436   139679314.413        -874.859          45.000  
E08  28241567.304   148410448.235       -2864.127          38.000  
G03  27003244.859   141903037.037        -226.142          29.000  
G31  26271624.384   138058321.391        3772.209          40.000  
> 2024 02 04 12 35 30.0050000  0 17                     
G06  25249227.487   132685588.548        -642.682          41.000  
G11  25029082.884   131528711.244        1483.392          42.000  
G25  21460884.376   112777702.428         553.223          45.000  
G12  22465787.402   118058513.630       -1599.786          45.000  
G28  24107736.010   126687001.892        3114.116          45.000  
G32  23799610.249   125067803.349        -978.175          48.000  
E18  22589710.678   118709738.642        2507.793          46.000  
E02  25790280.730   135528864.421       -1278.536          44.000  
G29  24004891.073   126146554.180        3375.696          46.000  
G24  25725742.718   135189665.021       -3475.430          37.000  
E36  27608395.965   145083065.471        1714.247          41.000  
E30  25541138.352   134219588.504        1140.233          44.000  
E10  30345503.665   159466703.790       -1916.555          35.000  
E07  26580254.168   139680189.485        -875.369          45.000  
E08  28242112.464   148413312.736       -2864.640          38.000  
G03  27003282.357   141903263.525        -226.578          29.000  
G31  26270907.027   138054549.254        3771.823          40.000  
> 2024 02 04 12 35 31.0050000  0 17                     
G06  25249349.942   132686231.628        -644.293          42.000  
G11  25028800.721   131527228.241        1481.715          42.000  
G25  21460779.114   112777149.688         551.536          45.000  
G12  22466091.952   118060113.899       -1601.251          45.000  
G28  24107143.448   126683888.185        3112.582          45.000  
G32  23799796.288   125068782.038        -979.841          48.000  
E18  22589233.637   118707231.540        2506.012          46.000  
E02  25790524.106   135530143.240       -1279.671          43.000  
G29  24004248.671   126143178.734        3374.344          46.000  
G24  25726404.029   135193140.700       -3476.310          37.000  
E36  27608069.794   145081351.766        1712.636          41.000  
E30  25540921.568   134218448.457        1139.121          44.000  
E10  30345868.974   159468621.457       -1918.730          35.000  
E07  26580420.953   139681065.264        -876.631          45.000  
E08  28242657.155   148416177.598       -2865.484          37.000  
G03  27003335.046   141903490.958        -227.727          29.000  
G31  26270189.256   138050777.422        3770.921          40.000  
> 2024 02 04 12 35 32.0050000  0 17                     
G06  25249474.047   132686880.8993       -647.577          42.000  
G11  25028518.828   131525753.8573       1478.903          41.000  
G25  21460674.662   112776606.5193        548.695          45.000  
G12  22466397.062   118061712.6093      -1604.297          45.000  
G28  24106550.856   126680778.8333       3109.861          44.000  
G32  23799982.920   125069753.9553       -983.198          47.000  
E18  22588757.407   118704731.2831       2502.681          46.000  
E02  25790767.364   135531407.3511      -1282.469          43.000  
G29  24003606.763   126139804.1943       3371.618          46.000  
G24  25727070.169   135196666.2243      -3479.016          36.000  
E36  27607744.038   145079684.5811       1709.706          42.000  
E30  25540703.480   134217312.7321       1136.340          43.000  
E10  30346227.524   159470511.5511      -1921.823          36.000  
E07  26580587.539   139681940.5961       -879.749          44.000  
E08  28243197.334   148419013.6801      -2868.763          37.000  
G03  27003376.327   141903700.0363       -230.890          29.000  
G31  26269471.911   138047005.7683       3768.110          40.000  
> 2024 02 04 12 35 33.0050000  0 17                     
G06  25249598.007   132687528.7692       -649.152          42.000  
G11  25028237.371   131524275.5242       1477.212          41.000  
G25  21460570.809   112776058.2222        547.206          46.000  
G12  22466702.186   118063317.1062      -1605.640          45.000  
G28  24105957.551   126677669.1952       3108.694          45.000  
G32  23800170.000   125070737.4022       -984.527          47.000  
E18  22588281.417   118702229.227        2500.719          46.000  
E02  25791011.244   135532690.060       -1283.883          44.000  
G29  24002965.293   126136432.9822       3370.153          46.000  
G24  25727732.361   135200145.7162      -3480.512          38.000  
E36  27607418.598   145077975.292        1708.054          42.000  
E30  25540487.917   134216176.652        1135.117          44.000  
E10  30346600.441   159472433.406       -1923.296          35.000  
E07  26580755.116   139682820.841        -881.498          44.000  
E08  28243742.917   148421882.329       -2869.633          37.000  
G03  27003419.082   141903932.2222       -233.022          30.000  
G31  26268757.335   138043237.6442       3766.918          41.000  
> 2024 02 04 12 35 34.0050000  0 17                     
G06  25249718.905   132688177.1702       -648.981          42.000  
G11  25027956.001   131522797.6312       1477.457          41.000  
G25  21460466.847   112775510.2732        547.526          46.000  
G12  22467007.434   118064921.8332      -1605.432          45.000  
G28  24105367.317   126674559.7042       3109.061          45.000  
G32  23800357.269   125071721.3282       -984.341          47.000  
E18  22587805.801   118699727.765        2500.972          46.000  
E02  25791255.168   135533972.773       -1283.100          43.000  
G29  24002323.677   126133062.0042       3370.399          46.000  
G24  25728391.343   135203625.1982      -3480.028          38.000  
E36  27607093.145   145076266.282        1708.424          42.000  
E30  25540266.265   134215040.655        1135.748          44.000  
E10  30346963.788   159474355.426       -1922.580          35.000  
E07  26580922.422   139683701.379        -880.841          44.000  
E08  28244295.074   148424750.960       -2868.542          37.000  
G03  27003464.112   141904164.8352       -233.083          31.000  
G31  26268041.169   138039469.4382       3768.136          41.000  
> 2024 02 04 12 35 35.0050000  0 17                     
G06  25249843.955   132688826.7562       -649.243          42.000  
G11  25027675.001   131521320.8702       1477.100          41.000  
G25  21460362.818   112774963.3462        547.604          46.000  
G12  22467313.131   118066527.4692      -1605.182          46.000  
G28  24104776.902   126671451.0602       3109.349          45.000  
G32  23800544.591   125072706.4562       -984.651          47.000  
E18  22587330.348   118697227.620        2500.615          45.000  
E02  25791499.837   135535256.220       -1282.506          44.000  
G29  24001682.346   126129691.9192       3370.663          46.000  
G24  25729053.858   135207105.4182      -3479.317          38.000  
E36  27606768.102   145074558.280        1708.762          42.000  
E30  25540056.984   134213905.445        1135.998          44.000  
E10  30347332.347   159476278.383       -1922.230          36.000  
E07  26581090.304   139684582.964        -880.934          44.000  
E08  28244838.376   148427620.296       -2868.579          37.000  
G03  27003505.820   141904398.7302       -233.681          31.000  
G31  26267323.832   138035701.9172       3768.432          41.000  
> 2024 02 04 12 35 36.0050000  0 17                     
G06  25249967.644   132689477.0922       -649.823          42.000  
G11  25027393.995   131519844.7622       1476.568          41.000  
G25  21460259.009   112774416.9792        546.929          46.000  
G12  22467618.877   118068133.5832      -1605.481          46.000  
G28  24104183.237   126668342.7792       3108.720          45.000  
G32  23800731.912   125073692.2782       -985.428          47.000  
E18  22586854.799   118694728.338        2499.696          45.000  
E02  25791744.417   135536539.963       -1283.071          44.000  
G29  24001041.249   126126322.2912       3370.119          46.000  
G24  25729714.752   135210585.8182      -3479.861          40.000  
E36  27606443.061   145072850.817        1707.921          42.000  
E30  25539839.679   134212770.552        1135.575          44.000  
E10  30347698.486   159478201.798       -1922.808          35.000  
E07  26581258.382   139685465.076        -881.561          44.000  
E08  28245386.553   148430489.811       -2868.669          37.000  
G03  27003552.373   141904633.2802       -234.766          30.000  
G31  26266605.400   138031934.5982       3767.900          41.000  
> 2024 02 04 12 35 37.0050000  0 17                     
G06  25250090.516   132690128.1132       -650.836          41.000  
G11  25027112.842   131518369.2662       1475.833          42.000  
G25  21460155.596   112773871.1112        546.157          46.000  
G12  22467924.635   118069740.0902      -1606.171          46.000  
G28  24103593.400   126665234.7952       3108.421          44.000  
G32  23800919.655   125074678.7312       -986.206          47.000  
E18  22586379.152   118692229.845        2498.440          45.000  
E02  25791988.842   135537823.890       -1283.685          44.000  
G29  24000400.080   126122953.0312       3369.606          46.000  
G24  25730377.167   135214066.4012      -3480.097          40.000  
E36  27606117.961   145071143.787        1707.240          42.000  
E30  25539624.439   134211635.885        1134.879          44.000  
E10  30348061.330   159480125.557       -1923.500          35.000  
E07  26581426.127   139686347.680        -882.527          44.000  
E08  28245931.163   148433359.504       -2869.824          36.000  
G03  27003594.132   141904868.3752       -234.474          29.000  
G31  26265888.002   138028167.3442       3767.639          40.000  
> 2024 02 04 12 35 38.0050000  0 17                     
G06  25250215.221   132690779.3262       -650.989          41.000  
G11  25026832.225   131516893.9132       1475.588          42.000  
G25  21460051.802   112773325.2692        546.250          46.000  
G12  22468230.491   118071346.5132      -1606.122          46.000  
G28  24103001.397   126662126.6732       3108.299          45.000  
G32  23801107.389   125075665.3782       -986.529          47.000  
E18  22585903.343   118689731.635        2498.316          45.000  
E02  25792233.041   135539107.513       -1283.256          44.000  
G29  23999758.996   126119583.7142       3369.521          46.000  
G24  25731039.470   135217546.6692      -3480.034          39.000  
E36  27605792.746   145069436.777        1707.213          42.000  
E30  25539408.041   134210501.010        1135.146          44.000  
E10  30348428.915   159482049.241       -1923.563          36.000  
E07  26581593.887   139687230.303        -882.320          44.000  
E08  28246477.806   148436228.868       -2868.555          36.000  
G03  27003646.425   141905103.8052       -235.212          30.000  
G31  26265170.875   138024399.7392       3768.118          40.000  
> 2024 02 04 12 35 39.0050000  0 17                     
G06  25250340.150   132691431.2192       -652.521          41.000  
G11  25026551.628   131515419.1362       1474.505          42.000  
G25  21459947.891   112772779.9052        545.198          46.000  
G12  22468536.522   118072953.3062      -1607.025          46.000  
G28  24102409.926   126659018.8132       3107.864          45.000  
G32  23801295.175   125076652.6292       -987.492          47.000  
E18  22585427.325   118687234.203        2497.011          45.000  
E02  25792477.191   135540391.324       -1283.925          44.000  
G29  23999117.971   126116214.7382       3368.834          46.000  
G24  25731702.698   135221027.0622      -3479.994          39.000  
E36  27605467.971   145067730.195        1706.335          42.000  
E30  25539191.307   134209366.338        1134.677          44.000  
E10  30348794.846   159483973.238       -1923.926          36.000  
E07  26581761.721   139688113.390        -883.300          44.000  
E08  28247023.505   148439098.374       -2869.200          37.000  
G03  27003691.899   141905339.7772       -236.549          31.000  
G31  26264455.396   138020632.2442       3767.384          41.000  
> 2024 02 04 12 35 40.0050000  0 17                     
G06  25250464.624   132692083.8482       -653.235          41.000  
G11  25026271.423   131513945.0722       1473.498          42.000  
G25  21459843.992   112772235.1282        544.267          46.000  
G12  22468842.654   118074560.5902      -1607.806          47.000  
G28  24101818.654   126655911.3842       3107.006          45.000  
G32  23801483.319   125077640.6532       -988.629          47.000  
E18  22584952.291   118684737.639        2495.917          46.000  
E02  25792721.625   135541675.425       -1284.535          44.000  
G29  23998477.383   126112846.2522       3368.167          46.000  
G24  25732364.574   135224507.7652      -3481.250          39.000  
E36  27605143.441   145066024.179        1705.401          41.000  
E30  25538975.932   134208232.046        1133.684          44.000  
E10  30349160.980   159485897.762       -1925.050          36.000  
E07  26581929.821   139688997.062        -884.131          44.000  
E08  28247569.206   148441968.130       -2870.129          36.000  
G03  27003738.484   141905576.4772       -236.368          31.000  
G31  26263738.077   138016864.9622       3766.982          41.000  
> 2024 02 04 12 35 41.0050000  0 17                     
G06  25250588.826   132692737.1102       -653.223          41.000  
G11  25025990.832   131512471.5152       1473.560          42.000  
G25  21459740.425   112771690.7632        544.394          46.000  
G12  22469148.829   118076168.1882      -1607.526          47.000  
G28  24101227.735   126652804.1772       3107.278          45.000  
G32  23801671.761   125078629.2212       -988.414          47.000  
E18  22584477.137   118682241.789        2495.661          46.000  
E02  25792966.057   135542959.651       -1284.025          44.000  
G29  23997836.120   126109478.0782       3368.322          46.000  
G24  25733026.952   135227988.5222      -3480.435          39.000  
E36  27604818.701   145064318.562        1705.665          41.000  
E30  25538760.396   134207097.895        1134.304          44.000  
E10  30349527.369   159487822.527       -1924.505          36.000  
E07  26582098.039   139689881.152        -883.870          44.000  
E08  28248115.265   148444837.946       -2869.618          36.000  
G03  27003778.676   141905813.7822       -236.552          32.000  
G31  26263021.110   138013097.7052       3767.469          41.000  
> 2024 02 04 12 35 42.0050000  0 17                     
G06  25250712.923   132693390.8592       -654.602          41.000  
G11  25025710.621   131510998.3742       1472.708          42.000  
G25  21459636.873   112771146.6962        543.634          46.000  
G12  22469455.108   118077775.9992      -1608.295          47.000  
G28  24100636.908   126649697.0722       3106.738          45.000  
G32  23801860.014   125079618.2632       -989.553          47.000  
E18  22584002.801   118679746.515        2494.738          46.000  
E02  25793210.332   135544243.864       -1284.262          44.000  
G29  23997195.385   126106110.1002       3367.570          46.000  
G24  25733689.482   135231469.2482      -3481.196          39.000  
E36  27604493.935   145062613.202        1705.011          41.000  
E30  25538544.602   134205963.800        1133.913          44.000  
E10  30349893.998   159489747.491       -1925.239          36.000  
E07  26582265.875   139690765.525        -884.763          44.000  
E08  28248661.276   148447707.727       -2869.878          36.000  
G03  27003825.388   141906051.5312       -237.664          31.000  
G31  26262304.485   138009330.3722       3767.024          41.000  
> 2024 02 04 12 35 43.0050000  0 17                     
G06  25250837.396   132694045.3441       -655.438          41.000  
G11  25025430.732   131509526.425        1471.295          42.000  
G25  21459533.572   112770603.721         542.408          46.000  
G12  22469761.536   118079384.786       -1609.387          47.000  
G28  24100046.233   126646590.878        3105.614          45.000  
G32  23802048.754   125080608.0201       -991.016          47.000  
E18  22583528.209   118677252.631        2493.063          46.000  
E02  25793454.979   135545528.887       -1285.510          44.000  
G29  23996554.722   126102742.5931       3366.384          46.000  
G24  25734351.934   135234950.2211      -3481.963          39.000  
E36  27604169.527   145060908.917        1703.369          41.000  
E30  25538328.963   134204830.561        1132.704          44.000  
E10  30350260.548   159491673.439       -1926.535          36.000  
E07  26582434.104   139691650.974        -886.057          44.000  
E08  28249207.747   148450578.261       -2871.096          36.000  
G03  27003870.707   141906290.529        -239.553          31.000  
G31  26261587.861   138005563.742        3766.057          41.000  
> 2024 02 04 12 35 44.0050000  0 17                     
G06  25250961.945   132694701.662        -656.702          41.000  
G11  25025151.016   131508055.687        1470.845          42.000  
G25  21459429.990   112770061.857         541.757          46.000  
G12  22470067.729   118080994.581       -1609.796          47.000  
G28  24099455.912   126643485.596        3105.456          45.000  
G32  23802237.532   125081599.550        -991.776          47.000  
E18  22583054.279   118674760.137        2492.279          46.000  
E02  25793699.490   135546814.715       -1285.724          44.000  
G29  23995914.072   126099376.581        3366.046          46.000  
G24  25735014.621   135238432.456       -3482.326          39.000  
E36  27603845.402   145059205.693        1703.057          41.000  
E30  25538113.512   134203698.169        1132.419          44.000  
E10  30350627.273   159493600.360       -1926.676          36.000  
E07  26582602.806   139692537.524        -886.551          44.000  
E08  28249754.336   148453449.566       -2871.418          37.000  
G03  27003916.328   141906530.786        -240.999          31.000  
G31  26260871.185   138001797.839        3766.029          41.000  
> 2024 02 04 12 35 45.0050000  0 17                     
G06  25251086.328   132695358.351        -656.934          40.000  
G11  25024871.555   131506585.250        1470.341          42.000  
G25  21459326.857   112769520.181         541.483          46.000  
G12  22470374.030   118082604.470       -1609.985          47.000  
G28  24098864.867   126640380.327        3105.393          45.000  
G32  23802426.686   125082591.403        -991.873          47.000  
E18  22582580.117   118672268.123        2492.000          46.000  
E02  25793944.043   135548100.430       -1285.450          44.000  
G29  23995273.817   126096010.665        3365.806          46.000  
G24  25735677.053   135241914.561       -3482.220          37.000  
E36  27603521.406   145057502.620        1703.081          41.000  
E30  25537897.899   134202565.705        1132.547          44.000  
E10  30350994.408   159495527.357       -1926.661          36.000  
E07  26582771.159   139693424.254        -886.627          44.000  
E08  28250300.624   148456320.728       -2870.885          37.000  
G03  27003962.482   141906771.322        -240.841          31.000  
G31  26260154.587   137998031.747        3766.265          41.000  
> 2024 02 04 12 35 46.0050000  0 17                     
G06  25251211.188   132696015.843        -657.886          40.000  
G11  25024591.896   131505115.567        1469.307          42.000  
G25  21459223.835   112768979.150         540.746          46.000  
G12  22470680.173   118084214.883       -1610.620          47.000  
G28  24098274.135   126637275.508        3104.692          45.000  
G32  23802615.425   125083584.070        -992.996          47.000  
E18  22582105.668   118669777.041        2490.564          46.000  
E02  25794188.680   135549386.491       -1286.364          44.000  
G29  23994633.309   126092645.262        3365.079          46.000  
G24  25736339.435   135245396.946       -3482.361          37.000  
E36  27603197.962   145055800.172        1702.133          41.000  
E30  25537683.146   134201433.652        1131.828          44.000  
E10  30351361.127   159497454.868       -1927.630          36.000  
E07  26582940.313   139694311.620        -887.619          44.000  
E08  28250847.389   148459192.184       -2871.845          37.000  
G03  27004008.103   141907012.672        -241.240          31.000  
G31  26259438.011   137994265.934        3765.392          42.000  
> 2024 02 04 12 35 47.0050000  0 17                     
G06  25251335.901   132696673.587        -658.136          40.000  
G11  25024311.883   131503646.079        1468.964          42.000  
G25  21459120.855   112768438.213         540.477          46.000  
G12  22470986.276   118085825.293       -1610.803          47.000  
G28  24097683.133   126634170.588        3104.519          45.000  
G32  23802804.605   125084576.962        -993.425          47.000  
E18  22581631.654   118667286.315        2490.265          46.000  
E02  25794433.502   135550672.312       -1285.943          44.000  
G29  23993992.716   126089279.836        3365.052          46.000  
G24  25737001.849   135248879.112       -3482.444          37.000  
E36  27602874.160   145054097.771        1702.164          41.000  
E30  25537467.586   134200301.418        1132.163          44.000  
E10  30351727.501   159499382.362       -1927.949          35.000  
E07  26583109.190   139695199.045        -887.510          44.000  
E08  28251394.312   148462063.331       -2871.364          38.000  
G03  27004054.091   141907254.334        -242.645          31.000  
G31  26258721.505   137990499.790        3766.133          42.000  
> 2024 02 04 12 35 48.0050000  0 17                     
G06  25251461.010   132697332.416        -659.406          40.000  
G11  25024032.586   131502177.550        1468.256          41.000  
G25  21459017.757   112767898.125         539.680          46.000  
G12  22471292.592   118087436.487       -1611.768          46.000  
G28  24097092.548   126631066.356        3103.796          45.000  
G32  23802994.047   125085570.874        -994.430          47.000  
E18  22581157.946   118664796.757        2489.041          46.000  
E02  25794678.187   135551958.736       -1286.812          44.000  
G29  23993352.254   126085915.177        3364.207          46.000  
G24  25737664.731   135252361.790       -3483.070          37.000  
E36  27602550.517   145052396.234        1701.015          41.000  
E30  25537252.167   134199169.819        1131.290          44.000  
E10  30352094.468   159501310.592       -1928.895          35.000  
E07  26583278.795   139696087.345        -888.500          43.000  
E08  28251940.889   148464935.009       -2871.969          38.000  
G03  27004100.068   141907496.928        -243.087          30.000  
G31  26258004.685   137986734.153        3765.221          42.000  
> 2024 02 04 12 35 49.0050000  0 17                     
G06  25251585.969   132697991.890        -660.034          40.000  
G11  25023753.337   131500709.652        1467.002          41.000  
G25  21458914.879   112767358.542         538.855          46.000  
G12  22471599.238   118089048.065       -1612.323          46.000  
G28  24096501.948   126627962.420        3103.362          45.000  
G32  23803182.985   125086565.428        -995.467          47.000  
E18  22580684.459   118662307.995        2488.025          46.000  
E02  25794923.134   135553245.338       -1287.162          44.000  
G29  23992711.964   126082550.886        3363.609          46.000  
G24  25738327.597   135255844.658       -3483.671          37.000  
E36  27602226.726   145050695.141        1700.547          41.000  
E30  25537037.074   134198038.461        1130.827          44.000  
E10  30352461.267   159503239.167       -1929.067          35.000  
E07  26583447.741   139696976.128        -889.331          43.000  
E08  28252487.699   148467806.855       -2872.104          38.000  
G03  27004143.772   141907740.285        -245.239          30.000  
G31  26257288.042   137982968.610        3765.008          41.000  
> 2024 02 04 12 35 50.0050000  0 17                     
G06  25251711.735   132698652.448        -660.645          40.000  
G11  25023474.166   131499242.719        1466.834          41.000  
G25  21458812.451   112766819.829         538.573          46.000  
G12  22471905.760   118090660.418       -1612.561          46.000  
G28  24095911.160   126624859.187        3103.201          45.000  
G32  23803372.667   125087561.003        -995.658          47.000  
E18  22580211.141   118659820.386        2487.534          46.000  
E02  25795168.000   135554532.515       -1287.162          44.000  
G29  23992071.676   126079187.369        3363.492          46.000  
G24  25738990.245   135259328.031       -3483.686          38.000  
E36  27601903.324   145048994.896        1700.415          41.000  
E30  25536821.899   134196907.736        1130.769          44.000  
E10  30352828.106   159505168.511       -1929.294          35.000  
E07  26583616.965   139697865.782        -889.628          43.000  
E08  28253034.508   148470679.255       -2872.375          39.000  
G03  27004195.809   141907984.521        -244.409          30.000  
G31  26256571.338   137979203.582        3765.076          41.000  
> 2024 02 04 12 35 51.0050000  0 17                     
G06  25251837.603   132699313.496        -661.066          40.000  
G11  25023194.666   131497776.210        1466.625          41.000  
G25  21458709.837   112766281.420         538.538          46.000  
G12  22472212.592   118092272.971       -1612.421          46.000  
G28  24095320.481   126621756.068        3103.469          45.000  
G32  23803562.412   125088557.043        -996.056          47.000  
E18  22579737.869   118657333.384        2486.990          46.000  
E02  25795412.946   135555819.706       -1286.831          44.000  
G29  23991431.310   126075824.044        3363.612          46.000  
G24  25739653.292   135262811.379       -3482.922          38.000  
E36  27601579.746   145047294.934        1700.256          41.000  
E30  25536607.078   134195777.058        1131.010          44.000  
E10  30353195.221   159507098.046       -1929.072          35.000  
E07  26583786.310   139698755.732        -889.803          43.000  
E08  28253581.206   148473551.611       -2872.239          39.000  
G03  27004233.036   141908229.277        -244.320          30.000  
G31  26255854.884   137975438.466        3765.537          41.000  
> 2024 02 04 12 35 52.0050000  0 17                     
G06  25251963.742   132699974.907        -661.621          40.000  
G11  25022915.554   131496310.016        1465.871          42.000  
G25  21458607.260   112765743.229         537.807          46.000  
G12  22472519.487   118093885.628       -1612.787          46.000  
G28  24094729.693   126618652.982        3102.847          45.000  
G32  23803751.932   125089553.432        -996.529          47.000  
E18  22579264.203   118654846.871        2486.110          46.000  
E02  25795657.997   135557106.803       -1287.296          44.000  
G29  23990791.362   126072460.832        3363.064          46.000  
G24  25740315.918   135266294.601       -3483.172          37.000  
E36  27601256.575   145045595.162        1699.576          41.000  
E30  25536392.120   134194646.365        1130.423          44.000  
E10  30353562.548   159509027.678       -1929.735          36.000  
E07  26583955.985   139699645.890        -890.491          43.000  
E08  28254127.522   148476423.811       -2872.370          39.000  
G03  27004277.650   141908474.398        -245.066          29.000  
G31  26255138.105   137971673.206        3765.130          41.000  
> 2024 02 04 12 35 53.0050000  0 17                     
G06  25252090.079   132700637.436        -663.043          40.000  
G11  25022636.488   131494844.851        1464.659          42.000  
G25  21458505.395   112765205.931         537.025          46.000  
G12  22472826.187   118095499.092       -1613.653          46.000  
G28  24094139.417   126615550.608        3102.088          45.000  
G32  23803941.712   125090550.898        -997.853          47.000  
E18  22578791.256   118652361.550        2485.002          46.000  
E02  25795903.127   135558394.519       -1287.888          44.000  
G29  23990151.738   126069098.401        3362.203          46.000  
G24  25740978.852   135269778.401       -3483.824          38.000  
E36  27600933.475   145043896.262        1698.456          41.000  
E30  25536177.179   134193516.312        1129.796          44.000  
E10  30353930.096   159510958.097       -1930.809          36.000  
E07  26584125.261   139700536.924        -891.469          43.000  
E08  28254674.627   148479296.576       -2872.878          39.000  
G03  27004310.629   141908720.588        -246.547          28.000  
G31  26254421.809   137967908.463        3764.384          41.000  
> 2024 02 04 12 35 54.0050000  0 17                     
G06  25252216.426   132701300.505        -663.727          41.000  
G11  25022357.507   131493380.138        1464.163          42.000  
G25  21458403.195   112764669.011         536.370          46.000  
G12  22473132.969   118097112.817       -1614.184          46.000  
G28  24093548.989   126612448.422        3101.688          45.000  
G32  23804131.670   125091548.864        -998.574          47.000  
E18  22578318.641   118649876.895        2484.221          46.000  
E02  25796148.117   135559682.307       -1288.157          44.000  
G29  23989511.921   126065736.249        3361.656          46.000  
G24  25741641.856   135273262.238       -3484.240          38.000  
E36  27600610.348   145042197.681        1698.140          41.000  
E30  25535962.585   134192386.379        1129.646          44.000  
E10  30354297.630   159512888.750       -1930.988          36.000  
E07  26584294.836   139701428.318        -891.868          44.000  
E08  28255221.596   148482169.401       -2872.857          39.000  
G03  27004357.489   141908967.316        -247.291          28.000  
G31  26253705.584   137964143.715        3764.472          41.000  
> 2024 02 04 12 35 55.0050000  0 17                     
G06  25252343.016   132701964.100        -663.690          41.000  
G11  25022078.779   131491915.932        1464.172          42.000  
G25  21458301.245   112764132.483         536.506          46.000  
G12  22473440.164   118098726.835       -1613.733          45.000  
G28  24092958.587   126609346.423        3102.040          45.000  
G32  23804321.706   125092547.380        -998.563          47.000  
E18  22577846.466   118647392.941        2483.734          46.000  
E02  25796393.387   135560970.174       -1287.845          44.000  
G29  23988872.349   126062374.349        3362.117          46.000  
G24  25742305.091   135276746.127       -3483.584          39.000  
E36  27600286.489   145040499.462        1698.250          42.000  
E30  25535747.271   134191256.578        1129.803          44.000  
E10  30354664.970   159514819.658       -1930.829          36.000  
E07  26584464.803   139702320.089        -891.749          44.000  
E08  28255768.318   148485042.268       -2872.954          39.000  
G03  27004402.258   141909214.569        -247.296          27.000  
G31  26252988.886   137960378.966        3764.991          41.000  
> 2024 02 04 12 35 56.0050000  0 17                     
G06  25252469.251   132702628.008        -664.117          41.000  
G11  25021799.628   131490451.940        1463.874          41.000  
G25  21458199.392   112763596.037         536.220          46.000  
G12  22473746.756   118100340.824       -1614.093          44.000  
G28  24092368.222   126606244.334        3101.956          45.000  
G32  23804511.845   125093546.113        -998.943          47.000  
E18  22577373.766   118644909.335        2483.115          46.000  
E02  25796638.237   135562257.818       -1287.764          43.000  
G29  23988232.630   126059012.439        3361.965          46.000  
G24  25742968.179   135280229.768       -3483.895          39.000  
E36  27599963.213   145038801.335        1697.677          42.000  
E30  25535532.391   134190126.637        1129.669          44.000  
E10  30355032.596   159516750.550       -1931.376          35.000  
E07  26584634.738   139703211.955        -891.988          44.000  
E08  28256315.177   148487914.872       -2872.741          39.000  
G03  27004449.740   141909461.983        -247.049          26.000  
G31  26252272.230   137956613.928        3764.767          40.000  
> 2024 02 04 12 35 57.0050000  0 17                     
G06  25252595.593   132703292.714        -664.771          41.000  
G11  25021521.020   131488988.641        1463.308          41.000  
G25  21458097.627   112763060.194         535.931          47.000  
G12  22474053.967   118101955.317       -1614.331          44.000  
G28  24091777.727   126603142.654        3101.791          45.000  
G32  23804702.205   125094545.616        -999.352          48.000  
E18  22576901.190   118642426.624        2482.643          46.000  
E02  25796883.229   135563545.778       -1287.790          44.000  
G29  23987593.167   126055651.013        3361.594          46.000  
G24  25743631.305   135283713.655       -3483.445          40.000  
E36  27599640.166   145037103.755        1697.450          42.000  
E30  25535317.555   134188997.033        1129.874          44.000  
E10  30355400.205   159518681.900       -1931.432          35.000  
E07  26584804.860   139704104.426        -892.602          43.000  
E08  28256861.960   148490787.711       -2872.764          39.000  
G03  27004496.269   141909710.329        -248.871          26.000  
G31  26251555.196   137952849.070        3765.410          40.000  
> 2024 02 04 12 35 58.0050000  0 17                     
G06  25252721.967   132703957.682        -665.564          41.000  
G11  25021242.397   131487525.565        1462.510          41.000  
G25  21457996.173   112762524.462         535.208          47.000  
G12  22474361.337   118103569.798       -1614.783          45.000  
G28  24091187.460   126600040.898        3101.353          45.000  
G32  23804892.568   125095545.370       -1000.147          48.000  
E18  22576429.210   118639944.303        2481.798          46.000  
E02  25797128.331   135564833.529       -1288.060          44.000  
G29  23986954.005   126052289.588        3361.104          46.000  
G24  25744294.514   135287197.353       -3484.068          39.000  
E36  27599317.036   145035406.245        1697.028          42.000  
E30  25535102.276   134187867.297        1129.385          45.000  
E10  30355767.968   159520613.262       -1932.154          35.000  
E07  26584974.827   139704996.969        -892.923          44.000  
E08  28257408.889   148493660.299       -2872.810          39.000  
G03  27004546.294   141909958.786        -248.852          26.000  
G31  26250838.531   137949083.985        3764.588          40.000  
> 2024 02 04 12 35 59.0050000  0 17                     
G06  25252848.983   132704624.113        -667.126          41.000  
G11  25020964.465   131486063.872        1460.818          42.000  
G25  21457894.292   112761990.003         533.803          47.000  
G12  22474668.457   118105185.449       -1616.022          45.000  
G28  24090597.433   126596940.239        3100.079          45.000  
G32  23805083.207   125096546.555       -1001.899          48.000  
E18  22575957.114   118637463.552        2480.136          46.000  
E02  25797373.369   135566122.261       -1288.987          44.000  
G29  23986314.766   126048929.339        3359.652          46.000  
G24  25744957.947   135290681.952       -3484.833          40.000  
E36  27598994.169   145033709.977        1695.850          42.000  
E30  25534887.455   134186738.584        1128.171          45.000  
E10  30356135.949   159522545.760       -1933.228          36.000  
E07  26585144.723   139705890.795        -894.548          44.000  
E08  28257956.086   148496533.860       -2874.047          39.000  
G03  27004597.966   141910208.696        -250.637          26.000  
G31  26250122.317   137945319.769        3763.950          40.000  
> 2024 02 04 12 36 00.0050000  0 17                     
G06  25252976.121   132705290.954        -666.394          41.000  
G11  25020686.865   131484602.498        1461.872          42.000  
G25  21457793.046   112761455.749         534.926          47.000  
G12  22474976.015   118106801.224       -1615.240          45.000  
G28  24090006.896   126593839.601        3101.337          45.000  
G32  23805273.920   125097548.086       -1000.924          48.000  
E18  22575485.339   118634983.318        2480.728          46.000  
E02  25797618.503   135567410.923       -1287.862          44.000  
G29  23985675.397   126045569.184        3360.862          46.000  
G24  25745621.485   135294166.447       -3483.561          40.000  
E36  27598671.539   145032013.925        1696.646          42.000  
E30  25534672.874   134185609.826        1129.606          45.000  
E10  30356504.007   159524478.347       -1931.791          36.000  
E07  26585314.862   139706784.817        -893.503          44.000  
E08  28258503.024   148499407.240       -2872.491          39.000  
G03  27004647.433   141910458.998        -249.965          26.000  
G31  26249405.735   137941555.400        3765.212          39.000  
> 2024 02 04 12 36 01.0050000  0 17                     
G06  25253102.881   132705957.866        -668.268          41.000  
G11  25020408.909   131483141.154        1459.913          42.000  
G25  21457691.750   112760921.431         533.071          47.000  
G12  22475283.540   118108416.797       -1616.778          45.000  
G28  24089416.566   126590738.702        3099.852          45.000  
G32  23805464.498   125098549.703       -1002.914          47.000  
E18  22575013.356   118632503.284        2478.584          46.000  
E02  25797863.489   135568699.192       -1289.347          44.000  
G29  23985036.104   126042208.842        3359.172          46.000  
G24  25746284.866   135297650.514       -3485.079          40.000  
E36  27598348.876   145030317.743        1694.819          42.000  
E30  25534457.619   134184480.757        1127.925          45.000  
E10  30356872.189   159526410.733       -1933.530          36.000  
E07  26585484.928   139707678.752        -895.286          43.000  
E08  28259050.060   148502280.236       -2874.217          39.000  
G03  27004696.039   141910709.358        -251.302          26.000  
G31  26248689.247   137937790.559        3763.867          39.000  
> 2024 02 04 12 36 02.0050000  0 17                     
G06  25253229.747   132706625.853        -669.147          41.000  
G11  25020131.444   131481680.793        1459.327          42.000  
G25  21457589.941   112760387.980         532.284          47.000  
G12  22475591.587   118110033.145       -1617.487          45.000  
G28  24088826.611   126587638.486        3099.467          45.000  
G32  23805655.240   125099552.328       -1003.751          47.000  
E18  22574542.202   118630024.406        2477.693          46.000  
E02  25798108.610   135569988.039       -1289.793          44.000  
G29  23984396.723   126038849.260        3358.677          46.000  
G24  25746948.153   135301135.126       -3485.138          40.000  
E36  27598025.554   145028622.411        1694.146          42.000  
E30  25534242.746   134183352.295        1127.534          45.000  
E10  30357240.057   159528343.911       -1934.519          36.000  
E07  26585655.185   139708573.548        -895.916          43.000  
E08  28259596.520   148505153.751       -2874.380          39.000  
G03  27004742.943   141910960.826        -253.684          25.000  
G31  26247972.939   137934026.220        3763.587          39.000  
> 2024 02 04 12 36 03.0050000  0 17                     
G06  25253357.140   132707294.741        -670.129          41.000  
G11  25019854.127   131480221.268        1458.388          43.000  
G25  21457488.882   112759855.252         531.813          47.000  
G12  22475899.299   118111650.115       -1617.975          45.000  
G28  24088237.001   126584538.830        3098.675          45.000  
G32  23805846.004   125100555.841       -1004.608          47.000  
E18  22574070.780   118627546.557        2476.530          46.000  
E02  25798354.416   135571277.312       -1290.243          44.000  
G29  23983757.568   126035490.307        3357.985          46.000  
G24  25747611.468   135304620.161       -3486.136          40.000  
E36  27597702.552   145026927.766        1693.507          42.000  
E30  25534028.178   134182224.318        1126.970          45.000  
E10  30357608.266   159530277.642       -1934.830          36.000  
E07  26585825.787   139709469.045        -896.408          43.000  
E08  28260143.397   148508027.642       -2874.804          39.000  
G03  27004788.259   141911213.033        -253.262          25.000  
G31  26247256.702   137930262.224        3763.275          39.000  
> 2024 02 04 12 36 04.0050000  0 17                     
G06  25253484.426   132707964.539        -669.592          41.000  
G11  25019576.568   131478762.597        1458.941          43.000  
G25  21457387.796   112759323.268         532.166          47.000  
G12  22476206.785   118113267.708       -1617.255          45.000  
G28  24087647.166   126581439.699        3099.451          45.000  
G32  23806037.136   125101560.221       -1004.214          47.000  
E18  22573599.046   118625069.719        2477.053          46.000  
E02  25798599.764   135572567.011       -1289.185          44.000  
G29  23983118.464   126032131.970        3358.591          46.000  
G24  25748274.760   135308105.553       -3484.969          40.000  
E36  27597380.430   145025233.828        1694.221          42.000  
E30  25533813.752   134181096.820        1128.048          45.000  
E10  30357976.664   159532212.008       -1934.328          36.000  
E07  26585996.352   139710365.289        -895.863          44.000  
E08  28260690.067   148510901.913       -2873.821          39.000  
G03  27004834.737                        -252.644          25.000  
G31  26246540.440   137926498.605        3763.760          39.000  
> 2024 02 04 12 36 05.0050000  0 17                     
G06  25253612.312   132708635.029        -671.161          41.000  
G11  25019299.391   131477304.518        1457.488          43.000  
G25  21457286.530   112758791.768         530.969          47.000  
G12  22476514.782   118114885.692       -1618.420          45.000  
G28  24087057.757   126578340.877        3098.333          45.000  
G32  23806228.702   125102565.253       -1005.571          47.000  
E18  22573127.871   118622593.660        2475.488          46.000  
E02  25798845.221   135573856.903       -1290.116          44.000  
G29  23982479.904   126028774.011        3357.541          46.000  
G24  25748938.208   135311591.092       -3485.947          40.000  
E36  27597057.983   145023540.370        1692.893          42.000  
E30  25533599.272   134179969.570        1127.006          45.000  
E10  30358344.737   159534146.727       -1935.147          36.000  
E07  26586167.153   139711262.009        -897.312          44.000  
E08  28261237.299   148513776.345       -2874.885          39.000  
G03  27004878.478                        -255.695          24.000  
G31  26245824.516   137922735.049        3762.954          39.000  
> 2024 02 04 12 36 06.0050000  0 17                     
G06  25253739.930   132709306.170        -670.874          41.000  
G11  25019022.129   131475847.048        1457.336          43.000  
G25  21457185.351   112758260.753         531.199          47.000  
G12  22476822.976   118116504.077       -1618.353          45.000  
G28  24086468.064   126575242.377        3098.797          45.000  
G32  23806419.974   125103570.934       -1005.650          47.000  
E18  22572656.342   118620118.406        2475.314          46.000  
E02  25799090.885   135575147.002       -1289.550          44.000  
G29  23981840.866   126025416.446        3357.808          46.000  
G24  25749601.482   135315076.802       -3485.142          40.000  
E36  27596735.570   145021847.348        1693.440          42.000  
E30  25533385.258   134178842.564        1127.427          45.000  
E10  30358713.344   159536081.818       -1934.862          36.000  
E07  26586337.460   139712159.215        -897.018          44.000  
E08  28261784.520   148516650.902       -2873.841          39.000  
G03  27004926.104                        -255.547          24.000  
G31  26245107.997   137918971.628        3763.836          39.000  
> 2024 02 04 12 36 07.0050000  0 17                     
G06  25253867.761   132709977.988        -671.930          41.000  
G11  25018745.164   131474390.155        1456.929          43.000  
G25  21457084.229   112757730.214         530.557          47.000  
G12  22477130.827   118118122.818       -1618.768          45.000  
G28  24085878.500   126572144.156        3098.317          45.000  
G32  23806611.615   125104577.226       -1006.342          47.000  
E18  22572185.716   118617643.903        2474.359          46.000  
E02  25799336.359   135576437.272       -1290.194          44.000  
G29  23981201.861   126022059.239        3357.323          46.000  
G24  25750265.173   135318562.650       -3485.662          40.000  
E36  27596413.714   145020154.800        1692.431          41.000  
E30  25533171.024   134177715.790        1126.904          45.000  
E10  30359081.585   159538017.282       -1935.739          36.000  
E07  26586508.307   139713056.877        -897.800          44.000  
E08  28262331.227   148519525.629       -2874.750          39.000  
G03  27004973.741                        -255.793          23.000  
G31  26244391.705   137915208.300        3763.647          39.000  
> 2024 02 04 12 36 08.0050000  0 17                     
G06  25253995.785   132710649.603        -671.136          41.000  
G11  25018467.954   131472933.018        1457.486          43.000  
G25  21456983.385   112757199.317         531.212          47.000  
G12  22477438.934   118119741.089       -1617.761          45.000  
G28  24085288.961   126569045.391        3099.305          45.000  
G32  23806803.076   125105583.301       -1005.692          47.000  
E18  22571714.320   118615169.327        2475.051          46.000  
E02  25799581.515   135577726.872       -1289.000          44.000  
G29  23980563.002   126018701.571        3358.074          46.000  
G24  25750928.203   135322047.801       -3484.467          40.000  
E36  27596091.904   145018461.845        1693.530          41.000  
E30  25532956.656   134176588.395        1128.077          45.000  
E10  30359449.837   159539952.189       -1934.170          36.000  
E07  26586679.135   139713954.167        -896.836          44.000  
E08  28262878.295   148522399.599       -2872.974          39.000  
G03  27005022.657                        -253.851          23.000  
G31  26243675.116   137911444.244        3764.508          39.000  
> 2024 02 04 12 36 09.0050000  0 17                     
G06  25254123.789   132711322.672        -673.352          41.000  
G11  25018191.298   131471477.199        1455.713          43.000  
G25  21456882.577   112756669.658         529.392          47.000  
G12  22477747.448   118121360.491       -1619.440          45.000  
G28  24084699.860   126565947.676        3097.691          45.000  
G32  23806994.568   125106590.768       -1007.678          47.000  
E18  22571243.365   118612696.286        2472.832          46.000  
E02  25799827.262   135579017.402       -1290.354          44.000  
G29  23979923.956   126015345.011        3356.461          46.000  
G24  25751591.385   135325533.837       -3485.948          40.000  
E36  27595770.069   145016770.088        1691.838          41.000  
E30  25532742.643   134175461.993        1126.350          45.000  
E10  30359818.063   159541888.306       -1935.964          37.000  
E07  26586850.682   139714852.664        -898.553          44.000  
E08  28263425.672   148525274.506       -2874.758          39.000  
G03  27005072.065                        -255.261          22.000  
G31  26242958.804   137907681.024        3762.942          38.000  
> 2024 02 04 12 36 10.0050000  0 17                     
G06  25254252.122   132711996.392        -673.877          41.000  
G11  25017915.083   131470022.035        1455.068          43.000  
G25  21456781.771   112756140.501         528.915          47.000  
G12  22478055.821   118122980.303       -1619.824          45.000  
G28  24084110.317   126562850.285        3097.417          45.000  
G32  23807186.174   125107598.900       -1008.349          47.000  
E18  22570772.646   118610224.048        2471.963          46.000  
E02  25800072.763   135580308.159       -1290.827          44.000  
G29  23979285.448   126011988.856        3356.165          46.000  
G24  25752254.847   135329020.042       -3486.148          40.000  
E36  27595448.261   145015078.823        1691.168          41.000  
E30  25532527.841   134174335.855        1126.050          45.000  
E10  30360186.784   159543824.760       -1936.391          37.000  
E07  26587021.958   139715751.687        -899.145          44.000  
E08  28263973.203   148528149.544       -2874.846          39.000  
G03  27005120.404                        -255.617          23.000  
G31  26242242.547   137903917.932        3763.114          38.000  
> 2024 02 04 12 36 11.0050000  0 17                     
G06  25254381.005   132712670.633        -674.323          41.000  
G11  25017638.545   131468567.288        1454.556          43.000  
G25  21456681.105   112755611.680         528.556          47.000  
G12  22478364.049   118124600.348       -1620.178          45.000  
G28  24083520.997   126559753.046        3097.109          45.000  
G32  23807377.967   125108607.495       -1008.873          47.000  
E18  22570302.124   118607752.426        2471.258          46.000  
E02  25800318.477   135581598.933       -1290.894          44.000  
G29  23978646.907   126008632.940        3355.729          46.000  
G24  25752918.409   135332506.268       -3486.113          40.000  
E36  27595126.691   145013387.872        1690.766          41.000  
E30  25532313.136   134173209.790        1125.931          45.000  
E10  30360555.437   159545761.426       -1936.862          37.000  
E07  26587193.097   139716651.021        -899.490          44.000  
E08  28264520.322   148531024.593       -2875.113          39.000  
G03  27005175.176                        -258.602          23.000  
G31  26241526.198   137900154.798        3762.862          38.000  
> 2024 02 04 12 36 12.0050000  0 17                     
G06  25254509.546   132713345.769        -675.079          41.000  
G11  25017362.343   131467113.344        1454.364          43.000  
G25  21456580.042   112755083.527         528.685          46.000  
G12  22478672.333   118126220.959       -1619.952          45.000  
G28  24082931.705   126556656.291        3097.324          46.000  
G32  23807569.826   125109616.924       -1008.936          47.000  
E18  22569831.913   118605281.775        2470.937          46.000  
E02  25800564.368   135582890.084       -1290.516          44.000  
G29  23978008.183   126005277.573        3356.035          46.000  
G24  25753582.163   135335992.811       -3485.865          41.000  
E36  27594804.917   145011697.567        1690.835          41.000  
E30  25532098.564   134172084.158        1126.298          45.000  
E10  30360923.674   159547698.676       -1936.862          36.000  
E07  26587364.482   139717551.033        -899.549          44.000  
E08  28265067.188   148533899.947       -2874.803          39.000  
G03  27005226.565                        -258.776          23.000  
G31  26240810.004   137896391.962        3763.585          38.000  
> 2024 02 04 12 36 13.0050000  0 17                     
G06  25254638.162   132714021.307        -675.946          41.000  
G11  25017085.803   131465659.787        1453.032          43.000  
G25  21456479.531   112754555.656         527.413          46.000  
G12  22478980.519   118127841.744       -1621.161          45.000  
G28  24082342.134   126553559.630        3096.128          46.000  
G32  23807761.632   125110626.787       -1010.391          47.000  
E18  22569361.601   118602811.692        2469.445          46.000  
E02  25800810.440   135584181.216       -1291.519          44.000  
G29  23977369.619   126001922.386        3354.734          46.000  
G24  25754245.659   135339479.295       -3486.761          40.000  
E36  27594483.482   145010007.480        1689.753          41.000  
E30  25531885.021   134170958.548        1125.248          45.000  
E10  30361292.212   159549636.029       -1937.483          36.000  
E07  26587535.468   139718451.304        -900.835          44.000  
E08  28265614.293   148536775.256       -2875.637          39.000  
G03  27005275.096                        -258.691          23.000  
G31  26240093.961   137892629.020        3762.562          38.000  
> 2024 02 04 12 36 14.0050000  0 17                     
G06  25254766.544   132714697.819        -676.611          40.000  
G11  25016809.195   131464207.094        1452.507          43.000  
G25  21456379.356   112754028.544         526.960          46.000  
G12  22479289.388   118129463.202       -1621.686          45.000  
G28  24081752.926   126550463.544        3096.063          46.000  
G32  23807953.829   125111637.554       -1011.004          47.000  
E18  22568891.837   118600342.669        2468.718          46.000  
E02  25801056.091   135585472.807       -1291.655          44.000  
G29  23976730.987   125998567.841        3354.512          46.000  
G24  25754909.490   135342966.229       -3487.009          40.000  
E36  27594162.355   145008318.161        1689.128          41.000  
E30  25531671.173   134169833.456        1124.994          45.000  
E10  30361661.120   159551574.061       -1938.158          36.000  
E07  26587707.008   139719352.326        -901.203          44.000  
E08  28266161.659   148539650.962       -2875.449          39.000  
G03  27005324.709                        -258.608          23.000  
G31  26239377.695   137888866.458        3762.550          38.000  
> 2024 02 04 12 36 15.0050000  0 17                     
G06  25254895.211   132715374.947        -677.673          40.000  
G11  25016532.722   131462754.975        1451.787          43.000  
G25  21456279.129   112753501.894         526.167          46.000  
G12  22479598.052   118131085.028       -1622.101          45.000  
G28  24081163.717   126547367.723        3095.583          46.000  
G32  23808146.172   125112648.925       -1011.967          47.000  
E18  22568421.972   118597874.379        2467.767          45.000  
E02  25801301.337   135586764.542       -1291.983          44.000  
G29  23976092.647   125995213.658        3353.836          46.000  
G24  25755573.344   135346453.244       -3487.304          41.000  
E36  27593840.603   145006629.245        1688.503          41.000  
E30  25531457.170   134168708.567        1124.631          45.000  
E10  30362029.856   159553512.402       -1938.661          36.000  
E07  26587878.517   139720253.783        -901.949          44.000  
E08  28266709.467   148542526.790       -2875.891          40.000  
G03  27005370.873                        -262.651          23.000  
G31  26238661.313   137885103.985        3761.934          38.000  
> 2024 02 04 12 36 16.0050000  0 17                     
G06  25255024.013   132716053.100        -678.693          40.000  
G11  25016256.246   131461303.763        1450.867          43.000  
G25  21456179.141   112752976.048         525.313          46.000  
G12  22479906.912   118132707.551       -1623.126          45.000  
G28  24080574.875   126544272.541        3094.865          46.000  
G32  23808338.833   125113661.251       -1012.795          47.000  
E18  22567952.492   118595407.202        2466.487          45.000  
E02  25801547.291   135588056.803       -1292.555          44.000  
G29  23975454.414   125991860.163        3353.062          46.000  
G24  25756237.157   135349940.737       -3487.700          41.000  
E36  27593519.264   145004941.118        1687.558          41.000  
E30  25531243.137   134167584.233        1124.038          45.000  
E10  30362398.708   159555451.437       -1939.492          36.000  
E07  26588050.099   139721156.045        -902.739          44.000  
E08  28267257.094   148545403.056       -2876.424          39.000  
G03  27005421.270                        -263.267          22.000  
G31  26237945.464   137881341.926        3761.720          38.000  
> 2024 02 04 12 36 17.0050000  0 17                     
G06  25255152.577   132716731.807        -678.906          40.000  
G11  25015980.683   131459853.090        1450.379          44.000  
G25  21456079.348   112752450.615         525.192          46.000  
G12  22480215.624   118134330.373       -1622.961          45.000  
G28  24079986.327   126541177.577        3094.953          46.000  
G32  23808531.917   125114674.134       -1013.247          47.000  
E18  22567483.378   118592940.717        2466.095          45.000  
E02  25801793.221   135589349.165       -1292.294          44.000  
G29  23974816.183   125988506.973        3353.017          45.000  
G24  25756900.834   135353428.312       -3487.447          41.000  
E36  27593197.820   145003253.380        1687.450          41.000  
E30  25531029.352   134166460.067        1124.149          45.000  
E10  30362767.676   159557390.754       -1939.465          36.000  
E07  26588221.730   139722058.713        -902.899          44.000  
E08  28267804.435   148548279.423       -2876.696          39.000  
G03  27005473.097                        -261.464          22.000  
G31  26237229.272   137877579.883        3762.160          38.000  
> 2024 02 04 12 36 18.0050000  0 17                     
G06  25255282.056   132717411.363        -681.116          40.000  
G11  25015705.183   131458403.155        1448.659          44.000  
G25  21455979.737   112751925.812         523.455          46.000  
G12  22480525.167   118135953.741       -1624.634          45.000  
G28  24079397.587   126538083.083        3093.195          46.000  
G32  23808724.971   125115687.810       -1015.092          47.000  
E18  22567014.756   118590475.172        2464.027          45.000  
E02  25802039.319   135590641.881       -1293.881          44.000  
G29  23974178.703   125985154.319        3351.466          46.000  
G24  25757564.359   135356916.207       -3488.897          41.000  
E36  27592877.046   145001566.252        1685.612          41.000  
E30  25530815.251   134165336.293        1122.508          45.000  
E10  30363136.809   159559330.619       -1941.631          36.000  
E07  26588393.667   139722962.010        -904.723          44.000  
E08  28268351.744   148551156.049       -2877.515          39.000  
G03  27005526.237                        -262.531          22.000  
G31  26236513.364   137873818.124        3760.672          38.000  
> 2024 02 04 12 36 19.0050000  0 17                     
G06  25255411.680   132718091.985        -680.914          40.000  
G11  25015429.408   131456954.229        1448.765          44.000  
G25  21455879.580   112751401.930         523.808          46.000  
G12  22480834.609   118137577.899       -1624.164          45.000  
G28  24078808.897   126534989.308        3093.723          46.000  
G32  23808918.084   125116702.549       -1014.761          47.000  
E18  22566545.841   118588010.825        2464.215          45.000  
E02  25802285.298   135591935.186       -1292.994          44.000  
G29  23973541.008   125981802.465        3351.954          46.000  
G24  25758228.017   135360404.661       -3488.418          41.000  
E36  27592556.378   144999879.974        1686.368          41.000  
E30  25530601.405   134164213.173        1123.157          44.000  
E10  30363505.835   159561271.233       -1940.529          36.000  
E07  26588565.497   139723866.195        -904.065          44.000  
E08  28268899.009   148554033.266       -2877.064          39.000  
G03  27005575.641                        -264.386          22.000  
G31  26235797.684   137870056.923        3761.327          38.000  
> 2024 02 04 12 36 20.0050000  0 17                     
G06  25255541.109   132718772.873        -680.493          39.000  
G11  25015153.481   131455505.473        1449.188          44.000  
G25  21455779.902   112750878.083         524.338          46.000  
G12  22481143.626   118139201.997       -1623.596          46.000  
G28  24078220.454   126531895.385        3094.598          46.000  
G32  23809111.400   125117717.470       -1014.398          47.000  
E18  22566076.493   118585546.805        2464.386          45.000  
E02  25802531.328   135593228.265       -1292.452          44.000  
G29  23972903.473   125978450.549        3352.444          46.000  
G24  25758891.793   135363892.799       -3487.198          41.000  
E36  27592235.373   144998193.748        1686.927          41.000  
E30  25530387.321   134163089.849        1123.865          44.000  
E10  30363874.602   159563211.766       -1939.872          35.000  
E07  26588737.626   139724770.426        -903.675          44.000  
E08  28269446.278   148556910.186       -2876.207          39.000  
G03  27005626.864                        -262.639          23.000  
G31  26235082.029   137866295.344        3762.408          38.000  
> 2024 02 04 12 36 21.0050000  0 17                     
G06  25255670.205   132719453.148        -681.281          39.000  
G11  25014877.499   131454056.100        1448.179          42.000  
G25  21455680.146   112750353.506         523.017          46.000  
G12  22481452.521   118140825.263       -1624.542          46.000  
G28  24077631.616   126528800.550        3093.562          46.000  
G32  23809304.659   125118731.802       -1015.947          47.000  
E18  22565607.586   118583082.360        2462.955          45.000  
E02  25802777.093   135594520.295       -1293.218          44.000  
G29  23972265.858   125975097.793        3351.412          46.000  
G24  25759555.100   135367379.900       -3488.517          41.000  
E36  27591914.062   144996506.739        1685.770          41.000  
E30  25530173.286   134161965.548        1123.059          45.000  
E10  30364242.928   159565151.446       -1940.958          34.000  
E07  26588909.456   139725673.919        -904.939          44.000  
E08  28269993.155   148559786.027       -2877.107          39.000  
G03  27005676.285                        -257.995          23.000  
G31  26234365.957   137862532.641        3761.911          38.000  
> 2024 02 04 12 36 22.0050000  0 17                     
G06  25255799.856   132720135.163        -681.818          39.000  
G11  25014601.947   131452608.324        1447.948          43.000  
G25  21455580.433   112749830.427         523.502          46.000  
G12  22481761.778   118142449.917       -1624.200          46.000  
G28  24077042.889   126525707.029        3094.019          46.000  
G32  23809498.221   125119747.781       -1015.722          47.000  
E18  22565138.993   118580619.703        2462.767          46.000  
E02  25803022.853   135595813.515       -1292.560          43.000  
G29  23971628.065   125971746.411        3351.875          46.000  
G24  25760218.585   135370868.128       -3487.488          41.000  
E36  27591593.776   144994821.217        1686.013          41.000  
E30  25529959.385   134160842.482        1123.806          44.000  
E10  30364612.094   159567092.499       -1940.571          35.000  
E07  26589081.679   139726578.875        -904.456          44.000  
E08  28270540.699   148562662.972       -2876.463          39.000  
G03  27005728.513                        -266.369          24.000  
G31  26233650.326   137858771.071        3762.492          38.000  
> 2024 02 04 12 36 23.0050000  0 17                     
G06  25255929.518   132720817.704        -683.307          39.000  
G11  25014326.258   131451160.998        1447.193          42.000  
G25  21455480.895   112749307.707         522.752          46.000  
G12  22482070.865   118144074.818       -1624.884          45.000  
G28  24076454.276   126522613.672        3093.341          46.000  
G32  23809691.484   125120764.275       -1016.528          47.000  
E18  22564670.405   118578157.672        2461.917          46.000  
E02  25803269.126   135597106.807       -1293.153          43.000  
G29  23970990.437   125968395.293        3350.996          45.000  
G24  25760882.368   135374356.418       -3488.294          41.000  
E36  27591272.828   144993136.011        1685.509          41.000  
E30  25529745.762   134159719.539        1123.272          45.000  
E10  30364981.648   159569033.795       -1941.032          34.000  
E07  26589254.312   139727484.197        -905.217          44.000  
E08  28271088.156   148565539.933       -2876.813          39.000  
G03  27005783.141                        -264.767          25.000  
G31  26232934.265   137855009.442        3762.103          38.000  
> 2024 02 04 12 36 24.0050000  0 17                     
G06  25256059.574   132721499.546        -681.104          38.000  
G11  25014050.549   131449712.968        1448.838          42.000  
G25  21455380.996   112748784.133         524.260          46.000  
G12  22482379.320   118145698.756       -1622.986          44.000  
G28  24075865.573   126519519.276        3095.398          46.000  
G32  23809884.885   125121780.026       -1015.042          47.000  
E18  22564201.823   118575695.102        2463.398          46.000  
E02  25803515.405   135598398.891       -1290.911          43.000  
G29  23970352.485   125965043.193        3353.096          46.000  
G24  25761545.855   135377843.467       -3486.042          41.000  
E36  27590951.848   144991449.915        1687.112          42.000  
E30  25529532.361   134158595.478        1125.258          45.000  
E10  30365350.862   159570974.068       -1939.233          34.000  
E07  26589426.162   139728388.643        -903.491          44.000  
E08  28271634.492   148568415.710       -2874.665          39.000  
G03  27005834.984                        -263.736          26.000  
G31  26232218.012   137851246.666        3764.009          38.000  
> 2024 02 04 12 36 25.0050000  0 17                     
G06  25256189.578   132722182.864        -684.204          38.000  
G11  25013775.185   131448266.325        1445.400          43.000  
G25  21455281.393   112748261.865         521.385          46.000  
G12  22482688.267   118147323.919       -1626.044          45.000  
G28  24075277.132   126516426.040        3092.287          46.000  
G32  23810078.039   125122797.308       -1018.270          47.000  
E18  22563733.736   118573234.156        2459.781          46.000  
E02  25803761.793   135599692.048       -1293.881          43.000  
G29  23969714.686   125961692.328        3349.769          45.000  
G24  25762209.509   135381331.537       -3488.736          41.000  
E36  27590631.488   144989765.140        1683.805          42.000  
E30  25529318.284   134157472.521        1122.124          44.000  
E10  30365719.866   159572915.609       -1942.484          34.000  
E07  26589598.690   139729294.430        -906.925          44.000  
E08  28272182.056   148571292.479       -2877.715          40.000  
G03  27005886.560                        -267.758          26.000  
G31  26231501.912   137847484.786        3761.359          39.000  
> 2024 02 04 12 36 26.0050000  0 17                     
G06  25256319.851   132722866.853        -683.984          39.000  
G11  25013499.556   131446820.243        1446.118          43.000  
G25  21455182.009   112747740.043         521.651          46.000  
G12  22482997.769   118148949.364       -1625.452          46.000  
G28  24074688.406   126513333.033        3092.921          46.000  
G32  23810271.575   125123815.138       -1018.036          47.000  
E18  22563265.424   118570773.900        2459.816          46.000  
E02  25804007.416   135600985.330       -1293.416          43.000  
G29  23969076.739   125958341.786        3350.413          46.000  
G24  25762873.403   135384819.690       -3488.143          41.000  
E36  27590310.928   144988080.755        1684.094          42.000  
E30  25529104.311   134156349.718        1122.629          44.000  
E10  30366089.126   159574857.443       -1942.010          33.000  
E07  26589771.739   139730200.616        -906.301          44.000  
E08  28272729.596   148574169.346       -2876.874          40.000  
G03  27005939.484                        -265.254          25.000  
G31  26230786.156   137843722.961        3761.804          38.000  
> 2024 02 04 12 36 27.0050000  0 17                     
G06  25256450.710   132723551.985        -685.071          40.000  
G11  25013224.054   131445375.294        1445.023          43.000  
G25  21455082.740   112747219.212         520.975          45.000  
G12  22483307.663   118150575.732       -1626.123          46.000  
G28  24074100.205   126510240.820        3092.575          46.000  
G32  23810465.153   125124834.104       -1018.728          47.000  
E18  22562797.724   118568314.979        2458.948          46.000  
E02  25804253.754   135602279.283       -1293.601          43.000  
G29  23968438.903   125954992.122        3349.872          46.000  
G24  25763537.519   135388308.469       -3488.362          41.000  
E36  27589990.956   144986397.351        1683.512          42.000  
E30  25528890.352   134155227.660        1122.496          44.000  
E10  30366459.092   159576800.081       -1942.541          35.000  
E07  26589944.300   139731107.776        -906.934          44.000  
E08  28273276.880   148577046.816       -2877.249          38.000  
G03  27005988.299                        -267.041          25.000  
G31  26230070.366   137839961.737        3761.398          38.000  
> 2024 02 04 12 36 28.0050000  0 17                     
G06  25256581.661   132724237.940        -686.493          42.000  
G11  25012949.329   131443931.055        1443.863          44.000  
G25  21454983.624   112746699.005         519.661          45.000  
G12  22483616.948   118152202.632       -1627.270          46.000  
G28  24073511.666   126507149.084        3091.347          45.000  
G32  23810658.798   125125853.867       -1020.502          47.000  
E18  22562330.053   118565856.942        2457.210          46.000  
E02  25804500.230   135603573.576       -1294.809          43.000  
G29  23967801.422   125951642.971        3348.703          46.000  
G24  25764201.321   135391797.570       -3489.196          41.000  
E36  27589671.164   144984714.531        1682.333          42.000  
E30  25528677.274   134154105.995        1121.288          44.000  
E10  30366829.615   159578743.284       -1943.281          35.000  
E07  26590117.116   139732015.564        -908.397          45.000  
E08  28273824.411   148579924.581       -2878.658          40.000  
G03  27006038.425                        -269.328          25.000  
G31  26229354.735   137836200.795        3760.477          39.000  
> 2024 02 04 12 36 29.0050000  0 17                     
G06  25256712.958   132724924.815        -687.335          41.000  
G11  25012674.745   131442487.686        1443.177          43.000  
G25  21454884.935   112746179.564         519.151          45.000  
G12  22483926.781   118153830.173       -1627.692          46.000  
G28  24072923.338   126504057.897        3091.021          45.000  
G32  23810852.602   125126874.511       -1021.030          48.000  
E18  22561862.204   118563399.972        2456.539          46.000  
E02  25804747.113   135604868.321       -1294.834          43.000  
G29  23967164.278   125948294.484        3348.294          46.000  
G24  25764865.138   135395287.084       -3489.296          40.000  
E36  27589350.957   144983032.425        1681.936          42.000  
E30  25528463.808   134152984.836        1120.980          44.000  
E10  30367199.481   159580687.098       -1943.718          35.000  
E07  26590290.172   139732924.088        -908.768          44.000  
E08  28274371.879   148582802.746       -2878.185          40.000  
G03  27006090.821                        -270.253          25.000  
G31  26228638.962   137832440.223        3760.374          39.000  
> 2024 02 04 12 36 30.0050000  0 17                     
G06  25256844.132   132725612.102        -687.317          41.000  
G11  25012400.029   131441044.661        1443.004          43.000  
G25  21454786.223   112745660.351         519.293          46.000  
G12  22484236.571   118155457.846       -1627.582          46.000  
G28  24072334.720   126500966.770        3091.282          45.000  
G32  23811046.736   125127895.544       -1021.060          48.000  
E18  22561394.794   118560943.528        2456.326          47.000  
E02  25804993.469   135606163.014       -1294.611          43.000  
G29  23966527.426   125944946.126        3348.323          46.000  
G24  25765528.937   135398776.513       -3489.165          41.000  
E36  27589030.699   144981350.550        1681.801          42.000  
E30  25528250.346   134151863.663        1121.234          44.000  
E10  30367569.469   159582631.049       -1943.951          35.000  
E07  26590462.999   139733832.847        -908.678          44.000  
E08  28274919.604   148585680.829       -2877.928          40.000  
G03  27006139.900                        -269.920          25.000  
G31  26227923.306   137828679.498        3760.996          38.000  
> 2024 02 04 12 36 31.0050000  0 17                     
G06  25256975.375   132726300.523        -688.306          41.000  
G11  25012125.491   131439602.701        1442.070          43.000  
G25  21454687.529   112745142.080         518.266          45.000  
G12  22484546.480   118157086.362       -1628.505          46.000  
G28  24071746.497   126497876.411        3090.668          45.000  
G32  23811241.201   125128917.672       -1022.324          48.000  
E18  22560927.497   118558488.325        2455.234          47.000  
E02  25805239.408   135607458.350       -1295.133          43.000  
G29  23965890.898   125941598.607        3347.730          46.000  
G24  25766192.715   135402266.499       -3489.441          41.000  
E36  27588711.201   144979669.588        1680.922          42.000  
E30  25528037.067   134150743.171        1120.689          44.000  
E10  30367939.977   159584575.761       -1944.152          35.000  
E07  26590636.180   139734742.544        -909.643          44.000  
E08  28275467.138   148588559.493       -2878.461          40.000  
G03  27006196.784                        -271.563          25.000  
G31  26227208.120   137824919.304        3760.980          39.000  
> 2024 02 04 12 36 32.0050000  0 17                     
G06  25257106.507   132726989.615        -690.088          40.000  
G11  25011851.206   131438161.322        1440.895          42.000  
G25  21454589.060   112744624.285         517.140          45.000  
G12  22484856.479   118158715.225       -1629.298          46.000  
G28  24071158.109   126494786.342        3089.689          44.000  
G32  23811436.159   125129940.409       -1023.325          48.000  
E18  22560460.324   118556033.894        2453.708          47.000  
E02  25805485.814   135608753.863       -1295.951          43.000  
G29  23965253.970   125938251.447        3346.593          46.000  
G24  25766856.834   135405756.680       -3490.843          41.000  
E36  27588391.203   144977989.062        1680.077          42.000  
E30  25527823.684   134149622.913        1119.833          44.000  
E10  30368309.913   159586520.903       -1945.530          35.000  
E07  26590809.303   139735652.684        -910.607          44.000  
E08  28276015.160   148591438.301       -2879.280          40.000  
G03  27006252.541                        -271.424          26.000  
G31  26226492.722   137821159.268        3759.645          38.000  
> 2024 02 04 12 36 33.0050000  0 17                     
G06  25257237.372   132727679.425        -690.979          40.000  
G11  25011577.500   131436720.643        1439.493          42.000  
G25  21454490.874   112744107.048         516.299          46.000  
G12  22485166.752   118160344.550       -1630.141          46.000  
G28  24070570.135   126491696.648        3088.884          44.000  
G32  23811630.908   125130963.875       -1024.578          48.000  
E18  22559993.417   118553580.312        2452.643          47.000  
E02  25805731.993   135610049.627       -1296.398          43.000  
G29  23964617.026   125934904.746        3345.808          46.000  
G24  25767520.828   135409247.060       -3491.306          41.000  
E36  27588071.169   144976309.072        1679.243          42.000  
E30  25527610.752   134148502.968        1119.273          44.000  
E10  30368679.997   159588466.456       -1946.841          35.000  
E07  26590982.710   139736563.388        -911.544          44.000  
E08  28276562.887   148594317.297       -2879.470          40.000  
G03  27006305.682                        -272.480          26.000  
G31  26225776.733   137817399.390        3759.217          39.000  
> 2024 02 04 12 36 34.0050000  0 17                     
G06  25257368.258   132728369.292        -690.314          40.000  
G11  25011303.182   131435279.908        1440.350          42.000  
G25  21454392.269   112743589.673         517.133          46.000  
G12  22485476.677   118161973.629       -1629.325          46.000  
G28  24069981.951   126488606.633        3089.776          44.000  
G32  23811826.080   125131987.340       -1023.847          48.000  
E18  22559526.650   118551126.891        2452.920          47.000  
E02  25805978.021   135611344.968       -1295.809          43.000  
G29  23963980.226   125931557.799        3346.599          46.000  
G24  25768185.029   135412736.956       -3490.113          41.000  
E36  27587751.544   144974628.919        1679.807          42.000  
E30  25527397.266   134147382.640        1119.950          44.000  
E10  30369050.083   159590411.693       -1945.433          35.000  
E07  26591155.768   139737473.938        -910.975          44.000  
E08  28277110.780   148597195.830       -2878.643          40.000  
G03  27006359.692                        -273.117          26.000  
G31  26225061.359   137813638.987        3760.260          39.000  
> 2024 02 04 12 36 35.0050000  0 17                     
G06  25257499.150   132729059.506        -690.204          39.000  
G11  25011029.068   131433839.455        1440.589          42.000  
G25  21454293.591   112743072.479         517.374          46.000  
G12  22485786.599   118163602.772       -1628.932          46.000  
G28  24069393.975   126485516.606        3090.167          44.000  
G32  23812021.051   125133011.128       -1023.813          48.000  
E18  22559060.293   118548673.936        2452.964          47.000  
E02  25806224.691   135612640.162       -1294.895          43.000  
G29  23963343.374   125928210.908        3347.138          47.000  
G24  25768848.902   135416226.678       -3489.402          41.000  
E36  27587432.305   144972948.911        1680.189          42.000  
E30  25527184.225   134146262.224        1120.752          44.000  
E10  30369420.645   159592357.020       -1945.084          35.000  
E07  26591328.938   139738384.653        -910.526          44.000  
E08  28277659.129   148600074.189       -2877.893          41.000  
G03  27006412.422                        -272.868          27.000  
G31  26224345.994   137809878.381        3760.874          39.000  
> 2024 02 04 12 36 36.0050000  0 17                     
G06  25257629.882   132729750.504        -692.413          39.000  
G11  25010755.167   131432399.730        1438.097          42.000  
G25  21454195.003   112742555.883         515.203          45.000  
G12  22486096.467   118165232.413       -1630.960          46.000  
G28  24068805.628   126482426.995        3088.484          44.000  
G32  23812215.914   125134035.666       -1025.958          48.000  
E18  22558593.696   118546221.875        2450.684          46.000  
E02  25806471.208   135613935.659       -1296.498          43.000  
G29  23962707.028   125924864.516        3345.205          46.000  
G24  25769512.977   135419716.688       -3491.110          41.000  
E36  27587113.317   144971269.484        1678.200          42.000  
E30  25526971.007   134145142.163        1118.902          44.000  
E10  30369790.786   159594302.822       -1947.181          35.000  
E07  26591502.262   139739295.956        -912.546          44.000  
E08  28278206.848   148602952.790       -2879.663          40.000  
G03  27006469.219   141919953.1433       -274.095          27.000  
G31  26223630.503   137806117.996        3759.253          39.000  
> 2024 02 04 12 36 37.0050000  0 17                     
G06  25257760.549   132730442.053        -693.103          38.000  
G11  25010481.087   131430960.455        1438.108          42.000  
G25  21454096.903   112742039.620         515.255          45.000  
G12  22486406.605   118166862.287       -1630.818          46.000  
G28  24068217.466   126479337.561        3088.412          44.000  
G32  23812411.127   125135060.692       -1026.247          48.000  
E18  22558127.193   118543770.458        2450.242          47.000  
E02  25806717.758   135615231.210       -1296.464          43.000  
G29  23962070.236   125921518.381        3344.814          47.000  
G24  25770176.897   135423206.681       -3490.816          41.000  
E36  27586793.448   144969590.372        1677.998          42.000  
E30  25526757.892   134144022.203        1119.087          44.000  
E10  30370161.154   159596248.838       -1947.003          35.000  
E07  26591675.898   139740207.598        -912.704          44.000  
E08  28278754.554   148605831.403       -2879.539          40.000  
G03  27006525.437   141920227.0492       -275.160          27.000  
G31  26222915.018   137802357.566        3759.906          39.000  
> 2024 02 04 12 36 38.0050000  0 17                     
G06  25257891.574   132731134.198        -692.633          38.000  
G11  25010207.173   131429521.752        1438.280          42.000  
G25  21453998.584   112741523.851         515.239          45.000  
G12  22486716.859   118168492.536       -1630.707          46.000  
G28  24067629.871   126476248.410        3088.737          44.000  
G32  23812606.441   125136086.331       -1026.171          48.000  
E18  22557661.239   118541319.814        2450.053          47.000  
E02  25806964.299   135616526.928       -1296.048          43.000  
G29  23961433.541   125918172.584        3345.394          47.000  
G24  25770841.395   135426696.828       -3490.594          41.000  
E36  27586473.930   144967911.711        1678.141          42.000  
E30  25526545.213   134142902.481        1119.294          44.000  
E10  30370531.703   159598195.216       -1947.094          35.000  
E07  26591848.872   139741119.697        -912.414          44.000  
E08  28279302.587   148608710.142       -2879.240          40.000  
G03  27006580.359   141920501.5452       -275.273          28.000  
G31  26222199.349   137798597.266        3759.920          39.000  
> 2024 02 04 12 36 39.0050000  0 17                     
G06  25258022.909   132731827.066        -693.817          38.000  
G11  25009933.811   131428083.674        1437.290          42.000  
G25  21453900.725   112741008.560         514.348          45.000  
G12  22487027.314   118170123.180       -1631.434          46.000  
G28  24067041.866   126473159.562        3088.276          44.000  
G32  23812801.499   125137112.614       -1027.099          48.000  
E18  22557195.331   118538869.945        2448.934          47.000  
E02  25807211.012   135617822.829       -1296.334          43.000  
G29  23960796.936   125914827.175        3344.872          47.000  
G24  25771505.875   135430187.110       -3490.852          41.000  
E36  27586154.262   144966233.495        1677.478          42.000  
E30  25526331.769   134141782.978        1119.036          44.000  
E10  30370901.717   159600141.965       -1947.700          35.000  
E07  26592022.298   139742032.280        -913.346          44.000  
E08  28279850.694   148611588.988       -2879.302          41.000  
G03  27006633.063   141920776.6642       -276.039          28.000  
G31  26221483.753   137794837.073        3759.498          39.000  
> 2024 02 04 12 36 40.0050000  0 17                     
G06  25258154.857   132732520.987        -694.025          38.000  
G11  25009660.801   131426646.574        1437.061          42.000  
G25  21453802.770   112740494.135         514.438          45.000  
G12  22487337.795   118171754.583       -1631.358          46.000  
G28  24066454.036   126470071.414        3088.531          44.000  
G32  23812997.337   125138139.922       -1027.333          48.000  
E18  22556729.500   118536421.259        2448.488          47.000  
E02  25807457.712   135619119.337       -1296.484          43.000  
G29  23960160.657   125911482.564        3344.801          47.000  
G24  25772170.445   135433677.927       -3490.418          41.000  
E36  27585835.002   144964556.143        1677.368          42.000  
E30  25526118.869   134140664.128        1118.960          44.000  
E10  30371272.102   159602089.446       -1947.549          35.000  
E07  26592196.201   139742945.727        -913.393          44.000  
E08  28280398.879   148614468.410       -2879.166          41.000  
G03  27006684.513   141921052.8122       -276.560          28.000  
G31  26220768.479   137791077.367        3759.740          39.000  
> 2024 02 04 12 36 41.0050000  0 17                     
G06  25258287.280   132733215.780        -695.288          39.000  
G11  25009387.672   131425210.306        1435.949          42.000  
G25  21453705.239   112739980.434         513.294          45.000  
G12  22487648.799   118173386.594       -1632.232          46.000  
G28  24065866.221   126466983.791        3087.338          44.000  
G32  23813193.023   125139168.095       -1028.732          48.000  
E18  22556263.847   118533973.570        2447.081          47.000  
E02  25807704.759   135620416.229       -1297.240          43.000  
G29  23959523.944   125908138.546        3343.620          46.000  
G24  25772834.842   135437169.127       -3491.352          41.000  
E36  27585515.914   144962879.482        1676.363          42.000  
E30  25525906.531   134139545.719        1118.079          44.000  
E10  30371642.826   159604037.495       -1947.996          35.000  
E07  26592370.177   139743859.880        -914.641          44.000  
E08  28280946.864   148617348.167       -2879.911          41.000  
G03  27006733.879   141921329.8552       -278.164          28.000  
G31  26220053.077   137787317.975        3759.441          39.000  
> 2024 02 04 12 36 42.0050000  0 17                     
G06  25258419.402   132733910.632        -695.416          39.000  
G11  25009114.334   131423773.988        1435.961          42.000  
G25  21453607.649   112739466.584         513.658          46.000  
G12  22487959.267   118175018.367       -1632.149          46.000  
G28  24065278.441   126463895.847        3087.601          44.000  
G32  23813388.553   125140196.259       -1028.542          48.000  
E18  22555798.223   118531526.031        2447.046          47.000  
E02  25807951.309   135621712.680       -1296.552          43.000  
G29  23958887.395   125904794.270        3343.989          47.000  
G24  25773499.189   135440659.826       -3490.754          41.000  
E36  27585196.954   144961202.635        1676.579          42.000  
E30  25525693.522   134138426.923        1118.706          44.000  
E10  30372013.593   159605985.322       -1948.172          35.000  
E07  26592543.661   139744773.866        -914.204          44.000  
E08  28281494.663   148620227.435       -2879.198          41.000  
G03  27006783.741   141921606.8122       -277.087          28.000  
G31  26219337.596   137783558.092        3759.499          39.000  
> 2024 02 04 12 36 43.0050000  0 17                     
G06  25258552.235   132734606.355        -696.039          39.000  
G11  25008840.880   131422338.520        1435.119          42.000  
G25  21453510.475   112738953.461         512.892          46.000  
G12  22488269.951   118176650.734       -1632.305          47.000  
G28  24064690.522   126460808.450        3087.145          44.000  
G32  23813584.545   125141225.289       -1029.224          48.000  
E18  22555332.926   118529079.529        2446.083          47.000  
E02  25808198.260   135623009.566       -1297.035          43.000  
G29  23958250.875   125901450.612        3343.511          46.000  
G24  25774163.622   135444150.947       -3491.125          41.000  
E36  27584877.846   144959526.500        1675.865          42.000  
E30  25525480.612   134137308.607        1118.321          44.000  
E10  30372384.366   159607933.731       -1948.802          35.000  
E07  26592717.345   139745688.569        -914.925          44.000  
E08  28282042.936   148623107.106       -2879.839          41.000  
G03  27006837.180   141921884.2031       -278.256          28.000  
G31  26218622.338   137779798.516        3759.444          39.000  
> 2024 02 04 12 36 44.0050000  0 17                     
G06  25258685.284   132735302.543        -697.229          39.000  
G11  25008567.592   131420903.434        1434.053          42.000  
G25  21453413.360   112738440.605         511.955          46.000  
G12  22488580.680   118178283.279       -1633.335          47.000  
G28  24064102.931   126457721.121        3086.567          44.000  
G32  23813780.398   125142254.739       -1030.294          48.000  
E18  22554867.348   118526633.582        2444.771          47.000  
E02  25808444.612   135624306.405       -1297.835          43.000  
G29  23957614.685   125898107.111        3342.687          47.000  
G24  25774828.056   135447641.978       -3491.823          41.000  
E36  27584559.395   144957850.595        1674.776          42.000  
E30  25525267.881   134136190.315        1117.280          44.000  
E10  30372755.399   159609882.282       -1949.406          35.000  
E07  26592891.683   139746603.537        -916.027          44.000  
E08  28282591.185   148625986.672       -2880.334          41.000  
G03  27006892.535   141922162.538        -280.017          29.000  
G31  26217906.823   137776038.814        3759.294          39.000  
> 2024 02 04 12 36 45.0050000  0 17                     
G06  25258818.465   132735999.957        -698.022          40.000  
G11  25008294.459   131419469.507        1433.387          42.000  
G25  21453316.042   112737928.798         511.499          46.000  
G12  22488891.756   118179916.777       -1633.736          47.000  
G28  24063515.470   126454634.678        3086.204          43.000  
G32  23813976.767   125143285.393       -1031.081          48.000  
E18  22554402.210   118524188.969        2444.251          47.000  
E02  25808691.920   135625603.990       -1297.674          43.000  
G29  23956978.398   125894764.564        3342.190          46.000  
G24  25775492.711   135451133.732       -3492.067          41.000  
E36  27584240.787   144956175.709        1674.619          42.000  
E30  25525055.586   134135072.814        1117.349          44.000  
E10  30373126.441   159611831.731       -1949.494          35.000  
E07  26593066.491   139747519.532        -916.206          44.000  
E08  28283139.124   148628866.957       -2880.590          41.000  
G03  27006945.156   141922442.041        -279.788          29.000  
G31  26217191.523   137772279.811        3758.763          39.000  
> 2024 02 04 12 36 46.0050000  0 17                     
G06  25258951.712   132736697.937        -697.961          40.000  
G11  25008021.252   131418036.074        1433.447          42.000  
G25  21453218.784   112737417.385         511.436          46.000  
G12  22489202.649   118181550.529       -1633.465          47.000  
G28  24062928.305   126451548.421        3086.687          43.000  
G32  23814172.853   125144316.578       -1031.160          48.000  
E18  22553937.164   118521745.054        2443.924          47.000  
E02  25808938.930   135626901.667       -1297.380          43.000  
G29  23956342.242   125891422.287        3342.412          46.000  
G24  25776157.222   135454625.489       -3491.150          41.000  
E36  27583921.869   144954501.183        1674.727          42.000  
E30  25524842.907   134133955.443        1117.603          44.000  
E10  30373497.315   159613781.480       -1949.398          35.000  
E07  26593240.845   139748435.902        -916.207          44.000  
E08  28283687.562   148631747.238       -2879.893          41.000  
G03  27006992.745   141922722.063        -280.436          29.000  
G31  26216475.972   137768520.811        3758.998          39.000  
> 2024 02 04 12 36 47.0050000  0 17                     
G06  25259085.065   132737396.492        -698.401          40.000  
G11  25007748.817   131416603.136        1433.137          42.000  
G25  21453121.880   112736906.357         511.223          46.000  
G12  22489513.985   118183184.599       -1633.876          47.000  
G28  24062341.251   126448462.392        3086.298          44.000  
G32  23814369.142   125145348.297       -1031.686          48.000  
E18  22553472.428   118519301.820        2443.213          47.000  
E02  25809185.820   135628199.445       -1297.470          43.000  
G29  23955706.214   125888080.301        3342.146          46.000  
G24  25776821.447   135458117.349       -3491.594          41.000  
E36  27583603.112   144952827.036        1674.278          42.000  
E30  25524630.348   134132838.229        1117.390          44.000  
E10  30373868.762   159615731.477       -1950.123          35.000  
E07  26593415.421   139749352.664        -916.612          44.000  
E08  28284235.685   148634627.611       -2880.107          41.000  
G03  27007049.478   141923002.654        -280.604          29.000  
G31  26215760.579   137764761.810        3759.381          38.000  
> 2024 02 04 12 36 48.0050000  0 17                     
G06  25259218.437   132738095.863        -699.274          40.000  
G11  25007476.169   131415171.002        1431.958          42.000  
G25  21453024.654   112736395.976         510.401          46.000  
G12  22489825.131   118184819.195       -1634.508          47.000  
G28  24061754.322   126445376.829        3085.662          44.000  
G32  23814565.585   125146380.825       -1032.653          48.000  
E18  22553007.255   118516859.544        2442.205          47.000  
E02  25809432.924   135629497.575       -1298.076          43.000  
G29  23955070.411   125884738.875        3341.369          46.000  
G24  25777486.145   135461609.505       -3492.076          41.000  
E36  27583284.692   144951153.513        1673.590          42.000  
E30  25524418.219   134131721.409        1116.962          44.000  
E10  30374239.839   159617682.013       -1950.583          34.000  
E07  26593589.956   139750270.059        -917.317          44.000  
E08  28284783.909   148637508.256       -2880.226          41.000  
G03  27007100.720   141923284.051        -281.768          29.000  
G31  26215044.980   137761003.094        3758.952          39.000  
> 2024 02 04 12 36 49.0050000  0 17                     
G06  25259351.789   132738796.284        -700.549          41.000  
G11  25007204.229   131413739.796        1431.291          42.000  
G25  21452928.166   112735886.466         509.416          46.000  
G12  22490136.600   118186454.536       -1635.079          47.000  
G28  24061167.709   126442291.948        3085.011          44.000  
G32  23814762.295   125147414.343       -1033.701          48.000  
E18  22552542.401   118514418.417        2441.088          47.000  
E02  25809680.059   135630796.243       -1298.438          43.000  
G29  23954434.909   125881398.187        3340.800          46.000  
G24  25778151.230   135465102.168       -3492.290          42.000  
E36  27582966.513   144949480.804        1672.877          42.000  
E30  25524205.686   134130605.204        1116.327          44.000  
E10  30374610.757   159619633.255       -1951.101          34.000  
E07  26593764.463   139751188.304        -918.201          44.000  
E08  28285332.023   148640389.434       -2880.948          41.000  
G03  27007150.069   141923566.383        -281.675          29.000  
G31  26214329.537   137757244.874        3758.290          39.000  
> 2024 02 04 12 36 50.0050000  0 17                     
G06  25259485.298   132739497.023        -701.477          40.000  
G11  25006931.667   131412308.840        1430.363          42.000  
G25  21452831.243   112735377.063         508.921          46.000  
G12  22490447.773   118188089.900       -1635.801          47.000  
G28  24060580.991   126439206.993        3084.568          44.000  
G32  23814959.073   125148448.139       -1034.464          48.000  
E18  22552077.782   118511977.699        2440.073          47.000  
E02  25809927.206   135632094.744       -1298.707          43.000  
G29  23953798.713   125878057.508        3340.208          46.000  
G24  25778815.669   135468594.614       -3492.603          42.000  
E36  27582648.289   144947808.202        1672.044          42.000  
E30  25523993.394   134129488.863        1115.951          44.000  
E10  30374981.910   159621584.493       -1951.365          34.000  
E07  26593939.678   139752106.661        -918.896          44.000  
E08  28285880.359   148643270.359       -2881.174          41.000  
G03  27007203.306   141923849.103        -283.649          29.000  
G31  26213614.202   137753486.381        3758.316          39.000  
> 2024 02 04 12 36 51.0050000  0 17                     
G06  25259618.937   132740198.641        -703.302          41.000  
G11  25006659.448   131410878.735        1428.201          42.000  
G25  21452734.385   112734868.403         506.899          46.000  
G12  22490759.080   118189725.885       -1637.638          47.000  
G28  24059994.192   126436122.599        3082.783          44.000  
G32  23815155.837   125149482.809       -1036.412          48.000  
E18  22551613.275   118509538.011        2437.956          47.000  
E02  25810174.033   135633393.665       -1300.397          43.000  
G29  23953162.928   125874717.462        3338.385          46.000  
G24  25779480.489   135472087.471       -3494.549          42.000  
E36  27582329.591   144946136.315        1669.987          42.000  
E30  25523781.029   134128373.007        1114.350          44.000  
E10  30375353.588   159623536.361       -1953.460          34.000  
E07  26594114.518   139753025.724        -920.620          44.000  
E08  28286428.333   148646151.689       -2882.864          41.000  
G03  27007268.639   141924132.576        -284.873          29.000  
G31  26212899.068   137749728.269        3756.457          38.000  
> 2024 02 04 12 36 52.0050000  0 17                     
G06  25259752.895   132740901.292        -703.046          41.000  
G11  25006387.371   131409449.547        1429.131          42.000  
G25  21452637.519   112734360.551         507.861          46.000  
G12  22491070.455   118191362.586       -1636.769          47.000  
G28  24059407.510   126433038.841        3083.730          44.000  
G32  23815352.950   125150518.445       -1035.866          48.000  
E18  22551149.304   118507099.455        2438.208          47.000  
E02  25810421.215   135634693.119       -1299.344          43.000  
G29  23952527.421   125871378.141        3339.252          46.000  
G24  25780145.438   135475580.798       -3493.393          42.000  
E36  27582011.299   144944465.202        1671.055          42.000  
E30  25523568.585   134127257.734        1115.131          44.000  
E10  30375725.097   159625488.946       -1953.080          34.000  
E07  26594289.753   139753945.610        -920.130          44.000  
E08  28286977.013   148649033.472       -2881.464          41.000  
G03  27007324.050   141924417.148        -284.998          29.000  
G31  26212184.011   137745970.582        3757.674          38.000  
> 2024 02 04 12 36 53.0050000  0 17                     
G06  25259886.723   132741604.229        -702.820          41.000  
G11  25006115.889   131408020.605        1429.278          42.000  
G25  21452540.864   112733852.828         508.133          46.000  
G12  22491382.210   118192999.295       -1636.077          47.000  
G28  24058820.899   126429955.016        3084.212          44.000  
G32  23815550.162   125151554.344       -1035.449          48.000  
E18  22550685.547   118504661.295        2438.442          47.000  
E02  25810668.280   135635992.395       -1298.630          43.000  
G29  23951891.671   125868038.825        3339.772          46.000  
G24  25780810.473   135479073.892       -3492.565          42.000  
E36  27581693.269   144942794.172        1671.566          42.000  
E30  25523356.615   134126142.310        1116.026          44.000  
E10  30376096.523   159627441.451       -1951.914          34.000  
E07  26594464.762   139754865.586        -919.530          44.000  
E08  28287525.203   148651915.055       -2880.994          41.000  
G03  27007380.366   141924701.907        -284.268          28.000  
G31  26211468.752   137742212.640        3758.501          38.000  
> 2024 02 04 12 36 54.0050000  0 17                     
G06  25260020.540   132742307.668        -702.942          41.000  
G11  25005844.045   131406592.115        1428.900          43.000  
G25  21452444.249   112733345.442         507.936          46.000  
G12  22491693.808   118194636.258       -1636.693          47.000  
G28  24058234.266   126426871.351        3084.240          44.000  
G32  23815747.513   125152590.733       -1036.000          48.000  
E18  22550221.162   118502223.793        2437.804          47.000  
E02  25810915.464   135637291.707       -1298.876          43.000  
G29  23951256.162   125864699.752        3339.561          46.000  
G24  25781475.045   135482566.977       -3492.580          42.000  
E36  27581375.500   144941123.488        1671.044          42.000  
E30  25523144.251   134125026.993        1115.948          44.000  
E10  30376468.609   159629394.229       -1952.029          34.000  
E07  26594639.718   139755785.902        -919.887          44.000  
E08  28288073.358   148654796.617       -2880.958          41.000  
G03  27007435.858   141924987.169        -284.659          28.000  
G31  26210753.562   137738454.654        3758.728          38.000  
> 2024 02 04 12 36 55.0050000  0 17                     
G06  25260154.429   132743011.751        -704.163          40.000  
G11  25005572.675   131405164.178        1427.948          43.000  
G25  21452347.486   112732838.489         506.944          46.000  
G12  22492005.174   118196273.525       -1637.098          47.000  
G28  24057647.452   126423787.936        3083.716          44.000  
G32  23815944.798   125153627.705       -1036.937          48.000  
E18  22549757.446   118499787.012        2436.633          47.000  
E02  25811162.904   135638591.142       -1299.085          43.000  
G29  23950621.192   125861361.005        3339.025          46.000  
G24  25782139.948   135486060.181       -3492.885          42.000  
E36  27581057.898   144939453.190        1670.304          42.000  
E30  25522932.289   134123911.856        1115.545          44.000  
E10  30376840.334   159631347.319       -1953.021          34.000  
E07  26594815.007   139756706.643        -920.624          44.000  
E08  28288621.860   148657678.268       -2881.625          41.000  
G03  27007495.891   141925272.986        -285.548          29.000  
G31  26210038.415   137734696.737        3758.416          39.000  
> 2024 02 04 12 36 56.0050000  0 17                     
G06  25260288.578   132743716.574        -705.084          41.000  
G11  25005301.363   131403736.922        1426.953          43.000  
G25  21452251.010   112732332.123         506.080          46.000  
G12  22492317.020   118197911.285       -1638.024          47.000  
G28  24057060.388   126420704.946        3082.848          44.000  
G32  23816142.125   125154665.409       -1038.175          48.000  
E18  22549294.148   118497351.122        2435.415          47.000  
E02  25811410.518   135639890.887       -1299.914          43.000  
G29  23949985.651   125858022.739        3338.056          46.000  
G24  25782804.452   135489553.637       -3493.613          42.000  
E36  27580740.053   144937783.462        1669.461          42.000  
E30  25522720.226   134122797.078        1114.498          44.000  
E10  30377211.832   159633300.850       -1953.905          34.000  
E07  26594990.539   139757627.974        -921.557          44.000  
E08  28289169.786   148660560.147       -2881.943          41.000  
G03  27007552.325   141925559.646        -287.412          29.000  
G31  26209323.318   137730939.016        3758.100          39.000  
> 2024 02 04 12 36 57.0050000  0 17                     
G06  25260423.106   132744422.186        -705.878          40.000  
G11  25005030.152   131402310.370        1426.311          43.000  
G25  21452154.493   112731826.318         505.756          46.000  
G12  22492628.974   118199549.510       -1638.492          47.000  
G28  24056473.921   126417622.337        3082.439          44.000  
G32  23816339.631   125155703.823       -1038.629          48.000  
E18  22548831.073   118494916.102        2434.609          47.000  
E02  25811657.668   135641190.873       -1299.971          43.000  
G29  23949350.574   125854684.941        3337.660          46.000  
G24  25783468.883   135493047.305       -3493.391          42.000  
E36  27580422.638   144936114.264        1669.060          41.000  
E30  25522507.939   134121682.601        1114.656          44.000  
E10  30377583.617   159635254.828       -1953.917          34.000  
E07  26595166.044   139758549.854        -922.237          44.000  
E08  28289718.502   148663442.265       -2882.423          41.000  
G03  27007604.072   141925846.924        -287.657          28.000  
G31  26208608.308   137727181.526        3757.679          39.000  
> 2024 02 04 12 36 58.0050000  0 17                     
G06  25260557.662   132745128.845        -706.689          40.000  
G11  25004758.775   131400884.807        1425.559          43.000  
G25  21452058.063   112731321.404         505.049          46.000  
G12  22492940.715   118201188.516       -1638.726          47.000  
G28  24055887.716   126414540.428        3082.235          44.000  
G32  23816537.606   125156743.273       -1039.309          48.000  
E18  22548367.866   118492482.253        2433.804          47.000  
E02  25811905.284   135642491.474       -1300.402          43.000  
G29  23948715.279   125851347.921        3337.303          46.000  
G24  25784133.821   135496541.553       -3494.203          42.000  
E36  27580105.057   144934445.944        1668.572          41.000  
E30  25522295.843   134120568.771        1114.166          44.000  
E10  30377955.187   159637209.551       -1954.226          34.000  
E07  26595341.805   139759472.602        -922.503          44.000  
E08  28290266.949   148666324.889       -2882.346          41.000  
G03  27007657.581   141926135.240        -287.892          27.000  
G31  26207893.674   137723424.523        3757.423          39.000  
> 2024 02 04 12 36 59.0050000  0 17                     
G06  25260692.358   132745836.112        -707.983          41.000  
G11  25004487.891   131399459.799        1424.542          43.000  
G25  21451962.026   112730816.938         503.958          46.000  
G12  22493252.732   118202827.873       -1639.997          47.000  
G28  24055301.615   126411458.782        3081.202          44.000  
G32  23816735.060   125157783.321       -1040.588          48.000  
E18  22547905.095   118490049.152        2432.484          47.000  
E02  25812152.680   135643792.199       -1301.190          43.000  
G29  23948080.107   125848011.231        3336.283          46.000  
G24  25784798.373   135500035.882       -3494.768          41.000  
E36  27579787.917   144932778.035        1667.557          41.000  
E30  25522083.714   134119455.135        1113.355          44.000  
E10  30378327.348   159639164.594       -1955.116          34.000  
E07  26595517.400   139760395.794        -923.734          44.000  
E08  28290815.466   148669207.637       -2883.094          41.000  
G03  27007708.836   141926424.082        -288.605          27.000  
G31  26207178.758   137719667.627        3756.561          39.000  
> 2024 02 04 12 37 00.0050000  0 17                     
G06  25260827.070   132746543.929        -708.276          41.000  
G11  25004216.841   131398035.264        1424.257          43.000  
G25  21451865.777   112730312.813         503.738          46.000  
G12  22493564.763   118204467.460       -1639.985          47.000  
G28  24054715.057   126408377.330        3081.092          44.000  
G32  23816932.607   125158823.868       -1040.973          47.000  
E18  22547442.498   118487616.709        2431.923          47.000  
E02  25812400.303   135645092.955       -1300.769          43.000  
G29  23947444.766   125844674.819        3335.836          45.000  
G24  25785463.187   135503530.237       -3494.764          42.000  
E36  27579470.552   144931110.456        1667.393          41.000  
E30  25521872.014   134118341.590        1113.407          45.000  
E10  30378699.415   159641119.860       -1954.962          34.000  
E07  26595693.283   139761319.303        -923.906          44.000  
E08  28291364.129   148672090.388       -2882.987          41.000  
G03  27007764.334   141926713.591        -289.856          27.000  
G31  26206463.978   137715910.645        3756.672          40.000  
> 2024 02 04 12 37 01.0050000  0 17                     
G06  25260961.713   132747252.210        -709.338          41.000  
G11  25003945.913   131396611.121        1423.258          43.000  
G25  21451769.920   112729808.973         502.974          46.000  
G12  22493876.448   118206107.218       -1640.510          47.000  
G28  24054128.463   126405295.953        3080.680          44.000  
G32  23817130.224   125159864.826       -1041.915          47.000  
E18  22546979.930   118485184.833        2430.795          47.000  
E02  25812647.322   135646393.735       -1301.625          43.000  
G29  23946809.517   125841338.547        3335.444          45.000  
G24  25786127.997   135507024.486       -3495.176          42.000  
E36  27579152.849   144929443.136        1666.511          41.000  
E30  25521659.909   134117228.097        1112.688          44.000  
E10  30379071.571   159643075.309       -1956.012          34.000  
E07  26595869.031   139762243.094        -924.735          44.000  
E08  28291912.725   148674973.059       -2883.681          42.000  
G03  27007821.706   141927003.525        -291.361          27.000  
G31  26205749.306   137712153.590        3756.492          40.000  
> 2024 02 04 12 37 02.0050000  0 17                     
G06  25261096.145   132747961.005        -710.028          41.000  
G11  25003674.741   131395187.447        1422.313          43.000  
G25  21451673.811   112729305.495         502.390          46.000  
G12  22494188.419   118207747.224       -1641.280          47.000  
G28  24053542.107   126402214.749        3080.035          44.000  
G32  23817328.315   125160906.298       -1042.859          47.000  
E18  22546517.109   118482753.608        2429.850          47.000  
E02  25812894.764   135647694.548       -1301.955          43.000  
G29  23946174.720   125838002.523        3334.878          45.000  
G24  25786793.188   135510518.767       -3495.300          41.000  
E36  27578835.621   144927776.127        1665.863          42.000  
E30  25521448.434   134116114.686        1112.379          44.000  
E10  30379443.706   159645030.958       -1956.494          34.000  
E07  26596044.659   139763167.212        -925.353          44.000  
E08  28292461.148   148677855.724       -2883.859          42.000  
G03  27007879.746   141927293.865        -291.643          27.000  
G31  26205034.375   137708396.502        3756.210          40.000  
> 2024 02 04 12 37 03.0050000  0 17                     
G06  25261231.293   132748670.861        -710.144          41.000  
G11  25003403.739   131393764.755        1422.424          43.000  
G25  21451578.326   112728802.876         502.698          45.000  
G12  22494500.392   118209387.990       -1640.837          46.000  
G28  24052955.767   126399134.243        3080.495          44.000  
G32  23817526.824   125161948.785       -1042.770          47.000  
E18  22546054.944   118480323.567        2429.799          47.000  
E02  25813142.474   135648995.933       -1301.391          43.000  
G29  23945539.977   125834667.285        3335.225          45.000  
G24  25787458.004   135514013.620       -3494.636          41.000  
E36  27578518.463   144926109.994        1666.031          42.000  
E30  25521236.305   134115001.922        1112.777          44.000  
E10  30379815.801   159646987.409       -1956.796          34.000  
E07  26596220.681   139764092.207        -925.000          44.000  
E08  28293010.103   148680738.930       -2883.188          42.000  
G03  27007938.983   141927585.291        -291.774          27.000  
G31  26204319.531   137704639.952        3756.841          40.000  
> 2024 02 04 12 37 04.0050000  0 17                     
G06  25261366.550   132749381.476        -711.731          40.000  
G11  25003133.017   131392342.741        1421.044          43.000  
G25  21451482.341   112728300.844         501.121          45.000  
G12  22494812.399   118211029.224       -1642.127          46.000  
G28  24052369.719   126396054.121        3079.345          44.000  
G32  23817725.477   125162991.972       -1044.259          47.000  
E18  22545592.690   118477894.382        2428.218          47.000  
E02  25813390.298   135650297.564       -1302.310          43.000  
G29  23944905.554   125831332.494        3333.798          45.000  
G24  25788123.172   135517508.661       -3495.751          41.000  
E36  27578201.458   144924444.370        1664.639          41.000  
E30  25521024.625   134113889.457        1111.763          44.000  
E10  30380187.659   159648944.234       -1957.654          33.000  
E07  26596396.616   139765017.763        -926.500          44.000  
E08  28293558.780   148683622.322       -2884.116          42.000  
G03  27007995.617   141927877.343        -292.857          27.000  
G31  26203604.790   137700883.537        3755.801          40.000  
> 2024 02 04 12 37 05.0050000  0 17                     
G06  25261501.968   132750092.696        -711.597          41.000  
G11  25002862.366   131390921.299        1421.131          43.000  
G25  21451386.956   112727799.233         501.690          45.000  
G12  22495124.483   118212670.780       -1641.435          46.000  
G28  24051783.451   126392974.266        3079.867          44.000  
G32  23817924.052   125164035.752       -1043.663          47.000  
E18  22545130.807   118475465.947        2428.252          47.000  
E02  25813637.967   135651599.377       -1301.693          43.000  
G29  23944270.855   125827998.044        3334.534          46.000  
G24  25788788.267   135521003.805       -3494.789          41.000  
E36  27577884.624   144922779.183        1665.116          41.000  
E30  25520813.198   134112777.197        1112.411          44.000  
E10  30380560.136   159650901.395       -1957.141          33.000  
E07  26596572.731   139765943.750        -926.035          44.000  
E08  28294108.045   148686505.849       -2883.444          42.000  
G03  27008050.980   141928170.095        -293.476          26.000  
G31  26202889.892   137697127.243        3756.327          40.000  
> 2024 02 04 12 37 06.0050000  0 17                     
G06  25261637.032   132750804.205        -712.354          41.000  
G11  25002592.025   131389500.050        1420.367          43.000  
G25  21451291.529   112727297.748         500.548          45.000  
G12  22495436.672   118214312.364       -1642.339          46.000  
G28  24051197.387   126389894.324        3079.216          44.000  
G32  23818122.880   125165079.785       -1044.920          47.000  
E18  22544668.869   118473037.913        2427.049          47.000  
E02  25813885.565   135652900.949       -1302.097          43.000  
G29  23943636.660   125824663.604        3333.803          46.000  
G24  25789453.171   135524498.752       -3495.746          41.000  
E36  27577567.987   144921114.049        1664.612          41.000  
E30  25520601.320   134111664.793        1111.715          44.000  
E10  30380932.530   159652858.531       -1957.504          34.000  
E07  26596748.694   139766869.820        -926.904          44.000  
E08  28294656.425   148689389.126       -2883.986          42.000  
G03  27008102.976   141928462.961        -293.459          26.000  
G31  26202175.146   137693370.662        3755.826          40.000  
> 2024 02 04 12 37 07.0050000  0 17                     
G06  25261772.368   132751516.503        -712.543          41.000  
G11  25002321.708   131388079.556        1420.113          43.000  
G25  21451196.188   112726796.847         500.548          45.000  
G12  22495749.053   118215954.436       -1642.297          46.000  
G28  24050611.278   126386814.818        3079.168          44.000  
G32  23818321.887   125166124.580       -1045.212          47.000  
E18  22544206.842   118470610.791        2426.580          47.000  
E02  25814133.455   135654202.880       -1302.215          43.000  
G29  23943002.453   125821329.663        3333.751          46.000  
G24  25790117.834   135527993.933       -3495.208          40.000  
E36  27577251.174   144919449.523        1664.099          41.000  
E30  25520389.719   134110552.745        1111.784          44.000  
E10  30381305.273   159654816.186       -1958.314          34.000  
E07  26596925.002   139767796.486        -927.008          44.000  
E08  28295205.463   148692272.658       -2883.715          42.000  
G03  27008155.359                        -293.770          25.000  
G31  26201460.226   137689614.296        3756.100          40.000  
> 2024 02 04 12 37 08.0050000  0 17                     
G06  25261907.797   132752229.272        -713.263          40.000  
G11  25002051.456   131386659.447        1419.526          42.000  
G25  21451101.333   112726296.266         499.801          45.000  
G12  22496061.185   118217596.699       -1642.960          46.000  
G28  24050025.256   126383735.438        3078.661          44.000  
G32  23818520.854   125167169.812       -1046.068          47.000  
E18  22543745.340   118468184.257        2425.600          47.000  
E02  25814381.346   135655504.780       -1302.631          43.000  
G29  23942368.129   125817995.914        3332.967          46.000  
G24  25790782.644   135531489.088       -3495.541          40.000  
E36  27576934.505   144917785.247        1663.779          41.000  
E30  25520177.954   134109440.745        1111.258          44.000  
E10  30381678.167   159656773.972       -1958.723          34.000  
E07  26597101.642   139768723.443        -927.762          44.000  
E08  28295754.427   148695156.126       -2884.068          42.000  
G03  27008214.646                        -295.050          25.000  
G31  26200744.976   137685857.854        3755.831          40.000  
> 2024 02 04 12 37 09.0050000  0 17                     
G06  25262043.162   132752943.115        -714.178          40.000  
G11  25001780.856   131385240.352        1418.662          42.000  
G25  21451006.417   112725796.548         499.536          46.000  
G12  22496373.838   118219239.725       -1643.065          46.000  
G28  24049439.230   126380656.746        3078.445          44.000  
G32  23818720.048   125168216.075       -1046.510          47.000  
E18  22543283.540   118465758.904        2424.938          47.000  
E02  25814629.104   135656807.240       -1302.665          43.000  
G29  23941733.705   125814662.962        3332.634          46.000  
G24  25791447.419   135534984.771       -3495.969          40.000  
E36  27576617.731   144916121.837        1663.123          41.000  
E30  25519966.666   134108329.377        1111.207          44.000  
E10  30382050.461   159658732.530       -1958.949          34.000  
E07  26597277.966   139769651.277        -928.231          44.000  
E08  28296302.988   148698040.117       -2883.856          42.000  
G03  27008272.164                        -295.813          24.000  
G31  26200030.359   137682101.901        3756.053          40.000  
> 2024 02 04 12 37 10.0050000  0 17                     
G06  25262179.051   132753657.442        -714.716          40.000  
G11  25001511.028   131383821.638        1418.097          42.000  
G25  21450911.003   112725297.139         499.029          45.000  
G12  22496686.605   118220882.969       -1643.533          46.000  
G28  24048853.424   126377578.174        3078.314          44.000  
G32  23818919.081   125169262.780       -1047.101          47.000  
E18  22542821.945   118463334.145        2424.320          47.000  
E02  25814877.344   135658109.715       -1302.565          43.000  
G29  23941099.874   125811330.160        3332.644          46.000  
G24  25792112.340   135538480.405       -3495.755          40.000  
E36  27576301.141   144914458.704        1662.923          41.000  
E30  25519755.148   134107218.047        1111.159          44.000  
E10  30382423.415   159660691.266       -1959.309          34.000  
E07  26597454.473   139770579.372        -928.213          44.000  
E08  28296851.834   148700924.081       -2884.086          42.000  
G03  27008325.952                        -295.401          25.000  
G31  26199315.806   137678345.903        3755.940          40.000  
> 2024 02 04 12 37 11.0050000  0 17                     
G06  25262314.995   132754372.432        -714.758          40.000  
G11  25001241.221   131382403.568        1418.117          42.000  
G25  21450816.161   112724798.220         498.959          45.000  
G12  22496999.402   118222526.588       -1643.492          46.000  
G28  24048267.866   126374499.920        3078.335          44.000  
G32  23819118.528   125170310.122       -1047.300          48.000  
E18  22542360.781   118460910.194        2423.888          47.000  
E02  25815125.323   135659412.405       -1302.644          43.000  
G29  23940465.874   125807997.788        3332.486          46.000  
G24  25792777.644   135541976.202       -3495.601          40.000  
E36  27575984.659   144912796.063        1662.579          41.000  
E30  25519543.560   134106106.981        1111.146          44.000  
E10  30382796.178   159662650.323       -1958.550          35.000  
E07  26597631.051   139771507.973        -928.579          44.000  
E08  28297400.292   148703808.183       -2883.758          41.000  
G03  27008380.471                        -295.925          24.000  
G31  26198601.450   137674590.026        3756.185          40.000  
> 2024 02 04 12 37 12.0050000  0 17                     
G06  25262451.031   132755087.969        -716.083          41.000  
G11  25000971.447   131380985.956        1417.135          42.000  
G25  21450721.402   112724299.655         498.231          46.000  
G12  22497312.038   118224170.461       -1644.430          46.000  
G28  24047682.342   126371421.835        3077.754          44.000  
G32  23819317.869   125171357.974       -1048.335          48.000  
E18  22541899.642   118458486.894        2422.814          47.000  
E02  25815373.727   135660715.127       -1302.973          43.000  
G29  23939832.235   125804665.642        3331.852          46.000  
G24  25793443.037   135545472.047       -3496.563          41.000  
E36  27575668.149   144911133.718        1661.973          41.000  
E30  25519332.312   134104996.028        1110.459          44.000  
E10  30383169.279   159664609.683       -1959.720          35.000  
E07  26597807.693   139772436.918        -929.434          44.000  
E08  28297948.742   148706692.304       -2884.408          41.000  
G03  27008434.410                        -297.259          24.000  
G31  26197886.720   137670834.124        3755.708          40.000  
> 2024 02 04 12 37 13.0050000  0 17                     
G06  25262587.574   132755804.193        -716.864          41.000  
G11  25000701.617   131379568.974        1416.494          42.000  
G25  21450626.861   112723801.607         497.722          46.000  
G12  22497624.901   118225814.723       -1644.561          46.000  
G28  24047096.767   126368344.100        3077.430          44.000  
G32  23819517.774   125172406.476       -1048.907          48.000  
E18  22541438.528   118456064.403        2421.969          47.000  
E02  25815622.120   135662018.071       -1303.222          43.000  
G29  23939198.402   125801333.914        3331.405          46.000  
G24  25794108.501   135548967.997       -3496.068          41.000  
E36  27575351.923   144909471.870        1661.464          41.000  
E30  25519121.162   134103885.314        1110.392          44.000  
E10  30383542.480   159666569.397       -1960.291          35.000  
E07  26597984.309   139773366.349        -929.909          44.000  
E08  28298498.014   148709576.556       -2884.320          42.000  
G03  27008488.374                        -297.937          24.000  
G31  26197172.179   137667078.341        3755.700          40.000  
> 2024 02 04 12 37 14.0050000  0 17                     
G06  25262724.035   132756521.121        -717.090          41.000  
G11  25000432.083   131378152.621        1416.184          42.000  
G25  21450532.512   112723304.091         497.458          46.000  
G12  22497938.076   118227459.411       -1644.739          46.000  
G28  24046511.155   126365266.703        3077.373          44.000  
G32  23819717.893   125173455.650       -1049.473          48.000  
E18  22540978.170   118453642.735        2421.550          47.000  
E02  25815869.980   135663321.226       -1303.099          43.000  
G29  23938564.243   125798002.615        3331.245          46.000  
G24  25794774.226   135552464.157       -3496.264          41.000  
E36  27575035.483   144907810.506        1661.491          41.000  
E30  25518909.595   134102774.881        1110.635          44.000  
E10  30383915.551   159668529.472       -1959.977          35.000  
E07  26598161.272   139774296.293        -929.921          44.000  
E08  28299047.096   148712461.011       -2884.389          41.000  
G03  27008538.040                        -297.678          25.000  
G31  26196457.473   137663322.715        3755.703          40.000  
> 2024 02 04 12 37 15.0050000  0 17                     
G06  25262860.640   132757238.083        -716.901          41.000  
G11  25000162.263   131376736.259        1416.690          41.000  
G25  21450437.631   112722806.434         497.893          46.000  
G12  22498250.590   118229103.864       -1644.206          46.000  
G28  24045925.655   126362188.984        3077.997          44.000  
G32  23819917.591   125174504.829       -1048.982          48.000  
E18  22540517.050   118451221.243        2421.633          47.000  
E02  25816117.913   135664623.944       -1302.253          43.000  
G29  23937930.694   125794671.060        3331.908          46.000  
G24  25795439.660   135555959.844       -3495.220          41.000  
E36  27574719.318   144906149.012        1661.780          41.000  
E30  25518697.988   134101664.076        1111.110          44.000  
E10  30384288.386   159670489.333       -1959.900          35.000  
E07  26598338.372   139775226.105        -929.545          44.000  
E08  28299595.805   148715344.964       -2883.440          42.000  
G03  27008590.853                        -297.046          25.000  
G31  26195743.017   137659566.575        3756.613          40.000  
> 2024 02 04 12 37 16.0050000  0 17                     
G06  25262997.434   132757955.716        -718.481          41.000  
G11  24999892.683   131375320.515        1414.824          41.000  
G25  21450343.278   112722309.279         496.411          46.000  
G12  22498563.518   118230748.715       -1645.722          46.000  
G28  24045340.270   126359111.600        3076.536          45.000  
G32  23820117.798   125175554.648       -1050.668          48.000  
E18  22540056.332   118448800.550        2419.678          47.000  
E02  25816365.756   135665926.878       -1303.732          43.000  
G29  23937297.105   125791339.909        3330.493          46.000  
G24  25796104.945   135559455.717       -3496.769          41.000  
E36  27574403.397   144904487.979        1659.963          41.000  
E30  25518486.798   134100553.523        1109.718          44.000  
E10  30384661.622   159672449.576       -1961.491          35.000  
E07  26598515.638   139776156.414        -931.375          44.000  
E08  28300144.876   148718229.088       -2884.823          41.000  
G03  27008643.025                        -299.626          24.000  
G31  26195028.551   137655810.548        3755.659          40.000  
> 2024 02 04 12 37 17.0050000  0 17                     
G06  25263134.202   132758674.446        -719.250          41.000  
G11  24999623.627   131373905.787        1414.150          42.000  
G25  21450248.951   112721813.026         495.839          46.000  
G12  22498876.566   118232394.347       -1646.144          46.000  
G28  24044754.704   126356034.936        3076.215          45.000  
G32  23820318.133   125176605.532       -1051.360          48.000  
E18  22539595.602   118446381.056        2418.924          47.000  
E02  25816613.820   135667230.412       -1303.803          43.000  
G29  23936663.284   125788009.566        3329.905          46.000  
G24  25796770.579   135562952.120       -3496.881          41.000  
E36  27574087.419   144902827.810        1659.717          41.000  
E30  25518275.241   134099443.621        1109.684          44.000  
E10  30385035.017   159674410.517       -1961.076          35.000  
E07  26598692.452   139777087.595        -931.621          43.000  
E08  28300693.535   148721113.749       -2884.805          41.000  
G03  27008693.081                        -300.862          24.000  
G31  26194313.967   137652055.091        3754.946          40.000  
> 2024 02 04 12 37 18.0050000  0 17                     
G06  25263270.691   132759393.350        -719.122          41.000  
G11  24999354.392   131372491.161        1414.054          42.000  
G25  21450154.792   112721316.779         495.519          46.000  
G12  22499189.477   118234039.873       -1645.909          46.000  
G28  24044169.105   126352958.099        3076.295          45.000  
G32  23820518.130   125177656.555       -1051.581          48.000  
E18  22539135.405   118443961.865        2418.496          47.000  
E02  25816862.010   135668533.652       -1303.739          43.000  
G29  23936029.665   125784679.110        3329.961          46.000  
G24  25797435.930   135566448.183       -3496.305          41.000  
E36  27573771.819   144901167.651        1659.482          41.000  
E30  25518063.997   134098333.478        1109.722          44.000  
E10  30385408.040   159676371.396       -1961.451          35.000  
E07  26598869.805   139778018.753        -931.571          43.000  
E08  28301242.673   148723998.064       -2884.490          42.000  
G03  27008746.254                        -300.607          24.000  
G31  26193599.132   137648299.208        3755.260          40.000  
> 2024 02 04 12 37 19.0050000  0 17                     
G06  25263407.466   132760113.121        -719.861          40.000  
G11  24999085.504   131371077.328        1413.409          42.000  
G25  21450060.152   112720821.195         495.467          46.000  
G12  22499502.394   118235685.950       -1645.928          46.000  
G28  24043583.894   126349881.746        3076.343          44.000  
G32  23820718.188   125178708.399       -1051.956          48.000  
E18  22538675.049   118441543.644        2417.857          46.000  
E02  25817110.196   135669837.243       -1303.675          43.000  
G29  23935396.113   125781349.234        3329.804          46.000  
G24  25798101.235   135569944.607       -3496.664          41.000  
E36  27573456.498   144899508.119        1659.270          41.000  
E30  25517852.644   134097223.760        1109.653          44.000  
E10  30385781.356   159678332.817       -1961.342          34.000  
E07  26599047.075   139778950.592        -931.759          44.000  
E08  28301791.901   148726882.715       -2884.693          42.000  
G03  27008802.376                        -303.376          24.000  
G31  26192884.574   137644543.634        3755.688          40.000  
> 2024 02 04 12 37 20.0050000  0 17                     
G06  25263544.566   132760833.797        -721.478          40.000  
G11  24998816.478   131369664.362        1412.113          42.000  
G25  21449965.851   112720326.367         494.077          46.000  
G12  22499815.671   118237332.703       -1647.514          46.000  
G28  24042998.754   126346805.974        3074.946          45.000  
G32  23820918.485   125179761.124       -1053.613          48.000  
E18  22538215.048   118439126.474        2416.187          46.000  
E02  25817358.281   135671141.283       -1304.731          43.000  
G29  23934762.511   125778019.975        3328.548          46.000  
G24  25798766.697   135573441.403       -3497.274          41.000  
E36  27573140.738   144897849.309        1657.980          42.000  
E30  25517641.534   134096114.538        1108.500          44.000  
E10  30386154.372   159680294.869       -1962.839          34.000  
E07  26599224.767   139779883.172        -933.385          44.000  
E08  28302341.136   148729767.745       -2885.792          42.000  
G03  27008859.187                        -301.853          24.000  
G31  26192170.232   137640788.453        3754.468          40.000  
> 2024 02 04 12 37 21.0050000  0 17                     
G06  25263681.978   132761555.865        -722.485          40.000  
G11  24998547.686   131368252.706        1411.568          41.000  
G25  21449871.838   112719832.732         493.483          46.000  
G12  22500129.064   118238980.553       -1647.769          46.000  
G28  24042413.336   126343731.234        3074.446          44.000  
G32  23821119.207   125180815.212       -1054.297          49.000  
E18  22537755.348   118436710.827        2415.471          47.000  
E02  25817606.508   135672446.253       -1305.094          43.000  
G29  23934129.070   125774691.851        3328.081          46.000  
G24  25799432.457   135576939.103       -3497.705          42.000  
E36  27572825.757   144896191.677        1657.543          41.000  
E30  25517430.454   134095006.290        1108.075          44.000  
E10  30386528.093   159682257.964       -1962.803          34.000  
E07  26599402.606   139780816.937        -933.855          44.000  
E08  28302890.072   148732653.636       -2885.954          41.000  
G03  27008917.763                        -303.343          25.000  
G31  26191455.462   137637034.124        3754.345          40.000  
> 2024 02 04 12 37 22.0050000  0 17                     
G06  25263819.405   132762278.242        -722.888          40.000  
G11  24998278.698   131366841.302        1410.969          41.000  
G25  21449777.943   112719339.222         493.169          45.000  
G12  22500442.860   118240628.414       -1648.147          46.000  
G28  24041828.285   126340656.409        3074.688          44.000  
G32  23821319.989   125181869.560       -1054.749          49.000  
E18  22537295.557   118434295.593        2414.664          46.000  
E02  25817855.041   135673751.030       -1305.162          43.000  
G29  23933495.549   125771363.724        3327.824          46.000  
G24  25800097.976   135580436.544       -3497.459          41.000  
E36  27572510.183   144894534.148        1657.240          41.000  
E30  25517219.400   134093897.882        1108.020          44.000  
E10  30386901.506   159684221.079       -1963.358          34.000  
E07  26599579.898   139781750.807        -934.316          44.000  
E08  28303439.379   148735539.285       -2885.763          41.000  
G03  27008977.877                        -303.273          26.000  
G31  26190741.146   137633279.503        3754.680          40.000  
> 2024 02 04 12 37 23.0050000  0 17                     
G06  25263957.176   132763001.117        -723.236          40.000  
G11  24998010.121   131365430.299        1410.601          42.000  
G25  21449683.871   112718846.032         492.814          45.000  
G12  22500756.436   118242276.466       -1648.446          46.000  
G28  24041243.445   126337581.737        3074.450          44.000  
G32  23821520.732   125182924.362       -1055.119          49.000  
E18  22536835.898   118431880.976        2413.982          46.000  
E02  25818103.501   135675055.810       -1304.991          43.000  
G29  23932862.219   125768035.813        3327.660          46.000  
G24  25800763.577   135583933.994       -3497.877          41.000  
E36  27572194.771   144892876.906        1656.768          41.000  
E30  25517008.835   134092789.554        1107.913          44.000  
E10  30387275.226   159686184.358       -1963.355          34.000  
E07  26599757.598   139782684.980        -934.508          44.000  
E08  28303987.974   148738424.931       -2885.939          41.000  
G03  27009033.543                        -304.820          26.000  
G31  26190026.743   137629524.857        3754.542          40.000  
> 2024 02 04 12 37 24.0050000  0 17                     
G06  25264094.710   132763724.495        -723.743          41.000  
G11  24997741.490   131364019.759        1410.453          42.000  
G25  21449590.286   112718353.185         492.691          45.000  
G12  22501070.176   118243924.767       -1648.336          46.000  
G28  24040658.533   126334507.224        3074.586          44.000  
G32  23821721.549   125183979.672       -1055.420          49.000  
E18  22536376.654   118429467.006        2413.835          46.000  
E02  25818351.728   135676360.638       -1304.776          43.000  
G29  23932228.575   125764708.139        3327.708          46.000  
G24  25801429.065   135587431.419       -3497.474          40.000  
E36  27571879.945   144891219.983        1656.838          41.000  
E30  25516797.761   134091681.315        1108.264          44.000  
E10  30387648.916   159688147.903       -1963.429          33.000  
E07  26599935.656   139783619.504        -934.513          44.000  
E08  28304537.091   148741310.565       -2885.535          41.000  
G03  27009093.958                        -303.657          26.000  
G31  26189312.141   137625770.162        3754.836          40.000  
> 2024 02 04 12 37 25.0050000  0 17                     
G06  25264232.794   132764448.594        -724.762          41.000  
G11  24997472.905   131362609.895        1408.976          42.000  
G25  21449496.399   112717860.867         491.625          45.000  
G12  22501384.071   118245573.478       -1649.164          46.000  
G28  24040073.421   126331433.074        3073.564          44.000  
G32  23821922.266   125185035.638       -1056.581          49.000  
E18  22535917.461   118427053.849        2412.627          46.000  
E02  25818599.938   135677665.684       -1305.228          43.000  
G29  23931595.591   125761380.898        3326.787          46.000  
G24  25802094.732   135590929.015       -3497.750          40.000  
E36  27571564.918   144889563.561        1655.939          42.000  
E30  25516586.653   134090573.352        1107.710          44.000  
E10  30388022.119   159690111.825       -1964.464          33.000  
E07  26600113.419   139784554.515        -935.374          44.000  
E08  28305085.962   148744196.355       -2885.996          41.000  
G03  27009151.068                        -304.969          26.000  
G31  26188597.648   137622015.613        3754.451          40.000  
> 2024 02 04 12 37 26.0050000  0 17                     
G06  25264370.753   132765173.634        -725.354          41.000  
G11  24997204.693   131361200.896        1408.882          42.000  
G25  21449402.796   112717369.310         491.445          45.000  
G12  22501697.919   118247222.860       -1649.385          46.000  
G28  24039488.448   126328359.500        3073.665          44.000  
G32  23822123.512   125186092.526       -1056.944          49.000  
E18  22535458.212   118424641.789        2411.699          46.000  
E02  25818848.499   135678971.222       -1305.595          43.000  
G29  23930962.484   125758054.321        3326.449          46.000  
G24  25802760.465   135594427.072       -3498.087          40.000  
E36  27571249.839   144887907.898        1655.510          42.000  
E30  25516375.854   134089465.935        1107.276          44.000  
E10  30388395.940   159692076.388       -1964.225          33.000  
E07  26600291.232   139785490.307        -935.824          44.000  
E08  28305635.116   148747082.582       -2886.138          41.000  
G03  27009208.253                        -306.753          26.000  
G31  26187883.291   137618261.484        3754.135          40.000  
> 2024 02 04 12 37 27.0050000  0 17                     
G06  25264509.053   132765899.123        -726.306          41.000  
G11  24996936.562   131359792.269        1408.205          42.000  
G25  21449309.418   112716877.998         490.895          45.000  
G12  22502011.988   118248872.391       -1649.825          46.000  
G28  24038903.390   126325286.005        3073.201          44.000  
G32  23822324.622   125187149.797       -1057.669          48.000  
E18  22534999.481   118422230.244        2411.071          46.000  
E02  25819096.990   135680276.683       -1305.396          43.000  
G29  23930329.440   125754727.890        3326.060          46.000  
G24  25803425.994   135597925.009       -3498.282          40.000  
E36  27570934.505   144886252.451        1655.166          42.000  
E30  25516165.256   134088358.477        1107.253          44.000  
E10  30388769.586   159694041.051       -1964.826          33.000  
E07  26600469.482   139786426.310        -936.296          43.000  
E08  28306184.597   148749968.680       -2886.341          41.000  
G03  27009265.961                        -307.169          25.000  
G31  26187168.768   137614507.197        3754.330          40.000  
> 2024 02 04 12 37 28.0050000  0 17                     
G06  25264647.265   132766625.027        -726.532          39.000  
G11  24996668.762   131358384.043        1407.836          42.000  
G25  21449216.125   112716386.950         490.706          46.000  
G12  22502326.282   118250522.077       -1650.122          46.000  
G28  24038318.383   126322212.592        3073.062          45.000  
G32  23822525.648   125188207.470       -1057.958          48.000  
E18  22534540.431   118419819.275        2410.325          46.000  
E02  25819345.385   135681582.131       -1305.906          43.000  
G29  23929696.547   125751401.617        3325.970          45.000  
G24  25804091.201   135601422.887       -3498.052          41.000  
E36  27570619.529   144884597.269        1654.864          41.000  
E30  25515954.597   134087251.056        1107.132          44.000  
E10  30389143.235   159696005.848       -1965.155          33.000  
E07  26600648.148   139787362.602        -936.741          43.000  
E08  28306733.605   148752854.723       -2886.210          40.000  
G03  27009323.503                        -307.956          25.000  
G31  26186454.197   137610752.821        3754.365          39.000  
> 2024 02 04 12 37 29.0050000  0 17                     
G06  25264785.505   132767351.747        -727.466          38.000  
G11  24996401.266   131356976.504        1407.016          42.000  
G25  21449123.274   112715896.523         490.041          46.000  
G12  22502640.185   118252172.253       -1650.441          46.000  
G28  24037733.222   126319139.603        3072.824          44.000  
G32  23822726.780   125189265.906       -1058.901          47.000  
E18  22534081.510   118417409.227        2409.457          46.000  
E02  25819594.053   135682887.863       -1305.925          43.000  
G29  23929063.880   125748075.863        3325.502          45.000  
G24  25804756.253   135604921.011       -3497.926          41.000  
E36  27570305.084   144882942.630        1654.105          42.000  
E30  25515744.100   134086143.986        1106.759          44.000  
E10  30389516.933   159697971.175       -1966.055          34.000  
E07  26600825.953   139788299.480        -937.438          43.000  
E08  28307282.922   148755741.022       -2886.844          39.000  
G03  27009381.392                        -307.663          24.000  
G31  26185739.767   137606998.650        3754.014          38.000  
> 2024 02 04 12 37 30.0050000  0 17                     
G06  25264923.543   132768079.173        -727.881          39.000  
G11  24996133.749   131355569.630        1406.671          43.000  
G25  21449030.489   112715406.619         489.887          46.000  
G12  22502954.280   118253822.865       -1650.677          47.000  
G28  24037148.686   126316066.990        3072.436          45.000  
G32  23822928.293   125190325.027       -1059.281          47.000  
E18  22533623.302   118415000.014        2408.959          46.000  
E02  25819842.564   135684193.851       -1305.979          43.000  
G29  23928431.188   125744750.533        3325.320          45.000  
G24  25805421.619   135608419.361       -3498.421          40.000  
E36  27569990.228   144881288.511        1654.078          42.000  
E30  25515533.460   134085037.225        1106.682          44.000  
E10  30389891.007   159699936.856       -1965.835          34.000  
E07  26601004.405   139789236.865        -937.570          43.000  
E08  28307831.795   148758627.500       -2886.566          39.000  
G03  27009441.285                        -309.368          24.000  
G31  26185025.585   137603244.667        3753.941          38.000  
> 2024 02 04 12 37 31.0050000  0 17                     
G06  25265062.231   132768807.049        -728.436          39.000  
G11  24995866.318   131354163.131        1406.262          42.000  
G25  21448937.061   112714917.001         489.233          46.000  
G12  22503267.994   118255473.647       -1651.282          46.000  
G28  24036564.034   126312994.460        3072.013          44.000  
G32  23823129.936   125191384.566       -1060.012          47.000  
E18  22533164.776   118412591.374        2408.308          46.000  
E02  25820091.107   135685499.784       -1306.008          43.000  
G29  23927798.196   125741425.387        3324.877          46.000  
G24  25806087.078   135611917.605       -3498.037          40.000  
E36  27569675.273   144879634.645        1653.536          42.000  
E30  25515322.780   134083930.472        1106.410          44.000  
E10  30390265.000   159701902.680       -1966.059          34.000  
E07  26601182.160   139790174.498        -937.818          43.000  
E08  28308381.328   148761513.865       -2886.411          39.000  
G03  27009499.368                        -308.949          24.000  
G31  26184311.284   137599490.555        3754.026          38.000  
> 2024 02 04 12 37 32.0050000  0 17                     
G06  25265201.135   132769535.591        -728.955          39.000  
G11  24995599.046   131352757.271        1405.139          42.000  
G25  21448843.864   112714427.877         488.539          46.000  
G12  22503582.501   118257124.796       -1651.719          46.000  
G28  24035979.329   126309922.250        3071.732          44.000  
G32  23823331.563   125192444.757       -1060.893          46.000  
E18  22532706.837   118410183.542        2407.168          46.000  
E02  25820339.518   135686805.938       -1306.559          43.000  
G29  23927165.639   125738100.620        3324.230          46.000  
G24  25806752.568   135615416.056       -3498.771          40.000  
E36  27569360.690   144877981.246        1652.986          42.000  
E30  25515112.014   134082823.979        1106.043          44.000  
E10  30390639.532   159703868.883       -1966.353          34.000  
E07  26601360.841   139791112.645        -938.736          43.000  
E08  28308930.882   148764400.420       -2886.865          40.000  
G03  27009558.393                        -310.300          24.000  
G31  26183596.431   137595736.587        3753.701          38.000  
> 2024 02 04 12 37 33.0050000  0 17                     
G06  25265340.071   132770264.989        -730.518          39.000  
G11  24995331.665   131351352.170        1404.268          43.000  
G25  21448750.555   112713939.410         487.799          46.000  
G12  22503897.140   118258776.513       -1652.297          47.000  
G28  24035394.841   126306850.519        3071.232          44.000  
G32  23823533.082   125193505.741       -1061.852          46.000  
E18  22532248.871   118407776.673        2406.113          46.000  
E02  25820587.876   135688112.444       -1307.026          43.000  
G29  23926533.117   125734776.406        3323.459          46.000  
G24  25807418.379   135618914.792       -3499.144          40.000  
E36  27569046.232   144876328.501        1652.099          42.000  
E30  25514901.789   134081717.878        1105.684          44.000  
E10  30391013.802   159705835.650       -1967.116          34.000  
E07  26601539.049   139792051.424        -939.437          43.000  
E08  28309480.644   148767287.250       -2887.208          40.000  
G03  27009619.092                        -309.612          24.000  
G31  26182881.902   137591982.911        3753.195          38.000  
> 2024 02 04 12 37 34.0050000  0 17                     
G06  25265478.844   132770994.996        -729.999          39.000  
G11  24995064.623   131349947.645        1404.615          43.000  
G25  21448657.630   112713451.395         488.223          46.000  
G12  22504211.673   118260428.588       -1651.896          47.000  
G28  24034810.256   126303779.075        3071.554          44.000  
G32  23823734.645   125194567.318       -1061.588          46.000  
E18  22531791.516   118405370.564        2406.077          46.000  
E02  25820836.591   135689419.111       -1306.430          43.000  
G29  23925900.394   125731452.558        3323.902          46.000  
G24  25808084.530   135622413.669       -3498.651          40.000  
E36  27568731.716   144874676.177        1652.373          42.000  
E30  25514691.533   134080612.000        1106.173          44.000  
E10  30391388.103   159707802.713       -1966.676          34.000  
E07  26601717.218   139792990.645        -939.078          43.000  
E08  28310030.110   148770174.225       -2886.625          40.000  
G03  27009679.022                        -310.886          24.000  
G31  26182167.664   137588229.306        3754.137          37.000  
> 2024 02 04 12 37 35.0050000  0 17                     
G06  25265617.828   132771725.346        -730.548          39.000  
G11  24994797.340   131348543.388        1404.039          43.000  
G25  21448564.832   112712963.536         487.600          46.000  
G12  22504526.303   118262080.700       -1652.311          47.000  
G28  24034225.558   126300707.593        3071.669          44.000  
G32  23823936.557   125195629.196       -1062.148          46.000  
E18  22531333.616   118402964.903        2405.432          46.000  
E02  25821085.392   135690725.610       -1306.464          43.000  
G29  23925267.561   125728128.745        3323.713          45.000  
G24  25808750.437   135625912.302       -3498.640          40.000  
E36  27568417.145   144873023.968        1652.174          42.000  
E30  25514481.302   134079506.012        1106.118          44.000  
E10  30391762.565   159709769.798       -1967.071          34.000  
E07  26601895.950   139793930.002        -939.352          43.000  
E08  28310579.358   148773060.967       -2886.544          40.000  
G03  27009740.622                        -311.266          24.000  
G31  26181453.348   137584475.506        3753.656          37.000  
> 2024 02 04 12 37 36.0050000  0 17                     
G06  25265756.918   132772456.542        -731.812          39.000  
G11  24994530.177   131347139.906        1402.889          43.000  
G25  21448471.622   112712476.335         486.570          46.000  
G12  22504841.029   118263733.357       -1653.167          47.000  
G28  24033640.980   126297636.603        3070.456          44.000  
G32  23824138.670   125196691.874       -1063.228          46.000  
E18  22530876.088   118400560.199        2404.068          46.000  
E02  25821333.800   135692032.474       -1307.097          43.000  
G29  23924635.057   125724805.493        3322.852          45.000  
G24  25809416.743   135629411.287       -3499.141          40.000  
E36  27568102.640   144871372.413        1651.159          42.000  
E30  25514271.094   134078400.441        1105.281          44.000  
E10  30392137.081   159711737.434       -1968.125          34.000  
E07  26602075.076   139794870.016        -940.511          43.000  
E08  28311128.564   148775948.043       -2887.418          39.000  
G03  27009799.802                        -312.285          25.000  
G31  26180739.120   137580721.941        3753.246          38.000  
> 2024 02 04 12 37 37.0050000  0 17                     
G06  25265896.332   132773188.419        -732.849          39.000  
G11  24994263.368   131345737.038        1402.157          43.000  
G25  21448378.726   112711989.631         485.941          46.000  
G12  22505155.748   118265386.428       -1653.891          47.000  
G28  24033056.381   126294565.941        3069.799          44.000  
G32  23824340.831   125197755.215       -1064.267          46.000  
E18  22530418.376   118398156.313        2402.919          46.000  
E02  25821582.374   135693339.551       -1307.716          43.000  
G29  23924002.648   125721482.654        3322.033          45.000  
G24  25810082.905   135632910.452       -3500.050          41.000  
E36  27567788.277   144869721.325        1650.445          42.000  
E30  25514060.673   134077295.137        1104.500          44.000  
E10  30392511.303   159713705.453       -1969.194          34.000  
E07  26602254.244   139795810.513        -941.375          43.000  
E08  28311678.205   148778835.247       -2887.873          40.000  
G03  27009856.166                        -312.430          25.000  
G31  26180024.876   137576968.546        3752.647          37.000  
> 2024 02 04 12 37 38.0050000  0 17                     
G06  25266035.569   132773921.193        -733.380          38.000  
G11  24993996.785   131344335.017        1401.625          43.000  
G25  21448286.157   112711503.648         485.690          46.000  
G12  22505470.438   118267040.095       -1654.189          47.000  
G28  24032471.925   126291495.820        3069.603          44.000  
G32  23824543.408   125198819.402       -1064.668          46.000  
E18  22529960.855   118395753.440        2402.443          46.000  
E02  25821831.075   135694647.047       -1307.853          43.000  
G29  23923370.500   125718160.412        3321.979          45.000  
G24  25810748.954   135636409.951       -3499.427          41.000  
E36  27567474.275   144868070.954        1649.862          42.000  
E30  25513850.705   134076190.303        1104.417          44.000  
E10  30392886.042   159715674.010       -1968.451          34.000  
E07  26602433.367   139796751.733        -941.771          43.000  
E08  28312227.644   148781722.841       -2887.916          39.000  
G03  27009914.297                        -313.594          25.000  
G31  26179310.409   137573215.485        3752.444          37.000  
> 2024 02 04 12 37 39.0050000  0 17                     
G06  25266175.040   132774654.475        -733.429          38.000  
G11  24993730.034   131342933.468        1401.322          43.000  
G25  21448193.786   112711018.024         485.301          46.000  
G12  22505784.933   118268693.996       -1654.068          47.000  
G28  24031888.086   126288425.844        3069.916          44.000  
G32  23824745.925   125199884.080       -1064.953          47.000  
E18  22529503.738   118393351.234        2401.784          46.000  
E02  25822079.847   135695954.574       -1307.520          43.000  
G29  23922738.224   125714838.425        3321.870          45.000  
G24  25811415.232   135639909.480       -3499.540          41.000  
E36  27567160.195   144866420.901        1649.779          42.000  
E30  25513640.179   134075085.566        1104.476          44.000  
E10  30393260.801   159717642.852       -1969.245          34.000  
E07  26602612.759   139797693.263        -941.931          43.000  
E08  28312776.868   148784610.401       -2887.574          39.000  
G03  27009971.335                        -314.600          25.000  
G31  26178596.093   137569462.395        3753.295          38.000  
> 2024 02 04 12 37 40.0050000  0 18                     
G06  25266314.391   132775388.466        -734.528          39.000  
G11  24993463.447   131341532.527        1400.647          43.000  
G25  21448101.200   112710532.901         484.900          45.000  
G12  22506099.907   118270348.319       -1654.542          47.000  
G28  24031304.132   126285356.231        3069.401          44.000  
G32  23824948.655   125200949.420       -1065.639          47.000  
E18  22529046.341   118390949.813        2401.064          46.000  
E02  25822328.788   135697262.315       -1308.010          42.000  
G29  23922106.110   125711516.850        3321.486          45.000  
G24  25812081.296   135643409.195       -3499.600          42.000  
E36  27566846.183   144864771.332        1649.344          42.000  
E11  27734566.750   145746142.1321       -870.044          36.000  
E30  25513430.183   134073981.074        1104.441          44.000  
E10  30393635.671   159719612.019       -1969.418          34.000  
E07  26602792.256   139798635.288        -942.207          43.000  
E08  28313326.500   148787498.135       -2887.637          41.000  
G03  27010033.404                        -315.050          26.000  
G31  26177882.078   137565709.442        3753.029          38.000  
> 2024 02 04 12 37 41.0050000  0 18                     
G06  25266454.252   132776122.939        -735.010          39.000  
G11  24993196.974   131340131.952        1400.414          43.000  
G25  21448008.674   112710048.051         484.676          46.000  
G12  22506415.023   118272002.807       -1654.758          47.000  
G28  24030720.008   126282286.707        3069.427          44.000  
G32  23825151.712   125202015.169       -1065.900          47.000  
E18  22528589.726   118388548.989        2400.557          46.000  
E02  25822577.373   135698570.024       -1307.595          42.000  
G29  23921474.126   125708195.448        3321.333          45.000  
G24  25812747.122   135646908.816       -3499.589          41.000  
E36  27566532.522   144863121.971        1649.279          42.000  
E11  27734730.112   145747011.555        -869.767          36.000  
E30  25513220.168   134072876.609        1104.378          44.000  
E10  30394010.412   159721581.349       -1969.163          33.000  
E07  26602971.782   139799577.596        -942.615          43.000  
E08  28313876.382   148790385.803       -2887.629          40.000  
G03  27010092.239                        -313.968          26.000  
G31  26177168.042   137561956.378        3753.133          39.000  
> 2024 02 04 12 37 42.0050000  0 18                     
G06  25266594.055   132776858.020        -735.437          39.000  
G11  24992930.470   131338732.032        1399.522          43.000  
G25  21447916.480   112709563.684         484.135          46.000  
G12  22506730.143   118273657.666       -1655.167          47.000  
G28  24030135.890   126279217.499        3068.914          44.000  
G32  23825354.822   125203081.572       -1066.940          47.000  
E18  22528133.137   118386148.980        2399.494          45.000  
E02  25822826.222   135699877.952       -1308.082          42.000  
G29  23920841.916   125704874.440        3320.702          45.000  
G24  25813413.026   135650408.610       -3500.109          41.000  
E36  27566218.516   144861473.131        1648.369          42.000  
E11  27734892.452   145747881.481        -869.804          35.000  
E30  25513009.864   134071772.406        1104.019          44.000  
E10  30394385.751   159723551.048       -1969.886          33.000  
E07  26603151.554   139800520.372        -943.021          44.000  
E08  28314425.844   148793273.601       -2888.013          39.000  
G03  27010155.128                        -316.964          26.000  
G31  26176453.966   137558203.454        3752.583          39.000  
> 2024 02 04 12 37 43.0050000  0 18                     
G06  25266733.914   132777593.861        -736.224          39.000  
G11  24992664.336   131337332.759        1398.782          43.000  
G25  21447824.505   112709079.887         483.657          46.000  
G12  22507044.814   118275312.959       -1655.246          47.000  
G28  24029551.703   126276148.661        3068.788          44.000  
G32  23825558.025   125204148.649       -1067.214          47.000  
E18  22527676.502   118383749.798        2398.826          45.000  
E02  25823074.689   135701186.109       -1308.215          42.000  
G29  23920210.323   125701553.880        3320.375          45.000  
G24  25814079.064   135653908.586       -3499.962          41.000  
E36  27565904.506   144859824.788        1648.082          42.000  
E11  27735067.754   145748751.989        -870.676          36.000  
E30  25512800.023   134070668.489        1103.867          44.000  
E10  30394760.455   159725521.188       -1970.368          33.000  
E07  26603331.791   139801463.686        -943.398          44.000  
E08  28314975.556   148796161.613       -2888.242          39.000  
G03  27010214.663                        -318.404          26.000  
G31  26175739.754   137554450.667        3752.871          38.000  
> 2024 02 04 12 37 44.0050000  0 18                     
G06  25266874.070   132778330.265        -736.652          39.000  
G11  24992398.175   131335933.991        1398.562          43.000  
G25  21447732.348   112708596.474         483.197          46.000  
G12  22507359.590   118276968.557       -1655.815          46.000  
G28  24028968.002   126273080.052        3068.396          44.000  
G32  23825761.150   125205216.270       -1067.989          47.000  
E18  22527220.274   118381351.331        2397.969          45.000  
E02  25823323.777   135702494.360       -1308.539          42.000  
G29  23919578.426   125698233.599        3320.320          45.000  
G24  25814745.063   135657408.626       -3500.021          41.000  
E36  27565590.775   144858176.821        1647.801          42.000  
E11  27735231.673   145749622.892        -870.982          36.000  
E30  25512590.276   134069564.729        1103.504          44.000  
E10  30395135.707   159727491.568       -1971.011          33.000  
E07  26603511.393   139802407.390        -943.897          44.000  
E08  28315525.068   148799049.628       -2887.981          39.000  
G03  27010273.017                        -317.543          26.000  
G31  26175025.419   137550697.911        3752.923          38.000  
> 2024 02 04 12 37 45.0050000  0 18                     
G06  25267014.188   132779067.185        -737.323          40.000  
G11  24992132.292   131334535.654        1398.299          43.000  
G25  21447640.305   112708113.379         483.011          46.000  
G12  22507674.586   118278624.353       -1655.804          46.000  
G28  24028383.910   126270011.569        3068.544          44.000  
G32  23825964.907   125206284.353       -1068.229          47.000  
E18  22526763.897   118378953.461        2397.811          45.000  
E02  25823573.211   135703802.614       -1308.181          43.000  
G29  23918946.432   125694913.547        3320.047          45.000  
G24  25815410.978   135660908.625       -3499.713          41.000  
E36  27565277.317   144856529.150        1647.666          42.000  
E11  27735400.643   145750494.120        -870.858          36.000  
E30  25512380.590   134068461.024        1103.811          44.000  
E10  30395510.147   159729462.107       -1970.327          33.000  
E07  26603691.327   139803351.390        -944.007          44.000  
E08  28316074.362   148801937.645       -2887.975          39.000  
G03  27010328.360                        -316.959          26.000  
G31  26174311.327   137546945.144        3752.841          38.000  
> 2024 02 04 12 37 46.0050000  0 18                     
G06  25267154.370   132779804.433        -737.695          39.000  
G11  24991865.993   131333137.623        1397.569          42.000  
G25  21447548.466   112707630.474         482.380          46.000  
G12  22507989.700   118280280.235       -1656.213          46.000  
G28  24027799.937   126266943.097        3068.189          44.000  
G32  23826168.455   125207352.771       -1068.928          47.000  
E18  22526307.691   118376556.107        2396.795          45.000  
E02  25823822.182   135705110.769       -1308.518          43.000  
G29  23918314.524   125691593.585        3319.741          45.000  
G24  25816076.953   135664408.475       -3499.915          41.000  
E36  27564963.813   144854881.640        1647.255          42.000  
E11  27735565.251   145751365.553        -871.611          36.000  
E30  25512170.529   134067357.272        1103.358          44.000  
E10  30395885.314   159731432.783       -1971.354          34.000  
E07  26603871.221   139804295.575        -944.671          44.000  
E08  28316623.679   148804825.496       -2888.246          39.000  
G03  27010390.522                        -318.313          25.000  
G31  26173597.217   137543192.129        3753.024          38.000  
> 2024 02 04 12 37 47.0050000  0 18                     
G06  25267294.967   132780542.393        -737.958          39.000  
G11  24991599.747   131331740.221        1397.223          42.000  
G25  21447456.837   112707148.068         482.271          46.000  
G12  22508304.714   118281936.520       -1656.418          46.000  
G28  24027216.046   126263874.974        3068.198          44.000  
G32  23826371.988   125208421.828       -1069.145          47.000  
E18  22525851.737   118374159.559        2396.352          45.000  
E02  25824071.077   135706419.118       -1308.311          43.000  
G29  23917682.960   125688274.029        3319.581          45.000  
G24  25816743.027   135667908.496       -3499.879          41.000  
E36  27564650.485   144853234.636        1646.866          42.000  
E11  27735731.574   145752237.520        -872.482          36.000  
E30  25511960.659   134066253.766        1103.672          44.000  
E10  30396260.498   159733403.758       -1971.222          34.000  
E07  26604050.962   139805240.241        -944.806          44.000  
E08  28317173.043   148807713.474       -2887.743          39.000  
G03  27010453.223                        -318.237          25.000  
G31  26172883.335   137539439.302        3752.859          38.000  
> 2024 02 04 12 37 48.0050000  0 18                     
G06  25267435.930   132781281.328        -739.850          39.000  
G11  24991333.864   131330343.731        1395.693          42.000  
G25  21447365.091   112706666.457         480.810          46.000  
G12  22508619.943   118283593.478       -1657.635          46.000  
G28  24026632.236   126260807.452        3066.858          44.000  
G32  23826575.467   125209491.824       -1070.697          47.000  
E18  22525395.819   118371764.111        2394.638          45.000  
E02  25824320.078   135707727.960       -1309.261          43.000  
G29  23917051.406   125684955.164        3318.227          45.000  
G24  25817409.344   135671408.961       -3501.090          41.000  
E36  27564337.330   144851588.375        1645.573          41.000  
E11  27735897.202   145753110.249        -873.436          36.000  
E30  25511750.801   134065150.805        1102.654          44.000  
E10  30396635.326   159735375.377       -1971.835          34.000  
E07  26604231.145   139806185.682        -946.034          44.000  
E08  28317722.857   148810601.912       -2888.855          39.000  
G03  27010515.678                        -320.162          26.000  
G31  26172169.235   137535686.870        3752.115          38.000  
> 2024 02 04 12 37 49.0050000  0 18                     
G06  25267576.801   132782020.865        -740.149          39.000  
G11  24991068.241   131328947.836        1395.450          42.000  
G25  21447273.697   112706185.296         480.880          45.000  
G12  22508935.240   118285250.788       -1657.465          46.000  
G28  24026048.554   126257740.215        3067.053          44.000  
G32  23826779.117   125210562.438       -1071.018          47.000  
E18  22524939.882   118369369.414        2394.174          45.000  
E02  25824569.049   135709036.972       -1308.890          43.000  
G29  23916419.662   125681636.631        3318.329          45.000  
G24  25818075.596   135674909.543       -3500.966          42.000  
E36  27564023.983   144849942.559        1645.687          41.000  
E11  27736063.150   145753983.484        -873.521          36.000  
E30  25511540.632   134064048.063        1102.671          44.000  
E10  30397010.504   159737347.365       -1971.617          33.000  
E07  26604411.069   139807131.571        -946.000          44.000  
E08  28318272.081   148813490.402       -2888.158          38.000  
G03  27010579.137                        -318.934          26.000  
G31  26171455.170   137531934.547        3752.342          38.000  
> 2024 02 04 12 37 50.0050000  0 18                     
G06  25267717.714   132782761.079        -740.167          40.000  
G11  24990802.442   131327552.495        1395.433          41.000  
G25  21447182.010   112705704.607         480.990          45.000  
G12  22509250.363   118286908.471       -1657.586          46.000  
G28  24025465.274   126254673.275        3067.407          45.000  
G32  23826982.894   125211633.653       -1071.025          48.000  
E18  22524484.235   118366975.496        2393.872          46.000  
E02  25824817.889   135710346.131       -1308.756          42.000  
G29  23915788.287   125678318.512        3318.398          45.000  
G24  25818741.697   135678410.259       -3500.292          42.000  
E36  27563710.767   144848297.171        1645.518          41.000  
E11  27736229.740   145754857.237        -874.291          35.000  
E30  25511330.423   134062945.540        1102.848          44.000  
E10  30397385.749   159739319.755       -1971.740          33.000  
E07  26604591.110   139808077.932        -946.442          44.000  
E08  28318822.258   148816379.131       -2888.564          39.000  
G03  27010640.353                        -319.934          27.000  
G31  26170741.201   137528182.290        3752.354          40.000  
> 2024 02 04 12 37 51.0050000  0 18                     
G06  25267858.727   132783501.726        -741.089          40.000  
G11  24990536.869   131326157.543        1394.283          43.000  
G25  21447091.103   112705224.193         479.827          45.000  
G12  22509566.039   118288566.275       -1658.224          47.000  
G28  24024881.944   126251606.410        3066.301          45.000  
G32  23827186.639   125212705.276       -1072.364          48.000  
E18  22524028.636   118364582.149        2392.593          46.000  
E02  25825067.004   135711655.268       -1309.608          42.000  
G29  23915156.977   125675000.507        3317.526          46.000  
G24  25819407.488   135681910.888       -3501.152          41.000  
E36  27563397.656   144846652.040        1644.458          41.000  
E11  27736396.045   145755731.137        -874.615          37.000  
E30  25511120.758   134061843.035        1101.879          44.000  
E10  30397761.313   159741292.216       -1972.986          34.000  
E07  26604771.194   139809024.533        -947.249          44.000  
E08  28319371.920   148819267.672       -2888.900          40.000  
G03  27010702.026   141942193.7863       -321.429          27.000  
G31  26170026.919   137524429.950        3751.859          39.000  
> 2024 02 04 12 37 52.0050000  0 18                     
G06  25268000.274   132784243.083        -741.516          40.000  
G11  24990271.691   131324763.259        1394.118          43.000  
G25  21446999.934   112704744.323         479.932          45.000  
G12  22509881.487   118290224.533       -1658.028          46.000  
G28  24024298.557   126248539.912        3066.681          45.000  
G32  23827390.403   125213777.584       -1072.369          48.000  
E18  22523573.811   118362189.653        2392.485          46.000  
E02  25825316.036   135712964.640       -1309.251          42.000  
G29  23914525.474   125671682.964        3317.609          46.000  
G24  25820073.421   135685411.725       -3500.899          42.000  
E36  27563084.974   144845007.406        1644.802          41.000  
E11  27736562.104   145756605.625        -874.251          36.000  
E30  25510911.072   134060740.798        1102.606          44.000  
E10  30398137.232   159743265.138       -1973.396          34.000  
E07  26604951.154   139809971.679        -947.028          44.000  
E08  28319921.266   148822156.447       -2888.461          39.000  
G03  27010765.866   141942515.1952       -321.338          27.000  
G31  26169312.953   137520677.752        3752.802          39.000  
> 2024 02 04 12 37 53.0050000  0 18                     
G06  25268141.629   132784984.861        -742.102          40.000  
G11  24990006.708   131323369.294        1393.527          42.000  
G25  21446908.576   112704264.638         479.052          45.000  
G12  22510197.227   118291882.890       -1658.286          46.000  
G28  24023715.148   126245473.471        3066.057          44.000  
G32  23827594.579   125214850.228       -1073.194          48.000  
E18  22523119.115   118359797.666        2391.437          46.000  
E02  25825565.151   135714273.917       -1309.489          42.000  
G29  23913894.225   125668365.529        3317.092          46.000  
G24  25820739.428   135688912.374       -3500.640          40.000  
E36  27562771.821   144843362.984        1643.944          41.000  
E11  27736728.441   145757480.380        -874.850          36.000  
E30  25510701.098   134059638.544        1101.805          44.000  
E10  30398512.433   159745238.111       -1973.271          35.000  
E07  26605131.377   139810918.985        -947.881          43.000  
E08  28320470.379   148825045.060       -2888.907          40.000  
G03  27010825.764   141942836.9552       -322.418          27.000  
G31  26168598.757   137516925.415        3752.202          39.000  
> 2024 02 04 12 37 54.0050000  0 18                     
G06  25268282.976   132785727.924        -744.189          39.000  
G11  24989741.582   131321976.574        1391.882          42.000  
G25  21446817.695   112703786.105         477.537          45.000  
G12  22510513.305   118293542.278       -1660.325          46.000  
G28  24023131.905   126242407.955        3064.801          44.000  
G32  23827798.487   125215924.164       -1074.864          46.000  
E18  22522664.084   118357407.109        2389.434          46.000  
E02  25825814.541   135715584.041       -1310.800          43.000  
G29  23913263.354   125665049.120        3315.720          45.000  
G24  25821405.645   135692413.858       -3501.803          41.000  
E36  27562458.980   144841719.663        1642.354          41.000  
E11  27736895.322   145758356.245        -876.537          36.000  
E30  25510491.107   134058537.147        1100.828          44.000  
E10  30398887.781   159747212.056       -1974.739          35.000  
E07  26605311.773   139811867.420        -949.078          43.000  
E08  28321020.783   148827934.451       -2889.884          40.000  
G03  27010886.715   141943159.9522       -323.757          28.000  
G31  26167884.602   137513173.783        3751.120          39.000  
> 2024 02 04 12 37 55.0050000  0 18                     
G06  25268424.687   132786471.487        -743.573          39.000  
G11  24989476.784   131320584.262        1392.316          42.000  
G25  21446726.936   112703307.855         478.257          46.000  
G12  22510829.453   118295201.862       -1659.398          46.000  
G28  24022548.638   126239342.583        3065.202          44.000  
G32  23828002.726   125216998.523       -1074.371          46.000  
E18  22522209.150   118355017.176        2389.909          46.000  
E02  25826063.865   135716894.157       -1309.789          43.000  
G29  23912632.343   125661732.928        3316.372          45.000  
G24  25822071.855   135695915.336       -3501.520          42.000  
E36  27562145.980   144840076.612        1643.075          41.000  
E11  27737061.904   145759232.407        -875.906          36.000  
E30  25510281.466   134057435.829        1101.729          44.000  
E10  30399263.957   159749186.246       -1974.279          35.000  
E07  26605492.163   139812816.144        -948.624          43.000  
E08  28321570.183   148830823.820       -2888.979          40.000  
G03  27010948.829   141943483.5562       -323.965          28.000  
G31  26167170.792   137509422.156        3752.034          39.000  
> 2024 02 04 12 37 56.0050000  0 18                     
G06  25268566.466   132787215.270        -744.012          40.000  
G11  24989212.118   131319192.129        1392.089          42.000  
G25  21446636.391   112702829.663         478.097          46.000  
G12  22511145.323   118296861.376       -1659.496          46.000  
G28  24021965.613   126236277.066        3065.603          45.000  
G32  23828207.090   125218073.097       -1074.735          46.000  
E18  22521754.159   118352627.583        2389.507          46.000  
E02  25826313.111   135718204.022       -1309.885          43.000  
G29  23912000.942   125658416.681        3316.373          45.000  
G24  25822738.115   135699416.470       -3501.085          41.000  
E36  27561833.542   144838433.587        1643.345          41.000  
E11  27737229.424   145760108.650        -875.909          36.000  
E30  25510071.845   134056334.316        1101.386          45.000  
E10  30399639.292   159751160.296       -1974.196          35.000  
E07  26605672.389   139813764.910        -948.815          43.000  
E08  28322120.413   148833712.848       -2888.813          40.000  
G03  27011013.827   141943807.1702       -323.430          29.000  
G31  26166456.919   137505670.193        3752.075          39.000  
