     3.00           OBSERVATION DATA    M: Mixed            RINEX VERSION / TYPE
RTKCONV demo5 b34f.1                    20231230 123547 UTC PGM / RUN BY / DATE 
format: u-blox UBX                                          COMMENT             
log: C:\Users\oo\Desktop\divers\verniquet\Reseau\micro\reseaCOMMENT             
                                                            MARKER NAME         
                                                            MARKER NUMBER       
                                                            MARKER TYPE         
                                                            OBSERVER / AGENCY   
                                                            REC # / TYPE / VERS 
                                                            ANT # / TYPE        
  4200335.1800   178224.3334  4780592.6968                  APPROX POSITION XYZ 
        0.0000        0.0000        0.0000                  ANTENNA: DELTA H/E/N
G    4 C1C L1C D1C S1C                                      SYS / # / OBS TYPES 
E    4 C1X L1X D1X S1X                                      SYS / # / OBS TYPES 
  2023    12    30    11    48   46.0000000     GPS         TIME OF FIRST OBS   
  2023    12    30    11    57   58.9990000     GPS         TIME OF LAST OBS    
                                                            END OF HEADER       
> 2023 12 30 11 48 46.0000000  0 16                     
G13  22189729.440   116607808.8113      -3018.086          46.000  
E05  21854830.923   114847920.0641        319.946          44.000  
G15  20579667.336   108146884.3753      -1943.459          46.000  
E31  24620486.302   129381504.9721      -1704.329          41.000  
G10  23488333.008   123432005.6583       1493.633          40.000  
E25  26289709.775   138153368.8221       3003.541          39.000  
G24  20036138.459   105290619.9693       1006.100          46.000  
G19  22518632.330   118336197.6933       2203.396          44.000  
G14  23995883.759   126099232.5803      -3181.080          40.000  
G22  22695019.969   119263145.3603      -2617.679          44.000  
E09  25148162.285   132154499.9041      -2275.444          43.000  
G23  22427926.622   117859535.9993       -937.551          43.000  
E24  23397029.968   122952233.8501        953.228          44.000  
G12  22709610.445   119339797.7753       3720.193          43.000  
E03  25965599.168   136450176.8061       2666.794          38.000  
G17  22673459.387   119149834.3843         11.633          44.000  
> 2023 12 30 11 48 47.0000000  0 16                     
G13  22190305.681   116610826.8682      -3018.058          46.000  
E05  21854766.497   114847600.163         320.023          44.000  
G15  20580038.921   108148828.0922      -1943.685          46.000  
E31  24620813.389   129383209.013       -1703.794          41.000  
G10  23488046.510   123430512.4212       1493.315          40.000  
E25  26289143.341   138150365.179        3003.889          39.000  
G24  20035945.006   105289613.9982       1005.956          46.000  
G19  22518212.374   118333994.4362       2203.268          44.000  
G14  23996493.051   126102414.0572      -3181.057          40.000  
G22  22695519.813   119265763.1742      -2617.736          44.000  
E09  25148593.619   132156775.261       -2275.175          43.000  
G23  22428103.881   117860473.7652       -937.724          43.000  
E24  23396849.149   122951280.680         953.304          44.000  
G12  22708904.479   119336077.7062       3720.223          44.000  
E03  25965093.356   136447509.842        2667.366          38.000  
G17  22673458.236   119149823.0122         11.373          43.000  
> 2023 12 30 11 48 48.0000000  0 16                     
G13  22190877.001   116613844.6282      -3017.391          46.000  
E05  21854713.518   114847280.095         320.046          44.000  
G15  20580407.993   108150771.7862      -1943.608          45.000  
E31  24621139.394   129384912.768       -1703.600          42.000  
G10  23487763.991   123429019.2252       1493.435          40.000  
E25  26288569.577   138147361.128        3004.187          40.000  
G24  20035754.659   105288607.8992       1006.324          46.000  
G19  22517792.102   118331791.1202       2203.512          44.000  
G14  23997097.352   126105595.0702      -3180.398          39.000  
G22  22696018.121   119268380.6642      -2617.186          44.000  
E09  25149033.365   132159050.298       -2274.908          43.000  
G23  22428284.770   117861411.5962       -937.738          43.000  
E24  23396674.926   122950327.339         953.238          44.000  
G12  22708196.140   119332357.3342       3720.822          44.000  
E03  25964580.668   136444842.515        2667.424          38.000  
G17  22673456.840   119149811.6812         11.533          43.000  
> 2023 12 30 11 48 49.0000000  0 16                     
G13  22191451.497   116616863.4192      -3020.113          46.000  
E05  21854647.312                         317.904          43.000  
G15  20580778.705   108152716.7592      -1946.463          45.000  
E31  24621455.278                       -1705.837          41.000  
G10  23487481.053   123427527.3812       1489.985          40.000  
E25  26287998.292                        3002.289          38.000  
G24  20035564.765                        1003.711          46.000  
G19  22517372.913   118329589.0602       2199.928          44.000  
G14  23997702.490                       -3182.854          38.000  
G22  22696515.976   119270999.1512      -2620.114          44.000  
E09  25149462.535                       -2277.393          42.000  
G23  22428465.171   117862350.7922       -941.410          43.000  
E24  23396487.057                         951.352          42.000  
G12  22707487.486   119328637.9822       3717.819          43.000  
E03  25964077.020                        2664.783          38.000  
G17  22673455.374   119149801.7042          8.068          44.000  
> 2023 12 30 11 48 59.0000000  0 16                     
G24  20033652.885                         998.367          36.000  
G13  22197192.724   116647034.2633      -3016.971          36.000  
E05  21854045.803                         314.247          37.000  
G15  20584481.362                       -1937.746          35.000  
E31  24624705.869                       -1704.891          35.000  
G10  23484645.951                        1485.636          30.000  
E25  26282278.181                        3001.068          35.000  
G17  22673438.901                           5.203          34.000  
G19  22513183.605                        2199.879          35.000  
G14  24003754.854                       -3178.201          37.000  
G22  22701496.827                       -2641.723          29.000  
E09  25153791.795                       -2276.078          37.000  
G23  22430249.630                        -950.851          29.000  
E24  23394679.773                         951.769          38.000  
G12  22700403.780   119291423.1493       3720.696          31.000  
E03  25959000.158                        2659.073          28.000  
> 2023 12 30 11 49 00.0000000  0 16                     
G24  20033460.688   105276545.6593        996.176          47.000  
G13  22197769.593   116650065.6933      -3025.453          46.000  
E05  21853979.667   114843448.3421        310.733          45.000  
G15  20584852.249   108174128.4413      -1954.668          46.000  
E31  24625028.664   129405409.3861      -1710.903          42.000  
G10  23484362.455   123411156.7713       1483.074          41.000  
E25  26281705.534   138111305.1751       2998.781          40.000  
G17  22673437.819   119149719.3263         -0.491          44.000  
G19  22512765.114   118305378.5013       2192.877          44.000  
G14  24004360.167   126143763.1403      -3186.493          41.000  
G22  22701997.159   119299799.8803      -2624.954          44.000  
E09  25154223.234   132186344.9781      -2281.683          43.000  
G23  22430432.334   117872717.1433       -950.047          43.000  
E24  23394499.826   122938936.3771        944.497          45.000  
G12  22699699.559   119287725.7023       3712.930          42.000  
E03  25958493.928   136412815.9231       2660.037          40.000  
> 2023 12 30 11 49 01.0000000  0 15                     
G24  20033273.168                         998.410          33.000  
G13  22198341.611                       -3002.961          34.000  
E05  21853922.046                         314.061          32.000  
G15  20585224.986                       -1956.070          33.000  
E31  24625351.911                       -1682.337          32.000  
G10  23484081.262   123409674.5232       1482.875          27.000  
E25  26281135.087                        2976.575          30.000  
G17  22673437.191   119149718.9052          2.161          31.000  
G19  22512347.879                        2192.533          32.000  
G14  24004966.737                       -3176.668          33.000  
E09  25154656.732                       -2280.713          29.000  
G23  22430612.699                        -953.048          30.000  
E24  23394318.239                         950.912          34.000  
G12  22698993.314                        3729.126          31.000  
E03  25957984.521                        2684.533          30.000  
> 2023 12 30 11 49 02.0000000  0 15                     
G13  22198919.143   116656106.6673      -3023.976          47.000  
E05  21853865.577   114842849.0171        312.486          46.000  
G15  20585598.316   108178048.3453      -1953.638          48.000  
E31  24625676.102   129408811.7651      -1709.365          44.000  
G17  22673431.188   119149684.8783          0.457          46.000  
E25  26280564.744   138105309.4871       2999.778          40.000  
G10  23483806.212   123408234.4913       1482.301          42.000  
G22  22702988.646   119305009.8883      -2622.713          46.000  
G19  22511929.248   118300986.5193       2193.911          47.000  
G14  24005571.666   126150130.4983      -3185.073          41.000  
E09  25155089.009   132190894.7881      -2280.477          45.000  
G23  22430792.018   117874607.3073       -948.562          44.000  
E24  23394138.711   122937039.1501        946.064          46.000  
G12  22698286.440   119280299.5663       3714.531          44.000  
E03  25957476.615   136407469.9351       2662.819          40.000  
> 2023 12 30 11 49 03.0000000  0 16                     
G24  20032893.765   105273566.6253        997.030          47.000  
G13  22199494.791   116659130.7572      -3024.291          47.000  
E05  21853805.374   114842536.851         312.076          46.000  
G15  20585966.585   108180002.2742      -1954.201          48.000  
E31  24626003.712   129410521.221       -1709.571          43.000  
G17  22673436.004   119149684.7222         -0.103          46.000  
E25  26279995.099   138102309.829        2999.668          40.000  
G10  23483519.226   123406752.4272       1481.668          43.000  
G22  22703491.561   119307633.2242      -2623.426          45.000  
G19  22511509.501   118298792.9442       2193.144          46.000  
G14  24006177.852   126153315.5022      -3185.050          41.000  
E09  25155529.243   132193175.448       -2280.832          45.000  
G23  22430975.280   117875556.5062       -949.745          45.000  
E24  23393955.972   122936093.556         945.513          46.000  
G12  22697580.265   119276585.2882       3714.220          45.000  
E03  25956972.408   136404807.122        2662.506          40.000  
> 2023 12 30 11 49 04.0000000  0  8                     
G13  22200071.381                       -3058.408          23.000  
E05  21853744.961                         285.894          19.000  
E31  24626327.867                       -1685.376          21.000  
E25  26279426.571                        2989.848          23.000  
G14  24006785.782                       -3202.940          23.000  
G23  22431156.204                        -945.098          20.000  
G12  22696872.763                        3715.724          17.000  
E03  25956465.654                        2660.395          11.000  
> 2023 12 30 11 49 05.0000000  0 14                     
G13  22200645.563   116665179.2693      -3024.581          48.000  
E05  21853683.048                         311.663          47.000  
G15  20586709.825                       -1955.052          48.000  
E31  24626656.804                       -1709.728          44.000  
G17  22673439.285   119149727.2513         -0.923          46.000  
E25  26278853.052                        2999.456          41.000  
G22  22704490.691   119312903.1363      -2623.556          46.000  
G19  22510674.019                        2192.622          46.000  
G14  24007389.630                       -3184.408          41.000  
E09  25156391.947                       -2281.348          44.000  
G23  22431345.155                        -950.269          46.000  
E24  23393607.422                         944.903          47.000  
G12  22696165.192                        3713.919          45.000  
E03  25955959.807                        2663.592          40.000  
> 2023 12 30 11 49 06.0000000  0 16                     
G24  20032324.085   105270573.2413        996.026          48.000  
G13  22201222.118   116668203.8992      -3024.523          48.000  
E05  21853625.881   114841577.9261        311.264          47.000  
G15  20587082.841   108185850.0723      -1955.340          48.000  
E31  24626978.272   129415675.3021      -1709.906          43.000  
G17  22673438.203   119149728.6432         -1.890          46.000  
E25  26278279.463   138093300.9791       2999.296          41.000  
G10  23482673.553   123402282.1133       1480.329          42.000  
G22  22704988.580   119315526.8962      -2623.898          46.000  
G19  22510261.915   118292224.5853       2191.930          45.000  
G14  24007994.873   126162864.5753      -3184.983          41.000  
E09  25156828.133   132200023.1101      -2281.292          44.000  
G23  22431521.227   117878439.5233       -950.903          46.000  
E24  23393418.541   122933254.2281        944.593          48.000  
G12  22695459.784   119265445.3733       3713.689          46.000  
E03  25955453.506   136396838.8931       2662.453          40.000  
> 2023 12 30 11 49 07.0000000  0 16                     
G24  20032131.679   105269577.1322        996.048          47.000  
G13  22201797.312   116671228.4682      -3024.589          47.000  
E05  21853569.586   114841266.700         311.118          47.000  
G15  20587455.822   108187805.5502      -1955.562          48.000  
E31  24627302.950   129417385.092       -1709.629          44.000  
G17  22673438.831   119149730.2612         -1.620          46.000  
E25  26277705.421   138090301.270        2999.817          41.000  
G10  23482393.338   123400801.8302       1480.187          43.000  
G22  22705488.494   119318150.5462      -2623.481          46.000  
G19  22509844.540   118290032.4242       2192.173          46.000  
G14  24008602.036   126166049.4892      -3184.733          42.000  
E09  25157259.746   132202304.082       -2280.744          44.000  
G23  22431701.104   117879390.5412       -951.202          46.000  
E24  23393241.002   122932309.490         944.890          48.000  
G12  22694751.620   119261731.5662       3713.851          45.000  
E03  25954943.332   136394176.096        2662.941          40.000  
> 2023 12 30 11 49 08.0000000  0 16                     
G24  20031943.915   105268581.5982        994.989          47.000  
G13  22202374.740   116674253.4372      -3025.509          48.000  
E05  21853503.764   114840955.974         310.050          47.000  
G15  20587828.523   108189761.6882      -1956.788          47.000  
E31  24627633.109   129419095.270       -1710.684          44.000  
G17  22673438.656   119149732.6272         -3.228          46.000  
E25  26277133.368   138087301.846        2998.993          41.000  
G10  23482111.412   123399322.2762       1478.738          43.000  
G22  22705989.350   119320774.6002      -2624.636          46.000  
G19  22509428.143   118287840.9132       2190.984          46.000  
G14  24009209.443   126169234.6262      -3185.671          42.000  
E09  25157692.442   132204585.410       -2281.729          44.000  
G23  22431881.679   117880342.3092       -952.368          46.000  
E24  23393060.846   122931365.239         943.665          47.000  
G12  22694048.620   119258018.1462       3712.547          45.000  
E03  25954435.042   136391513.591        2662.021          40.000  
> 2023 12 30 11 49 09.0000000  0 16                     
G24  20031755.906   105267586.6992        994.300          47.000  
G13  22202950.039   116677278.8762      -3025.661          48.000  
E05  21853452.251   114840645.819         309.752          47.000  
G15  20588199.061   108191718.5622      -1957.312          47.000  
E31  24627960.614   129420805.852       -1710.955          44.000  
G17  22673438.726   119149735.7812         -3.660          46.000  
E25  26276570.249   138084302.787        2998.574          41.000  
G10  23481827.985   123397843.4982       1478.288          43.000  
G22  22706489.613   119323399.0542      -2624.760          46.000  
G19  22509009.547   118285650.1032       2190.721          46.000  
G14  24009816.501   126172420.0912      -3185.799          42.000  
E09  25158129.919   132206867.182       -2282.245          44.000  
G23  22432063.685   117881294.8792       -953.055          45.000  
E24  23392881.981   122930421.579         943.124          48.000  
G12  22693342.829   119254305.1692       3712.618          45.000  
E03  25953931.463   136388851.448        2661.904          40.000  
> 2023 12 30 11 49 10.0000000  0 16                     
G24  20031565.908   105266592.2882        994.026          47.000  
G13  22203526.140   116680304.6432      -3025.993          47.000  
E05  21853393.200   114840336.105         309.428          46.000  
G15  20588571.763   108193676.0332      -1957.739          47.000  
E31  24628285.398   129422516.744       -1711.116          43.000  
G17  22673439.948   119149739.5982         -4.175          45.000  
E25  26276000.046   138081303.893        2998.824          41.000  
G10  23481546.060   123396365.4092       1477.604          42.000  
G22  22706987.922   119326023.8332      -2624.901          45.000  
G19  22508593.499   118283459.8632       2189.894          45.000  
G14  24010422.094   126175605.7372      -3185.991          42.000  
E09  25158565.721   132209149.224       -2282.293          44.000  
G23  22432245.691   117882248.1232       -953.661          45.000  
E24  23392702.000   122929478.340         942.981          47.000  
G12  22692634.594   119250592.5272       3712.455          45.000  
E03  25953425.896   136386189.492        2661.891          39.000  
> 2023 12 30 11 49 11.0000000  0 16                     
G24  20031376.190   105265598.5842        993.554          47.000  
G13  22204101.509   116683330.9362      -3026.183          47.000  
E05  21853333.764   114840027.038         308.929          46.000  
G15  20588944.430   108195634.2912      -1958.435          47.000  
E31  24628612.694   129424228.126       -1711.365          43.000  
G17  22673441.693   119149744.2502         -4.832          45.000  
E25  26275430.925   138078305.428        2998.498          41.000  
G10  23481263.506   123394888.1282       1477.025          42.000  
G22  22707489.022   119328649.0992      -2625.479          45.000  
G19  22508176.265   118281270.3872       2189.103          45.000  
G14  24011028.384   126178791.7382      -3185.976          42.000  
E09  25158999.393   132211431.747       -2282.530          44.000  
G23  22432427.278   117883202.2272       -954.544          45.000  
E24  23392522.856   122928535.720         942.485          47.000  
G12  22691929.256   119246880.4012       3712.035          45.000  
E03  25952919.735   136383527.967        2661.610          39.000  
> 2023 12 30 11 49 12.0000000  0 16                     
G24  20031188.216   105264605.2012        993.305          47.000  
G13  22204677.401   116686357.3892      -3026.435          47.000  
E05  21853275.341   114839718.212         308.921          46.000  
G15  20589317.167   108197592.9772      -1958.912          47.000  
E31  24628938.280   129425939.613       -1711.486          43.000  
G17  22673442.426   119149749.4062         -5.061          45.000  
E25  26274860.093   138075306.987        2998.476          41.000  
G10  23480984.163   123393411.3542       1476.463          42.000  
G22  22707988.412   119331274.4592      -2625.533          45.000  
G19  22507759.728   118279081.2772       2189.040          45.000  
G14  24011634.744   126181977.7632      -3185.884          41.000  
E09  25159434.288   132213714.390       -2282.618          44.000  
G23  22432607.992   117884156.8142       -954.646          45.000  
E24  23392343.049   122927593.346         942.365          47.000  
G12  22691222.976   119243168.4052       3712.039          45.000  
E03  25952414.167   136380866.476        2661.645          39.000  
> 2023 12 30 11 49 13.0000000  0 16                     
G24  20030998.846   105263612.2972        992.732          47.000  
G13  22205253.363   116689393.1573      -3026.946          47.000  
E05  21853216.813   114839439.3441        308.230          46.000  
G15  20589689.729   108199549.2313      -1959.577          47.000  
E31  24629263.692   129427663.8851      -1711.908          43.000  
G17  22673443.612   119149755.1892         -5.826          45.000  
E25  26274288.913   138072330.2391       2998.260          40.000  
G10  23480702.865   123391935.2022       1475.897          42.000  
G22  22708487.977   119333900.1092      -2625.953          46.000  
G19  22507343.017   118276892.7212       2188.296          45.000  
G14  24012241.174   126185178.9553      -3186.281          41.000  
E09  25159868.484   132216010.8041      -2282.944          44.000  
G23  22432788.602   117885099.0753       -955.437          45.000  
E24  23392164.010   122926661.8791        941.825          47.000  
G12  22690516.172   119239466.7303       3711.491          45.000  
E03  25951902.003   136378175.6911       2661.118          39.000  
> 2023 12 30 11 49 14.0000000  0 16                     
G24  20030809.616   105262619.6172        992.279          47.000  
G13  22205829.290   116692419.9642      -3026.926          47.000  
E05  21853158.529   114839131.108         307.925          46.000  
G15  20590062.605   108201508.7972      -1959.938          47.000  
E31  24629589.348   129429375.647       -1711.938          43.000  
G17  22673444.415   119149761.3472         -6.284          45.000  
E25  26273718.744   138069331.887        2998.293          41.000  
G10  23480422.091   123390459.4162       1475.500          42.000  
G22  22708987.542   119336525.7542      -2625.753          46.000  
G19  22506926.620   118274704.4552       2187.789          45.000  
G14  24012847.500   126188365.0162      -3186.314          41.000  
E09  25160303.134   132218293.715       -2283.123          44.000  
G23  22432970.538   117886054.7002       -955.926          45.000  
E24  23391984.447   122925720.061         941.444          47.000  
G12  22689809.823   119235755.0772       3711.313          45.000  
E03  25951401.845   136375514.321        2661.085          39.000  
> 2023 12 30 11 49 15.0000000  0 16                     
G24  20030620.595   105261627.4842        991.849          47.000  
G13  22206405.182   116695447.1792      -3027.520          48.000  
E05  21853100.001   114838823.389         307.092          46.000  
G15  20590435.586   108203469.0252      -1960.540          47.000  
E31  24629915.667   129431087.784       -1712.641          43.000  
G17  22673445.811   119149768.2382         -7.435          45.000  
E25  26273148.227   138066333.829        2997.773          41.000  
G10  23480141.317   123388984.3632       1474.436          43.000  
G22  22709487.351   119339151.7942      -2626.228          46.000  
G19  22506510.257   118272516.8142       2187.306          45.000  
G14  24013453.615   126191551.3312      -3186.568          41.000  
E09  25160737.505   132220576.986       -2283.724          44.000  
G23  22433152.439   117887011.0832       -957.189          44.000  
E24  23391804.919   122924778.726         940.889          47.000  
G12  22689103.717   119232043.8112       3711.041          45.000  
E03  25950889.646   136372853.231        2660.971          39.000  
> 2023 12 30 11 49 16.0000000  0 16                     
G24  20030431.923   105260636.1432        990.780          47.000  
G13  22206981.458   116698475.0102      -3028.142          48.000  
E05  21853041.333   114838516.381         306.538          46.000  
G15  20590808.741   108205430.1392      -1961.611          47.000  
E31  24630241.113   129432800.497       -1712.990          43.000  
G17  22673446.998   119149776.0532         -8.237          44.000  
E25  26272578.093   138063336.263        2997.077          41.000  
G10  23479860.927   123387510.2512       1473.470          42.000  
G22  22709987.056   119341778.4322      -2627.187          45.000  
G19  22506094.349   118270330.0172       2186.031          45.000  
G14  24014059.801   126194738.1192      -3187.117          41.000  
E09  25161172.294   132222860.815       -2284.262          44.000  
G23  22433334.270   117887968.4122       -958.220          44.000  
E24  23391626.159   122923838.125         940.062          47.000  
G12  22688397.786   119228333.1702       3710.139          45.000  
E03  25950389.488   136370192.672        2660.097          40.000  
> 2023 12 30 11 49 17.0000000  0 16                     
G24  20030243.496   105259645.5622        990.125          46.000  
G13  22207558.118   116701503.4172      -3028.611          47.000  
E05  21852983.259   114838210.065         306.034          46.000  
G15  20591182.316   108207392.0932      -1962.299          47.000  
E31  24630567.223   129434513.755       -1713.553          42.000  
G17  22673448.533   119149784.8142         -9.121          44.000  
E25  26272007.995   138060339.126        2996.947          40.000  
G10  23479580.816   123386037.0292       1472.895          42.000  
G22  22710486.969   119344405.6022      -2627.441          44.000  
G19  22505678.545   118268144.0412       2185.560          44.000  
G14  24014666.580   126197925.3222      -3187.329          40.000  
E09  25161607.154   132225145.205       -2284.581          43.000  
G23  22433516.730   117888926.6532       -958.728          44.000  
E24  23391447.678   122922898.203         939.604          47.000  
G12  22687691.785   119224623.0822       3709.622          44.000  
E03  25949882.071   136367532.542        2659.871          38.000  
> 2023 12 30 11 49 18.0000000  0 16                     
G24  20030055.208   105258655.6772        989.605          46.000  
G13  22208134.848   116704532.3402      -3029.092          47.000  
E05  21852925.185   114837904.388         305.336          46.000  
G15  20591555.750   108209354.8282      -1963.007          46.000  
E31  24630893.333   129436227.479       -1713.649          42.000  
G17  22673449.894   119149794.3782         -9.851          44.000  
E25  26271437.826   138057342.421        2996.362          40.000  
G10  23479300.880   123384564.6482       1472.058          43.000  
G22  22710986.953   119347033.2742      -2627.733          45.000  
G19  22505262.811   118265958.8392       2184.656          45.000  
G14  24015273.080   126201112.9122      -3187.899          40.000  
E09  25162042.013   132227430.049       -2285.021          43.000  
G23  22433699.224   117889885.7292       -959.509          44.000  
E24  23391269.302   122921958.880         938.972          47.000  
G12  22686985.889   119220913.4932       3709.467          44.000  
E03  25949375.944   136364872.841        2659.431          39.000  
> 2023 12 30 11 49 19.0000000  0 16                     
G24  20029866.920   105257666.1192        989.753          47.000  
G13  22208711.577   116707561.4602      -3029.025          47.000  
E05  21852867.390   114837599.003         305.392          46.000  
G15  20591929.290   108211318.0212      -1962.881          47.000  
E31  24631219.338   129437941.381       -1713.816          42.000  
G17  22673451.814   119149804.4642        -10.052          44.000  
E25  26270867.762   138054345.747        2996.846          40.000  
G10  23479021.118   123383092.7982       1471.944          43.000  
G22  22711486.832   119349661.0782      -2627.734          44.000  
G19  22504847.322   118263774.0152       2184.849          45.000  
G14  24015879.719   126204300.5202      -3187.600          41.000  
E09  25162476.838   132229715.036       -2284.862          43.000  
G23  22433881.858   117890845.3522       -959.602          44.000  
E24  23391090.821   122921019.839         939.069          47.000  
G12  22686280.272   119217204.1192       3709.618          44.000  
E03  25948871.005   136362213.213        2659.650          40.000  
> 2023 12 30 11 49 20.0000000  0 10                     
G13  22209287.016                       -3029.325          50.000  
E05  21852804.988                         306.462          46.000  
G15  20592300.875                       -1962.834          47.000  
E31  24631540.561                       -1713.148          44.000  
E25  26270294.767                        3001.311          42.000  
E09  25162909.045                       -2284.777          44.000  
G23  22434065.539                        -953.147          44.000  
E24  23390911.677                         938.753          49.000  
G12  22685574.376                        3715.434          43.000  
E03  25948360.447                        2660.920          40.000  
> 2023 12 30 11 49 21.0000000  0 16                     
G24  20029492.543   105255693.4643        988.587          48.000  
G13  22209865.665   116713631.6003      -3029.619          49.000  
E05  21852751.136   114836991.9651        304.784          47.000  
G15  20592675.461   108215239.1133      -1964.327          48.000  
E31  24631863.600   129441326.4551      -1713.951          44.000  
G17  22673454.431   119149806.5513        -11.738          45.000  
E25  26269725.122   138048347.4531       2996.618          41.000  
G10  23478465.049   123380166.0023       1470.536          44.000  
G22  22712486.276   119354920.5633      -2628.630          45.000  
G19  22504017.738   118259411.0183       2183.909          45.000  
G14  24017100.990   126210716.6863      -3187.697          41.000  
E09  25163344.079   132234275.3041      -2285.380          44.000  
G23  22434249.848   117892778.0343       -961.007          46.000  
E24  23390731.172   122919131.4791        938.435          48.000  
G12  22684869.387   119209792.7143       3708.834          45.000  
E03  25947856.589   136356917.0031       2659.542          41.000  
> 2023 12 30 11 49 22.0000000  0 16                     
G24  20029304.186   105254704.9332        988.416          48.000  
G13  22210439.009   116716661.2052      -3029.517          47.000  
E05  21852689.397   114836687.415         304.476          47.000  
G15  20593049.698   108217203.5702      -1964.676          47.000  
E31  24632196.026   129443040.730       -1714.218          43.000  
G17  22673456.211   119149818.1202        -11.866          44.000  
E25  26269154.814   138045350.913        2996.635          41.000  
G10  23478186.265   123378695.5992       1470.108          44.000  
G22  22712986.120   119357548.8062      -2628.351          45.000  
G19  22503601.620   118257227.4222       2183.466          45.000  
G14  24017698.486   126213904.3382      -3187.695          39.000  
E09  25163780.299   132236560.640       -2285.393          44.000  
G23  22434431.261   117893739.1732       -961.487          45.000  
E24  23390554.960   122918193.217         938.074          47.000  
G12  22684161.920   119206083.7952       3708.916          44.000  
E03  25947350.777   136354257.495        2659.311          40.000  
> 2023 12 30 11 49 23.0000000  0 16                     
G24  20029115.933   105253716.7672        987.514          48.000  
G13  22211016.367   116719691.0022      -3030.196          47.000  
E05  21852634.394   114836383.166         303.754          46.000  
G15  20593424.738   108219168.4992      -1965.551          47.000  
E31  24632518.437   129444755.142       -1714.705          43.000  
G17  22673458.654   119149830.1982        -12.512          45.000  
E25  26268585.483   138042354.429        2996.487          40.000  
G10  23477903.920   123377225.7372       1469.393          43.000  
G22  22713487.116   119360177.1952      -2628.837          45.000  
G19  22503187.178   118255044.2292       2182.565          45.000  
G14  24018305.299   126217091.9862      -3187.985          40.000  
E09  25164214.670   132238846.152       -2285.971          44.000  
G23  22434613.371   117894700.7972       -961.839          44.000  
E24  23390372.849   122917255.262         937.595          47.000  
G12  22683457.315   119202375.0382       3708.156          44.000  
E03  25946842.906   136351598.085        2659.052          41.000  
> 2023 12 30 11 49 24.0000000  0 16                     
G24  20028927.296   105252729.1492        987.422          48.000  
G13  22211594.737   116722721.1832      -3030.074          47.000  
E05  21852577.716   114836079.391         303.687          46.000  
G15  20593798.732   108221134.1052      -1965.667          47.000  
E31  24632850.130   129446469.901       -1714.635          43.000  
G17  22673462.668   119149842.9752        -12.983          45.000  
E25  26268018.596   138039358.199        2996.230          40.000  
G10  23477622.867   123375756.5992       1468.747          43.000  
G22  22713986.541   119362805.9032      -2628.675          45.000  
G19  22502768.338   118252861.6432       2182.470          45.000  
G14  24018914.556   126220279.9002      -3188.005          40.000  
E09  25164649.634   132241131.989       -2285.787          44.000  
G23  22434795.761   117895663.1702       -962.518          44.000  
E24  23390198.277   122916317.806         937.536          47.000  
G12  22682750.267   119198666.6952       3708.284          44.000  
E03  25946340.305   136348938.931        2659.317          41.000  
> 2023 12 30 11 49 25.0000000  0 16                     
G24  20028739.357   105251741.9302        986.898          47.000  
G13  22212170.420   116725751.6092      -3030.827          47.000  
E05  21852519.677   114835775.960         303.208          46.000  
G15  20594172.969   108223100.1952      -1966.635          46.000  
E31  24633173.483   129448184.856       -1715.072          43.000  
G17  22673464.867   119149856.3462        -14.041          45.000  
E25  26267446.124   138036362.091        2995.971          40.000  
G10  23477343.419   123374287.9952       1468.149          42.000  
G22  22714487.606   119365434.8702      -2629.393          45.000  
G19  22502354.139   118250679.5402       2181.653          45.000  
G14  24019519.486   126223467.8882      -3188.153          40.000  
E09  25165084.110   132243418.033       -2286.293          43.000  
G23  22434979.023   117896626.1452       -963.513          44.000  
E24  23390019.936   122915380.661         936.786          46.000  
G12  22682045.104   119194958.5492       3708.031          44.000  
E03  25945832.782   136346279.925        2658.525          39.000  
> 2023 12 30 11 49 26.0000000  0 16                     
G24  20028552.046   105250755.2492        986.053          47.000  
G13  22212746.870   116728782.3812      -3031.162          47.000  
E05  21852461.149   114835473.010         302.531          46.000  
G15  20594547.695   108225066.8972      -1967.313          47.000  
E31  24633502.036   129449900.137       -1715.754          43.000  
G17  22673467.694   119149870.3912        -14.830          45.000  
E25  26266875.641   138033366.215        2995.579          40.000  
G10  23477064.076   123372820.0932       1467.214          42.000  
G22  22714988.044   119368064.1442      -2629.916          44.000  
G19  22501939.766   118248498.0472       2180.634          45.000  
G14  24020126.090   126226656.1152      -3188.684          40.000  
E09  25165521.831   132245704.378       -2286.866          44.000  
G23  22435162.669   117897589.7882       -964.613          44.000  
E24  23389842.328   122914443.978         936.058          46.000  
G12  22681340.080   119191250.7662       3707.311          44.000  
E03  25945329.344   136343621.143        2658.463          39.000  
> 2023 12 30 11 49 27.0000000  0 16                     
G24  20028364.282   105249769.0892        986.101          47.000  
G13  22213323.740   116731813.5352      -3031.258          46.000  
E05  21852404.889   114835170.541         302.347          46.000  
G15  20594922.177   108227034.2232      -1967.597          46.000  
E31  24633829.123   129451615.753       -1715.652          43.000  
G17  22673471.637   119149885.1252        -14.901          45.000  
E25  26266305.752   138030370.580        2995.538          40.000  
G10  23476784.733   123371352.8672       1466.944          42.000  
G22  22715488.516   119370693.7452      -2629.698          44.000  
G19  22501523.718   118246317.1222       2180.696          45.000  
G14  24020733.532   126229844.5132      -3188.197          40.000  
E09  25165957.703   132247991.052       -2286.693          43.000  
G23  22435346.699   117898554.1402       -964.510          44.000  
E24  23389663.603   122913507.745         936.091          46.000  
G12  22680635.196   119187543.3442       3707.269          44.000  
E03  25944823.183   136340962.614        2658.549          39.000  
> 2023 12 30 11 49 28.0000000  0 16                     
G24  20028177.181   105248783.3152        985.643          47.000  
G13  22213900.644   116734844.8672      -3031.445          46.000  
E05  21852347.024   114834868.369         301.938          45.000  
G15  20595296.763   108229002.0312      -1968.211          46.000  
E31  24634156.140   129453331.535       -1716.045          43.000  
G17  22673475.721   119149900.3802        -15.625          45.000  
E25  26265736.526   138027375.008        2995.766          40.000  
G10  23476506.018   123369886.1582       1466.269          42.000  
G22  22715988.290   119373323.5192      -2629.786          44.000  
G19  22501110.567   118244136.6602       2180.134          45.000  
G14  24021339.753   126233032.9802      -3188.476          39.000  
E09  25166392.527   132250277.883       -2287.050          43.000  
G23  22435530.345   117899519.0202       -964.933          44.000  
E24  23389485.331   122912571.811         935.870          46.000  
G12  22679929.893   119183836.1012       3707.161          44.000  
E03  25944316.533   136338304.175        2658.383          39.000  
> 2023 12 30 11 49 29.0000000  0 16                     
G24  20027989.626   105247798.0662        984.984          47.000  
G13  22214477.234   116737876.5762      -3031.792          46.000  
E05  21852289.508   114834566.683         301.319          45.000  
G15  20595671.070   108230970.4452      -1968.541          46.000  
E31  24634482.738   129455047.616       -1716.231          43.000  
G17  22673478.827   119149916.3322        -16.239          45.000  
E25  26265166.218   138024379.694        2995.011          40.000  
G10  23476226.884   123368420.1292       1465.679          42.000  
G22  22716488.937   119375953.6322      -2630.338          44.000  
G19  22500695.810   118241956.7762       2179.598          45.000  
G14  24021946.392   126236221.6382      -3188.555          39.000  
E09  25166827.596   132252565.019       -2287.389          43.000  
G23  22435714.236   117900484.5972       -966.151          44.000  
E24  23389307.304   122911636.345         935.239          46.000  
G12  22679224.520   119180129.2222       3706.700          44.000  
E03  25943810.756   136335645.972        2658.121          38.000  
> 2023 12 30 11 49 30.0000000  0 16                     
G24  20027802.210   105246813.4492        984.204          47.000  
G13  22215054.348   116740908.7582      -3032.574          46.000  
E05  21852232.097   114834265.558         300.870          45.000  
G15  20596045.691   108232939.6092      -1969.496          46.000  
E31  24634809.860   129456764.141       -1716.771          43.000  
G17  22673482.108   119149933.0842        -17.117          45.000  
E25  26264596.538   138021384.696        2995.000          40.000  
G10  23475948.135   123366954.9002       1464.756          42.000  
G22  22716989.374   119378584.1602      -2630.628          44.000  
G19  22500280.983   118239777.6162       2178.746          45.000  
G14  24022553.241   126239410.6342      -3189.438          39.000  
E09  25167262.630   132254852.593       -2287.973          43.000  
G23  22435898.161   117901450.9902       -966.886          44.000  
E24  23389129.487   122910701.437         934.546          46.000  
G12  22678519.113   119176422.8022       3706.076          44.000  
E03  25943305.014   136332988.134        2657.872          38.000  
> 2023 12 30 11 49 31.0000000  0 16                     
G24  20027614.830   105245829.2992        983.753          47.000  
G13  22215631.391   116743940.7291      -3032.968          46.000  
E05  21852175.244   114833964.846         300.313          45.000  
G15  20596420.627   108234909.331       -1970.126          46.000  
E31  24635136.702   129458480.924       -1717.066          43.000  
G17  22673485.563   119149950.4542        -18.096          45.000  
E25  26264026.719   138018389.892        2994.633          40.000  
G10  23475669.420   123365490.3082       1463.781          41.000  
G22  22717490.126   119381214.9702      -2631.008          44.000  
G19  22499866.331   118237598.9682       2178.185          45.000  
G14  24023159.950   126242599.7362      -3189.259          39.000  
E09  25167698.083   132257140.404       -2288.224          43.000  
G23  22436082.470   117902418.011        -967.542          44.000  
E24  23388951.843   122909766.932         934.064          46.000  
G12  22677813.705   119172716.1751       3705.790          44.000  
E03  25942799.516   136330330.491        2657.302          38.000  
> 2023 12 30 11 49 32.0000000  0 16                     
G24  20027427.554   105244845.6282        983.398          47.000  
G13  22216208.470   116746973.499       -3033.141          46.000  
E05  21852117.938   114833664.546         300.202          45.000  
G15  20596795.562   108236879.605       -1970.627          46.000  
E31  24635463.231   129460197.977       -1717.285          43.000  
G17  22673488.634   119149968.4332        -18.108          45.000  
E25  26263457.144   138015395.256        2994.608          40.000  
G10  23475390.495   123364026.3192       1463.762          42.000  
G22  22717990.807   119383846.0372      -2631.176          44.000  
G19  22499451.540   118235420.8722       2178.055          44.000  
G14  24023766.729   126245788.9902      -3188.947          39.000  
E09  25168133.745   132259428.486       -2288.170          43.000  
G23  22436266.570   117903385.674        -968.039          44.000  
E24  23388774.026   122908832.819         933.961          46.000  
G12  22677108.437   119169010.334        3705.862          44.000  
E03  25942293.913   136327673.018        2657.525          38.000  
> 2023 12 30 11 49 33.0000000  0 16                     
G24  20027240.558   105243862.5162        982.869          47.000  
G13  22216785.514   116750006.648       -3033.350          46.000  
E05  21852060.736   114833364.750         299.535          45.000  
G15  20597170.323   108238850.527       -1971.242          46.000  
E31  24635790.457   129461915.358       -1717.541          43.000  
G17  22673492.264   119149987.1462        -19.024          45.000  
E25  26262887.254   138012400.876        2994.230          40.000  
G10  23475111.850   123362563.0552       1462.802          41.000  
G22  22718491.768   119386477.4752      -2631.680          44.000  
G19  22499037.027   118233243.3952       2177.039          44.000  
G14  24024373.403   126248978.4992      -3189.594          39.000  
E09  25168569.512   132261716.901       -2288.616          44.000  
G23  22436450.984   117904354.064        -968.718          44.000  
E24  23388596.557   122907899.183         933.364          46.000  
G12  22676403.274   119165304.890        3705.228          44.000  
E03  25941788.171   136325015.806        2657.427          38.000  
> 2023 12 30 11 49 34.0000000  0 15                     
G13  22217361.511                       -3034.123          46.000  
E05  21851995.193                         298.544          45.000  
G15  20597545.398                       -1972.031          46.000  
E31  24636115.625                       -1717.047          44.000  
G17  22673495.195                          -9.036          44.000  
E25  26262314.119                        3001.432          39.000  
G10  23474831.879                        1462.225          41.000  
G22  22718992.240                       -2632.188          44.000  
G19  22498621.398                        2175.846          45.000  
G14  24024981.020                       -3190.918          39.000  
E09  25169004.999                       -2290.111          41.000  
G23  22436634.211                        -972.203          44.000  
E24  23388416.261                         933.716          44.000  
G12  22675697.064                        3704.988          44.000  
E03  25941275.135                        2658.929          38.000  
> 2023 12 30 11 49 35.0000000  0 16                     
G24  20026872.323   105241923.5393        981.740          48.000  
G13  22217936.984   116756046.2233      -3034.204          46.000  
E05  21851941.830   114832739.2451        298.317          46.000  
G15  20597920.159   108242800.9473      -1972.560          47.000  
E31  24636439.989   129465375.7981      -1718.268          43.000  
G17  22673496.138   119150026.3173        -20.774          46.000  
E25  26261740.286   138006386.5311       2993.513          41.000  
G10  23474556.654   123359627.7823       1461.493          42.000  
G22  22719492.468   119391737.9853      -2632.307          46.000  
G19  22498208.316   118228881.8883       2175.966          45.000  
G14  24025587.938   126255315.7773      -3190.038          41.000  
E09  25169440.557   132266312.3641      -2289.309          44.000  
G23  22436820.824   117906289.1123       -970.353          44.000  
E24  23388236.629   122906022.9921        932.222          47.000  
G12  22674990.086   119157876.7103       3704.605          45.000  
E03  25940769.741   136319674.8461       2656.397          40.000  
> 2023 12 30 11 49 36.0000000  0 16                     
G24  20026681.523   105240941.7792        981.671          47.000  
G13  22218516.715   116759080.2162      -3034.020          46.000  
E05  21851886.792   114832440.610         298.682          46.000  
G15  20598296.246   108244773.5182      -1972.819          47.000  
E31  24636765.296   129467093.919       -1718.019          43.000  
G17  22673500.291   119150046.8392        -20.694          45.000  
E25  26261173.538   138003392.624        2993.881          41.000  
G10  23474277.486   123358166.3272       1461.246          41.000  
G22  22719994.651   119394370.1482      -2632.150          45.000  
G19  22497791.780   118226705.9552       2175.834          44.000  
G14  24026194.717   126258505.6582      -3189.887          40.000  
E09  25169872.938   132268601.494       -2289.051          43.000  
G23  22437002.655   117907259.3492       -970.396          44.000  
E24  23388060.905   122905090.485         932.642          46.000  
G12  22674287.191   119154172.0752       3704.565          45.000  
E03  25940264.174   136317018.137        2656.910          39.000  
> 2023 12 30 11 49 37.0000000  0 16                     
G24  20026492.537   105239960.5222        980.865          47.000  
G13  22219095.015   116762114.5242      -3034.370          46.000  
E05  21851828.962   114832142.410         298.255          46.000  
G15  20598670.134   108246746.6732      -1973.372          46.000  
E31  24637086.415   129468812.333       -1718.386          43.000  
G17  22673509.295   119150068.0352        -21.538          45.000  
E25  26260602.323   138000398.910        2993.857          41.000  
G10  23473998.771   123356705.5512       1460.416          41.000  
G22  22720495.786   119397002.6022      -2632.545          45.000  
G19  22497380.304   118224530.5892       2175.076          44.000  
G14  24026800.729   126261695.7032      -3189.956          40.000  
E09  25170311.846   132270890.902       -2289.429          43.000  
G23  22437189.686   117908230.2662       -971.307          44.000  
E24  23387883.506   122904158.416         932.030          46.000  
G12  22673580.631   119150467.7612       3704.126          45.000  
E03  25939763.387   136314361.659        2656.555          39.000  
> 2023 12 30 11 49 38.0000000  0 16                     
G24  20026306.203   105238979.9482        980.152          47.000  
G13  22219672.757   116765149.3982      -3035.088          46.000  
E05  21851776.577   114831844.876         297.185          45.000  
G15  20599044.860   108248720.6342      -1974.408          46.000  
E31  24637422.820   129470531.237       -1719.005          42.000  
G17  22673509.714   119150090.0672        -22.294          44.000  
E25  26260039.135   137997405.649        2993.096          40.000  
G10  23473720.370   123355245.6072       1459.510          40.000  
G22  22720996.154   119399635.5692      -2633.268          44.000  
G19  22496966.280   118222355.9722       2174.604          45.000  
G14  24027408.310   126264886.1232      -3190.713          39.000  
E09  25170748.590   132273180.825       -2290.189          44.000  
G23  22437374.379   117909202.0412       -972.103          43.000  
E24  23387710.470   122903226.982         931.219          46.000  
G12  22672877.178   119146763.9612       3703.711          44.000  
E03  25939260.228   136311705.618        2655.589          39.000  
> 2023 12 30 11 49 39.0000000  0 16                     
G24  20026120.638   105237999.8582        979.790          47.000  
G13  22220249.626   116768184.5662      -3035.292          45.000  
E05  21851720.561   114831547.744         296.912          45.000  
G15  20599420.878   108250695.1172      -1974.857          46.000  
E31  24637752.001   129472250.409       -1719.371          42.000  
G17  22673515.507   119150112.7982        -23.283          44.000  
E25  26259468.687   137994412.527        2992.838          40.000  
G10  23473443.295   123353786.3222       1458.719          41.000  
G22  22721497.429   119402268.8192      -2633.482          43.000  
G19  22496551.907   118220181.9372       2173.749          43.000  
G14  24028016.276   126268076.7292      -3190.730          38.000  
E09  25171181.949   132275470.997       -2290.272          42.000  
G23  22437558.898   117910174.4742       -972.876          43.000  
E24  23387533.210   122902295.972         930.762          47.000  
G12  22672170.130   119143060.4902       3702.975          44.000  
E03  25938756.196   136309049.745        2656.036          39.000  
> 2023 12 30 11 49 40.0000000  0 12                     
G13  22220825.658                       -3037.470          20.000  
E05  21851657.252                         320.468          22.000  
E31  24638071.131                       -1720.208          22.000  
G17  22673521.964                         -36.193          17.000  
G22  22721998.529                       -2635.135          17.000  
G19  22496136.941                        2179.091          18.000  
G14  24028619.530                       -3181.167          21.000  
E09  25171621.659                       -2310.271          12.000  
G23  22437745.441                        -973.000          18.000  
E24  23387348.029                         934.264          11.000  
G12  22671468.003                        3699.299          18.000  
E03  25938238.378                        2681.027          12.000  
> 2023 12 30 11 49 41.0000000  0 16                     
G13  22221403.295   116774261.9503      -3035.618          45.000  
E05  21851603.610   114830961.8961        296.325          46.000  
G15  20600173.750   108254643.0323      -1975.553          47.000  
E31  24638398.357   129475667.6851      -1719.539          41.000  
G24  20025736.733                         982.906          48.000  
E25  26258321.998   137988422.9771       2992.556          42.000  
G10  23472871.696   123350773.2803       1458.430          40.000  
G22  22722497.570   119407529.7513      -2633.892          44.000  
G19  22495723.964                        2173.047          44.000  
G17  22673527.164                         -25.000          44.000  
G14  24029231.893   126274464.9593      -3189.934          39.000  
E09  25172055.053   132280052.2511      -2290.781          43.000  
G23  22437927.237   117912103.3733       -973.961          44.000  
E24  23387179.390   122900467.2201        930.159          47.000  
G12  22670762.107   119135658.5473       3702.688          44.000  
E03  25937733.508   136303719.7271       2655.955          39.000  
> 2023 12 30 11 49 42.0000000  0 16                     
G13  22221979.711   116777298.0932      -3035.680          44.000  
E05  21851548.153   114830666.048         295.933          46.000  
G15  20600548.162   108256619.3362      -1976.793          47.000  
E31  24638725.200   129477387.737       -1719.826          42.000  
G24  20025556.856                         980.859          47.000  
E25  26257760.869                        2992.587          40.000  
G10  23472608.547   123349315.9002       1457.663          41.000  
G22  22723000.067                       -2633.935          42.000  
G19  22495309.207   118213647.7153       2172.094          43.000  
G17  22673524.058   119150172.7923        -24.080          44.000  
G14  24029838.288                       -3188.627          38.000  
E09  25172491.029                       -2290.826          42.000  
G23  22438113.257   117913077.7592       -974.979          42.000  
E24  23386998.815   122899537.448         929.721          48.000  
G12  22670057.991   119131955.9882       3703.028          45.000  
E03  25937235.828   136301064.506        2655.849          39.000  
> 2023 12 30 11 49 43.0000000  0 16                     
G13  22222561.047   116780334.6102      -3037.034          44.000  
E05  21851495.279   114830370.718         295.043          46.000  
G15  20600925.017   108258596.2682      -1977.154          46.000  
E31  24639053.334   129479108.108       -1720.391          42.000  
G24  20025372.303   105234041.5983        977.562          47.000  
E25  26257188.432   137982466.2161       2992.041          41.000  
G10  23472331.891   123347859.2892       1456.365          41.000  
G22  22723501.865   119412807.3043      -2634.849          43.000  
G19  22494897.138   118211475.9512       2171.256          43.000  
G17  22673533.062   119150198.1582        -25.732          44.000  
G14  24030443.985   126280835.3773      -3191.630          39.000  
E09  25172926.622   132284632.5891      -2291.601          43.000  
G23  22438300.113   117914052.8902       -975.646          44.000  
E24  23386823.231   122898608.180         928.919          47.000  
G12  22669354.922   119128253.8012       3702.063          44.000  
E03  25936729.074   136298409.533        2654.965          38.000  
> 2023 12 30 11 49 44.0000000  0 16                     
G13  22223138.161   116783371.5142      -3037.570          44.000  
E05  21851439.683   114830075.889         294.231          46.000  
G15  20601302.325   108260573.8582      -1978.337          46.000  
E31  24639384.504   129480828.833       -1721.389          42.000  
G24  20025188.238   105233064.1162        976.814          47.000  
E25  26256617.321   137979474.224        2991.501          41.000  
G10  23472056.422   123346403.3702       1455.042          40.000  
G22  22724001.430   119415442.1122      -2635.289          43.000  
G19  22494484.405   118209304.8202       2170.485          43.000  
G17  22673537.774   119150224.2112        -26.573          44.000  
G14  24031054.219   126284026.9182      -3192.102          39.000  
E09  25173355.129   132286924.268       -2292.184          43.000  
G23  22438484.388   117915028.7302       -976.638          43.000  
E24  23386648.240   122897679.370         928.226          47.000  
G12  22668648.921   119124552.0132       3701.235          44.000  
E03  25936227.171   136295754.848        2654.098          38.000  
> 2023 12 30 11 49 45.0000000  0 16                     
G13  22223714.786   116786408.7242      -3037.444          44.000  
E05  21851382.097   114829781.461         294.135          46.000  
G15  20601679.389   108262551.9942      -1978.252          46.000  
E31  24639715.221   129482549.806       -1721.047          42.000  
G24  20025001.730   105232087.0962        976.824          47.000  
E25  26256047.223   137976482.409        2991.794          41.000  
G10  23471778.021   123344948.1012       1454.851          40.000  
G22  22724504.171   119418077.2002      -2635.507          43.000  
G19  22494070.870   118207134.2252       2170.275          43.000  
G17  22673542.660   119150250.9012        -27.090          44.000  
G14  24031658.764   126287218.6092      -3191.803          40.000  
E09  25173797.318   132289216.219       -2292.157          43.000  
G23  22438669.674   117916005.2012       -976.854          43.000  
E24  23386470.178   122896750.963         928.218          47.000  
G12  22667943.583   119120850.5082       3701.283          44.000  
E03  25935724.709   136293100.341        2654.419          38.000  
> 2023 12 30 11 49 46.0000000  0 16                     
G13  22224292.632   116789446.6712      -3038.080          44.000  
E05  21851325.628   114829487.886         293.392          46.000  
G15  20602056.209   108264531.1572      -1979.370          46.000  
E31  24640042.168   129484271.499       -1721.877          42.000  
G24  20024816.548   105231110.9862        976.041          47.000  
E25  26255481.940   137973491.209        2991.248          41.000  
G10  23471501.994   123343493.8692       1454.151          40.000  
G22  22725005.551   119420712.9782      -2636.010          43.000  
G19  22493658.731   118204964.6022       2169.528          43.000  
G17  22673548.069   119150278.6452        -27.943          44.000  
G14  24032266.905   126290410.8752      -3192.223          40.000  
E09  25174234.934   132291508.846       -2292.805          43.000  
G23  22438855.694   117916982.7522       -978.073          43.000  
E24  23386293.756   122895823.399         927.318          47.000  
G12  22667239.432   119117149.7312       3700.740          44.000  
E03  25935218.757   136290446.454        2653.831          38.000  
> 2023 12 30 11 49 47.0000000  0 16                     
G13  22224869.606   116792484.9212      -3038.096          44.000  
E05  21851271.148   114829194.739         293.021          46.000  
G15  20602433.797   108266510.8842      -1979.963          46.000  
E31  24640370.127   129485993.462       -1722.137          42.000  
G24  20024629.551   105230135.3712        975.476          47.000  
E25  26254914.075   137970500.218        2990.919          41.000  
G10  23471225.931   123342040.2742       1453.126          40.000  
G22  22725509.269   119423349.0502      -2636.235          43.000  
G19  22493245.649   118202795.5582       2168.728          43.000  
G17  22673554.351   119150307.0482        -29.023          44.000  
G14  24032875.498   126293603.3322      -3192.793          40.000  
E09  25174672.272   132293801.753       -2292.961          43.000  
G23  22439041.329   117917960.9682       -978.726          43.000  
E24  23386117.335   122894896.248         926.847          47.000  
G12  22666535.106   119113449.2852       3700.333          44.000  
E03  25934714.935   136287792.783        2653.658          38.000  
> 2023 12 30 11 49 48.0000000  0 16                     
G13  22225449.198   116795523.6572      -3038.829          44.000  
E05  21851215.796   114828902.172         292.319          46.000  
G15  20602811.245   108268491.3312      -1980.708          47.000  
E31  24640698.052   129487715.861       -1722.552          42.000  
G24  20024445.033   105229160.3912        974.607          47.000  
E25  26254346.315   137967509.535        2990.730          41.000  
G10  23470948.089   123340587.4772       1452.414          40.000  
G22  22726011.660   119425985.5532      -2636.621          44.000  
G19  22492833.859   118200627.2062       2168.160          43.000  
G17  22673560.599   119150336.2282        -29.490          44.000  
G14  24033482.207   126296796.0792      -3192.864          39.000  
E09  25175109.155   132296095.090       -2293.441          43.000  
G23  22439228.395   117918939.9702       -979.256          43.000  
E24  23385940.983   122893969.642         926.454          47.000  
G12  22665831.967   119109749.2952       3699.846          44.000  
E03  25934208.076   136285139.466        2653.151          38.000  
> 2023 12 30 11 49 49.0000000  0 16                     
G13  22226028.057   116798562.4991      -3039.606          44.000  
E05  21851159.921   114828610.323         291.687          46.000  
G15  20603187.996   108270472.663       -1981.630          47.000  
E31  24641026.255   129489438.827       -1723.268          43.000  
G24  20024259.502   105228186.1852        974.097          47.000  
E25  26253777.194   137964519.363        2990.242          41.000  
G10  23470672.236   123339135.6142       1451.605          40.000  
G22  22726512.726   119428622.6292      -2637.282          44.000  
G19  22492421.196   118198459.6982       2167.062          43.000  
G17  22673565.659   119150366.3442        -30.302          44.000  
G14  24034089.231   126299989.2652      -3193.100          39.000  
E09  25175543.910   132298388.994       -2294.162          43.000  
G23  22439414.449   117919919.4321       -980.205          43.000  
E24  23385765.329   122893043.763         925.758          47.000  
G12  22665127.222   119106049.886        3699.258          44.000  
E03  25933703.590   136282486.623        2652.989          38.000  
> 2023 12 30 11 49 50.0000000  0 16                     
G13  22226606.671   116801602.068       -3039.567          44.000  
E05  21851104.708   114828318.821         291.427          46.000  
G15  20603565.200   108272454.496       -1982.063          47.000  
E31  24641354.320   129491161.982       -1723.415          43.000  
G24  20024074.216   105227212.3952        973.537          47.000  
E25  26253208.142   137961529.320        2990.040          41.000  
G10  23470396.383   123337684.3282       1450.511          41.000  
G22  22727014.350   119431259.9202      -2637.474          44.000  
G19  22492008.533   118196292.6492       2166.612          43.000  
G17  22673571.662   119150397.0302        -30.784          44.000  
G14  24034697.406   126303182.5632      -3193.222          39.000  
E09  25175980.654   132300683.092       -2294.248          43.000  
G23  22439601.830   117920899.968        -980.892          43.000  
E24  23385589.291   122892118.220         925.546          47.000  
G12  22664423.979   119102350.743        3698.927          44.000  
E03  25933199.418   136279833.929        2652.620          38.000  
> 2023 12 30 11 49 51.0000000  0 16                     
G13  22227185.076   116804641.758       -3039.754          44.000  
E05  21851049.077   114828027.542         291.110          46.000  
G15  20603942.438   108274436.699       -1982.337          47.000  
E31  24641682.977   129492885.191       -1723.281          43.000  
G24  20023888.894   105226238.8752        973.505          47.000  
E25  26252638.881   137958539.235        2990.030          42.000  
G10  23470120.285   123336233.4472       1450.566          41.000  
G22  22727516.602   119433897.2732      -2637.355          44.000  
G19  22491595.940   118194125.9552       2166.663          43.000  
G17  22673577.700   119150428.1472        -31.147          44.000  
G14  24035305.406   126306375.8202      -3193.204          40.000  
E09  25176417.363   132302977.241       -2294.310          43.000  
G23  22439788.338   117921880.948        -981.428          43.000  
E24  23385413.532   122891192.876         925.229          47.000  
G12  22663719.828   119098651.671        3698.986          43.000  
E03  25932694.653   136277181.227        2652.621          38.000  
> 2023 12 30 11 49 52.0000000  0 16                     
G13  22227763.376   116807681.803       -3040.169          44.000  
E05  21850993.515   114827736.749         290.573          46.000  
G15  20604319.956   108276419.534       -1983.074          47.000  
E31  24642010.692   129494608.746       -1723.611          43.000  
G24  20023703.817   105225265.8962        972.801          47.000  
E25  26252069.795   137955549.406        2989.701          42.000  
G10  23469844.537   123334783.2802       1449.865          41.000  
G22  22728018.750   119436534.9622      -2637.826          44.000  
G19  22491183.661   118191959.8682       2165.762          43.000  
G17  22673583.877   119150459.9712        -32.185          44.000  
G14  24035913.058   126309569.2532      -3193.638          40.000  
E09  25176853.863   132305271.724       -2294.783          43.000  
G23  22439975.299   117922862.614        -981.887          43.000  
E24  23385237.320   122890267.986         924.536          47.000  
G12  22663016.025   119094952.971        3698.504          43.000  
E03  25932189.504   136274528.774        2652.279          39.000  
> 2023 12 30 11 49 53.0000000  0 16                     
G13  22228341.851   116810722.177       -3040.666          43.000  
E05  21850938.233   114827446.377         289.963          45.000  
G15  20604697.823   108278402.951       -1983.789          47.000  
E31  24642339.140   129496332.587       -1724.034          42.000  
G24  20023518.601   105224293.4072        972.127          46.000  
E25  26251500.987   137952559.770        2989.457          41.000  
G10  23469568.963   123333333.7562       1449.004          40.000  
G22  22728520.827   119439172.9432      -2638.251          43.000  
G19  22490771.487   118189794.3432       2165.232          42.000  
G17  22673590.404   119150492.4282        -32.913          43.000  
G14  24036520.779   126312762.8732      -3193.989          39.000  
E09  25177290.118   132307566.472       -2294.932          42.000  
G23  22440162.575   117923844.950        -982.664          43.000  
E24  23385061.387   122889343.527         924.212          46.000  
G12  22662311.735   119091254.571        3698.226          42.000  
E03  25931684.844   136271876.529        2652.098          38.000  
> 2023 12 30 11 49 54.0000000  0 16                     
G13  22228920.325   116813762.735       -3040.234          43.000  
E05  21850883.056   114827156.309         290.103          45.000  
G15  20605075.656   108280386.810       -1984.083          47.000  
E31  24642667.099   129498056.570       -1723.811          42.000  
G24  20023333.698   105223321.2662        972.295          46.000  
E25  26250931.866   137949570.201        2989.640          41.000  
G10  23469293.040   123331884.7242       1448.988          40.000  
G22  22729022.905   119441811.0652      -2638.066          43.000  
G19  22490359.662   118187629.2512       2165.024          42.000  
G17  22673597.070   119150525.4002        -33.175          43.000  
G14  24037128.779   126315956.5172      -3193.429          39.000  
E09  25177726.862   132309861.369       -2294.740          42.000  
G23  22440349.781   117924827.816        -982.877          43.000  
E24  23384885.070   122888419.364         924.235          46.000  
G12  22661608.037   119087556.369        3698.285          42.000  
E03  25931180.253   136269224.358        2652.557          38.000  
> 2023 12 30 11 49 55.0000000  0 16                     
G13  22229498.870   116816803.668       -3040.859          43.000  
E05  21850828.052   114826866.710         289.639          45.000  
G15  20605453.034   108282371.294       -1984.441          46.000  
E31  24642995.059   129499780.886       -1724.284          42.000  
G24  20023149.005   105222349.6752        971.643          46.000  
E25  26250362.919   137946580.872        2989.405          41.000  
G10  23469017.501   123330436.4322       1448.088          40.000  
G22  22729525.087   119444449.0191      -2638.437          43.000  
G19  22489947.802   118185464.7382       2164.532          42.000  
G17  22673603.491   119150559.0492        -33.623          43.000  
G14  24037736.815   126319149.8921      -3193.758          39.000  
E09  25178163.711   132312156.590       -2295.166          42.000  
G23  22440537.197   117925811.373        -983.544          43.000  
E24  23384709.870   122887495.654         923.820          46.000  
G12  22660904.479   119083858.522        3698.040          42.000  
E03  25930676.221   136266572.472        2651.908          38.000  
> 2023 12 30 11 49 56.0000000  0 16                     
G13  22230079.509   116819844.572       -3040.821          43.000  
E05  21850771.200   114826587.1901        289.700          45.000  
G15  20605830.936   108284372.0263      -1984.859          46.000  
E31  24643322.599   129501505.115       -1724.132          41.000  
G24  20022964.207   105221378.2302        971.475          46.000  
E25  26249796.555   137943622.3901       2989.778          41.000  
G10  23468739.764   123329059.4183       1447.934          39.000  
G22  22730026.955   119447087.413       -2638.097          43.000  
G19  22489534.581   118183301.4693       2164.257          42.000  
G17  22673609.320   119150593.0182        -34.171          43.000  
G14  24038344.711   126322343.571       -3193.500          39.000  
E09  25178600.246   132314451.739       -2294.959          42.000  
G23  22440722.657   117926792.7403       -983.894          42.000  
E24  23384533.309   122886562.0151        923.743          46.000  
G12  22660199.944   119080153.6363       3697.886          42.000  
E03  25930171.526   136263920.415        2651.997          38.000  
> 2023 12 30 11 49 57.0000000  0 16                     
G13  22230656.029   116822885.819       -3041.647          43.000  
E05  21850719.093   114826298.146         288.627          45.000  
G15  20606206.779   108286357.3452      -1985.792          46.000  
E31  24643649.372   129503229.667       -1724.791          41.000  
G24  20022779.584   105220407.2892        970.505          46.000  
E25  26249222.338   137940633.100        2989.268          40.000  
G10  23468465.935   123327612.0792       1447.411          40.000  
G22  22730528.859   119449726.123       -2639.022          44.000  
G19  22489125.094   118181137.7572       2163.219          42.000  
G17  22673614.904   119150627.6472        -35.035          43.000  
G14  24038953.165   126325537.435       -3193.944          39.000  
E09  25179037.060   132316747.191       -2295.950          42.000  
G23  22440912.795   117927777.2842       -984.837          42.000  
E24  23384355.910   122885638.806         922.784          46.000  
G12  22659496.561   119076456.0912       3696.899          42.000  
E03  25929667.285   136261268.580        2651.563          38.000  
> 2023 12 30 11 49 58.0000000  0 16                     
G13  22231236.737   116825927.340       -3041.595          43.000  
E05  21850659.483   114826009.490         288.723          45.000  
G15  20606586.530   108288343.2362      -1986.043          46.000  
E31  24643976.389   129504954.467       -1724.528          41.000  
G24  20022595.414   105219436.8202        970.532          46.000  
E25  26248656.288   137937644.021        2989.267          40.000  
G10  23468190.256   123326165.3882       1446.376          39.000  
G22  22731032.472   119452365.086       -2638.822          44.000  
G19  22488713.060   118178974.5822       2163.335          42.000  
G17  22673621.325   119150662.8982        -35.289          43.000  
G14  24039562.736   126328731.430       -3193.824          39.000  
E09  25179473.734   132319042.876       -2295.477          42.000  
G23  22441098.500   117928762.4842       -985.326          42.000  
E24  23384186.224   122884716.007         922.897          46.000  
G12  22658794.434   119072758.8152       3697.677          43.000  
E03  25929162.555   136258616.901        2652.198          38.000  
> 2023 12 30 11 49 59.0000000  0 16                     
G13  22231814.060   116828969.195       -3041.854          43.000  
E05  21850608.354   114825721.288         287.986          45.000  
G15  20606963.281   108290329.7132      -1986.739          46.000  
E31  24644308.257   129506679.582       -1725.289          41.000  
G24  20022410.966   105218466.8612        969.592          46.000  
E25  26248086.817   137934655.158        2988.642          40.000  
G10  23467915.311   123324719.3182       1445.688          39.000  
G22  22731534.026   119455004.360       -2639.501          44.000  
G19  22488302.142   118176811.9872       2162.301          43.000  
G17  22673629.213   119150698.8332        -36.732          43.000  
G14  24040171.050   126331925.607       -3194.607          39.000  
E09  25179911.036   132321338.867       -2296.149          42.000  
G23  22441286.963   117929748.3142       -986.285          42.000  
E24  23384007.848   122883793.626         922.028          46.000  
G12  22658090.073   119069061.8802       3696.666          43.000  
E03  25928658.418   136255965.531        2650.980          38.000  
> 2023 12 30 11 50 00.0000000  0 16                     
G13  22232393.722   116832011.341       -3041.931          43.000  
E05  21850553.456   114825433.454         288.079          45.000  
G15  20607342.858   108292316.7102      -1986.821          46.000  
E31  24644635.938   129508404.886       -1724.954          41.000  
G24  20022227.285   105217497.3272        969.829          46.000  
E25  26247516.091   137931666.407        2989.071          39.000  
G10  23467641.761   123323273.8672       1445.275          38.000  
G22  22732035.929   119457643.847       -2639.097          44.000  
G19  22487891.887   118174649.8962       2162.310          43.000  
G17  22673636.053   119150735.3142        -36.479          43.000  
G14  24040776.922   126335119.891       -3193.785          39.000  
E09  25180348.443   132323635.072       -2295.905          41.000  
G23  22441473.017   117930734.7642       -986.379          42.000  
E24  23383831.251   122882871.604         922.160          46.000  
G12  22657387.074   119065365.1882       3696.938          42.000  
E03  25928154.037   136253314.252        2651.763          39.000  
> 2023 12 30 11 50 01.0000000  0 16                     
G13  22232973.662   116835053.589       -3042.651          43.000  
E05  21850497.127   114825145.867         287.111          44.000  
G15  20607720.062   108294304.1222      -1987.834          46.000  
E31  24644960.058                       -1725.415          38.000  
G24  20022041.405   105216527.6021        969.002          46.000  
E25  26246949.168   137928677.669        2988.815          40.000  
G10  23467365.175   123321828.8382       1444.490          39.000  
G22  22732539.612   119460283.442       -2640.103          44.000  
G19  22487479.294   118172488.1742       2161.453          41.000  
G17  22673641.428   119150771.7911        -37.980          42.000  
G14  24041383.177                       -3194.391          37.000  
E09  25180783.757                       -2296.456          40.000  
G23  22441660.746   117931721.6762       -987.824          42.000  
E24  23383652.073                         921.641          43.000  
G12  22656683.306   119061668.6762       3695.906          42.000  
E03  25927646.724                        2651.377          38.000  
> 2023 12 30 11 50 02.0000000  0 16                     
G13  22233551.962   116838103.8653      -3042.792          43.000  
E05  21850443.554                         285.749          44.000  
G15  20608097.370   108296282.2863      -1988.459          45.000  
E31  24645287.633                       -1725.926          40.000  
G24  20021858.003   105215573.5623        968.447          47.000  
E25  26246379.209                        2988.224          39.000  
G10  23467090.474   123320392.6593       1444.012          38.000  
G22  22733042.353   119462943.0123      -2640.076          44.000  
G19  22487068.237   118170340.2043       2160.620          43.000  
G17  22673647.640   119150822.0993        -38.239          43.000  
G14  24041991.178   126341516.3133      -3194.823          39.000  
E09  25181221.722                       -2296.769          41.000  
G23  22441848.511   117932709.4493       -988.149          42.000  
E24  23383477.326                         921.085          45.000  
G12  22655979.539   119057975.6043       3696.098          42.000  
E03  25927138.574                        2652.259          39.000  
> 2023 12 30 11 50 03.0000000  0 15                     
G13  22234130.716                       -3043.747          44.000  
E05  21850383.281   114824548.8061        286.241          44.000  
G15  20608474.993   108298270.4842      -1989.045          46.000  
E31  24645617.443                       -1725.538          40.000  
E25  26245812.775   137922686.6071       2988.094          39.000  
G10  23466815.284                        1443.505          39.000  
G22  22733544.152   119465580.8332      -2640.546          43.000  
G19  22486660.216   118168179.7442       2159.539          42.000  
G17  22673652.875                         -38.915          42.000  
G14  24042595.898                       -3194.320          38.000  
E09  25181654.627   132330498.6161      -2297.512          41.000  
G23  22442037.182                        -989.905          42.000  
E24  23383298.950   122880075.3231        920.354          45.000  
G12  22655276.191   119054279.3682       3695.135          42.000  
E03  25926636.007                        2649.498          38.000  
> 2023 12 30 11 50 04.0000000  0 16                     
G13  22234712.925   116844204.7313      -3043.536          44.000  
E05  21850327.406   114824262.635         285.954          45.000  
G15  20608854.954   108300263.7433      -1989.504          46.000  
E31  24645946.868   129515335.1851      -1726.494          40.000  
G24  20021487.675   105213627.3242        967.586          46.000  
E25  26245242.711   137919698.560        2988.042          40.000  
G10  23466539.850   123317499.1333       1442.711          39.000  
G22  22734045.880   119468217.3762      -2640.263          44.000  
G19  22486249.263   118166036.7993       2159.680          43.000  
G17  22673662.543   119150900.5413        -39.565          43.000  
G14  24043205.818   126347898.9283      -3195.456          38.000  
E09  25182096.885   132332795.829       -2297.183          42.000  
G23  22442223.795   117934681.2883       -989.175          42.000  
E24  23383120.399   122879154.900         920.354          46.000  
G12  22654573.470   119050586.8702       3695.220          43.000  
E03  25926131.975   136242753.4521       2650.507          38.000  
> 2023 12 30 11 50 05.0000000  0 16                     
G13  22235290.318   116847248.5332      -3043.842          44.000  
E05  21850276.521   114823977.039         285.239          45.000  
G15  20609231.530   108302253.7242      -1990.370          46.000  
E31  24646273.152   129517061.999       -1727.237          41.000  
G24  20021303.959   105212660.3522        966.251          46.000  
E25  26244672.578   137916710.898        2987.334          40.000  
G10  23466266.265   123316056.9762       1441.852          40.000  
G22  22734548.830   119470858.4062      -2641.350          44.000  
G19  22485838.066   118163877.5812       2158.820          43.000  
G17  22673671.407   119150940.3582        -40.178          43.000  
G14  24043813.016   126351094.1052      -3194.893          39.000  
E09  25182531.326   132335093.500       -2297.917          42.000  
G23  22442415.224   117935671.1062       -990.273          43.000  
E24  23382952.144   122878235.049         919.379          46.000  
G12  22653871.378   119046891.8392       3694.866          43.000  
E03  25925629.165   136240103.293        2649.911          39.000  
> 2023 12 30 11 50 06.0000000  0 16                     
G13  22235869.596   116850292.6682      -3044.135          43.000  
E05  21850225.217   114823691.872         285.115          45.000  
G15  20609610.583   108304244.2992      -1990.736          46.000  
E31  24646601.635   129518789.080       -1727.108          41.000  
G24  20021121.046   105211693.8382        966.393          46.000  
E25  26244108.866   137913723.407        2987.374          40.000  
G10  23465992.541   123314615.4802       1441.160          40.000  
G22  22735051.711   119473499.6962      -2641.361          44.000  
G19  22485425.369   118161718.9142       2158.601          43.000  
G17  22673679.888   119150980.8462        -40.881          43.000  
G14  24044420.248   126354289.4672      -3195.346          39.000  
E09  25182968.454   132337391.437       -2297.813          41.000  
G23  22442604.000   117936661.5672       -990.811          43.000  
E24  23382779.422   122877315.632         919.352          46.000  
G12  22653166.459   119043197.1392       3694.763          43.000  
E03  25925121.328   136237453.368        2649.834          38.000  
> 2023 12 30 11 50 07.0000000  0 16                     
G13  22236449.152   116853337.0412      -3044.544          43.000  
E05  21850171.715   114823407.049         284.795          45.000  
G15  20609989.113   108306235.3792      -1991.294          46.000  
E31  24646933.922   129520516.352       -1727.170          41.000  
G24  20020936.143   105210727.7472        966.038          46.000  
E25  26243537.895   137910736.025        2987.449          40.000  
G10  23465719.794   123313174.5282       1440.756          40.000  
G22  22735554.068   119476141.1832      -2641.525          44.000  
G19  22485013.299   118159560.7292       2157.916          43.000  
G17  22673686.240   119151021.8602        -41.267          43.000  
G14  24045029.819   126357484.9122      -3195.732          39.000  
E09  25183407.013   132339689.560       -2298.119          41.000  
G23  22442791.555   117937652.5932       -991.306          42.000  
E24  23382605.060   122876396.532         918.935          46.000  
G12  22652463.111   119039502.6602       3694.467          43.000  
E03  25924622.811   136234803.536        2650.098          38.000  
> 2023 12 30 11 50 08.0000000  0 16                     
G13  22237027.417   116856381.6332      -3045.049          43.000  
E05  21850118.422   114823122.583         284.155          45.000  
G15  20610368.516   108308226.9482      -1992.107          46.000  
E31  24647265.371   129522243.848       -1727.790          41.000  
G24  20020753.090   105209762.0642        965.093          46.000  
E25  26242970.867   137907748.765        2986.985          40.000  
G10  23465445.930   123311734.1422       1439.764          40.000  
G22  22736057.751   119478782.8622      -2641.983          44.000  
G19  22484601.544   118157403.0362       2157.174          43.000  
G17  22673693.779   119151063.4802        -42.320          43.000  
G14  24045638.413   126360680.4082      -3195.555          38.000  
E09  25183846.165   132341987.888       -2298.589          42.000  
G23  22442981.449   117938644.1962       -992.121          42.000  
E24  23382430.243   122875477.779         918.332          46.000  
G12  22651760.635   119035808.4372       3693.810          43.000  
E03  25924121.501   136232153.860        2649.312          38.000  
> 2023 12 30 11 50 09.0000000  0 16                     
G13  22237607.149   116859426.5752      -3044.987          43.000  
E05  21850064.012   114822838.584         283.905          45.000  
G15  20610747.605   108310219.1292      -1992.389          46.000  
E31  24647593.784   129523971.649       -1727.983          41.000  
G24  20020568.781   105208796.8922        964.958          46.000  
E25  26242400.734   137904761.756        2986.788          40.000  
G10  23465173.114   123310294.4572       1439.312          40.000  
G22  22736558.886   119481424.8622      -2641.984          44.000  
G19  22484191.638   118155245.9142       2156.901          42.000  
G17  22673702.399   119151105.7572        -42.529          43.000  
G14  24046248.996   126363876.1352      -3195.972          39.000  
E09  25184283.677   132344286.528       -2298.837          42.000  
G23  22443169.736   117939636.4952       -992.756          43.000  
E24  23382254.938   122874559.459         918.271          46.000  
G12  22651057.984   119032114.5332       3693.884          42.000  
E03  25923615.375   136229504.421        2649.082          38.000  
> 2023 12 30 11 50 10.0000000  0 16                     
G13  22238186.182   116862471.7892      -3044.926          43.000  
E05  21850010.126   114822554.952         283.922          45.000  
G15  20611126.553   108312211.8252      -1992.462          46.000  
E31  24647921.953   129525699.640       -1727.523          41.000  
G24  20020385.379   105207832.1602        964.928          45.000  
E25  26241833.741   137901774.848        2987.305          40.000  
G10  23464898.168   123308855.3242       1439.320          40.000  
G22  22737061.487   119484067.0812      -2641.898          43.000  
G19  22483780.372   118153089.3072       2156.954          42.000  
G17  22673709.972   119151148.6102        -42.737          42.000  
G14  24046856.822   126367071.9392      -3195.401          39.000  
E09  25184719.967   132346585.360       -2298.535          42.000  
G23  22443358.583   117940629.3732       -992.667          43.000  
E24  23382081.064   122873641.508         918.175          46.000  
G12  22650354.252   119028420.8952       3694.075          42.000  
E03  25923110.784   136226855.112        2649.973          38.000  
> 2023 12 30 11 50 11.0000000  0 16                     
G13  22238765.564   116865517.0412      -3045.316          43.000  
E05  21849956.274   114822271.470         283.515          45.000  
G15  20611506.165   108314204.8502      -1993.370          46.000  
E31  24648251.169   129527427.660       -1727.930          41.000  
G24  20020201.594   105206867.6462        964.253          45.000  
E25  26241264.794   137898787.885        2986.870          40.000  
G10  23464625.072   123307416.5612       1438.621          40.000  
G22  22737564.961   119486709.3292      -2642.519          43.000  
G19  22483369.803   118150932.9852       2155.906          42.000  
G17  22673718.174   119151191.8352        -43.549          42.000  
G14  24047465.102   126370267.6522      -3196.038          39.000  
E09  25185157.619   132348884.203       -2298.862          42.000  
G23  22443547.778   117941622.6242       -993.568          43.000  
E24  23381906.074   122872723.690         917.760          46.000  
G12  22649651.357   119024727.3052       3693.308          43.000  
E03  25922607.555   136224205.753        2649.107          38.000  
> 2023 12 30 11 50 12.0000000  0 16                     
G13  22239345.190   116868562.6612      -3046.275          43.000  
E05  21849902.249   114821988.477         282.134          45.000  
G15  20611885.882   108316198.4632      -1994.319          46.000  
E31  24648579.896   129529156.003       -1729.115          41.000  
G24  20020018.262   105205903.6522        963.210          46.000  
E25  26240696.511   137895801.166        2985.925          40.000  
G10  23464351.418   123305978.5222       1437.069          40.000  
G22  22738067.457   119489351.8892      -2643.126          43.000  
G19  22482959.234   118148777.2402       2154.978          41.000  
G17  22673726.585   119151235.7642        -44.729          42.000  
G14  24048073.102   126373463.5542      -3196.648          39.000  
E09  25185595.096   132351183.365       -2300.022          42.000  
G23  22443736.834   117942616.5972       -994.965          42.000  
E24  23381731.537   122871806.333         916.619          46.000  
G12  22648949.300   119021034.0412       3692.727          43.000  
E03  25922103.313   136221556.635        2648.242          38.000  
> 2023 12 30 11 50 13.0000000  0 16                     
G13  22239924.747   116871608.4821      -3046.429          43.000  
E05  21849848.676   114821706.292         282.189          45.000  
G15  20612265.948   108318193.060       -1994.677          46.000  
E31  24648908.693   129530885.021       -1729.211          41.000  
G24  20019835.104   105204940.0411        963.126          46.000  
E25  26240128.157   137892815.040        2986.091          40.000  
G10  23464078.357   123304540.9721       1437.068          40.000  
G22  22738570.233   119491994.6311      -2643.262          43.000  
G19  22482549.154   118146622.442        2154.830          42.000  
G17  22673734.856   119151280.706         -45.039          42.000  
G14  24048681.277   126376659.973       -3196.236          39.000  
E09  25186032.852   132353483.174       -2299.609          42.000  
G23  22443926.099   117943611.1181       -995.051          42.000  
E24  23381557.034   122870889.776         916.698          46.000  
G12  22648246.789   119017341.498        3692.509          43.000  
E03  25921598.932   136218908.117        2648.668          38.000  
> 2023 12 30 11 50 14.0000000  0 16                     
G13  22240504.548   116874655.468       -3047.318          43.000  
E05  21849795.453   114821424.892         281.031          45.000  
G15  20612645.944   108320188.616       -1995.919          46.000  
E31  24649238.118   129532614.632       -1729.913          41.000  
G24  20019652.191   105203977.801         961.626          46.000  
E25  26239559.873   137889829.415        2985.274          40.000  
G10  23463805.331   123303104.997        1435.188          40.000  
G22  22739073.532   119494638.503       -2644.296          43.000  
G19  22482139.423   118144468.599        2153.338          42.000  
G17  22673743.896   119151326.661         -46.519          42.000  
G14  24049289.383   126379856.964       -3197.555          39.000  
E09  25186470.538   132355783.633       -2300.927          42.000  
G23  22444115.433   117944607.133        -996.841          42.000  
E24  23381382.637   122869974.012         915.450          46.000  
G12  22647544.209   119013649.642        3691.459          43.000  
E03  25921095.598   136216260.154        2647.656          39.000  
> 2023 12 30 11 50 15.0000000  0 16                     
G13  22241084.244   116877702.785       -3047.666          43.000  
E05  21849741.497   114821143.939         280.391          45.000  
G15  20613026.359   108322184.740       -1996.657          46.000  
E31  24649567.195   129534344.580       -1730.547          41.000  
G24  20019469.348   105203016.024         961.178          46.000  
E25  26238991.380   137886844.033        2985.124          40.000  
G10  23463532.235   123301669.630        1434.294          40.000  
G22  22739576.622   119497282.652       -2644.477          43.000  
G19  22481730.111   118142315.270        2152.790          42.000  
G17  22673752.865   119151373.273         -47.084          42.000  
G14  24049897.697   126383054.102       -3197.674          39.000  
E09  25186908.469   132358084.371       -2301.387          42.000  
G23  22444305.013   117945603.800        -997.424          42.000  
E24  23381208.274   122869058.655         915.023          46.000  
G12  22646842.291   119009958.073        3691.135          43.000  
E03  25920591.775   136213612.405        2647.422          39.000  
> 2023 12 30 11 50 16.0000000  0 16                     
G13  22241664.534   116880750.575       -3047.864          43.000  
E05  21849688.309   114820863.576         280.171          45.000  
G15  20613406.529   108324181.621       -1997.220          46.000  
E31  24649896.445   129536074.949       -1730.631          41.000  
G24  20019286.888   105202054.932         960.833          46.000  
E25  26238423.689   137883859.008        2985.066          40.000  
G10  23463259.104   123300235.075        1434.132          40.000  
G22  22740079.677   119499927.278       -2644.785          43.000  
G19  22481320.554   118140162.710        2152.106          42.000  
G17  22673762.218   119151420.713         -47.564          43.000  
G14  24050506.151   126386251.578       -3197.542          39.000  
E09  25187346.504   132360385.535       -2301.219          42.000  
G23  22444494.801   117946601.295        -997.728          42.000  
E24  23381034.435   122868143.893         914.656          46.000  
G12  22646140.304   119006267.019        3690.732          43.000  
E03  25920088.057   136210965.060        2647.039          39.000  
> 2023 12 30 11 50 17.0000000  0 16                     
G13  22242244.509   116883798.784       -3048.688          43.000  
E05  21849635.156   114820583.730         279.393          45.000  
G15  20613786.979   108326179.160       -1998.249          46.000  
E31  24650226.080   129537805.676       -1731.165          41.000  
G24  20019104.359   105201094.399         960.149          46.000  
E25  26237856.104   137880874.267        2984.306          40.000  
G10  23462986.008   123298801.261        1433.149          40.000  
G22  22740582.767   119502572.252       -2645.442          43.000  
G19  22480911.137   118138010.777        2151.425          42.000  
G17  22673771.258   119151468.870         -48.848          43.000  
G14  24051114.536   126389449.314       -3198.108          40.000  
E09  25187784.121   132362687.057       -2301.828          42.000  
G23  22444684.625   117947599.516        -998.739          42.000  
E24  23380860.631   122867229.623         913.994          46.000  
G12  22645438.107   119002576.345        3690.361          43.000  
E03  25919584.095   136208317.974        2646.795          39.000  
> 2023 12 30 11 50 18.0000000  0 16                     
G13  22242824.275   116886847.267       -3048.189          42.000  
E05  21849582.316   114820304.280         279.604          45.000  
G15  20614167.463   108328177.238       -1998.201          46.000  
E31  24650555.680   129539536.657       -1730.951          41.000  
G24  20018922.004   105200134.319         960.230          47.000  
E25  26237287.715   137877889.699        2984.775          40.000  
G10  23462713.261   123297368.046        1433.168          40.000  
G22  22741085.682   119505217.488       -2645.024          43.000  
G19  22480501.860   118135859.367        2151.587          42.000  
G17  22673780.576   119151517.652         -48.786          42.000  
G14  24051723.095   126392647.157       -3197.453          39.000  
E09  25188222.261   132364988.845       -2301.663          42.000  
G23  22444874.937   117948598.391        -998.971          42.000  
E24  23380686.792   122866315.756         914.001          46.000  
G12  22644736.259   118998885.969        3690.629          44.000  
E03  25919080.377   136205671.078        2646.954          39.000  
> 2023 12 30 11 50 19.0000000  0 16                     
G13  22243404.251   116889895.908       -3049.375          42.000  
E05  21849529.023   114820025.114         278.321          45.000  
G15  20614547.983   108330175.757       -1999.136          47.000  
E31  24650885.000   129541267.770       -1732.002          41.000  
G24  20018739.440   105199174.591         959.075          47.000  
E25  26236719.990   137874905.092        2984.046          40.000  
G10  23462440.270   123295935.321        1431.998          40.000  
G22  22741588.562   119507862.826       -2645.961          43.000  
G19  22480092.582   118133708.365        2150.133          42.000  
G17  22673790.174   119151566.893         -50.122          42.000  
G14  24052331.025   126395845.002       -3197.892          38.000  
E09  25188660.575   132367290.722       -2302.586          42.000  
G23  22445064.970   117949597.710        -999.934          42.000  
E24  23380513.023   122865402.103         912.988          46.000  
G12  22644033.609   118995195.756        3689.711          44.000  
E03  25918576.450   136203024.221        2646.374          39.000  
> 2023 12 30 11 50 20.0000000  0 16                     
G13  22243984.645   116892945.100       -3049.248          43.000  
E05  21849476.428   114819746.598         278.345          45.000  
G15  20614928.537   108332175.078       -1999.639          47.000  
E31  24651214.286   129542999.364       -1731.652          41.000  
G24  20018556.876   105198215.575         958.861          47.000  
E25  26236152.055   137871921.009        2983.974          40.000  
G10  23462167.802   123294503.470        1431.827          39.000  
G22  22742092.036   119510508.704       -2645.845          43.000  
G19  22479683.444   118131558.161        2149.765          42.000  
G17  22673799.422   119151617.052         -50.699          42.000  
G14  24052939.828   126399043.283       -3198.594          39.000  
E09  25189098.611   132369593.116       -2302.590          42.000  
G23  22445255.351   117950597.969       -1000.662          43.000  
E24  23380339.079   122864489.141         912.927          46.000  
G12  22643331.028   118991506.062        3689.623          43.000  
E03  25918072.557   136200377.829        2646.200          39.000  
> 2023 12 30 11 50 21.0000000  0 16                     
G13  22244564.725   116895994.553       -3049.476          42.000  
E05  21849423.519   114819468.459         277.975          45.000  
G15  20615309.231   108334174.925       -1999.994          47.000  
E31  24651544.095   129544731.201       -1731.803          41.000  
G24  20018374.695   105197256.993         958.419          47.000  
E25  26235584.469   137868937.036        2984.161          39.000  
G10  23461895.579   123293072.249        1431.055          39.000  
G22  22742595.545   119513154.803       -2645.916          43.000  
G19  22479274.481   118129408.432        2149.499          42.000  
G17  22673809.020   119151667.772         -51.160          43.000  
G14  24053548.178   126402241.598       -3198.391          39.000  
E09  25189536.541   132371895.726       -2302.695          41.000  
G23  22445446.013   117951598.787       -1001.155          42.000  
E24  23380165.414   122863576.535         912.553          45.000  
G12  22642628.866   118987816.626        3689.473          43.000  
E03  25917569.398   136197731.547        2646.413          39.000  
> 2023 12 30 11 50 22.0000000  0 16                     
G13  22245145.049   116899044.349       -3049.926          42.000  
E05  21849370.575   114819190.785         277.605          45.000  
G15  20615690.065   108336175.374       -2000.629          46.000  
E31  24651873.590   129546463.364       -1732.159          40.000  
G24  20018192.585   105196298.945         957.841          47.000  
E25  26235016.325   137865953.310        2983.800          39.000  
G10  23461623.356   123291641.701        1430.286          39.000  
G22  22743099.402   119515801.234       -2646.463          44.000  
G19  22478865.692   118127259.332        2148.817          42.000  
G17  22673819.141   119151719.173         -51.475          43.000  
G14  24054156.876   126405440.159       -3198.951          39.000  
E09  25189974.507   132374198.643       -2302.824          41.000  
G23  22445636.743   117952600.320       -1001.865          42.000  
E24  23379992.064   122862664.373         911.861          45.000  
G12  22641926.600   118984127.569        3689.041          43.000  
E03  25917065.540   136195085.551        2645.955          39.000  
> 2023 12 30 11 50 23.0000000  0 16                     
G13  22245725.234   116902094.443       -3049.979          42.000  
E05  21849318.015   114818913.518         277.519          45.000  
G15  20616070.933   108338176.388       -2000.897          47.000  
E31  24652203.085   129548195.745       -1731.939          40.000  
G24  20018010.230   105195341.350         957.777          47.000  
E25  26234448.495   137862969.720        2984.159          38.000  
G10  23461350.993   123290211.740        1430.042          40.000  
G22  22743603.260   119518447.885       -2646.344          44.000  
G19  22478456.799   118125110.744        2148.982          42.000  
G17  22673829.088   119151771.208         -51.838          43.000  
G14  24054765.400   126408638.824       -3198.267          39.000  
E09  25190412.857   132376501.812       -2302.678          42.000  
G23  22445827.405   117953602.458       -1002.037          42.000  
E24  23379818.364   122861752.604         911.981          45.000  
G12  22641224.926   118980438.765        3689.293          43.000  
E03  25916561.822   136192439.700        2646.271          39.000  
> 2023 12 30 11 50 24.0000000  0 16                     
G13  22246305.559   116905144.472       -3050.376          42.000  
E05  21849265.316   114818636.307         277.063          45.000  
G15  20616451.976   108340177.609       -2001.732          47.000  
E31  24652532.475   129549928.067       -1732.608          40.000  
G24  20017827.910   105194383.888         957.061          47.000  
E25  26233880.700   137859985.963        2983.698          39.000  
G10  23461078.664   123288782.096        1429.191          40.000  
G22  22744107.222   119521094.472       -2646.880          44.000  
G19  22478047.731   118122962.356        2147.913          42.000  
G17  22673839.034   119151823.529         -52.947          43.000  
G14  24055373.820   126411837.349       -3199.003          38.000  
E09  25190851.171   132378804.899       -2303.242          42.000  
G23  22446018.903   117954604.901       -1002.809          43.000  
E24  23379645.049   122860840.869         911.479          45.000  
G12  22640522.869   118976749.950        3688.582          43.000  
E03  25916058.593   136189793.695        2645.887          39.000  
> 2023 12 30 11 50 25.0000000  0 16                     
G13  22246885.569   116908194.689       -3050.529          42.000  
E05  21849212.616   114818359.392         276.583          45.000  
G15  20616832.775   108342179.274       -2001.856          47.000  
E31  24652861.970   129551660.521       -1732.914          40.000  
G24  20017645.939   105193426.762         956.904          47.000  
E25  26233312.905   137857002.287        2983.184          39.000  
G10  23460806.092   123287352.945        1428.764          39.000  
G22  22744610.661   119523741.184       -2646.755          43.000  
G19  22477639.291   118120814.389        2147.360          42.000  
G17  22673849.016   119151876.320         -52.997          42.000  
G14  24055982.099   126415035.832       -3198.901          38.000  
E09  25191289.730   132381108.113       -2303.434          42.000  
G23  22446210.053   117955607.850       -1003.269          43.000  
E24  23379471.524   122859929.408         911.295          45.000  
G12  22639821.091   118973061.280        3688.652          43.000  
E03  25915554.735   136187147.767        2645.781          38.000  
> 2023 12 30 11 50 26.0000000  0 16                     
G13  22247466.033   116911245.469       -3050.890          42.000  
E05  21849159.847   114818083.166         276.095          45.000  
G15  20617213.608   108344181.763       -2002.734          47.000  
E31  24653191.884   129553393.506       -1733.050          41.000  
G24  20017463.899   105192470.383         956.541          47.000  
E25  26232745.354   137854019.028        2983.426          39.000  
G10  23460534.183   123285924.674        1428.131          39.000  
G22  22745114.169   119526388.447       -2647.328          43.000  
G19  22477230.677   118118667.237        2146.920          42.000  
G17  22673859.660   119151930.005         -53.697          43.000  
G14  24056590.833   126418234.733       -3199.198          38.000  
E09  25191728.079   132383411.842       -2303.969          42.000  
G23  22446400.819   117956611.682       -1004.096          43.000  
E24  23379298.383   122859018.630         910.588          45.000  
G12  22639119.453   118969373.184        3687.822          43.000  
E03  25915051.576   136184502.325        2645.437          39.000  
> 2023 12 30 11 50 27.0000000  0 16                     
G13  22248046.741   116914296.621       -3051.115          43.000  
E05  21849107.287   114817807.415         275.746          45.000  
G15  20617594.756   108346184.877       -2003.473          47.000  
E31  24653521.693   129555126.834       -1733.533          41.000  
G24  20017281.718   105191514.561         955.518          46.000  
E25  26232177.524   137851036.046        2982.853          39.000  
G10  23460261.750   123284497.142        1426.780          39.000  
G22  22745618.132   119529036.041       -2647.567          43.000  
G19  22476822.062   118116520.658        2146.671          42.000  
G17  22673870.375   119151984.449         -55.284          43.000  
G14  24057199.462   126421433.841       -3199.216          39.000  
E09  25192166.743   132385715.880       -2304.193          42.000  
G23  22446591.968   117957616.240       -1005.068          43.000  
E24  23379125.521   122858108.317         910.159          46.000  
G12  22638417.954   118965685.445        3687.634          44.000  
E03  25914548.276   136181857.107        2645.174          39.000  
> 2023 12 30 11 50 28.0000000  0 16                     
G13  22248627.624   116917347.903       -3051.286          43.000  
E05  21849054.936   114817531.922         275.518          45.000  
G15  20617975.799   108348188.409       -2003.779          47.000  
E31  24653851.572   129556860.227       -1733.373          41.000  
G24  20017099.538   105190559.033         955.362          46.000  
E25  26231609.694   137848053.081        2983.045          40.000  
G10  23459990.015   123283070.015        1427.281          39.000  
G22  22746121.850   119531683.747       -2647.595          43.000  
G19  22476413.658   118114374.504        2146.168          42.000  
G17  22673881.334   119152039.315         -55.236          43.000  
G14  24057808.020   126424632.956       -3199.265          38.000  
E09  25192605.302   132388020.044       -2304.163          42.000  
G23  22446782.978   117958621.278       -1005.265          42.000  
E24  23378952.380   122857198.258         909.996          46.000  
G12  22637716.420   118961997.870        3687.511          44.000  
E03  25914045.187   136179211.944        2645.344          39.000  
> 2023 12 30 11 50 29.0000000  0 16                     
G13  22249208.647   116920399.412       -3051.137          43.000  
E05  21849002.341   114817256.804         275.125          45.000  
G15  20618357.016   108350192.445       -2003.991          47.000  
E31  24654181.346   129558593.866       -1733.386          41.000  
G24  20016917.044   105189603.948         955.193          46.000  
E25  26231042.178   137845070.232        2983.008          40.000  
G10  23459718.385   123281643.542        1426.397          39.000  
G22  22746625.847   119534331.675       -2647.925          44.000  
G19  22476005.357   118112228.864        2145.799          42.000  
G17  22673891.978   119152094.765         -55.405          43.000  
G14  24058416.824   126427832.167       -3198.700          38.000  
E09  25193043.896   132390324.429       -2304.412          42.000  
G23  22446974.198   117959626.889       -1005.438          42.000  
E24  23378779.797   122856288.529         909.859          46.000  
G12  22637014.957   118958310.552        3687.557          44.000  
E03  25913541.713   136176566.911        2645.362          39.000  
> 2023 12 30 11 50 30.0000000  0 16                     
G13  22249789.669   116923451.057       -3051.831          43.000  
E05  21848949.676   114816981.859         274.869          45.000  
G15  20618738.094   108352196.836       -2004.662          47.000  
E31  24654511.784   129560327.520       -1733.680          41.000  
G24  20016735.038   105188649.116         954.547          46.000  
E25  26230474.417   137842087.350        2982.983          40.000  
G10  23459446.930   123280217.454        1425.676          39.000  
G22  22747129.914   119536979.628       -2648.037          44.000  
G19  22475596.673   118110083.533        2144.968          41.000  
G17  22673903.111   119152150.653         -56.251          43.000  
G14  24059025.766   126431031.309       -3199.335          38.000  
E09  25193482.280   132392628.809       -2304.428          42.000  
G23  22447165.383   117960632.928       -1006.233          42.000  
E24  23378606.272   122855378.975         909.258          46.000  
G12  22636313.737   118954623.304        3687.186          45.000  
E03  25913038.135   136173921.850        2645.091          39.000  
> 2023 12 30 11 50 31.0000000  0 16                     
G13  22250370.657   116926502.867       -3052.118          43.000  
E05  21848897.151   114816707.236         274.305          44.000  
G15  20619119.416   108354201.674       -2005.133          47.000  
E31  24654842.116   129562061.357       -1734.187          41.000  
G24  20016552.928   105187694.636         954.295          46.000  
E25  26229906.901   137839104.543        2982.767          40.000  
G10  23459175.648   123278791.884        1424.807          40.000  
G22  22747633.737   119539627.753       -2648.225          43.000  
G19  22475188.373   118107938.620        2144.617          41.000  
G17  22673914.210   119152207.055         -56.973          43.000  
G14  24059634.500   126434230.496       -3199.401          37.000  
E09  25193920.804   132394933.369       -2304.821          42.000  
G23  22447356.393   117961639.506       -1007.009          42.000  
E24  23378433.376   122854469.745         908.920          46.000  
G12  22635612.203   118950936.243        3686.713          44.000  
E03  25912534.766   136171276.893        2644.536          39.000  
> 2023 12 30 11 50 32.0000000  0 16                     
G13  22250951.539   116929554.908       -3052.078          43.000  
E05  21848844.731   114816432.973         273.964          44.000  
G15  20619500.843   108356207.009       -2005.431          47.000  
E31  24655171.681   129563795.358       -1734.034          41.000  
G24  20016371.376   105186740.586         953.919          46.000  
E25  26229339.036   137836121.838        2982.747          40.000  
G10  23458904.542   123277366.885        1424.651          39.000  
G22  22748137.629   119542276.082       -2648.225          44.000  
G19  22474780.212   118105794.193        2144.323          42.000  
G17  22673925.099   119152264.012         -57.270          43.000  
G14  24060243.198   126437429.766       -3199.375          37.000  
E09  25194359.502   132397238.107       -2304.824          42.000  
G23  22447548.275   117962646.637       -1007.356          42.000  
E24  23378260.584   122853560.835         908.703          46.000  
G12  22634910.879   118947249.404        3686.908          44.000  
E03  25912031.117   136168632.031        2644.670          39.000  
> 2023 12 30 11 50 33.0000000  0 16                     
G13  22251533.016   116932607.426       -3052.477          43.000  
E05  21848792.624   114816159.294         273.402          45.000  
G15  20619882.619   108358213.096       -2006.329          47.000  
E31  24655501.804   129565529.831       -1734.522          41.000  
G24  20016190.033   105185787.191         953.044          46.000  
E25  26228771.451   137833139.513        2982.365          40.000  
G10  23458633.645   123275942.721        1423.988          40.000  
G22  22748641.871   119544924.858       -2648.766          44.000  
G19  22474372.401   118103650.508        2143.461          42.000  
G17  22673936.686   119152321.806         -58.267          43.000  
G14  24060852.211   126440629.330       -3199.603          38.000  
E09  25194798.410   132399543.309       -2305.409          42.000  
G23  22447739.530   117963654.597       -1007.941          42.000  
E24  23378087.861   122852652.502         908.143          46.000  
G12  22634209.311   118943563.069        3686.202          44.000  
E03  25911527.923   136165987.567        2644.409          39.000  
> 2023 12 30 11 50 34.0000000  0 16                     
G13  22252114.143   116935660.291       -3053.283          43.000  
E05  21848740.902   114815886.065         272.848          45.000  
G15  20620264.220   108360219.772       -2007.063          47.000  
E31  24655832.067   129567264.592       -1735.029          41.000  
G24  20016008.690   105184834.284         952.706          46.000  
E25  26228204.458   137830157.411        2981.923          40.000  
G10  23458362.817   123274519.204        1423.248          40.000  
G22  22749145.763   119547573.938       -2649.095          43.000  
G19  22473964.624   118101507.387        2142.747          42.000  
G17  22673947.889   119152380.253         -58.833          43.000  
G14  24061461.119   126443829.065       -3199.623          37.000  
E09  25195237.179   132401848.782       -2305.773          42.000  
G23  22447931.098   117964663.229       -1009.100          42.000  
E24  23377915.453   122851744.607         907.564          46.000  
G12  22633507.951   118939877.033        3686.107          44.000  
E03  25911024.973   136163343.328        2643.960          39.000  
> 2023 12 30 11 50 35.0000000  0 16                     
G13  22252695.689   116938713.303       -3052.852          43.000  
E05  21848688.691   114815613.116         272.819          45.000  
G15  20620645.961   108362226.888       -2007.276          47.000  
E31  24656162.504   129568999.474       -1734.794          41.000  
G24  20015827.313   105183881.741         952.497          45.000  
E25  26227636.942   137827175.338        2982.099          40.000  
G10  23458092.374   123273096.187        1422.851          40.000  
G22  22749649.690   119550223.143       -2649.330          43.000  
G19  22473556.987   118099364.674        2142.683          42.000  
G17  22673959.127   119152439.205         -59.288          43.000  
G14  24062069.817   126447028.907       -3200.311          37.000  
E09  25195676.121   132404154.393       -2305.781          42.000  
G23  22448123.434   117965672.364       -1009.402          42.000  
E24  23377742.556   122850836.979         907.623          46.000  
G12  22632806.627   118936191.203        3685.859          44.000  
E03  25910521.813   136160699.152        2644.131          39.000  
> 2023 12 30 11 50 36.0000000  0 16                     
G13  22253276.641   116941766.694       -3054.061          43.000  
E05  21848637.038   114815340.637         271.813          45.000  
G15  20621027.563   108364234.616       -2008.575          47.000  
E31  24656492.418   129570734.682       -1735.630          41.000  
G24  20015646.389   105182929.708         951.360          45.000  
E25  26227069.845   137824193.517        2981.282          41.000  
G10  23457821.930   123271673.854        1421.609          40.000  
G22  22750153.932   119552872.674       -2650.062          43.000  
G19  22473149.245   118097222.576        2141.327          41.000  
G17  22673970.853   119152498.825         -60.294          43.000  
G14  24062678.690   126450228.831       -3200.202          37.000  
E09  25196114.541   132406460.291       -2306.353          42.000  
G23  22448315.806   117966682.186       -1010.664          42.000  
E24  23377569.869   122849929.809         906.490          46.000  
G12  22632105.163   118932505.710        3684.761          44.000  
E03  25910018.339   136158055.217        2643.318          38.000  
> 2023 12 30 11 50 37.0000000  0 16                     
G13  22253857.594   116944820.363       -3054.124          43.000  
E05  21848585.176   114815068.562         271.738          45.000  
G15  20621409.653   108366242.879       -2008.471          47.000  
E31  24656822.716   129572470.141       -1735.796          41.000  
G24  20015465.325   105181978.146         951.339          46.000  
E25  26226502.503   137821211.856        2981.335          41.000  
G10  23457551.452   123270252.126        1421.472          40.000  
G22  22750658.837   119555522.454       -2649.927          44.000  
G19  22472741.469   118095080.994        2141.273          42.000  
G17  22673982.196   119152559.061         -60.393          43.000  
G14  24063287.354   126453428.931       -3200.049          36.000  
E09  25196553.309   132408766.452       -2306.149          42.000  
G23  22448508.421   117967692.608       -1010.514          43.000  
E24  23377397.251   122849023.010         906.455          46.000  
G12  22631403.734   118928820.495        3685.103          44.000  
E03  25909514.726   136155411.456        2643.424          38.000  
> 2023 12 30 11 50 38.0000000  0 16                     
G13  22254438.302   116947874.252       -3054.141          43.000  
E05  21848533.488   114814796.834         271.382          44.000  
G15  20621792.022   108368251.640       -2009.114          47.000  
E31  24657153.084   129574205.778       -1735.927          41.000  
G24  20015284.681   105181026.989         950.902          46.000  
E25  26225934.953   137818230.299        2981.377          41.000  
G10  23457280.764   123268831.009        1420.756          39.000  
G22  22751163.078   119558172.434       -2650.293          43.000  
G19  22472334.285   118092939.902        2140.916          42.000  
G17  22673993.434   119152619.874         -61.097          43.000  
G14  24063896.227   126456629.105       -3200.459          36.000  
E09  25196992.007   132411072.807       -2306.801          42.000  
G23  22448701.106   117968703.625       -1011.214          42.000  
E24  23377224.215   122848116.552         906.247          46.000  
G12  22630702.305   118925135.513        3684.785          44.000  
E03  25909011.741   136152767.829        2643.387          38.000  
> 2023 12 30 11 50 39.0000000  0 16                     
G13  22255019.290   116950928.537       -3054.160          43.000  
E05  21848481.766   114814525.619         271.018          44.000  
G15  20622174.147   108370261.084       -2009.713          47.000  
E31  24657483.102   129575941.779       -1735.899          41.000  
G24  20015104.385   105180076.412         950.202          46.000  
E25  26225367.506   137815249.040        2981.080          41.000  
G10  23457010.635   123267410.599        1420.365          39.000  
G22  22751667.669   119560822.771       -2650.363          44.000  
G19  22471926.823   118090799.456        2140.076          41.000  
G17  22674005.091   119152681.408         -61.969          43.000  
G14  24064505.065   126459829.530       -3200.518          37.000  
E09  25197430.392   132413379.501       -2306.713          42.000  
G23  22448894.176   117969715.388       -1012.013          43.000  
E24  23377051.807   122847210.629         905.753          46.000  
G12  22630000.946   118921450.948        3684.307          44.000  
E03  25908508.896   136150124.515        2642.803          38.000  
> 2023 12 30 11 50 40.0000000  0 16                     
G13  22255600.312   116953983.176       -3054.848          43.000  
E05  21848430.462   114814254.872         270.378          44.000  
G15  20622556.830   108372271.108       -2010.480          47.000  
E31  24657813.051   129577678.091       -1736.402          41.000  
G24  20014923.845   105179126.334         949.878          47.000  
E25  26224800.304   137812267.968        2980.985          41.000  
G10  23456740.052   123265990.832        1419.645          38.000  
G22  22752172.154   119563473.439       -2651.149          44.000  
G19  22471519.849   118088659.569        2139.550          42.000  
G17  22674016.468   119152743.617         -62.738          43.000  
G14  24065114.496   126463030.138       -3200.877          37.000  
E09  25197869.020   132415686.493       -2307.371          41.000  
G23  22449087.384   117970727.796       -1012.706          43.000  
E24  23376879.643   122846305.116         905.107          46.000  
G12  22629299.587   118917766.690        3683.973          43.000  
E03  25908005.876   136147481.410        2642.703          38.000  
> 2023 12 30 11 50 41.0000000  0 16                     
G13  22256181.998   116957037.952       -3054.494          44.000  
E05  21848379.089   114813984.374         270.810          45.000  
G15  20622939.409   108374281.563       -2010.396          47.000  
E31  24658143.488   129579414.526       -1736.031          41.000  
G24  20014743.340   105178176.604         949.987          47.000  
E25  26224233.207   137809286.952        2981.182          40.000  
G10  23456469.922   123264571.580        1419.561          39.000  
G22  22752675.942   119566124.169       -2650.526          44.000  
G19  22471113.119   118086520.113        2139.584          43.000  
G17  22674028.544   119152806.304         -62.570          43.000  
G14  24065723.614   126466230.790       -3200.867          36.000  
E09  25198307.754   132417993.590       -2306.645          41.000  
G23  22449280.558   117971740.695       -1012.737          43.000  
E24  23376707.654   122845399.860         905.588          46.000  
G12  22628598.088   118914082.626        3684.315          43.000  
E03  25907502.786   136144838.322        2643.619          38.000  
> 2023 12 30 11 50 42.0000000  0 16                     
G13  22256763.718   116960093.341       -3056.112          44.000  
E05  21848327.925   114813714.598         269.259          45.000  
G15  20623322.511   108376292.870       -2011.919          47.000  
E31  24658473.925   129581151.527       -1737.717          41.000  
G24  20014562.905   105177227.646         948.350          46.000  
E25  26223665.866   137806306.417        2980.011          40.000  
G10  23456200.037   123263153.279        1417.614          39.000  
G22  22753180.044   119568775.500       -2651.855          43.000  
G19  22470706.529   118084381.485        2137.945          43.000  
G17  22674040.968   119152869.919         -64.606          44.000  
G14  24066332.836   126469431.797       -3201.589          37.000  
E09  25198747.464   132420301.264       -2308.085          41.000  
G23  22449473.802   117972754.551       -1014.667          43.000  
E24  23376535.385   122844495.292         904.106          46.000  
G12  22627896.834   118910399.135        3683.103          43.000  
E03  25906999.871   136142195.746        2642.350          38.000  
> 2023 12 30 11 50 43.0000000  0 15                     
G13  22257344.636                       -3054.153          44.000  
E05  21848272.782                         270.681          44.000  
G15  20623705.822                       -2010.836          47.000  
E31  24658800.279                       -1737.879          40.000  
G24  20014384.389                         948.766          40.000  
E25  26223098.804                        2981.366          39.000  
G10  23455929.908                        1418.146          40.000  
G22  22753684.355                       -2652.876          43.000  
G19  22470300.567                        2137.191          42.000  
G17  22674053.428                         -65.254          43.000  
G14  24066942.581                       -3209.445          35.000  
E09  25199185.081                       -2303.217          41.000  
E24  23376360.813                         908.019          45.000  
G12  22627194.602                        3685.558          42.000  
E03  25906494.966                        2638.890          37.000  
> 2023 12 30 11 50 44.0000000  0 16                     
G13  22257925.170   116966185.8103      -3056.178          44.000  
E05  21848222.211   114813193.1141        268.385          46.000  
G15  20624090.320   108380326.0063      -2012.974          47.000  
E31  24659131.694   129584622.0841      -1737.880          41.000  
G24  20014202.837   105175344.9733        947.422          47.000  
E25  26222530.555   137800337.7271       2979.664          41.000  
G10  23455662.291   123260336.3673       1416.569          41.000  
G22  22754186.573   119574057.2523      -2652.019          44.000  
G19  22469894.605   118080092.6973       2136.978          43.000  
G17  22674068.191   119153031.8493        -65.718          44.000  
G14  24067550.617   126475831.6213      -3201.082          37.000  
E09  25199625.141   132424934.1801      -2308.366          42.000  
G23  22449861.790   117974818.9773      -1015.836          44.000  
E24  23376189.941   122842717.2101        903.320          46.000  
G12  22626495.407   118903035.4203       3682.217          44.000  
E03  25905988.945   136136901.0351       2641.971          39.000  
> 2023 12 30 11 50 45.0000000  0 16                     
G13  22258508.740   116969242.4182      -3056.858          44.000  
E05  21848169.302   114812924.900         268.062          45.000  
G15  20624471.328   108382339.3142      -2013.495          47.000  
E31  24659458.502   129586360.175       -1738.201          42.000  
G24  20014022.890   105174397.7392        947.208          47.000  
E25  26221962.131   137797358.027        2979.879          41.000  
G10  23455392.371   123258920.2542       1416.091          41.000  
G22  22754692.001   119576709.7002      -2652.467          44.000  
G19  22469486.759   118077956.0282       2136.632          43.000  
G17  22674077.404   119153097.6582        -65.790          44.000  
G14  24068161.514   126479033.4492      -3202.061          37.000  
E09  25200063.734   132427242.946       -2308.864          42.000  
G23  22450054.126   117975835.0482      -1016.244          43.000  
E24  23376014.915   122841814.156         902.905          46.000  
G12  22625794.641   118899353.1542       3682.295          44.000  
E03  25905484.773   136134259.359        2641.497          39.000  
> 2023 12 30 11 50 46.0000000  0 16                     
G13  22259089.972   116972299.3552      -3057.276          44.000  
E05  21848118.173   114812657.156         267.309          45.000  
G15  20624856.175   108384353.2412      -2014.426          47.000  
E31  24659789.148   129588098.565       -1738.732          41.000  
G24  20013839.663   105173451.0532        946.131          47.000  
E25  26221396.256   137794378.584        2979.444          41.000  
G10  23455121.439   123257504.8522       1414.803          41.000  
G22  22755195.579   119579362.4472      -2653.150          44.000  
G19  22469080.518   118075819.9562       2135.581          43.000  
G17  22674086.897   119153164.1772        -67.093          43.000  
G14  24068772.271   126482235.4172      -3202.641          37.000  
E09  25200502.363   132429552.019       -2309.546          42.000  
G23  22450244.927   117976851.8072      -1017.210          43.000  
E24  23375839.540   122840911.590         902.226          46.000  
G12  22625091.816   118895671.2452       3681.555          44.000  
E03  25904983.254   136131617.963        2640.748          39.000  
> 2023 12 30 11 50 47.0000000  0 16                     
G13  22259671.099   116975356.6682      -3057.127          44.000  
E05  21848072.942   114812389.906         266.898          45.000  
G15  20625239.836   108386367.8102      -2014.899          47.000  
E31  24660128.869   129589837.303       -1738.892          42.000  
G24  20013660.554   105172504.9272        945.550          47.000  
E25  26220830.136   137791399.399        2979.083          40.000  
G10  23454854.870   123256090.1752       1414.443          40.000  
G22  22755703.764   119582015.5412      -2653.409          43.000  
G19  22468673.090   118073684.5262       2135.049          43.000  
G17  22674101.067   119153231.3892        -67.712          43.000  
G14  24069379.120   126485437.6542      -3202.189          37.000  
E09  25200944.866   132431861.412       -2309.618          42.000  
G23  22450438.520   117977869.2872      -1017.968          43.000  
E24  23375673.344   122840009.469         901.760          46.000  
G12  22624391.050   118891989.7012       3681.623          44.000  
E03  25904485.678   136128976.795        2641.028          39.000  
> 2023 12 30 11 50 48.0000000  0 16                     
G13  22260253.308   116978414.5582      -3057.963          44.000  
E05  21848022.302   114812123.312         266.559          45.000  
G15  20625622.589   108388383.1882      -2015.645          48.000  
E31  24660459.970   129591576.535       -1738.974          42.000  
G24  20013480.538   105171559.4902        945.322          47.000  
E25  26220264.190   137788420.654        2978.658          40.000  
G10  23454586.346   123254676.3302       1413.973          40.000  
G22  22756207.657   119584669.1352      -2653.464          44.000  
G19  22468267.931   118071549.8452       2134.688          43.000  
G17  22674111.432   119153299.4612        -68.202          43.000  
G14  24069987.958   126488640.2632      -3202.766          36.000  
E09  25201384.611   132434171.314       -2309.632          42.000  
G23  22450632.392   117978887.6252      -1018.469          42.000  
E24  23375504.008   122839107.999         901.359          46.000  
G12  22623692.588   118888308.7232       3680.728          44.000  
E03  25903983.286   136126336.076        2640.698          39.000  
> 2023 12 30 11 50 49.0000000  0 16                     
G13  22260836.704   116981472.5012      -3058.331          44.000  
E05  21847971.382   114811856.909         265.943          45.000  
G15  20626005.761   108390398.8922      -2016.239          48.000  
E31  24660789.604   129593315.826       -1739.424          42.000  
G24  20013300.765   105170614.3222        944.637          47.000  
E25  26219696.535   137785441.863        2978.496          40.000  
G10  23454315.484   123253262.8882       1412.845          41.000  
G22  22756712.806   119587322.7782      -2654.047          44.000  
G19  22467861.376   118069415.5352       2133.791          43.000  
G17  22674126.370   119153367.9422        -69.432          44.000  
G14  24070596.203   126491842.7362      -3202.619          37.000  
E09  25201822.542   132436481.258       -2310.277          42.000  
G23  22450825.775   117979906.4102      -1019.403          43.000  
E24  23375333.030   122838206.738         900.822          46.000  
G12  22622990.845   118884627.7912       3680.826          44.000  
E03  25903477.684   136123695.327        2640.376          39.000  
> 2023 12 30 11 50 50.0000000  0 16                     
G13  22261416.714   116984530.8562      -3058.285          44.000  
E05  21847921.405   114811591.047         265.973          45.000  
G15  20626389.840   108392415.2692      -2016.432          47.000  
E31  24661120.356   129595055.514       -1739.485          42.000  
G24  20013121.517   105169669.7462        944.587          47.000  
E25  26219129.961   137782463.355        2978.727          40.000  
G10  23454047.029   123251850.1942       1412.968          40.000  
G22  22757218.164   119589976.8122      -2654.205          44.000  
G19  22467454.960   118067281.8562       2133.524          43.000  
G17  22674138.480   119153437.1542        -69.174          43.000  
G14  24071207.205   126495045.5352      -3202.682          38.000  
E09  25202263.264   132438791.557       -2310.140          42.000  
G23  22451019.298   117980925.9222      -1019.480          42.000  
E24  23375160.134   122837305.962         900.675          46.000  
G12  22622291.684   118880947.3042       3680.562          44.000  
E03  25902979.480   136121054.907        2640.305          39.000  
> 2023 12 30 11 50 51.0000000  0 16                     
G13  22262003.670   116987618.5023      -3058.659          44.000  
E05  21847866.855   114811325.0851        265.260          45.000  
G15  20626773.501   108394426.2093      -2017.244          47.000  
E31  24661448.350   129596795.9191      -1740.067          42.000  
G24  20012941.431   105168716.6233        943.945          47.000  
E25  26218566.214   137779505.5231       2978.256          40.000  
G10  23453778.924   123250439.1563       1411.705          41.000  
G22  22757722.371   119592638.0943      -2654.361          44.000  
G19  22467049.871   118065143.7263       2132.847          43.000  
G17  22674150.590   119153465.4843        -69.979          42.000  
G14  24071815.799   126498245.4243      -3202.827          37.000  
E09  25202698.298   132441083.6011      -2310.634          42.000  
G23  22451211.111   117981910.0713      -1020.604          42.000  
E24  23374988.214   122836402.0861        900.165          46.000  
G12  22621590.255   118877258.6043       3680.436          44.000  
E03  25902461.348   136118363.1551       2640.021          39.000  
> 2023 12 30 11 50 52.0000000  0 16                     
G13  22262580.539   116990677.4682      -3059.148          44.000  
E05  21847813.143   114811060.043         264.676          45.000  
G15  20627157.196   108396443.7192      -2017.983          47.000  
E31  24661780.079   129598536.088       -1740.539          42.000  
G24  20012761.449   105167772.9952        943.258          47.000  
E25  26217992.870   137776527.390        2977.887          40.000  
G10  23453508.306   123249027.7442       1411.096          40.000  
G22  22758228.776   119595292.6242      -2654.741          44.000  
G19  22466642.548   118063011.1462       2132.411          43.000  
G17  22674163.259   119153536.0192        -70.858          42.000  
G14  24072428.232   126501448.5082      -3203.315          38.000  
E09  25203137.939   132443394.413       -2310.963          42.000  
G23  22451407.879   117982930.8482      -1021.056          42.000  
E24  23374813.537   122835502.115         899.605          46.000  
G12  22620888.826   118873578.7172       3679.638          44.000  
E03  25901972.219   136115723.108        2639.746          39.000  
> 2023 12 30 11 50 53.0000000  0 16                     
G13  22263166.448   116993736.9602      -3059.416          45.000  
E05  21847768.890   114810795.655         264.723          46.000  
G15  20627541.973   108398462.0142      -2018.170          47.000  
E31  24662109.678   129600276.744       -1740.253          42.000  
G24  20012582.619   105166830.0812        942.986          47.000  
E25  26217425.808   137773549.681        2977.959          40.000  
G10  23453241.423   123247617.2042       1410.699          41.000  
G22  22758733.680   119597947.6722      -2654.857          44.000  
G19  22466238.575   118060879.3532       2131.830          43.000  
G17  22674179.488   119153607.3852        -71.355          42.000  
G14  24073034.417   126504651.9282      -3202.898          38.000  
E09  25203583.059   132445705.736       -2311.031          42.000  
G23  22451603.985   117983952.5042      -1021.686          42.000  
E24  23374643.921   122834602.767         899.601          46.000  
G12  22620188.200   118869899.3762       3679.498          43.000  
E03  25901466.302   136113083.478        2639.934          39.000  
> 2023 12 30 11 50 54.0000000  0 16                     
G13  22263746.877   116996796.2702      -3059.774          45.000  
E05  21847719.331   114810531.202         264.174          46.000  
G15  20627924.273   108400480.4082      -2018.950          47.000  
E31  24662444.757   129602017.204       -1740.660          42.000  
G24  20012403.929   105165887.1422        942.488          47.000  
E25  26216863.911   137770571.684        2977.696          40.000  
G10  23452974.539   123246206.8162       1409.934          40.000  
G22  22759240.889   119600602.5052      -2655.076          44.000  
G19  22465832.299   118058747.6122       2131.383          43.000  
G17  22674191.668   119153678.9012        -71.800          42.000  
G14  24073647.618   126507855.0532      -3203.299          38.000  
E09  25204023.119   132448016.809       -2311.229          43.000  
G23  22451795.553   117984974.3412      -1022.266          42.000  
E24  23374474.619   122833703.339         899.105          46.000  
G12  22619490.575   118866219.8322       3679.338          44.000  
E03  25900969.424   136110443.581        2639.555          39.000  
> 2023 12 30 11 50 55.0000000  0 16                     
G13  22264330.098   116999855.8952      -3059.451          45.000  
E05  21847668.621   114810267.200         264.039          46.000  
G15  20628310.516   108402499.4132      -2018.765          48.000  
E31  24662779.138   129603757.960       -1740.460          42.000  
G24  20012222.063   105164944.7382        942.424          47.000  
E25  26216297.127   137767593.860        2978.034          40.000  
G10  23452705.143   123244797.1092       1409.705          41.000  
G22  22759744.118   119603257.6372      -2655.006          44.000  
G19  22465425.953   118056616.4672       2131.050          42.000  
G17  22674207.373   119153751.1032        -72.064          42.000  
G14  24074259.004   126511058.3532      -3202.968          38.000  
E09  25204462.376   132450328.199       -2311.093          43.000  
G23  22451989.635   117985996.8122      -1023.067          42.000  
E24  23374304.445   122832804.370         899.099          46.000  
G12  22618789.914   118862540.6432       3679.352          44.000  
E03  25900466.649   136107803.912        2639.828          39.000  
> 2023 12 30 11 50 56.0000000  0 16                     
G13  22264911.260   117002915.8212      -3060.344          45.000  
E05  21847618.957   114810003.610         262.859          46.000  
G15  20628693.548   108404518.9392      -2020.050          47.000  
E31  24663110.029   129605498.971       -1741.664          42.000  
G24  20012044.524   105164002.7792        941.366          47.000  
E25  26215728.774   137764616.222        2976.896          41.000  
G10  23452437.037   123243388.0122       1408.310          42.000  
G22  22760250.768   119605913.0232      -2655.986          44.000  
G19  22465021.108   118054485.8492       2129.857          42.000  
G17  22674220.217   119153823.8902        -73.318          42.000  
G14  24074866.585   126514261.7532      -3203.797          38.000  
E09  25204900.621   132452639.840       -2312.128          42.000  
G23  22452184.693   117987019.9482      -1024.247          41.000  
E24  23374134.200   122831905.790         897.946          46.000  
G12  22618089.916   118858861.7482       3678.223          44.000  
E03  25899964.676   136105164.433        2638.787          39.000  
> 2023 12 30 11 50 57.0000000  0 17                     
G13  22265493.853   117005975.8902      -3060.020          45.000  
E05  21847568.177   114809740.267         263.329          46.000  
G15  20629077.976   108406538.8622      -2019.952          48.000  
E31  24663440.641   129607240.070       -1740.930          42.000  
G24  20011865.834   105163061.1372        941.537          47.000  
E25  26215162.445   137761638.591        2977.832          40.000  
G10  23452169.630   123241979.3912       1408.577          42.000  
G22  22760755.847   119608568.5132      -2655.388          44.000  
G19  22464616.333   118052355.5892       2130.383          42.000  
G17  22674235.678   119153897.1742        -73.322          42.000  
G14  24075477.203   126517465.1522      -3203.228          38.000  
E09  25205341.308   132454951.561       -2311.640          43.000  
G23  22452378.740   117988043.5272      -1024.021          41.000  
E24  23373963.293   122831007.438         898.346          46.000  
G12  22617390.197   118855182.9962       3678.792          44.000  
E03  25899463.401   136102524.945        2639.716          40.000  
G25  25472537.378                        4142.000          29.000  
> 2023 12 30 11 50 58.0000000  0 17                     
G13  22266076.551   117009036.4592      -3060.490          45.000  
E05  21847518.793   114809477.551         262.762          46.000  
G15  20629462.614   108408559.5632      -2020.592          47.000  
E31  24663770.799   129608981.653       -1741.505          42.000  
G24  20011686.411   105162120.1842        940.792          47.000  
E25  26214596.464   137758661.356        2977.756          40.000  
G10  23451901.665   123240571.5692       1407.672          41.000  
G22  22761261.728   119611224.4852      -2655.684          44.000  
G19  22464209.603   118050226.1392       2129.379          42.000  
G17  22674250.510   119153971.2592        -73.984          43.000  
G14  24076085.309   126520668.8662      -3203.350          38.000  
E09  25205781.089   132457263.721       -2312.026          43.000  
G23  22452573.414   117989067.9442      -1024.373          41.000  
E24  23373792.002   122830109.700         897.769          46.000  
G12  22616690.234   118851504.7362       3678.501          44.000  
E03  25898960.800   136099885.894        2639.231          39.000  
G25  25471754.910                        4141.748          29.000  
> 2023 12 30 11 50 59.0000000  0 17                     
G13  22266658.620   117012097.0592      -3060.768          45.000  
E05  21847468.781   114809214.959         262.656          46.000  
G15  20629847.322   108410580.5582      -2021.180          47.000  
E31  24664102.354   129610723.220       -1741.569          42.000  
G24  20011507.476   105161179.4212        940.718          47.000  
E25  26214029.437   137755684.054        2977.530          40.000  
G10  23451633.664   123239164.1102       1407.335          41.000  
G22  22761766.668   119613880.4272      -2655.852          45.000  
G19  22463804.898   118048096.9122       2129.165          43.000  
G17  22674264.575   119154045.7142        -74.610          43.000  
G14  24076694.915   126523872.4492      -3203.314          38.000  
E09  25206221.009   132459575.878       -2312.215          43.000  
G23  22452768.578   117990092.7192      -1024.379          42.000  
E24  23373621.269   122829212.064         897.579          46.000  
G12  22615990.236   118847826.5182       3678.168          44.000  
E03  25898458.582   136097246.742        2639.130          39.000  
G25  25470965.741                        4138.147          29.000  
> 2023 12 30 11 51 00.0000000  0 17                     
G13  22267241.737   117015158.2662      -3061.923          45.000  
E05  21847418.454   114808953.123         261.199          46.000  
G15  20630231.540   108412602.4272      -2022.733          47.000  
E31  24664433.419   129612465.395       -1743.127          42.000  
G24  20011328.786   105160239.4722        939.379          47.000  
E25  26213463.317   137752707.232        2976.066          40.000  
G10  23451365.978   123237757.6462       1406.061          40.000  
G22  22762272.131   119616537.0402      -2657.662          43.000  
G19  22463400.262   118045968.6462       2127.254          41.000  
G17  22674279.897   119154121.2172        -76.581          42.000  
G14  24077304.730   126527076.6712      -3205.116          39.000  
E09  25206661.278   132461888.640       -2313.594          42.000  
G23  22452964.369   117991118.4862      -1026.692          42.000  
E24  23373451.338   122828315.165         896.009          46.000  
G12  22615290.727   118844148.9222       3677.028          44.000  
E03  25897956.470   136094608.126        2637.848          39.000  
G25  25470179.051   133846693.4293       4137.834          28.000  
> 2023 12 30 11 51 01.0000000  0 17                     
G13  22267824.748   117018219.4941      -3062.011          43.000  
E05  21847368.582   114808691.929         261.063          44.000  
G15  20630616.318   108414624.5931      -2022.971          47.000  
E31  24664764.938   129614208.091       -1742.793          40.000  
G24  20011149.747   105159299.7481        938.998          45.000  
E25  26212896.918   137749730.864        2976.054          39.000  
G10  23451098.257   123236351.5751       1405.041          41.000  
G22  22762777.978   119619194.142       -2657.257          43.000  
G19  22462995.522   118043840.6421       2127.237          39.000  
G17  22674294.345   119154197.555         -76.761          43.000  
G14  24077914.964   126530281.212       -3204.185          34.000  
E09  25207101.407   132464201.879       -2313.426          41.000  
G23  22453160.021   117992144.5811      -1027.126          42.000  
E24  23373281.059   122827418.931         896.168          46.000  
G12  22614591.148   118840471.3801       3676.811          44.000  
E03  25897454.532   136091969.895        2638.302          40.000  
G25  25469395.117   133842555.5952       4138.108          28.000  
> 2023 12 30 11 51 02.0000000  0 17                     
G13  22268407.725   117021281.469       -3062.329          43.000  
E05  21847319.058   114808431.094         260.550          44.000  
G15  20631000.816   108416647.762       -2023.695          47.000  
E31  24665096.597   129615950.935       -1743.114          40.000  
G24  20010971.126   105158360.933         938.325          44.000  
E25  26212330.867   137746754.564        2975.954          39.000  
G10  23450830.536   123234946.533        1404.552          41.000  
G22  22763284.069   119621851.388       -2657.817          43.000  
G19  22462590.747   118041713.590        2126.580          40.000  
G17  22674309.073   119154274.394         -77.346          44.000  
G14  24078525.233   126533485.768       -3204.977          33.000  
E09  25207541.432   132466515.318       -2313.858          41.000  
G23  22453355.987   117993171.757       -1027.805          42.000  
E24  23373110.536   122826523.013         895.437          46.000  
G12  22613891.603   118836794.558        3676.398          44.000  
E03  25896951.686   136089331.846        2637.524          40.000  
G25  25468607.798   133838417.7192       4137.856          28.000  
> 2023 12 30 11 51 03.0000000  0 17                     
G13  22268990.632   117024343.622       -3062.375          42.000  
E05  21847269.674   114808170.545         260.538          44.000  
G15  20631385.663   108418671.366       -2023.720          47.000  
E31  24665428.396   129617693.892       -1742.996          40.000  
G24  20010792.506   105157422.446         938.263          45.000  
E25  26211764.084   137743778.343        2976.428          38.000  
G10  23450562.814   123233542.013        1404.197          41.000  
G22  22763789.462   119624508.761       -2657.263          43.000  
G19  22462185.902   118039586.934        2126.482          39.000  
G17  22674323.592   119154351.738         -77.790          43.000  
G14  24079135.293   126536690.326       -3204.996          34.000  
E09  25207981.596   132468828.856       -2313.226          41.000  
G23  22453551.639   117994199.456       -1027.601          42.000  
E24  23372940.256   122825627.361         895.801          46.000  
G12  22613192.338   118833117.909        3676.460          44.000  
E03  25896449.469   136086693.838        2638.357          39.000  
G25  25467822.085   133834279.7812       4137.856          28.000  
> 2023 12 30 11 51 04.0000000  0 17                     
G13  22269573.504   117027406.123       -3062.661          42.000  
E05  21847220.115   114807910.455         259.725          45.000  
G15  20631770.685   108420695.572       -2024.439          47.000  
E31  24665760.159   129619437.119       -1743.439          40.000  
G24  20010614.200   105156484.448         937.679          46.000  
E25  26211197.336   137740802.337        2975.446          39.000  
G10  23450295.442   123232138.099        1403.617          39.000  
G22  22764295.274   119627166.412       -2657.716          43.000  
G19  22461781.650   118037460.857        2125.828          40.000  
G17  22674338.425   119154429.724         -78.236          44.000  
G14  24079745.073   126539894.956       -3205.142          33.000  
E09  25208422.005   132471142.747       -2314.328          40.000  
G23  22453747.535   117995227.839       -1028.994          42.000  
E24  23372769.698   122824732.148         894.939          46.000  
G12  22612492.829   118829441.590        3676.033          45.000  
E03  25895947.566   136084056.117        2637.236          39.000  
G25  25467040.245   133830141.8712       4138.230          26.000  
> 2023 12 30 11 51 05.0000000  0 17                     
G13  22270155.993   117030468.721       -3063.091          44.000  
E05  21847170.522   114807650.563         259.486          46.000  
G15  20632155.776   108422720.111       -2025.156          47.000  
E31  24666092.062   129621180.376       -1743.572          43.000  
G24  20010435.684   105155546.737         937.396          47.000  
E25  26210631.112   137737826.313        2975.753          40.000  
G10  23450028.384   123230734.658        1402.674          41.000  
G22  22764800.563   119629824.085       -2658.127          44.000  
G19  22461377.398   118035335.062        2125.046          43.000  
G17  22674353.920   119154508.065         -78.793          43.000  
G14  24080354.504   126543099.470       -3204.756          39.000  
E09  25208862.937   132473456.639       -2314.183          42.000  
G23  22453942.838   117996256.601       -1029.355          42.000  
E24  23372598.756   122823837.126         894.651          46.000  
G12  22611793.389   118825765.371        3675.885          44.000  
E03  25895445.488   136081418.343        2637.295          39.000  
G25  25466252.822   133826003.7562       4137.826          26.000  
> 2023 12 30 11 51 06.0000000  0 17                     
G13  22270738.376   117033531.723       -3063.315          44.000  
E05  21847121.068   114807391.217         259.066          46.000  
G15  20632541.147   108424745.346       -2025.562          47.000  
E31  24666423.965   129622924.093       -1744.049          42.000  
G24  20010257.482   105154609.648         936.698          47.000  
E25  26210064.957   137734850.570        2975.802          40.000  
G10  23449761.396   123229331.977        1402.264          41.000  
G22  22765306.200   119632482.234       -2658.490          44.000  
G19  22460973.356   118033210.010        2124.927          43.000  
G17  22674368.648   119154587.269         -79.553          43.000  
G14  24080963.936   126546304.442       -3205.430          39.000  
E09  25209303.555   132475770.941       -2314.681          42.000  
G23  22454138.559   117997286.152       -1029.919          41.000  
E24  23372428.372   122822942.634         894.280          46.000  
G12  22611093.880   118822089.596        3675.755          44.000  
E03  25894943.899   136078780.866        2637.256          39.000  
G25  25465464.944   133821865.7882       4138.297          25.000  
> 2023 12 30 11 51 07.0000000  0 17                     
G13  22271321.109   117036595.076       -3063.853          44.000  
E05  21847071.928   114807132.324         258.500          46.000  
G15  20632926.412   108426771.183       -2026.375          46.000  
E31  24666755.380   129624668.098       -1744.359          42.000  
G24  20010079.490   105153673.037         936.452          47.000  
E25  26209498.872   137731875.079        2975.174          40.000  
G10  23449494.826   123227929.932        1401.710          41.000  
G22  22765811.733   119635140.618       -2658.345          43.000  
G19  22460568.860   118031085.525        2124.121          43.000  
G17  22674384.214   119154667.079         -80.419          43.000  
G14  24081573.786   126549509.519       -3205.580          39.000  
E09  25209744.068   132478085.504       -2314.913          42.000  
G23  22454334.839   117998316.396       -1031.013          42.000  
E24  23372258.267   122822048.571         893.771          46.000  
G12  22610394.405   118818414.157        3675.242          44.000  
E03  25894442.450   136076143.639        2637.161          39.000  
G25  25464675.392                        4136.771          26.000  
> 2023 12 30 11 51 08.0000000  0 17                     
G13  22271903.911   117039658.780       -3063.584          44.000  
E05  21847022.649   114806873.945         258.184          46.000  
G15  20633312.411   108428797.650       -2026.396          46.000  
E31  24667087.213   129626412.441       -1744.388          41.000  
G24  20009901.498   105152737.020         935.871          47.000  
E25  26208932.158   137728899.833        2975.266          39.000  
G10  23449228.117   123226528.647        1401.232          41.000  
G22  22766317.301   119637799.428       -2658.823          43.000  
G19  22460164.678   118028961.714        2123.727          43.000  
G17  22674399.500   119154747.659         -80.706          43.000  
G14  24082183.950   126552714.880       -3205.266          39.000  
E09  25210184.756   132480400.422       -2314.824          42.000  
G23  22454531.085   117999347.323       -1031.191          42.000  
E24  23372087.918   122821155.021         893.399          46.000  
G12  22609695.280   118814739.105        3675.034          44.000  
E03  25893940.337   136073506.730        2636.729          39.000  
G25  25463884.722   133813617.1823       4137.940          27.000  
> 2023 12 30 11 51 09.0000000  0 17                     
G13  22272486.888   117042722.767       -3064.001          44.000  
E05  21846973.683   114806615.900         258.058          46.000  
G15  20633697.782   108430824.645       -2026.976          46.000  
E31  24667419.012   129628156.986       -1744.635          42.000  
G24  20009723.506   105151801.408         935.712          47.000  
E25  26208366.143   137725924.712        2975.171          40.000  
G10  23448961.512   123225127.935        1400.523          40.000  
G22  22766823.601   119640458.401       -2658.992          44.000  
G19  22459760.636   118026838.359        2123.425          43.000  
G17  22674414.542   119154828.802         -81.265          43.000  
G14  24082794.080   126555920.312       -3205.120          40.000  
E09  25210625.269   132482715.548       -2314.948          42.000  
G23  22454727.574   118000378.847       -1031.813          42.000  
E24  23371918.546   122820261.785         893.198          46.000  
G12  22608996.049   118811064.319        3674.884          44.000  
E03  25893438.608   136070869.870        2636.668          39.000  
G25  25463102.534   133809479.4372       4137.705          27.000  
> 2023 12 30 11 51 10.0000000  0 17                     
G13  22273069.760   117045787.059       -3064.268          44.000  
E05  21846924.474   114806358.316         257.525          45.000  
G15  20634083.467   108432852.224       -2027.717          46.000  
E31  24667750.985   129629901.820       -1744.683          42.000  
G24  20009545.583   105150866.301         935.008          47.000  
E25  26207800.128   137722949.823        2974.820          39.000  
G10  23448695.536   123223727.849        1400.214          40.000  
G22  22767329.239   119643117.675       -2659.406          43.000  
G19  22459356.768   118024715.605        2122.753          43.000  
G17  22674430.143   119154910.604         -82.216          43.000  
G14  24083404.139   126559125.892       -3205.343          40.000  
E09  25211065.887   132485030.954       -2315.214          42.000  
G23  22454923.924   118001411.029       -1032.377          42.000  
E24  23371748.651   122819368.991         892.757          46.000  
G12  22608296.540   118807389.839        3674.495          44.000  
E03  25892937.299   136068233.315        2636.751          38.000  
G25  25462315.529   133805341.6872       4137.971          29.000  
> 2023 12 30 11 51 11.0000000  0 17                     
G13  22273651.516   117048827.9943      -3065.291          43.000  
E05  21846873.938                         256.597          42.000  
G15  20634468.034                       -2028.848          42.000  
E31  24668084.633                       -1744.844          39.000  
G24  20009367.800   105149937.4903        935.930          47.000  
E25  26207231.914                        2973.931          35.000  
G10  23448427.920                        1394.750          35.000  
G22  22767834.318                       -2659.515          40.000  
G19  22458952.760                        2121.805          39.000  
G17  22674443.719                         -83.267          39.000  
G14  24084013.990                       -3215.055          32.000  
E09  25211502.910                       -2315.676          37.000  
G23  22455122.717                       -1032.568          43.000  
E24  23371575.615                         891.987          42.000  
G12  22607596.856                        3674.591          41.000  
E03  25892431.521                        2635.690          33.000  
G25  25461528.803   133801203.8312       4138.052          24.000  
> 2023 12 30 11 51 12.0000000  0 17                     
G13  22274234.772   117051893.4642      -3064.174          44.000  
E05  21846825.077   114805850.8101        257.341          45.000  
G15  20634855.534   108436897.4803      -2028.436          46.000  
E31  24668417.932   129633421.6741      -1744.732          42.000  
G24  20009189.006   105149002.9332        934.636          47.000  
E25  26206661.885   137716947.9771       2975.092          40.000  
G10  23448158.349   123220903.1153       1399.258          40.000  
G22  22768340.095   119648433.9133      -2659.282          43.000  
G19  22458546.554   118020458.6453       2122.207          43.000  
G17  22674461.239   119155097.4953        -82.486          43.000  
G14  24084622.967   126565546.9633      -3205.382          40.000  
E09  25211941.225   132489654.9711      -2315.603          42.000  
G23  22455315.646   118003479.7093      -1033.262          41.000  
E24  23371405.649   122817576.0201        892.442          46.000  
G12  22606896.998   118800045.2273       3674.381          44.000  
E03  25891926.338   136063001.1541       2636.794          39.000  
G25  25460742.357   133797065.7812       4138.428          35.000  
> 2023 12 30 11 51 13.0000000  0 17                     
G13  22274819.005   117054958.2102      -3064.964          44.000  
E05  21846774.157   114805594.010         256.535          45.000  
G15  20635244.744   108438926.2782      -2029.300          47.000  
E31  24668748.509   129635166.835       -1745.352          42.000  
G24  20009010.245   105148068.7992        933.684          47.000  
E25  26206097.301   137713973.139        2974.821          40.000  
G10  23447895.828   123219504.5012       1397.969          40.000  
G22  22768846.186   119651093.5202      -2659.893          43.000  
G19  22458145.094   118018337.0722       2120.998          43.000  
G17  22674473.245   119155180.7272        -83.951          42.000  
G14  24085234.563   126568752.5172      -3206.080          40.000  
E09  25212385.857   132491970.669       -2315.822          42.000  
G23  22455509.344   118004513.3392      -1034.276          41.000  
E24  23371235.091   122816683.962         891.714          46.000  
G12  22606197.488   118796371.1862       3673.888          44.000  
E03  25891425.830   136060364.691        2636.344          39.000  
G25  25459954.898   133792927.6872       4137.769          34.000  
> 2023 12 30 11 51 14.0000000  0 17                     
G13  22275401.668   117058023.4202      -3065.703          44.000  
E05  21846724.599   114805337.820         255.686          45.000  
G15  20635631.790   108440955.8142      -2029.994          47.000  
E31  24669079.540   129636912.449       -1745.904          42.000  
G24  20008835.220   105147135.3202        932.935          47.000  
E25  26205534.182   137710998.703        2974.033          40.000  
G10  23447628.002   123218106.7012       1397.218          40.000  
G22  22769354.930   119653753.5722      -2660.591          44.000  
G19  22457741.890   118016216.2202       2120.349          43.000  
G17  22674487.170   119155264.7742        -84.783          42.000  
G14  24085847.135   126571958.3802      -3205.690          40.000  
E09  25212824.206   132494286.834       -2316.554          42.000  
G23  22455707.683   118005547.7742      -1034.865          42.000  
E24  23371071.373   122815792.500         891.021          46.000  
G12  22605499.270   118792697.6512       3673.093          44.000  
E03  25890923.683   136057728.614        2635.746          39.000  
G25  25459166.288   133788789.8362       4137.112          34.000  
> 2023 12 30 11 51 15.0000000  0 17                     
G13  22275984.714   117061089.4892      -3066.661          44.000  
E05  21846683.032   114805082.594         254.638          45.000  
G15  20636016.532   108442986.4622      -2031.135          47.000  
E31  24669412.804   129638658.877       -1746.706          42.000  
G24  20008658.170   105146202.8742        931.966          47.000  
E25  26204970.086   137708025.014        2973.277          40.000  
G10  23447364.085   123216710.0962       1395.883          40.000  
G22  22769861.824   119656414.4482      -2661.411          44.000  
G19  22457339.802   118014096.4712       2119.196          43.000  
G17  22674506.924   119155349.9902        -86.002          42.000  
G14  24086458.556   126575164.9712      -3206.988          40.000  
E09  25213267.442   132496603.793       -2317.292          42.000  
G23  22455903.893   118006583.4322      -1036.428          40.000  
E24  23370900.082   122814901.985         890.147          46.000  
G12  22604800.877   118789024.9722       3672.123          45.000  
E03  25890431.133   136055093.300        2634.971          39.000  
G25  25458380.121   133784652.4632       4137.572          32.000  
> 2023 12 30 11 51 16.0000000  0 17                     
G13  22276569.785   117064156.2602      -3066.562          44.000  
E05  21846632.846   114804828.192         254.595          45.000  
G15  20636403.264   108445018.0912      -2031.386          47.000  
E31  24669742.334   129640405.983       -1746.733          42.000  
G24  20008479.480   105145271.3052        931.685          47.000  
E25  26204405.153   137705051.872        2973.715          40.000  
G10  23447098.772   123215314.5282       1395.688          40.000  
G22  22770369.311   119659075.9652      -2661.174          44.000  
G19  22456935.550   118011977.6702       2119.012          43.000  
G17  22674524.339   119155436.2482        -86.209          43.000  
G14  24087065.544   126578372.1212      -3206.920          40.000  
E09  25213709.944   132498921.449       -2317.460          42.000  
G23  22456103.035   118007620.1042      -1036.698          41.000  
E24  23370730.605   122814012.281         889.988          46.000  
G12  22604101.228   118785352.9972       3672.205          45.000  
E03  25889929.684   136052458.590        2634.938          39.000  
G25  25457593.989   133780515.6572       4136.683          32.000  
> 2023 12 30 11 51 17.0000000  0 17                     
G13  22277153.390   117067223.2402      -3066.801          44.000  
E05  21846585.590   114804574.105         254.385          45.000  
G15  20636789.507   108447050.2022      -2032.157          47.000  
E31  24670078.111   129642153.217       -1746.856          42.000  
G24  20008301.732   105144340.1322        931.308          47.000  
E25  26203839.696   137702078.827        2973.414          40.000  
G10  23446833.633   123213919.5282       1394.869          40.000  
G22  22770874.076   119661737.6582      -2661.387          44.000  
G19  22456533.148   118009859.3752       2118.082          43.000  
G17  22674541.755   119155523.0602        -86.887          43.000  
G14  24087676.581   126581579.3352      -3207.147          40.000  
E09  25214150.981   132501239.246       -2317.760          42.000  
G23  22456301.025   118008657.3162      -1036.845          42.000  
E24  23370561.862   122813122.869         889.729          46.000  
G12  22603402.731   118781681.2622       3671.714          44.000  
E03  25889427.536   136049823.958        2634.778          39.000  
G25  25456806.286   133776378.7072       4137.377          31.000  
> 2023 12 30 11 51 18.0000000  0 17                     
G13  22277736.437   117070290.4102      -3067.718          44.000  
E05  21846537.393   114804320.340         253.293          45.000  
G15  20637176.134   108449082.7402      -2032.736          47.000  
E31  24670410.084   129643900.629       -1747.482          42.000  
G24  20008125.799   105143409.3082        930.509          47.000  
E25  26203273.786   137699105.894        2972.831          41.000  
G10  23446566.121   123212525.0042       1394.059          40.000  
G22  22771381.179   119664399.5252      -2662.013          44.000  
G19  22456128.792   118007741.4572       2117.719          43.000  
G17  22674556.692   119155610.3792        -87.935          43.000  
G14  24088288.211   126584786.5352      -3207.837          40.000  
E09  25214592.541   132503557.177       -2318.134          42.000  
G23  22456499.434   118009695.0692      -1038.381          42.000  
E24  23370391.827   122812233.782         888.806          46.000  
G12  22602704.304   118778009.6802       3671.238          44.000  
E03  25888926.296   136047189.426        2634.411          39.000  
G25  25456013.313   133772241.5362       4137.930          29.000  
> 2023 12 30 11 51 19.0000000  0 17                     
G13  22278319.972   117073357.4381      -3067.550          44.000  
E05  21846487.904   114804067.053         253.168          45.000  
G15  20637563.249   108451115.919       -2033.306          47.000  
E31  24670742.301   129645648.375       -1747.858          42.000  
G24  20007948.574   105142479.058         929.888          47.000  
E25  26202708.887   137696133.197        2972.714          41.000  
G10  23446300.808   123211131.241        1393.760          40.000  
G22  22771887.375   119667061.2131      -2662.196          44.000  
G19  22455725.622   118005623.6871       2117.140          43.000  
G17  22674574.352   119155698.403         -88.627          43.000  
G14  24088898.026   126587993.962       -3207.528          40.000  
E09  25215033.299   132505875.465       -2318.435          42.000  
G23  22456697.215   118010733.516       -1038.767          42.000  
E24  23370223.188   122811345.158         888.436          46.000  
G12  22602005.702   118774338.509        3671.017          44.000  
E03  25888424.602   136044555.171        2634.024          39.000  
G25  25455226.518   133768104.7352       4137.085          28.000  
> 2023 12 30 11 51 20.0000000  0 17                     
G13  22278903.577   117076425.176       -3067.806          44.000  
E05  21846439.916   114803814.080         253.048          45.000  
G15  20637950.435   108453149.566       -2033.709          47.000  
E31  24671074.832   129647396.270       -1747.855          42.000  
G24  20007772.118   105141549.163         929.935          47.000  
E25  26202142.907   137693160.570        2972.841          40.000  
G10  23446035.565   123209737.990        1393.205          40.000  
G22  22772393.851   119669723.560       -2662.260          44.000  
G19  22455322.417   118003506.859        2116.969          43.000  
G17  22674591.104   119155786.944         -88.625          43.000  
G14  24089509.273   126591201.432       -3207.180          41.000  
E09  25215474.231   132508193.887       -2318.344          42.000  
G23  22456895.170   118011772.479       -1038.829          42.000  
E24  23370053.746   122810456.832         888.326          46.000  
G12  22601306.751   118770667.531        3671.073          44.000  
E03  25887923.083   136041921.003        2634.403          39.000  
G25  25454439.234   133763967.7602       4137.252          27.000  
> 2023 12 30 11 51 21.0000000  0 17                     
G13  22279487.741   117079493.281       -3067.993          44.000  
E05  21846392.242   114803561.616         252.412          46.000  
G15  20638337.655   108455183.841       -2034.547          47.000  
E31  24671407.329   129649144.512       -1748.172          42.000  
G24  20007595.277   105140619.835         929.131          47.000  
E25  26201577.450   137690188.229        2972.122          41.000  
G10  23445770.810   123208345.486        1392.156          40.000  
G22  22772900.326   119672386.269       -2662.926          44.000  
G19  22454919.457   118001390.651        2116.108          43.000  
G17  22674608.414   119155876.207         -89.498          43.000  
G14  24090119.611   126594409.159       -3207.771          40.000  
E09  25215915.128   132510512.662       -2318.875          42.000  
G23  22457093.056   118012812.199       -1039.842          42.000  
E24  23369884.933   122809568.977         887.717          46.000  
G12  22600608.183   118766996.941        3670.409          44.000  
E03  25887421.494   136039287.114        2633.511          39.000  
G25  25453649.576   133759830.8652       4136.847          26.000  
> 2023 12 30 11 51 22.0000000  0 17                     
G13  22280071.800   117082561.701       -3068.520          44.000  
E05  21846344.463   114803309.577         251.807          46.000  
G15  20638724.631   108457218.687       -2035.171          47.000  
E31  24671739.965   129650893.025       -1748.608          42.000  
G24  20007418.472   105139690.989         928.526          47.000  
E25  26201011.679   137687216.046        2972.255          40.000  
G10  23445505.951   123206953.565        1391.723          40.000  
G22  22773407.254   119675049.222       -2662.917          44.000  
G19  22454516.566   117999275.012        2115.430          43.000  
G17  22674625.620   119155966.111         -90.311          43.000  
G14  24090729.880   126597616.994       -3208.018          40.000  
E09  25216356.654   132512831.681       -2319.209          42.000  
G23  22457291.116   118013852.551       -1041.104          42.000  
E24  23369716.538   122808681.515         887.284          46.000  
G12  22599909.826   118763326.633        3670.186          44.000  
E03  25886919.765   136036653.399        2633.784          39.000  
G25  25452860.757   133755693.9162       4137.143          26.000  
> 2023 12 30 11 51 23.0000000  0 17                     
G13  22280655.684   117085630.363       -3068.521          43.000  
E05  21846296.231   114803057.898         251.730          45.000  
G15  20639112.026   108459254.039       -2035.380          46.000  
E31  24672072.671   129652641.739       -1748.528          42.000  
G24  20007241.631   105138762.573         928.453          46.000  
E25  26200446.083   137684244.021        2972.197          41.000  
G10  23445241.405   123205562.249        1391.466          39.000  
G22  22773914.148   119677712.399       -2663.069          43.000  
G19  22454113.571   117997159.859        2115.395          41.000  
G17  22674642.303   119156056.594         -90.410          42.000  
G14  24091340.359   126600824.909       -3207.620          40.000  
E09  25216797.865   132515150.922       -2319.067          42.000  
G23  22457489.525   118014893.440       -1040.500          41.000  
E24  23369547.585   122807794.442         887.123          45.000  
G12  22599211.293   118759656.618        3670.254          43.000  
E03  25886418.142   136034019.855        2633.835          39.000  
G25  25452072.949   133751557.0302       4137.249          27.000  
> 2023 12 30 11 51 24.0000000  0 17                     
G13  22281239.848   117088699.126       -3068.519          44.000  
E05  21846248.313   114802806.445         251.433          45.000  
G15  20639499.456   108461289.779       -2035.903          47.000  
E31  24672405.656   129654390.531       -1748.783          42.000  
G24  20007065.105   105137834.430         928.090          47.000  
E25  26199880.661   137681271.980        2972.128          41.000  
G10  23444976.930   123204171.358        1390.795          40.000  
G22  22774420.938   119680375.630       -2662.984          44.000  
G19  22453710.540   117995045.082        2114.750          42.000  
G17  22674659.404   119156147.508         -91.013          43.000  
G14  24091950.663   126604032.823       -3207.804          40.000  
E09  25217239.635   132517470.226       -2319.312          42.000  
G23  22457687.654   118015934.820       -1041.296          42.000  
E24  23369378.772   122806907.566         886.730          46.000  
G12  22598512.691   118755986.698        3669.858          43.000  
E03  25885916.413   136031386.317        2633.729          38.000  
G25  25451289.818   133747420.0592       4137.270          27.000  
> 2023 12 30 11 51 25.0000000  0 17                     
G13  22281824.011   117091767.949       -3069.264          44.000  
E05  21846200.708   114802555.178         251.044          45.000  
G15  20639886.746   108463325.824       -2036.267          47.000  
E31  24672738.397   129656139.339       -1748.976          42.000  
G24  20006888.194   105136906.536         927.770          47.000  
E25  26199315.064   137678299.885        2971.961          41.000  
G10  23444712.559   123202780.901        1390.001          41.000  
G22  22774927.413   119683038.920       -2663.558          44.000  
G19  22453308.173   117992930.626        2113.960          42.000  
G17  22674676.994   119156238.840         -91.729          43.000  
G14  24092561.036   126607240.625       -3208.056          40.000  
E09  25217680.916   132519789.559       -2319.649          42.000  
G23  22457885.959   118016976.596       -1042.040          42.000  
E24  23369209.749   122806020.849         886.451          46.000  
G12  22597814.473   118752316.844        3669.678          43.000  
E03  25885415.312   136028752.751        2633.351          39.000  
G25  25450503.581   133743282.7292       4139.061          29.000  
> 2023 12 30 11 51 26.0000000  0 17                     
G13  22282408.070   117094837.288       -3069.850          44.000  
E05  21846153.279   114802304.544         250.241          46.000  
G15  20640274.141   108465362.628       -2037.098          47.000  
E31  24673070.963   129657888.614       -1749.532          42.000  
G24  20006711.668   105135979.328         926.988          47.000  
E25  26198749.607   137675328.184        2971.519          41.000  
G10  23444448.467   123201391.272        1389.238          41.000  
G22  22775434.586   119685702.658       -2663.927          44.000  
G19  22452905.981   117990816.907        2113.570          42.000  
G17  22674695.386   119156331.007         -92.507          43.000  
G14  24093171.236   126610448.764       -3208.229          40.000  
E09  25218122.651   132522109.337       -2320.067          42.000  
G23  22458084.612   118018019.207       -1043.362          42.000  
E24  23369041.075   122805134.739         885.863          46.000  
G12  22597116.325   118748647.491        3669.222          44.000  
E03  25884914.770   136026119.573        2632.893          39.000  
G25  25449722.475   133739145.8002       4137.033          30.000  
> 2023 12 30 11 51 27.0000000  0 17                     
G13  22282992.233   117097907.213       -3070.229          44.000  
E05  21846105.570   114802054.608         249.638          46.000  
G15  20640661.640   108467400.329       -2038.286          47.000  
E31  24673404.192   129659638.465       -1750.199          42.000  
G24  20006535.176   105135052.903         926.042          47.000  
E25  26198184.081   137672356.985        2970.821          41.000  
G10  23444184.550   123200002.578        1388.521          41.000  
G22  22775941.794   119688366.984       -2664.752          44.000  
G19  22452503.963   117988704.068        2112.454          42.000  
G17  22674713.220   119156424.118         -93.830          43.000  
G14  24093781.540   126613657.365       -3208.819          40.000  
E09  25218563.897   132524429.690       -2320.694          42.000  
G23  22458283.544   118019062.745       -1044.032          42.000  
E24  23368873.169   122804249.328         884.984          46.000  
G12  22596418.002   118744978.760        3668.327          43.000  
E03  25884414.333   136023486.893        2632.395          39.000  
G25  25448933.271   133735009.1182       4136.077          32.000  
> 2023 12 30 11 51 28.0000000  0 17                     
G13  22283576.432   117100977.357       -3070.533          44.000  
E05  21846057.791   114801805.017         249.382          46.000  
G15  20641049.245   108469438.480       -2038.491          47.000  
E31  24673737.212   129661388.488       -1750.323          42.000  
G24  20006359.278   105134126.867         925.780          47.000  
E25  26197618.519   137669385.845        2971.196          41.000  
G10  23443920.389   123198614.453        1387.650          41.000  
G22  22776448.897   119691031.463       -2664.851          44.000  
G19  22452101.979   117986591.664        2112.070          42.000  
G17  22674731.334   119156517.737         -93.956          44.000  
G14  24094391.983   126616866.001       -3208.587          40.000  
E09  25219005.492   132526750.202       -2320.647          42.000  
G23  22458482.407   118020106.833       -1044.500          42.000  
E24  23368704.844   122803364.233         884.857          46.000  
G12  22595719.784   118741310.249        3668.018          44.000  
E03  25883913.791   136020854.313        2632.668          39.000  
G25  25448147.174   133730872.3482       4137.094          32.000  
> 2023 12 30 11 51 29.0000000  0 17                     
G13  22284160.665   117104047.896       -3070.571          44.000  
E05  21846010.187   114801555.947         248.831          45.000  
G15  20641437.163   108471477.299       -2038.960          46.000  
E31  24674070.441   129663138.859       -1750.347          42.000  
G24  20006182.926   105133201.404         925.314          47.000  
E25  26197053.027   137666415.038        2970.693          40.000  
G10  23443656.576   123197227.036        1387.206          41.000  
G22  22776955.791   119693696.307       -2664.985          44.000  
G19  22451700.729   117984479.922        2111.786          43.000  
G17  22674749.098   119156612.110         -94.514          43.000  
G14  24095002.252   126620074.891       -3208.677          40.000  
E09  25219446.808   132529071.080       -2320.795          42.000  
G23  22458681.095   118021151.651       -1044.805          42.000  
E24  23368536.415   122802479.667         884.554          46.000  
G12  22595021.636   118737642.122        3668.110          43.000  
E03  25883413.109   136018222.076        2632.005          39.000  
G25  25447359.506   133726735.7342       4137.031          32.000  
> 2023 12 30 11 51 30.0000000  0 17                     
G13  22284745.247   117107118.549       -3070.661          42.000  
E05  21845962.967   114801307.091         248.870          44.000  
G15  20641825.081   108473516.505       -2039.570          45.000  
E31  24674403.566   129664889.321       -1750.767          40.000  
G24  20006006.644   105132276.234         924.916          45.000  
E25  26196487.885   137663444.188        2970.833          40.000  
G10  23443392.764   123195840.072        1386.700          39.000  
G22  22777462.894   119696361.235       -2665.082          43.000  
G19  22451299.339   117982368.568        2111.014          42.000  
G17  22674767.246   119156706.940         -95.328          42.000  
G14  24095613.149   126623283.760       -3209.094          37.000  
E09  25219889.031   132531392.041       -2321.191          41.000  
G23  22458879.783   118022196.928       -1045.651          39.000  
E24  23368368.369   122801595.277         884.292          45.000  
G12  22594323.871   118733974.133        3667.839          42.000  
E03  25882912.114   136015589.808        2632.330          37.000  
G25  25446572.675   133722599.0052       4136.579          31.000  
> 2023 12 30 11 51 31.0000000  0 17                     
G13  22285329.236   117110189.713       -3071.718          42.000  
E05  21845915.711   114801058.886         247.834          45.000  
G15  20642212.720   108475556.475       -2040.407          45.000  
E31  24674737.110   129666640.223       -1751.296          40.000  
G24  20005830.781   105131351.741         924.128          46.000  
E25  26195922.393   137660473.759        2970.135          39.000  
G10  23443128.882   123194453.980        1385.496          40.000  
G22  22777970.068   119699026.633       -2665.524          43.000  
G19  22450898.263   117980257.945        2110.253          43.000  
G17  22674785.115   119156802.597         -96.406          42.000  
G14  24096223.523   126626492.952       -3209.949          38.000  
E09  25220330.243   132533713.436       -2321.580          42.000  
G23  22459078.960   118023243.053       -1046.658          41.000  
E24  23368200.044   122800711.540         883.459          45.000  
G12  22593626.456   118730306.650        3667.182          43.000  
E03  25882411.362   136012957.980        2631.412          37.000  
G25  25445783.926   133718462.450        4136.246          32.000  
> 2023 12 30 11 51 32.0000000  0 17                     
G13  22285913.470   117113260.871       -3071.679          41.000  
E05  21845868.631   114800810.799         247.312          44.000  
G15  20642600.604   108477596.698       -2040.917          44.000  
E31  24675070.374   129668391.107       -1751.313          40.000  
G24  20005654.394   105130427.448         923.528          45.000  
E25  26195356.831   137657503.197        2970.065          38.000  
G10  23442865.279   123193068.201        1384.972          39.000  
G22  22778477.101   119701691.983       -2665.924          42.000  
G19  22450497.083   117978147.600        2109.493          42.000  
G17  22674803.717   119156898.583         -96.572          42.000  
G14  24096833.827   126629701.996       -3209.739          37.000  
E09  25220772.606   132536034.816       -2321.897          40.000  
G23  22459277.718   118024289.520       -1047.476          40.000  
E24  23368031.615   122799827.892         883.120          44.000  
G12  22592928.657   118726639.186        3666.939          42.000  
E03  25881910.506   136010326.003        2631.503          37.000  
G25  25444996.467   133714325.637        4136.564          32.000  
> 2023 12 30 11 51 33.0000000  0 17                     
G13  22286497.703   117116332.563       -3071.766          42.000  
E05  21845821.550   114800563.343         247.088          44.000  
G15  20642988.697   108479637.723       -2041.519          45.000  
E31  24675403.952   129670142.479       -1751.588          40.000  
G24  20005478.601   105129503.846         923.124          45.000  
E25  26194791.584   137654533.068        2969.853          39.000  
G10  23442602.060   123191683.292        1384.441          40.000  
G22  22778984.030   119704357.847       -2666.272          42.000  
G19  22450096.112   117976038.018        2109.540          42.000  
G17  22674822.389   119156995.450         -97.386          42.000  
G14  24097443.921   126632911.420       -3209.779          38.000  
E09  25221215.073   132538356.683       -2321.976          41.000  
G23  22459477.035   118025336.836       -1047.822          40.000  
E24  23367863.465   122798944.863         882.708          44.000  
G12  22592231.206   118722972.269        3666.562          42.000  
E03  25881410.173   136007694.501        2631.189          37.000  
G25  25444207.961   133710189.080        4136.771          31.000  
> 2023 12 30 11 51 34.0000000  0 17                     
G13  22287081.936   117119404.521       -3071.682          43.000  
E05  21845774.784   114800316.274         247.317          45.000  
G15  20643376.929   108481679.251       -2041.407          45.000  
E31  24675737.356   129671894.082       -1751.267          41.000  
G24  20005302.737   105128580.679         923.282          46.000  
E25  26194226.441   137651563.060        2970.319          39.000  
G10  23442338.422   123190298.963        1384.443          40.000  
G22  22779491.273   119707023.907       -2665.849          43.000  
G19  22449695.280   117973928.971        2109.139          43.000  
G17  22674840.851   119157092.910         -97.609          42.000  
G14  24098054.714   126636120.932       -3209.137          38.000  
E09  25221657.297   132540678.766       -2321.781          42.000  
G23  22459676.421   118026384.730       -1047.628          41.000  
E24  23367695.419   122798062.200         882.901          45.000  
G12  22591533.651   118719305.584        3666.736          43.000  
E03  25880909.457   136005063.124        2631.699          38.000  
G25  25443420.852   133706052.554        4136.710          31.000  
> 2023 12 30 11 51 35.0000000  0 17                     
G13  22287666.344   117122476.524       -3072.358          42.000  
E05  21845727.912   114800069.369         246.624          45.000  
G15  20643765.196   108483721.094       -2042.101          45.000  
E31  24676071.214   129673645.684       -1751.770          41.000  
G24  20005127.049   105127657.734         922.695          46.000  
E25  26193661.403   137648593.004        2970.009          39.000  
G10  23442075.098   123188915.060        1383.681          40.000  
G22  22779998.481   119709689.987       -2666.219          43.000  
G19  22449294.309   117971820.213        2108.352          43.000  
G17  22674859.523   119157190.706         -98.135          43.000  
G14  24098665.053   126639330.346       -3209.759          38.000  
E09  25222099.101   132543000.837       -2322.228          42.000  
G23  22459875.633   118027433.039       -1048.679          41.000  
E24  23367527.548   122797179.695         882.201          45.000  
G12  22590835.957   118715638.974        3666.424          43.000  
E03  25880408.705   136002431.698        2631.385          37.000  
G25  25442633.917   133701915.714        4137.658          30.000  
> 2023 12 30 11 51 36.0000000  0 17                     
G13  22288250.822   117125548.739       -3072.413          43.000  
E05  21845680.832   114799822.803         246.267          45.000  
G15  20644153.987   108485763.435       -2042.757          45.000  
E31  24676404.583   129675397.466       -1751.980          41.000  
G24  20004951.709   105126735.225         922.126          46.000  
E25  26193096.225   137645623.049        2969.620          39.000  
G10  23441812.088   123187531.692        1382.637          40.000  
G22  22780505.898   119712356.271       -2666.594          43.000  
G19  22448893.443   117969711.935        2107.996          43.000  
G17  22674878.683   119157289.094         -99.022          43.000  
G14  24099275.776   126642539.811       -3209.678          38.000  
E09  25222541.325   132545323.104       -2322.342          42.000  
G23  22460075.263   118028481.902       -1049.278          41.000  
E24  23367359.712   122796297.516         881.814          45.000  
G12  22590138.437   118711972.585        3666.089          44.000  
E03  25879907.465   135999800.402        2631.088          37.000  
G25  25441844.295   133697778.903        4136.651          29.000  
> 2023 12 30 11 51 37.0000000  0 17                     
G13  22288835.718   117128621.369       -3072.818          43.000  
E05  21845633.751   114799576.770         245.826          45.000  
G15  20644542.743   108487806.426       -2043.196          45.000  
E31  24676737.986   129677149.623       -1752.142          41.000  
G24  20004776.229   105125813.252         921.958          46.000  
E25  26192530.873   137642653.376        2969.712          39.000  
G10  23441549.079   123186149.042        1382.386          40.000  
G22  22781013.595   119715022.900       -2666.835          43.000  
G19  22448492.541   117967604.298        2107.261          43.000  
G17  22674897.564   119157388.196         -99.222          43.000  
G14  24099886.777   126645749.523       -3209.634          39.000  
E09  25222983.793   132547645.730       -2322.677          42.000  
G23  22460275.487   118029531.514       -1050.045          41.000  
E24  23367191.771   122795415.834         881.518          45.000  
G12  22589441.196   118708306.612        3665.858          44.000  
E03  25879406.958   135997169.424        2630.816          37.000  
G25  25441053.311   133693642.168        4136.066          27.000  
> 2023 12 30 11 51 38.0000000  0 17                     
G13  22289420.475   117131694.293       -3073.766          42.000  
E05  21845587.054   114799331.141         244.873          45.000  
G15  20644931.883   108489849.979       -2044.271          45.000  
E31  24677071.355   129678902.035       -1753.136          41.000  
G24  20004600.994   105124891.781         920.716          46.000  
E25  26191965.870   137639683.888        2969.065          39.000  
G10  23441285.790   123184767.055        1381.151          40.000  
G22  22781521.117   119717689.796       -2667.556          43.000  
G19  22448091.884   117965497.204        2106.380          43.000  
G17  22674916.550   119157487.931        -100.345          43.000  
G14  24100497.814   126648959.355       -3210.289          39.000  
E09  25223426.121   132549968.607       -2323.524          42.000  
G23  22460475.571   118030581.724       -1050.984          41.000  
E24  23367023.760   122794534.548         880.597          45.000  
G12  22588743.606   118704640.931        3665.084          43.000  
E03  25878906.521   135994538.619        2630.206          37.000  
G25  25440269.447   133689505.389        4136.264          27.000  
> 2023 12 30 11 51 39.0000000  0 17                     
G13  22290005.476   117134767.592       -3073.596          43.000  
E05  21845540.462   114799086.040         244.661          45.000  
G15  20645321.128   108491894.207       -2044.797          45.000  
E31  24677404.724   129680654.803       -1753.056          41.000  
G24  20004425.585   105123970.891         920.352          46.000  
E25  26191401.041   137636714.689        2968.979          39.000  
G10  23441022.920   123183385.800        1380.864          40.000  
G22  22782029.023   119720357.043       -2667.599          43.000  
G19  22447691.192   117963390.780        2106.145          43.000  
G17  22674935.327   119157588.409        -100.939          43.000  
G14  24101108.746   126652169.471       -3210.418          39.000  
E09  25223867.890   132552291.852       -2323.624          42.000  
G23  22460675.620   118031632.678       -1051.279          42.000  
E24  23366856.517   122793653.752         880.474          45.000  
G12  22588046.156   118700975.670        3664.960          44.000  
E03  25878405.979   135991908.112        2630.350          38.000  
G25  25439485.060   133685368.884        4136.307          28.000  
> 2023 12 30 11 51 40.0000000  0 17                     
G13  22290590.582   117137840.939       -3073.153          43.000  
E05  21845493.765   114798841.079         245.005          45.000  
G15  20645710.302   108493938.715       -2044.673          45.000  
E31  24677738.303   129682407.565       -1752.663          41.000  
G24  20004250.489   105123050.199         920.673          46.000  
E25  26190835.968   137633745.424        2969.215          39.000  
G10  23440759.701   123182004.905        1380.791          40.000  
G22  22782536.790   119723024.306       -2667.283          43.000  
G19  22447290.396   117961284.642        2106.094          43.000  
G17  22674954.243   119157689.244        -100.979          43.000  
G14  24101719.364   126655379.408       -3210.007          39.000  
E09  25224310.358   132554615.058       -2323.100          42.000  
G23  22460875.704   118032683.994       -1051.481          41.000  
E24  23366688.925   122792773.119         880.627          45.000  
G12  22587348.705   118697310.445        3665.298          44.000  
E03  25877905.402   135989277.571        2630.496          38.000  
G25  25438698.334   133681232.097        4136.817          29.000  
> 2023 12 30 11 51 41.0000000  0 17                     
G13  22291175.583   117140914.345       -3073.338          43.000  
E05  21845447.208   114798596.286         244.786          45.000  
G15  20646099.582   108495983.529       -2044.818          46.000  
E31  24678071.567   129684160.348       -1752.735          41.000  
G24  20004075.184   105122129.728         920.594          46.000  
E25  26190270.861   137630776.061        2969.439          39.000  
G10  23440496.970   123180624.403        1380.611          40.000  
G22  22783044.242   119725691.572       -2667.285          44.000  
G19  22446889.599   117959178.800        2105.779          44.000  
G17  22674973.054   119157790.455        -101.203          43.000  
G14  24102329.948   126658589.265       -3209.441          39.000  
E09  25224752.547   132556938.286       -2323.152          43.000  
G23  22461075.858   118033735.708       -1051.946          42.000  
E24  23366521.299   122791892.636         880.446          45.000  
G12  22586651.080   118693645.269        3665.386          45.000  
E03  25877405.104   135986646.920        2630.894          38.000  
G25  25437911.748   133677095.062        4137.564          31.000  
> 2023 12 30 11 51 42.0000000  0 17                     
G13  22291760.444   117143987.941       -3074.055          43.000  
E05  21845400.616   114798351.817         243.861          45.000  
G15  20646488.896   108498028.808       -2045.899          46.000  
E31  24678405.459   129685913.281       -1753.468          41.000  
G24  20003900.019   105121209.637         919.687          46.000  
E25  26189705.753   137627806.795        2968.873          39.000  
G10  23440234.589   123179244.448        1379.333          40.000  
G22  22783551.834   119728358.985       -2667.887          44.000  
G19  22446488.977   117957073.408        2104.813          44.000  
G17  22674992.494   119157892.187        -102.357          43.000  
G14  24102940.845   126661799.131       -3209.921          39.000  
E09  25225194.421   132559261.673       -2324.071          43.000  
G23  22461275.978   118034787.936       -1052.787          42.000  
E24  23366353.637   122791012.446         879.416          45.000  
G12  22585953.595   118689980.311        3664.475          45.000  
E03  25876904.213   135984016.415        2630.023          38.000  
G25  25437125.023   133672957.996        4137.164          32.000  
> 2023 12 30 11 51 43.0000000  0 17                     
G13  22292345.271   117147062.058       -3074.144          43.000  
E05  21845354.129   114798108.001         243.562          45.000  
G15  20646878.943   108500074.867       -2046.185          46.000  
E31  24678739.422   129687666.702       -1753.604          41.000  
G24  20003725.063   105120290.272         919.144          46.000  
E25  26189140.645   137624837.948        2968.719          39.000  
G10  23439972.347   123177865.366        1378.717          40.000  
G22  22784059.356   119731026.923       -2668.072          43.000  
G19  22446088.215   117954968.826        2104.215          44.000  
G17  22675011.689   119157994.802        -102.775          43.000  
G14  24103551.951   126665009.423       -3209.977          39.000  
E09  25225636.645   132561585.556       -2323.954          43.000  
G23  22461476.830   118035841.063       -1053.595          42.000  
E24  23366186.115   122790132.896         879.399          45.000  
G12  22585256.075   118686315.895        3664.438          44.000  
E03  25876403.915   135981386.297        2629.955          38.000  
G25  25436336.831   133668821.201        4136.896          31.000  
> 2023 12 30 11 51 44.0000000  0 17                     
G13  22292930.446   117150136.655       -3075.318          43.000  
E05  21845307.781   114797864.776         242.393          45.000  
G15  20647268.781   108502121.665       -2047.612          47.000  
E31  24679073.244   129689420.551       -1754.348          42.000  
G24  20003549.968   105119371.547         918.109          46.000  
E25  26188575.921   137621869.456        2967.903          40.000  
G10  23439710.000   123176487.092        1377.438          41.000  
G22  22784567.018   119733695.272       -2669.226          44.000  
G19  22445687.593   117952864.935        2103.154          43.000  
G17  22675031.687   119158098.219        -104.190          43.000  
G14  24104163.093   126668220.045       -3211.296          39.000  
E09  25226079.252   132563909.863       -2324.962          43.000  
G23  22461677.367   118036894.960       -1054.606          42.000  
E24  23366018.837   122789253.902         878.331          45.000  
G12  22584558.625   118682651.949        3663.326          45.000  
E03  25875903.548   135978756.580        2629.347          38.000  
G25  25435547.628   133664684.562        4135.965          30.000  
> 2023 12 30 11 51 45.0000000  0 17                     
G13  22293515.343   117153211.633       -3075.565          43.000  
E05  21845261.328   114797622.036         242.249          45.000  
G15  20647658.794   108504169.097       -2048.113          47.000  
E31  24679406.753   129691174.762       -1754.581          41.000  
G24  20003375.326   105118453.380         917.644          46.000  
E25  26188010.848   137618901.227        2967.995          40.000  
G10  23439447.933   123175109.502        1377.215          41.000  
G22  22785074.854   119736363.961       -2668.980          44.000  
G19  22445287.320   117950761.700        2102.571          43.000  
G17  22675051.231   119158202.337        -104.698          43.000  
G14  24104774.095   126671430.833       -3210.897          39.000  
E09  25226522.034   132566234.491       -2324.930          43.000  
G23  22461878.219   118037949.582       -1055.139          42.000  
E24  23365851.908   122788375.401         877.975          45.000  
G12  22583861.454   118678988.389        3663.166          44.000  
E03  25875403.320   135976127.131        2629.238          38.000  
G25  25434763.206   133660548.020        4136.341          29.000  
> 2023 12 30 11 51 46.0000000  0 17                     
G13  22294100.833   117156287.254       -3075.421          43.000  
E05  21845215.469   114797380.080         241.967          45.000  
G15  20648048.841   108506217.452       -2048.389          47.000  
E31  24679740.122   129692929.585       -1754.676          42.000  
G24  20003200.440   105117536.050         917.344          46.000  
E25  26187446.089   137615933.536        2967.953          40.000  
G10  23439185.901   123173732.942        1376.495          41.000  
G22  22785583.109   119739033.290       -2669.272          44.000  
G19  22444887.152   117948659.359        2102.385          43.000  
G17  22675071.543   119158307.455        -105.206          43.000  
G14  24105385.201   126674642.155       -3211.164          39.000  
E09  25226964.222   132568559.757       -2325.077          43.000  
G23  22462079.421   118039005.203       -1055.492          42.000  
E24  23365684.910   122787497.656         877.886          45.000  
G12  22583164.701   118675325.495        3663.018          44.000  
E03  25874903.092   135973498.253        2629.080          38.000  
G25  25433984.228   133656411.907        4136.682          29.000  
> 2023 12 30 11 51 47.0000000  0 17                     
G13  22294686.287   117159363.128       -3076.086          43.000  
E05  21845169.680   114797138.496         241.294          45.000  
G15  20648438.888   108508266.302       -2049.073          47.000  
E31  24680074.154   129694684.603       -1755.206          42.000  
G24  20003026.042   105116619.147         916.571          46.000  
E25  26186881.470   137612965.977        2967.542          40.000  
G10  23438924.147   123172356.940        1375.634          41.000  
G22  22786091.190   119741702.805       -2669.701          44.000  
G19  22444487.123   117946557.539        2101.282          43.000  
G17  22675091.820   119158413.158        -106.151          43.000  
G14  24105996.273   126677853.541       -3211.558          39.000  
E09  25227406.830   132570885.223       -2325.717          43.000  
G23  22462280.412   118040061.416       -1056.610          42.000  
E24  23365518.330   122786620.265         877.177          45.000  
G12  22582467.844   118671662.858        3662.283          44.000  
E03  25874402.515   135970869.517        2628.540          38.000  
G25  25433190.452   133652275.832        4135.831          29.000  
> 2023 12 30 11 51 48.0000000  0 17                     
G13  22295271.637   117162439.262       -3076.150          43.000  
E05  21845123.472   114796897.289         241.054          45.000  
G15  20648829.284   108510315.691       -2049.592          47.000  
E31  24680407.662   129696439.843       -1754.998          42.000  
G24  20002851.540   105115702.684         916.368          46.000  
E25  26186317.095   137609998.583        2967.385          40.000  
G10  23438662.917   123170981.563        1375.151          41.000  
G22  22786599.479   119744372.555       -2669.803          44.000  
G19  22444086.920   117944456.221        2101.157          43.000  
G17  22675112.342   119158519.441        -106.365          43.000  
G14  24106607.205   126681065.049       -3211.297          39.000  
E09  25227849.437   132573210.902       -2325.541          43.000  
G23  22462481.543   118041118.213       -1056.953          42.000  
E24  23365351.052   122785743.241         877.113          45.000  
G12  22581770.813   118668000.498        3662.244          44.000  
E03  25873902.217   135968240.918        2628.794          38.000  
G25  25432403.971   133648139.662        4136.294          29.000  
> 2023 12 30 11 51 49.0000000  0 17                     
G13  22295856.988   117165515.672       -3076.164          43.000  
E05  21845078.136   114796656.484         240.831          45.000  
G15  20649219.402   108512365.610       -2049.975          47.000  
E31  24680742.183   129698195.337       -1755.359          42.000  
G24  20002677.247   105114786.688         915.893          46.000  
E25  26185752.162   137607031.350        2967.278          40.000  
G10  23438401.513   123169606.794        1374.696          41.000  
G22  22787107.735   119747042.540       -2669.633          44.000  
G19  22443686.821   117942355.442        2100.753          43.000  
G17  22675132.898   119158626.342        -106.813          43.000  
G14  24107218.312   126684276.664       -3211.141          39.000  
E09  25228291.870   132575536.829       -2325.792          43.000  
G23  22462683.058   118042175.627       -1057.448          42.000  
E24  23365184.542   122784866.605         876.697          46.000  
G12  22581074.026   118664338.423        3662.137          44.000  
E03  25873401.710   135965612.526        2628.728          38.000  
G25  25431617.176   133644003.543        4136.605          29.000  
> 2023 12 30 11 51 50.0000000  0 17                     
G13  22296442.722   117168592.440       -3076.915          43.000  
E05  21845032.347   114796416.157         240.084          45.000  
G15  20649610.147   108514416.150       -2050.818          48.000  
E31  24681076.041   129699951.153       -1756.022          42.000  
G24  20002503.164   105113871.226         915.242          46.000  
E25  26185187.507   137604064.369        2966.728          40.000  
G10  23438140.283   123168232.726        1373.667          41.000  
G22  22787616.164   119749712.872       -2670.536          44.000  
G19  22443287.386   117940255.274        2099.966          43.000  
G17  22675153.524   119158733.935        -107.919          43.000  
G14  24107829.209   126687488.505       -3211.951          39.000  
E09  25228734.442   132577863.061       -2326.380          43.000  
G23  22462884.050   118043233.724       -1058.411          42.000  
E24  23365017.613   122783990.422         876.015          46.000  
G12  22580376.715   118660676.714        3661.533          44.000  
E03  25872901.796   135962984.393        2628.077          38.000  
G25  25430826.122   133639867.555        4135.942          29.000  
> 2023 12 30 11 51 51.0000000  0 17                     
G13  22297028.421   117171669.341       -3077.092          43.000  
E05  21844986.732   114796176.091         239.760          45.000  
G15  20650000.648   108516467.096       -2051.264          48.000  
E31  24681410.387   129701707.050       -1756.041          42.000  
G24  20002329.116   105112956.076         914.887          46.000  
E25  26184622.923   137601097.397        2966.880          40.000  
G10  23437878.984   123166859.136        1373.156          41.000  
G22  22788124.454   119752383.289       -2670.670          44.000  
G19  22442887.846   117938155.513        2099.351          43.000  
G17  22675174.185   119158842.012        -108.632          43.000  
G14  24108440.386   126690700.317       -3211.991          39.000  
E09  25229177.154   132580189.400       -2326.617          43.000  
G23  22463085.321   118044292.313       -1058.982          42.000  
E24  23364851.173   122783114.486         875.654          46.000  
G12  22579679.718   118657015.155        3661.276          44.000  
E03  25872401.673   135960356.287        2628.088          38.000  
G25  25430045.051   133635731.414        4135.782          29.000  
> 2023 12 30 11 51 52.0000000  0 17                     
G13  22297614.050   117174746.521       -3077.673          43.000  
E05  21844941.082   114795936.392         239.782          45.000  
G15  20650391.114   108518518.568       -2051.810          47.000  
E31  24681744.559   129703463.190       -1756.205          42.000  
G24  20002155.067   105112041.378         914.433          46.000  
E25  26184058.758   137598130.581        2966.905          40.000  
G10  23437618.103   123165486.132        1372.646          42.000  
G22  22788632.849   119755053.940       -2670.736          44.000  
G19  22442488.340   117936056.272        2098.836          43.000  
G17  22675194.777   119158950.664        -109.008          43.000  
G14  24109051.527   126693912.228       -3211.814          39.000  
E09  25229620.076   132582515.955       -2326.652          43.000  
G23  22463286.766   118045351.483       -1059.287          42.000  
E24  23364684.873   122782238.915         875.379          46.000  
G12  22578983.036   118653353.867        3661.129          44.000  
E03  25871901.585   135957728.366        2628.057          38.000  
G25  25429253.753   133631595.290        4135.992          28.000  
> 2023 12 30 11 51 53.0000000  0 17                     
G13  22298199.819   117177824.028       -3077.429          43.000  
E05  21844895.327   114795697.199         238.909          45.000  
G15  20650781.754   108520570.653       -2052.238          47.000  
E31  24682078.695   129705219.646       -1756.651          42.000  
G24  20001981.193   105111127.214         913.960          46.000  
E25  26183494.208   137595164.026        2966.363          40.000  
G10  23437357.257   123164113.819        1372.139          42.000  
G22  22789141.243   119757724.903       -2671.094          44.000  
G19  22442089.044   117933957.629        2098.521          43.000  
G17  22675215.577   119159060.000        -109.447          43.000  
G14  24109662.599   126697124.333       -3212.123          39.000  
E09  25230062.578   132584842.827       -2327.105          43.000  
G23  22463488.246   118046411.354       -1060.079          42.000  
E24  23364518.467   122781363.808         874.773          46.000  
G12  22578285.935   118649692.938        3661.059          44.000  
E03  25871401.636   135955100.688        2627.573          39.000  
G25  25428460.920   133627459.161        4136.105          29.000  
> 2023 12 30 11 51 54.0000000  0 17                     
G13  22298785.518   117180901.744       -3077.625          43.000  
E05  21844850.027   114795458.283         238.898          45.000  
G15  20651172.500   108522623.177       -2052.420          48.000  
E31  24682413.216   129706976.223       -1756.541          42.000  
G24  20001807.214   105110213.402         913.619          46.000  
E25  26182929.694   137592197.517        2966.549          40.000  
G10  23437096.551   123162742.019        1371.890          42.000  
G22  22789649.917   119760396.013       -2670.933          44.000  
G19  22441689.888   117931859.421        2098.250          43.000  
G17  22675236.518   119159169.876        -110.021          43.000  
G14  24110273.985   126700336.482       -3212.093          39.000  
E09  25230505.500   132587169.831       -2326.902          43.000  
G23  22463689.866   118047471.732       -1060.359          41.000  
E24  23364352.062   122780488.975         874.827          46.000  
G12  22577589.392   118646032.213        3660.951          44.000  
E03  25870901.129   135952473.069        2627.837          39.000  
G25  25427676.951   133623322.995        4135.813          30.000  
> 2023 12 30 11 51 55.0000000  0 17                     
G13  22299371.566   117183979.784       -3078.013          44.000  
E05  21844804.517   114795219.853         238.232          45.000  
G15  20651563.280   108524676.330       -2053.374          47.000  
E31  24682747.492   129708733.139       -1756.990          42.000  
G24  20001633.515   105109300.123         913.084          46.000  
E25  26182365.319   137589231.278        2965.952          40.000  
G10  23436835.810   123161370.906        1371.159          42.000  
G22  22790158.067   119763067.432       -2671.517          44.000  
G19  22441290.522   117929761.833        2097.282          42.000  
G17  22675257.423   119159280.418        -110.811          43.000  
G14  24110885.126   126703548.783       -3212.287          39.000  
E09  25230948.979   132589497.144       -2327.333          43.000  
G23  22463891.591   118048532.801       -1061.018          41.000  
E24  23364185.796   122779614.608         874.239          45.000  
G12  22576892.570   118642371.826        3660.327          44.000  
E03  25870401.354   135949845.732        2627.219          39.000  
G25  25426890.400   133619186.879        4136.654          31.000  
> 2023 12 30 11 51 56.0000000  0 16                     
G13  22299957.928   117187058.244       -3080.603          34.000  
E05  21844759.355                         237.026          38.000  
G15  20651954.060   108526730.216       -2057.737          36.000  
E31  24683082.083                       -1749.576          30.000  
G24  20001459.781                         917.713          36.000  
E25  26181801.014                        2965.731          34.000  
G22  22790666.567                       -2670.049          33.000  
G19  22440891.192   117927664.971        2093.802          28.000  
G17  22675278.258                        -109.965          33.000  
G14  24111496.407   126706761.399       -3214.484          34.000  
E09  25231392.145                       -2328.808          35.000  
G23  22464093.455   118049594.678       -1064.881          31.000  
E24  23364019.705                         852.993          36.000  
G12  22576195.957                        3629.553          33.000  
E03  25869901.266                        2625.941          32.000  
G25  25426102.697                        4137.077          24.000  
> 2023 12 30 11 51 57.0000000  0 17                     
G13  22300545.582   117190157.7293      -3079.017          44.000  
E05  21844713.042   114794752.1831        236.960          46.000  
G15  20652341.978   108528789.2403      -2054.788          47.000  
E31  24683416.673   129712239.6631      -1758.001          42.000  
G24  20001286.151   105107467.4653        911.653          47.000  
E25  26181235.836   137583333.2171       2965.363          41.000  
G10  23436317.155   123158677.0803       1369.403          42.000  
G22  22791172.693   119768420.4993      -2672.554          44.000  
G19  22440492.838   117925585.2573       2095.973          43.000  
G17  22675301.014   119159510.3553       -112.554          43.000  
G14  24112109.678   126709991.3153      -3212.933          39.000  
E09  25231833.461   132594189.5191      -2328.535          44.000  
G23  22464296.087   118050671.7943      -1062.715          41.000  
E24  23363848.344   122777862.0021        873.058          46.000  
G12  22575498.018   118635041.9493       3659.292          43.000  
E03  25869396.362   135944605.5481       2626.565          39.000  
G25  25425317.193   133610942.8573       4135.134          30.000  
> 2023 12 30 11 51 58.0000000  0 17                     
G13  22301131.944   117193236.4902      -3078.741          44.000  
E05  21844665.299   114794514.827         237.039          46.000  
G15  20652734.748   108530843.9032      -2054.908          47.000  
E31  24683748.576   129713997.171       -1757.693          42.000  
G24  20001114.301   105106555.4452        911.678          47.000  
E25  26180667.412   137580367.335        2965.829          41.000  
G10  23436054.250   123157307.7202       1369.086          42.000  
G22  22791684.298   119771092.5162      -2671.950          44.000  
G19  22440094.345   117923489.1482       2096.001          43.000  
G17  22675320.802   119159622.6322       -112.670          43.000  
G14  24112718.481   126713203.8722      -3212.559          39.000  
E09  25232275.336   132596517.429       -2328.314          44.000  
G23  22464496.834   118051734.5992      -1063.175          42.000  
E24  23363679.251   122776988.667         873.101          46.000  
G12  22574799.625   118631382.3102       3659.687          43.000  
E03  25868892.155   135941978.618        2627.080          38.000  
G25  25424533.295   133606806.6982       4135.974          31.000  
> 2023 12 30 11 51 59.0000000  0 17                     
G13  22301717.259   117196315.4252      -3079.246          44.000  
E05  21844620.556   114794277.752         236.686          46.000  
G15  20653124.481   108532898.9682      -2055.462          47.000  
E31  24684083.272   129715754.801       -1757.804          41.000  
G24  20000938.926   105105643.7612        911.361          47.000  
E25  26180107.505   137577401.517        2965.402          41.000  
G10  23435793.264   123155938.8492       1368.371          42.000  
G22  22792190.599   119773764.6732      -2672.347          44.000  
G19  22439695.398   117921393.4682       2095.307          43.000  
G17  22675344.779   119159735.3892       -113.295          43.000  
G14  24113331.123   126716416.4802      -3212.863          39.000  
E09  25232715.639   132598845.448       -2328.244          44.000  
G23  22464696.883   118052797.9112      -1064.109          41.000  
E24  23363513.370   122776115.584         872.771          46.000  
G12  22574102.105   118627722.8592       3659.169          43.000  
E03  25868394.614   135939351.760        2626.773          38.000  
G25  25423743.114   133602670.4402       4135.919          32.000  
> 2023 12 30 11 52 00.0000000  0 17                     
G13  22302300.899   117199394.9532      -3079.890          44.000  
E05  21844578.431   114794041.406         235.847          46.000  
G15  20653517.914   108534954.9012      -2056.373          47.000  
E31  24684418.211   129717512.997       -1758.404          41.000  
G24  20000767.007   105104732.8752        910.546          47.000  
E25  26179543.828   137574436.158        2965.023          41.000  
G10  23435532.174   123154570.9262       1367.368          42.000  
G22  22792698.680   119776437.3832      -2672.798          44.000  
G19  22439295.299   117919298.6652       2094.292          43.000  
G17  22675364.846   119159849.0922       -114.107          43.000  
G14  24113939.926   126719629.5142      -3213.228          39.000  
E09  25233164.459   132601174.049       -2328.915          44.000  
G23  22464900.737   118053862.1212      -1064.637          41.000  
E24  23363355.340   122775243.220         871.993          46.000  
G12  22573407.168   118624064.0272       3658.496          43.000  
E03  25867900.738   135936725.412        2626.039          38.000  
G25  25422958.133   133598534.4692       4136.365          32.000  
> 2023 12 30 11 52 01.0000000  0 17                     
G13  22302885.482   117202475.0322      -3080.122          44.000  
E05  21844533.270   114793805.733         235.591          46.000  
G15  20653907.752   108537011.6542      -2056.835          47.000  
E31  24684753.639   129719271.724       -1758.854          41.000  
G24  20000592.749   105103822.7202        909.981          47.000  
E25  26178979.593   137571471.266        2964.836          41.000  
G10  23435273.003   123153203.9032       1366.663          42.000  
G22  22793208.156   119779110.6182      -2673.217          44.000  
G19  22438896.771   117917204.6352       2093.932          43.000  
G17  22675384.705   119159963.6812       -114.915          43.000  
G14  24114552.045   126722842.9232      -3213.405          39.000  
E09  25233606.438   132603503.159       -2329.091          44.000  
G23  22465104.660   118054927.2642      -1065.700          41.000  
E24  23363187.818   122774371.514         871.517          46.000  
G12  22572711.951   118620405.7452       3658.207          43.000  
E03  25867403.407   135934099.512        2625.805          38.000  
G25  25422172.141   133594398.8132       4135.896          32.000  
> 2023 12 30 11 52 02.0000000  0 17                     
G13  22303472.367   117205555.3022      -3080.852          43.000  
E05  21844490.273   114793570.364         234.811          46.000  
G15  20654299.090   108539068.8542      -2057.840          47.000  
E31  24685088.649   129721030.587       -1759.314          41.000  
G24  20000420.131   105102912.9322        909.063          46.000  
E25  26178415.148   137568506.444        2963.995          41.000  
G10  23435011.180   123151837.3962       1365.717          41.000  
G22  22793716.516   119781784.0212      -2674.118          44.000  
G19  22438498.173   117915111.0662       2093.044          43.000  
G17  22675406.483   119160078.7992       -115.797          43.000  
G14  24115162.873   126726056.3752      -3213.833          38.000  
E09  25234050.232   132605832.424       -2329.899          44.000  
G23  22465306.908   118055992.9012      -1066.528          41.000  
E24  23363024.031   122773500.094         870.822          46.000  
G12  22572017.014   118616747.6582       3657.533          43.000  
E03  25866902.376   135931473.696        2625.298          38.000  
G25  25421385.520   133590263.1342       4135.063          32.000  
> 2023 12 30 11 52 03.0000000  0 17                     
G13  22304058.974   117208635.8352      -3080.273          43.000  
E05  21844444.868   114793335.390         235.087          45.000  
G15  20654689.801   108541126.5702      -2057.753          46.000  
E31  24685421.738   129722789.685       -1759.166          41.000  
G24  20000246.746   105102003.5872        909.354          46.000  
E25  26177851.645   137565541.738        2965.029          41.000  
G10  23434752.114   123150471.4982       1365.887          41.000  
G22  22794225.923   119784457.6222      -2673.397          44.000  
G19  22438100.867   117913018.0212       2092.906          43.000  
G17  22675429.342   119160194.5062       -115.972          43.000  
G14  24115776.248   126729269.9312      -3213.225          38.000  
E09  25234493.223   132608161.904       -2329.337          44.000  
G23  22465509.470   118057059.1432      -1066.645          41.000  
E24  23362857.521   122772629.022         871.100          46.000  
G12  22571321.692   118613089.8732       3657.801          43.000  
E03  25866402.567   135928848.040        2625.858          38.000  
G25  25420596.735   133586127.3382       4136.879          31.000  
> 2023 12 30 11 52 04.0000000  0 17                     
G13  22304645.441   117211716.3782      -3080.921          44.000  
E05  21844399.811   114793100.553         234.368          45.000  
G15  20655081.383   108543184.5702      -2058.510          46.000  
E31  24685757.829   129724548.749       -1759.428          41.000  
G24  20000074.129   105101094.4322        908.843          46.000  
E25  26177286.782   137562576.974        2964.521          41.000  
G10  23434491.443   123149105.9682       1364.983          41.000  
G22  22794734.736   119787131.2032      -2673.956          44.000  
G19  22437702.304   117910925.2322       2092.327          43.000  
G17  22675451.330   119160310.5402       -116.457          43.000  
G14  24116387.389   126732483.3442      -3213.862          38.000  
E09  25234936.947   132610491.353       -2329.837          44.000  
G23  22465711.474   118058125.7132      -1067.086          41.000  
E24  23362691.185   122771758.108         870.547          46.000  
G12  22570625.464   118609432.0892       3657.566          43.000  
E03  25865902.374   135926222.309        2625.530          38.000  
G25  25419810.917   133581991.4352       4135.568          31.000  
> 2023 12 30 11 52 05.0000000  0 17                     
G13  22305231.524   117214797.2142      -3080.746          44.000  
E05  21844355.173   114792866.133         234.309          45.000  
G15  20655473.211   108545243.1232      -2058.785          46.000  
E31  24686092.664   129726308.084       -1759.346          41.000  
G24  19999901.162   105100185.7882        908.444          46.000  
E25  26176722.965   137559612.401        2964.662          41.000  
G10  23434231.749   123147741.0912       1364.592          41.000  
G22  22795243.550   119789805.0662      -2673.792          44.000  
G19  22437304.230   117908833.0172       2091.982          43.000  
G17  22675473.247   119160427.2282       -116.782          43.000  
G14  24116998.845   126735696.9112      -3213.700          39.000  
E09  25235379.834   132612821.072       -2329.773          43.000  
G23  22465914.350   118059192.9432      -1067.135          41.000  
E24  23362525.408   122770887.588         870.536          46.000  
G12  22569929.095   118605774.6312       3657.402          43.000  
E03  25865402.914   135923596.798        2625.489          38.000  
G25  25419023.528   133577855.5452       4135.991          31.000  
> 2023 12 30 11 52 06.0000000  0 17                     
G13  22305818.165   117217878.2222      -3081.052          44.000  
E05  21844310.710   114792632.003         234.111          45.000  
G15  20655864.968   108547302.1112      -2059.273          46.000  
E31  24686427.325   129728067.535       -1759.586          41.000  
G24  19999727.986   105099277.4722        908.081          47.000  
E25  26176158.660   137556647.884        2964.299          41.000  
G10  23433971.775   123146376.7062       1363.875          41.000  
G22  22795752.607   119792479.0732      -2674.354          44.000  
G19  22436905.946   117906741.2142       2091.575          43.000  
G17  22675495.549   119160544.4202       -117.603          43.000  
G14  24117610.335   126738910.4882      -3214.084          39.000  
E09  25235822.965   132615150.914       -2329.896          43.000  
G23  22466117.610   118060260.6942      -1068.119          41.000  
E24  23362359.910   122770017.339         870.156          46.000  
G12  22569233.425   118602117.3702       3656.904          43.000  
E03  25864903.628   135920971.340        2625.410          38.000  
G25  25418231.637   133573719.5122       4136.558          30.000  
> 2023 12 30 11 52 07.0000000  0 17                     
G13  22306404.213   117220959.585       -3081.816          44.000  
E05  21844266.561   114792398.372         233.256          45.000  
G15  20656256.865   108549361.732       -2060.128          46.000  
E31  24686762.194   129729827.334       -1760.120          42.000  
G24  19999555.194   105098369.2141        907.317          47.000  
E25  26175594.425   137553683.610        2964.020          41.000  
G10  23433712.116   123145012.5361       1363.021          41.000  
G22  22796261.840   119795152.8861      -2674.736          44.000  
G19  22436507.976   117904650.057        2090.502          43.000  
G17  22675518.234   119160662.312        -118.424          43.000  
G14  24118222.035   126742123.7631      -3214.163          39.000  
E09  25236266.305   132617481.096       -2330.671          43.000  
G23  22466320.975   118061329.125       -1069.019          41.000  
E24  23362194.377   122769147.571         869.350          46.000  
G12  22568537.685   118598460.458        3656.545          43.000  
E03  25864404.099   135918346.156        2624.940          38.000  
G25  25417448.018   133569583.637        4136.586          30.000  
> 2023 12 30 11 52 08.0000000  0 17                     
G13  22306990.366   117224041.249       -3081.990          43.000  
E05  21844221.819   114792165.165         232.820          45.000  
G15  20656648.902   108551421.910       -2060.608          46.000  
E31  24687097.308   129731587.396       -1760.485          42.000  
G24  19999382.681   105097461.942         906.819          46.000  
E25  26175030.434   137550719.538        2963.821          41.000  
G10  23433452.806   123143649.493        1362.578          41.000  
G22  22796770.583   119797827.469       -2674.750          44.000  
G19  22436110.181   117902559.458        2090.067          43.000  
G17  22675540.919   119160780.843        -118.936          43.000  
G14  24118833.386   126745337.698       -3214.383          38.000  
E09  25236709.645   132619811.533       -2330.900          43.000  
G23  22466524.689   118062398.186       -1069.105          41.000  
E24  23362028.740   122768278.208         868.861          46.000  
G12  22567842.259   118594803.873        3656.088          44.000  
E03  25863904.813   135915721.189        2624.817          38.000  
G25  25416659.722   133565447.761        4135.657          30.000  
> 2023 12 30 11 52 09.0000000  0 17                     
G13  22307576.763   117227123.235       -3082.211          43.000  
E05  21844177.460   114791932.404         232.427          45.000  
G15  20657040.764   108553482.670       -2061.264          46.000  
E31  24687432.527   129733347.731       -1760.475          42.000  
G24  19999210.168   105096555.148         906.552          47.000  
E25  26174466.059   137547755.672        2963.744          40.000  
G10  23433193.531   123142287.127        1361.954          41.000  
G22  22797279.327   119800502.328       -2674.851          44.000  
G19  22435712.386   117900469.426        2089.558          43.000  
G17  22675563.849   119160900.019        -119.329          43.000  
G14  24119445.016   126748551.737       -3213.953          39.000  
E09  25237153.160   132622142.220       -2330.800          43.000  
G23  22466728.542   118063467.937       -1070.225          41.000  
E24  23361863.486   122767409.233         868.715          46.000  
G12  22567146.833   118591147.589        3656.013          44.000  
E03  25863405.213   135913096.436        2624.471          38.000  
G25  25415874.881   133561311.959        4135.841          30.000  
> 2023 12 30 11 52 10.0000000  0 17                     
G13  22308162.741   117230205.222       -3081.764          43.000  
E05  21844133.242   114791699.749         232.836          45.000  
G15  20657433.010   108555543.693       -2061.173          46.000  
E31  24687767.501   129735108.028       -1759.962          42.000  
G24  19999037.586   105095648.560         906.326          47.000  
E25  26173902.312   137544791.696        2964.148          40.000  
G10  23432934.674   123140925.106        1361.788          41.000  
G22  22797788.489   119803177.166       -2674.717          44.000  
G19  22435314.486   117898379.669        2089.423          43.000  
G17  22675587.162   119161019.569        -119.749          43.000  
G14  24120056.821   126751765.689       -3213.699          39.000  
E09  25237596.745   132624472.910       -2330.546          43.000  
G23  22466932.326   118064538.022       -1070.706          41.000  
E24  23361698.372   122766540.424         868.876          46.000  
G12  22566451.302   118587491.354        3656.254          44.000  
E03  25862905.474   135910471.576        2625.307          38.000  
G25  25415087.422   133557175.910        4135.935          30.000  
> 2023 12 30 11 52 11.0000000  0 17                     
G13  22308748.720   117233287.518       -3082.861          43.000  
E05  21844084.102   114791446.5371        231.523          45.000  
G15  20657822.324   108557605.286       -2062.314          46.000  
E31  24688105.931   129736882.6061      -1761.233          42.000  
G24  19998863.642   105094742.443         905.413          46.000  
E25  26173332.911   137541827.923        2963.126          40.000  
G10  23432675.538   123139563.733        1360.574          41.000  
G22  22798297.338   119805852.256       -2675.693          44.000  
G19  22434915.295   117896290.470        2088.222          43.000  
G17  22675609.708   119161133.2283       -120.881          43.000  
G14  24120668.695   126754979.785       -3214.653          39.000  
E09  25238040.469   132626803.842       -2331.554          43.000  
G23  22467136.040   118065608.714       -1071.714          41.000  
E24  23361534.550   122765702.9911        867.823          46.000  
G12  22565755.631   118583835.447        3655.387          44.000  
E03  25862402.419   135907846.956        2623.924          38.000  
G25  25414294.310   133553017.8313       4136.149          30.000  
> 2023 12 30 11 52 12.0000000  0 17                     
G13  22309334.838   117236370.194       -3082.602          43.000  
E05  21844042.815   114791214.820         231.630          45.000  
G15  20658214.151   108559667.524       -2062.433          46.000  
E31  24688440.172   129738643.503       -1760.809          42.000  
G24  19998692.420   105093836.891         905.521          46.000  
E25  26172771.363   137538864.398        2963.687          40.000  
G10  23432416.542   123138203.069        1360.559          41.000  
G22  22798806.326   119808527.700       -2675.564          44.000  
G19  22434518.407   117894201.895        2088.431          43.000  
G17  22675632.986   119161254.1082       -121.159          43.000  
G14  24121280.221   126758194.077       -3214.188          39.000  
E09  25238484.088   132629135.109       -2331.135          43.000  
G23  22467340.207   118066680.130       -1071.386          42.000  
E24  23361366.155   122764835.046         867.918          46.000  
G12  22565059.856   118580179.904        3655.501          44.000  
E03  25861900.097   135905222.575        2624.490          38.000  
G25  25413506.851   133548881.9302       4135.900          31.000  
> 2023 12 30 11 52 13.0000000  0 17                     
G13  22309919.176   117239452.915       -3082.764          43.000  
E05  21843994.617   114790983.280         231.377          45.000  
G15  20658606.362   108561730.067       -2062.739          46.000  
E31  24688777.276   129740404.424       -1760.833          42.000  
G24  19998520.466   105092931.585         905.193          46.000  
E25  26172204.964   137535900.829        2963.496          40.000  
G10  23432157.616   123136842.820        1359.842          41.000  
G22  22799315.418   119811203.144       -2675.381          44.000  
G19  22434120.507   117892113.641        2087.955          43.000  
G17  22675655.951   119161375.3772       -121.543          43.000  
G14  24121892.409   126761408.276       -3213.963          39.000  
E09  25238927.428   132631466.411       -2331.313          43.000  
G23  22467544.549   118067751.936       -1071.918          42.000  
E24  23361198.947   122763967.258         867.777          46.000  
G12  22564364.360   118576524.431        3655.563          43.000  
E03  25861400.602   135902598.184        2624.425          38.000  
G25  25412724.767   133544745.7512       4137.108          32.000  
> 2023 12 30 11 52 14.0000000  0 17                     
G13  22310507.178   117242506.3113      -3084.061          43.000  
E05  21843949.595   114790740.0211        230.375          45.000  
G15  20659002.343   108563790.0393      -2064.305          46.000  
E31  24689109.074   129742153.4851      -1762.129          42.000  
G24  19998345.196   105092012.6093        903.975          46.000  
E25  26171640.554   137532909.3011       2962.747          40.000  
G10  23431899.108   123135460.0533       1358.647          41.000  
G22  22799826.326   119813895.7203      -2676.548          44.000  
G19  22433725.295   117890021.3103       2086.683          43.000  
G17  22675679.125   119161497.6443       -122.919          43.000  
G14  24122507.425   126764631.4653      -3214.871          39.000  
E09  25239367.732   132633782.8131      -2332.275          43.000  
G23  22467752.242   118068834.7483      -1073.495          42.000  
E24  23361034.601   122763075.7471        866.482          46.000  
G12  22563667.713   118572873.1413       3654.227          44.000  
E03  25860901.979   135899966.8321       2623.502          38.000  
G25  25411935.703   133540623.0663       4135.292          32.000  
> 2023 12 30 11 52 15.0000000  0 17                     
G13  22311094.099   117245590.4422      -3083.891          43.000  
E05  21843907.855   114790510.156         229.855          45.000  
G15  20659394.065   108565854.5122      -2064.397          46.000  
E31  24689448.760   129743915.750       -1762.172          42.000  
G24  19998176.662   105091109.0912        903.646          47.000  
E25  26171079.914   137529946.938        2962.646          40.000  
G10  23431639.310   123134101.8592       1358.482          42.000  
G22  22800335.767   119816572.5192      -2676.452          44.000  
G19  22433328.442   117887934.9802       2086.432          44.000  
G17  22675704.567   119161621.0052       -123.407          44.000  
G14  24123121.533   126767846.7792      -3215.023          40.000  
E09  25239814.493   132636115.446       -2332.550          43.000  
G23  22467954.001   118069908.6442      -1073.874          42.000  
E24  23360872.140   122762209.592         866.260          46.000  
G12  22562972.391   118569219.1152       3654.172          44.000  
E03  25860401.123   135897343.679        2623.491          38.000  
G25  25411148.698   133536487.8062       4135.598          33.000  
> 2023 12 30 11 52 16.0000000  0 17                     
G13  22311684.754   117248674.4672      -3084.198          43.000  
E05  21843865.520   114790280.276         229.438          45.000  
G15  20659786.904   108567919.1452      -2065.145          47.000  
E31  24689779.162   129745677.852       -1762.397          42.000  
G24  19998004.463   105090205.6422        902.857          46.000  
E25  26170516.621   137526984.347        2962.527          40.000  
G10  23431382.024   123132743.9182       1357.496          42.000  
G22  22800845.628   119819249.1592      -2676.761          44.000  
G19  22432930.193   117885848.8032       2085.573          44.000  
G17  22675727.776   119161744.5672       -124.000          44.000  
G14  24123731.139   126771061.8052      -3215.548          40.000  
E09  25240253.540   132638447.921       -2332.833          43.000  
G23  22468158.658   118070982.7632      -1074.809          43.000  
E24  23360710.202   122761343.414         865.773          46.000  
G12  22562278.675   118565564.9942       3653.672          44.000  
E03  25859907.003   135894720.308        2622.714          39.000  
G25  25410363.788   133532352.2102       4135.162          34.000  
> 2023 12 30 11 52 17.0000000  0 17                     
G13  22312269.720   117251758.9982      -3084.843          43.000  
E05  21843823.849   114790051.024         229.132          45.000  
G15  20660182.012   108569984.5202      -2065.478          47.000  
E31  24690115.847   129747440.426       -1762.452          42.000  
G24  19997832.613   105089302.8372        902.675          46.000  
E25  26169952.909   137524022.113        2962.360          40.000  
G10  23431124.947   123131386.8022       1357.001          42.000  
G22  22801351.789   119821926.2622      -2677.063          44.000  
G19  22432534.911   117883763.3642       2085.318          44.000  
G17  22675751.159   119161868.9732       -124.528          44.000  
G14  24124340.361   126774277.1512      -3215.369          40.000  
E09  25240703.721   132640780.839       -2332.916          43.000  
G23  22468362.930   118072057.6882      -1075.098          42.000  
E24  23360542.679   122760477.851         865.476          46.000  
G12  22561582.516   118561911.3682       3653.484          44.000  
E03  25859410.265   135892097.283        2623.230          38.000  
G25  25409576.608   133528216.7862       4136.065          34.000  
> 2023 12 30 11 52 18.0000000  0 17                     
G13  22312858.141   117254843.8912      -3085.167          44.000  
E05  21843781.724   114789822.272         228.473          45.000  
G15  20660576.073   108572050.5562      -2066.580          47.000  
E31  24690448.518   129749203.335       -1763.088          42.000  
G24  19997660.031   105088400.6162        901.882          46.000  
E25  26169391.954   137521060.178        2961.784          40.000  
G10  23430865.986   123130030.4342       1355.912          42.000  
G22  22801863.115   119824603.7272      -2677.712          44.000  
G19  22432138.721   117881678.5822       2084.285          44.000  
G17  22675774.717   119161994.0762       -125.419          44.000  
G14  24124953.213   126777492.7162      -3215.524          40.000  
E09  25241147.585   132643114.102       -2333.622          43.000  
G23  22468568.807   118073133.3462      -1076.012          42.000  
E24  23360377.565   122759612.769         864.661          45.000  
G12  22560888.626   118558258.1432       3652.749          44.000  
E03  25858911.084   135889474.596        2622.535          38.000  
G25  25408791.314   133524081.5282       4135.379          33.000  
> 2023 12 30 11 52 19.0000000  0 17                     
G13  22313444.538   117257929.3002      -3086.118          43.000  
E05  21843737.436   114789594.146         227.628          45.000  
G15  20660970.099   108574117.3372      -2067.215          47.000  
E31  24690783.981   129750966.701       -1763.517          42.000  
G24  19997489.123   105087499.0642        901.183          46.000  
E25  26168827.091   137518098.621        2961.125          40.000  
G10  23430607.932   123128674.8822       1354.946          42.000  
G22  22802372.661   119827281.6392      -2678.630          44.000  
G19  22431743.159   117879594.5272       2083.645          44.000  
G17  22675798.380   119162120.0292       -126.381          44.000  
G14  24125564.773   126780708.6642      -3216.378          40.000  
E09  25241590.401   132645447.809       -2333.964          43.000  
G23  22468773.010   118074209.8602      -1077.193          42.000  
E24  23360213.533   122758748.276         864.286          45.000  
G12  22560192.397   118554605.4172       3652.481          44.000  
E03  25858411.903   135886852.280        2622.048          38.000  
G25  25408003.332   133519946.4662       4134.063          32.000  
> 2023 12 30 11 52 20.0000000  0 17                     
G13  22314029.295                       -3066.905          33.000  
E05  21843690.460                         231.641          38.000  
G15  20661361.996   108576184.9292      -2069.809          25.000  
E31  24691120.840                       -1739.113          34.000  
G24  19997318.949                         900.574          29.000  
E25  26168264.356                        2953.390          35.000  
G10  23430348.831                        1353.196          22.000  
G22  22802881.126                       -2681.664          32.000  
G19  22431347.109                        2081.494          17.000  
G17  22675823.857   119162246.4492       -124.738          33.000  
G14  24126175.530   126783924.8142      -3216.972          30.000  
E09  25242030.391                       -2333.233          36.000  
G23  22468977.247   118075286.4052      -1069.630          26.000  
E24  23360048.524                         839.841          36.000  
G12  22559497.215                        3622.858          37.000  
E03  25857913.874                        2625.756          31.000  
G25  25407216.955                        4136.573          26.000  
> 2023 12 30 11 52 21.0000000  0 17                     
G13  22314617.786   117264107.9233      -3086.154          43.000  
E05  21843646.625                         227.230          45.000  
G15  20661757.453   108578268.0473      -2068.071          48.000  
E31  24691454.872                       -1764.166          41.000  
G24  19997141.724                         901.172          47.000  
E25  26167698.062                        2961.561          40.000  
G10  23430088.893                        1354.272          42.000  
G22  22803392.766   119832637.2013      -2678.337          44.000  
G19  22430952.211   117875449.1143       2083.076          45.000  
G17  22675847.240                        -127.329          45.000  
G14  24126789.010                       -3215.460          39.000  
E09  25242478.443                       -2334.148          43.000  
G23  22469180.089                       -1077.197          42.000  
E24  23359883.620                         863.336          45.000  
G12  22558800.324                        3651.731          44.000  
E03  25857410.330                        2621.696          39.000  
G25  25406428.938                        4135.272          31.000  
> 2023 12 30 11 52 22.0000000  0 17                     
G13  22315206.522   117267200.8442      -3085.920          44.000  
E05  21843602.790   114788920.3861        227.403          46.000  
G15  20662151.060   108580336.1532      -2068.098          48.000  
E31  24691794.383   129756244.4881      -1763.457          42.000  
G24  19996972.736   105084800.4123        900.553          47.000  
E25  26167136.130   137509230.1641       2961.612          41.000  
G10  23429832.444   123124600.2443       1353.714          43.000  
G22  22803902.941   119835318.5222      -2678.254          44.000  
G19  22430555.393   117873363.4022       2082.744          45.000  
G17  22675871.217   119162506.7903       -127.526          45.000  
G14  24127400.501   126790345.3763      -3215.709          40.000  
E09  25242921.504   132652463.6281      -2333.857          44.000  
G23  22469386.699   118077423.2203      -1077.687          42.000  
E24  23359720.949   122756163.3681        863.820          46.000  
G12  22558108.702   118543661.2323       3652.355          45.000  
E03  25856912.650   135878996.6971       2622.153          40.000  
G25  25405641.584   133507546.6333       4135.976          31.000  
> 2023 12 30 11 52 23.0000000  0 17                     
G13  22315792.186   117270287.3642      -3087.100          43.000  
E05  21843563.248   114788693.865         225.962          46.000  
G15  20662544.946   108582405.1092      -2069.705          48.000  
E31  24692125.449   129758008.834       -1764.726          42.000  
G24  19996803.469   105083900.7162        899.087          47.000  
E25  26166568.230   137506269.280        2960.323          41.000  
G10  23429574.704   123123247.1832       1352.378          43.000  
G22  22804412.034   119837997.4032      -2679.391          44.000  
G19  22430159.831   117871281.5362       2081.114          45.000  
G17  22675897.602   119162635.2172       -129.072          45.000  
G14  24128013.387   126793561.8042      -3216.857          40.000  
E09  25243368.474   132654798.309       -2335.146          44.000  
G23  22469590.622   118078502.1952      -1079.742          42.000  
E24  23359553.461   122755300.440         862.354          46.000  
G12  22557414.323   118540009.6962       3651.005          45.000  
E03  25856415.145   135876375.130        2620.894          40.000  
G25  25404853.916   133503411.7472       4134.083          30.000  
> 2023 12 30 11 52 24.0000000  0 17                     
G13  22316381.305   117273374.5922      -3087.354          44.000  
E05  21843516.551   114788468.192         225.559          46.000  
G15  20662939.112   108584475.0372      -2070.012          48.000  
E31  24692463.006   129759773.877       -1765.187          42.000  
G24  19996632.597   105083001.9332        898.511          47.000  
E25  26166004.204   137503309.009        2960.303          40.000  
G10  23429316.895   123121895.1842       1351.684          43.000  
G22  22804923.918   119840676.9482      -2679.615          45.000  
G19  22429759.872   117869200.6412       2080.788          44.000  
G17  22675921.159   119162764.6832       -129.600          45.000  
G14  24128626.344   126796778.7842      -3217.112          41.000  
E09  25243811.675   132657133.663       -2335.335          44.000  
G23  22469798.629   118079582.1912      -1080.167          42.000  
E24  23359387.964   122754438.328         861.997          46.000  
G12  22556720.502   118536358.8882       3650.793          45.000  
E03  25855917.988   135873754.171        2621.002          40.000  
G25  25404073.263   133499277.1732       4134.770          29.000  
> 2023 12 30 11 52 25.0000000  0 17                     
G13  22316969.936   117276461.8252      -3087.828          44.000  
E05  21843479.870   114788242.666         224.725          46.000  
G15  20663332.963   108586545.2522      -2070.741          48.000  
E31  24692798.294   129761538.875       -1765.472          42.000  
G24  19996462.841   105082103.3342        897.945          47.000  
E25  26165448.135   137500348.646        2959.934          40.000  
G10  23429063.448   123120543.5522       1350.961          42.000  
G22  22805431.964   119843356.4732      -2680.076          45.000  
G19  22429365.602   117867120.0422       2079.877          44.000  
G17  22675944.194   119162894.5242       -130.660          45.000  
G14  24129237.416   126799995.6202      -3217.463          41.000  
E09  25244256.446   132659469.000       -2335.843          44.000  
G23  22470003.529   118080662.5572      -1081.207          42.000  
E24  23359228.189   122753576.336         861.451          46.000  
G12  22556025.111   118532708.1072       3650.449          45.000  
E03  25855421.215   135871133.128        2620.504          40.000  
G25  25403279.069   133495142.4452       4133.860          28.000  
> 2023 12 30 11 52 26.0000000  0 17                     
G13  22317554.833   117279549.4792      -3087.331          44.000  
E05  21843437.292   114788017.668         225.019          46.000  
G15  20663727.373   108588616.1412      -2070.873          48.000  
E31  24693136.165   129763304.249       -1765.256          42.000  
G24  19996291.759   105081205.3462        897.864          47.000  
E25  26164883.516   137497388.597        2960.197          41.000  
G10  23428805.987   123119192.6912       1350.744          43.000  
G22  22805941.231   119846036.3922      -2679.921          45.000  
G19  22428967.423   117865040.1092       2079.721          43.000  
G17  22675969.113   119163025.1252       -130.692          45.000  
G14  24129850.407   126803212.7012      -3216.670          41.000  
E09  25244701.601   132661804.704       -2335.526          44.000  
G23  22470208.639   118081743.6792      -1081.082          42.000  
E24  23359064.018   122752714.870         861.619          46.000  
G12  22555330.557   118529057.7772       3650.443          45.000  
E03  25854922.174   135868512.466        2620.642          40.000  
G25  25402495.868   133491007.7642       4135.025          26.000  
> 2023 12 30 11 52 27.0000000  0 16                     
G13  22318143.498                       -3084.652          16.000  
E05  21843394.330                         231.775          25.000  
G15  20664121.329                       -2042.362          11.000  
E31  24693471.489                       -1762.465          19.000  
E25  26164320.328                        2957.740          18.000  
G10  23428549.365                        1355.927          24.000  
G22  22806452.418                       -2679.724          13.000  
G19  22428572.036                        2081.875          16.000  
G17  22675994.520                        -128.239          14.000  
G14  24130462.246                       -3175.955          20.000  
E09  25245145.709                       -2343.383          20.000  
G23  22470414.552                       -1072.090          14.000  
E24  23358898.869                         864.215          27.000  
G12  22554635.410                        3644.113          17.000  
E03  25854424.110                        2596.737          12.000  
G25  25401706.700                        4139.600          25.000  
> 2023 12 30 11 52 28.0000000  0  8                     
G13  22318728.220                       -3084.652          14.000  
E31  24693804.299                       -1762.465          16.000  
E25  26163758.326                        2957.740          13.000  
G10  23428291.171                        1355.927          19.000  
G19  22428173.857                        2081.157          16.000  
G14  24131062.987                       -3175.955          15.000  
E09  25245593.726                       -2347.383          16.000  
G12  22553940.438                        3644.113          14.000  
> 2023 12 30 11 52 29.0000000  0 14                     
G13  22319314.896                       -3082.187          14.000  
E05  21843302.786                         237.956          20.000  
G15  20664908.753                       -2072.099          19.000  
E31  24694142.205                       -1750.448          23.000  
E25  26163189.589                        2951.287          23.000  
G10  23428030.884                        1353.338          24.000  
G22  22807470.568                       -2686.128          20.000  
G19  22427778.470                        2078.304          21.000  
G17  22676042.229                        -127.610          17.000  
G14  24131678.701                       -3214.311          23.000  
E09  25246031.761                       -2343.437          26.000  
E24  23358569.897                         866.487          23.000  
G12  22553243.476                        3641.269          20.000  
E03  25853424.456                        2615.390          12.000  
> 2023 12 30 11 52 30.0000000  0 17                     
G24  19995606.594                         896.484          48.000  
G13  22319903.597   117291884.4313      -3088.753          44.000  
E05  21843263.243   114787132.7101        223.488          47.000  
G15  20665303.337   108596901.5923      -2073.018          49.000  
E31  24694479.727   129770377.1711      -1766.059          43.000  
E25  26162624.446   137485529.0701       2959.554          41.000  
G10  23427777.681   123113801.8503       1348.516          44.000  
G22  22807978.893   119856737.9363      -2680.759          46.000  
G19  22427384.234   117856699.2543       2077.848          45.000  
G17  22676067.706   119163539.6493       -133.259          46.000  
G14  24132299.196   126816087.2723      -3217.496          41.000  
E09  25246478.766   132671150.9311      -2336.435          45.000  
G23  22471032.743   118086073.7783      -1083.521          44.000  
E24  23358409.809   122749281.8441        859.973          47.000  
G12  22552551.645   118514457.8473       3649.290          46.000  
E03  25852922.344   135858033.4801       2620.247          40.000  
G25  25399345.127   133474459.0043       4134.502          28.000  
> 2023 12 30 11 52 31.0000000  0 17                     
G24  19995437.955   105076735.1313        895.804          48.000  
G13  22320492.577   117294973.3122      -3088.677          43.000  
E05  21843220.211   114786909.583         223.082          47.000  
G15  20665697.223   108598975.0412      -2073.590          49.000  
E31  24694815.016   129772143.614       -1766.296          43.000  
E25  26162061.781   137482569.690        2959.387          41.000  
G10  23427520.570   123112453.9262       1347.760          44.000  
G22  22808488.579   119859418.8912      -2680.815          44.000  
G19  22426990.313   117854621.8642       2077.149          44.000  
G17  22676094.475   119163673.1452       -133.687          45.000  
G14  24132910.442   126819304.8152      -3217.406          41.000  
E09  25246921.897   132673487.689       -2336.739          44.000  
G23  22471239.912   118087157.8272      -1084.454          44.000  
E24  23358241.066   122748422.156         859.761          47.000  
G12  22551855.800   118510808.8052       3649.103          46.000  
E03  25852417.998   135855413.557        2620.019          40.000  
G25  25398560.635   133470324.3562       4134.509          29.000  
> 2023 12 30 11 52 32.0000000  0 17                     
G24  19995268.269   105075839.9942        894.719          48.000  
G13  22321081.522   117298062.7182      -3089.264          44.000  
E05  21843179.133   114786687.071         222.272          47.000  
G15  20666091.005   108601049.2402      -2074.636          48.000  
E31  24695153.725   129773910.524       -1767.083          43.000  
E25  26161501.140   137479610.735        2958.898          41.000  
G10  23427264.156   123111106.8482       1346.777          43.000  
G22  22808995.647   119862100.3112      -2681.406          44.000  
G19  22426596.497   117852545.2442       2076.138          44.000  
G17  22676120.580   119163807.4912       -134.678          45.000  
G14  24133522.316   126822522.7102      -3217.968          41.000  
E09  25247361.712   132675824.905       -2337.343          44.000  
G23  22471445.406   118088242.6852      -1085.371          44.000  
E24  23358079.337   122747563.084         858.807          46.000  
G12  22551163.096   118507160.3072       3648.167          46.000  
E03  25851925.622   135852794.023        2619.499          40.000  
G25  25397772.932   133466189.8902       4134.173          29.000  
> 2023 12 30 11 52 33.0000000  0 17                     
G24  19995098.059   105074945.5882        893.892          48.000  
G13  22321669.419   117301152.6742      -3090.100          44.000  
E05  21843138.928   114786465.249         221.323          47.000  
G15  20666486.671   108603124.2722      -2075.680          48.000  
E31  24695486.186   129775677.940       -1767.729          43.000  
E25  26160938.545   137476652.213        2958.185          41.000  
G10  23427008.790   123109760.6572       1345.818          43.000  
G22  22809509.486   119864782.2822      -2682.334          44.000  
G19  22426200.133   117850469.4422       2075.311          44.000  
G17  22676147.105   119163942.7292       -135.726          45.000  
G14  24134133.877   126825740.9882      -3218.527          40.000  
E09  25247811.858   132678162.638       -2338.110          44.000  
G23  22471653.168   118089328.4412      -1086.548          44.000  
E24  23357915.305   122746704.653         857.881          46.000  
G12  22550468.019   118503512.3762       3647.499          46.000  
E03  25851431.467   135850174.980        2618.608          40.000  
G25  25396987.777   133462055.7952       4132.988          30.000  
> 2023 12 30 11 52 34.0000000  0 17                     
G24  19994927.571   105074051.6562        894.031          48.000  
G13  22322257.596   117304242.9352      -3090.071          44.000  
E05  21843096.699   114786243.848         221.399          47.000  
G15  20666881.919   108605199.8532      -2075.659          48.000  
E31  24695822.173   129777445.628       -1767.605          43.000  
E25  26160379.371   137473693.883        2958.589          41.000  
G10  23426753.877   123108415.1552       1345.397          43.000  
G22  22810021.232   119867464.4892      -2681.893          45.000  
G19  22425805.304   117848394.2012       2075.208          44.000  
G17  22676172.303   119164078.6052       -136.068          45.000  
G14  24134746.065   126828959.4492      -3218.374          40.000  
E09  25248258.060   132680500.633       -2337.887          44.000  
G23  22471859.709   118090414.8392      -1086.341          43.000  
E24  23357754.449   122745846.638         858.182          46.000  
G12  22549774.373   118499864.7512       3647.700          46.000  
E03  25850931.902   135847556.105        2619.161          40.000  
G25  25396198.853   133457921.6872       4133.960          30.000  
> 2023 12 30 11 52 35.0000000  0 17                     
G24  19994758.024   105073158.1582        893.158          48.000  
G13  22322846.088   117307333.4362      -3090.898          44.000  
E05  21843054.539   114786022.810         220.696          46.000  
G15  20667276.643   108607275.9402      -2076.542          48.000  
E31  24696158.264   129779213.500       -1768.006          43.000  
E25  26159814.437   137470735.693        2958.002          41.000  
G10  23426499.139   123107070.2112       1344.276          43.000  
G22  22810530.952   119870146.9092      -2682.590          45.000  
G19  22425410.754   117846319.4612       2074.300          44.000  
G17  22676198.094   119164215.0372       -137.022          45.000  
G14  24135359.475   126832177.9712      -3218.755          40.000  
E09  25248702.098   132682838.830       -2338.458          44.000  
G23  22472066.773   118091501.8262      -1087.541          44.000  
E24  23357591.080   122744988.975         857.352          46.000  
G12  22549079.645   118496217.4002       3647.043          46.000  
E03  25850432.442   135844937.415        2618.427          40.000  
G25  25395415.059   133453787.5512       4133.688          30.000  
> 2023 12 30 11 52 36.0000000  0 17                     
G24  19994587.082   105072265.0852        892.654          48.000  
G13  22323434.683   117310424.1632      -3090.819          44.000  
E05  21843012.938   114785802.140         220.336          46.000  
G15  20667672.099   108609352.5392      -2077.027          48.000  
E31  24696496.065   129780981.603       -1768.445          42.000  
E25  26159252.086   137467777.632        2957.738          42.000  
G10  23426242.865   123105725.8522       1343.945          43.000  
G22  22811041.616   119872829.5302      -2682.804          45.000  
G19  22425015.228   117844245.2262       2073.909          44.000  
G17  22676225.456   119164352.0692       -137.522          45.000  
G14  24135970.861   126835396.5692      -3218.427          40.000  
E09  25249147.532   132685177.224       -2338.729          44.000  
G23  22472275.164   118092589.3942      -1088.329          44.000  
E24  23357427.885   122744131.659         856.899          46.000  
G12  22548385.336   118492570.2982       3646.743          46.000  
E03  25849935.844   135842318.864        2618.263          40.000  
G25  25394626.099   133449653.4062       4134.407          30.000  
> 2023 12 30 11 52 37.0000000  0 17                     
G24  19994417.606   105071372.4062        892.724          48.000  
G13  22324022.477   117313514.6241      -3090.956          44.000  
E05  21842970.987   114785581.811         220.380          46.000  
G15  20668066.509   108611429.0951      -2076.891          48.000  
E31  24696832.261   129782749.860       -1768.002          42.000  
E25  26158689.806   137464819.680        2958.123          41.000  
G10  23425987.010   123104381.5371       1343.916          44.000  
G22  22811552.383   119875512.321       -2682.486          45.000  
G19  22424620.923   117842170.9651       2073.839          44.000  
G17  22676250.026   119164489.639        -137.429          45.000  
G14  24136582.526   126838615.242       -3218.507          40.000  
E09  25249592.513   132687515.798       -2338.396          45.000  
G23  22472482.682   118093677.469       -1088.156          44.000  
E24  23357264.726   122743274.650         857.248          46.000  
G12  22547692.248   118488922.9111       3647.122          46.000  
E03  25849436.977   135839700.422        2618.683          40.000  
G25  25393838.117   133445519.223        4134.507          30.000  
> 2023 12 30 11 52 38.0000000  0 17                     
G24  19994247.710   105070480.0522        892.201          48.000  
G13  22324610.863   117316605.704       -3091.104          44.000  
E05  21842928.513   114785361.739         219.977          47.000  
G15  20668461.617   108613506.563       -2077.660          48.000  
E31  24697168.736   129784518.225       -1768.264          43.000  
E25  26158127.280   137461861.755        2957.984          42.000  
G10  23425731.713   123103038.222        1343.263          44.000  
G22  22812062.698   119878195.232       -2682.958          45.000  
G19  22424225.326   117840097.598        2073.342          44.000  
G17  22676276.446   119164627.689        -137.999          45.000  
G14  24137195.518   126841833.880       -3218.525          41.000  
E09  25250037.493   132689854.459       -2338.704          45.000  
G23  22472689.641   118094766.035       -1088.699          44.000  
E24  23357101.880   122742417.909         856.659          46.000  
G12  22546998.288   118485276.188        3646.778          46.000  
E03  25848938.948   135837082.016        2618.455          41.000  
G25  25393050.275   133441384.934        4134.659          31.000  
> 2023 12 30 11 52 39.0000000  0 17                     
G24  19994078.129   105069588.1432        891.937          48.000  
G13  22325199.075   117319697.054       -3091.583          44.000  
E05  21842886.912   114785142.061         219.697          47.000  
G15  20668856.899   108615584.559       -2078.243          47.000  
E31  24697505.107   129786286.830       -1768.603          42.000  
E25  26157564.476   137458903.981        2958.071          42.000  
G10  23425476.416   123101695.515        1342.559          43.000  
G22  22812573.256   119880878.349       -2682.924          45.000  
G19  22423830.672   117838024.781        2072.673          44.000  
G17  22676303.249   119164766.345        -138.611          45.000  
G14  24137808.230   126845052.629       -3218.615          40.000  
E09  25250482.753   132692193.356       -2338.816          45.000  
G23  22472896.950   118095855.219       -1089.192          44.000  
E24  23356938.826   122741561.524         856.376          46.000  
G12  22546304.502   118481629.757        3646.421          46.000  
E03  25848440.814   135834463.782        2618.397          41.000  
G25  25392267.004   133437250.686        4134.341          31.000  
> 2023 12 30 11 52 40.0000000  0 17                     
G24  19993908.583   105068696.6552        890.920          48.000  
G13  22325787.147   117322788.629       -3092.276          43.000  
E05  21842845.171   114784922.734         218.870          47.000  
G15  20669252.496   108617663.025       -2078.926          47.000  
E31  24697841.791   129788055.611       -1769.163          42.000  
E25  26157001.357   137455946.323        2957.542          42.000  
G10  23425221.085   123100353.381        1341.735          43.000  
G22  22813083.675   119883561.673       -2683.811          45.000  
G19  22423436.053   117835952.437        2071.941          44.000  
G17  22676329.599   119164905.559        -139.889          45.000  
G14  24138420.697   126848271.441       -3219.135          40.000  
E09  25250927.385   132694532.429       -2339.459          45.000  
G23  22473104.154   118096944.950       -1090.365          44.000  
E24  23356775.875   122740705.477         855.561          46.000  
G12  22545610.716   118477983.550        3645.806          46.000  
E03  25847942.401   135831845.681        2617.759          41.000  
G25  25391479.127   133433116.304        4134.556          31.000  
> 2023 12 30 11 52 41.0000000  0 17                     
G24  19993739.246   105067805.7152        890.954          48.000  
G13  22326375.778   117325880.583       -3091.864          43.000  
E05  21842803.989   114784703.911         218.860          46.000  
G15  20669648.302   108619742.141       -2079.083          47.000  
E31  24698178.650   129789824.731       -1769.142          42.000  
E25  26156439.111   137452988.954        2957.681          42.000  
G10  23424966.102   123099011.960        1341.177          45.000  
G22  22813594.687   119886245.330       -2683.669          45.000  
G19  22423041.852   117833880.733        2071.827          43.000  
G17  22676356.228   119165045.482        -139.985          44.000  
G14  24139033.479   126851490.471       -3218.963          40.000  
E09  25251372.610   132696871.836       -2339.118          44.000  
G23  22473311.707   118098035.407       -1090.507          43.000  
E24  23356613.239   122739849.905         855.667          45.000  
G12  22544917.105   118474337.739        3645.879          46.000  
E03  25847444.337   135829227.894        2617.732          38.000  
G25  25390693.309   133428982.136        4133.963          29.000  
> 2023 12 30 11 52 42.0000000  0 17                     
G24  19993569.665   105066915.1632        890.500          48.000  
G13  22326964.060   117328972.739       -3091.942          44.000  
E05  21842762.841   114784485.416         218.570          47.000  
G15  20670044.003   108621821.728       -2079.639          47.000  
E31  24698515.544   129791594.026       -1769.296          42.000  
E25  26155876.342   137450031.680        2957.491          42.000  
G10  23424711.154   123097671.085        1340.716          44.000  
G22  22814105.769   119888929.143       -2683.931          45.000  
G19  22422647.757   117831809.526        2070.837          44.000  
G17  22676383.136   119165185.960        -140.688          45.000  
G14  24139646.052   126854709.554       -3218.852          40.000  
E09  25251818.218   132699211.423       -2339.401          45.000  
G23  22473519.260   118099126.403       -1091.352          44.000  
E24  23356450.883   122738994.658         855.217          46.000  
G12  22544223.389   118470692.158        3645.608          47.000  
E03  25846946.168   135826610.195        2617.930          40.000  
G25  25389909.969   133424847.836        4134.263          30.000  
> 2023 12 30 11 52 43.0000000  0 17                     
G24  19993400.328   105066025.0022        889.671          48.000  
G13  22327552.307   117332065.090       -3092.759          44.000  
E05  21842721.449   114784267.251         217.697          47.000  
G15  20670439.913   108623901.768       -2080.304          47.000  
E31  24698852.543   129793363.470       -1769.822          42.000  
E25  26155313.782   137447074.472        2957.130          42.000  
G10  23424455.893   123096330.748        1340.058          44.000  
G22  22814616.886   119891613.108       -2684.215          45.000  
G19  22422253.870   117829738.736        2070.386          44.000  
G17  22676409.835   119165326.939        -141.403          45.000  
G14  24140258.799   126857928.682       -3219.447          40.000  
E09  25252263.792   132701551.170       -2339.952          45.000  
G23  22473726.464   118100217.929       -1092.095          44.000  
E24  23356288.421   122738139.708         854.564          46.000  
G12  22543529.673   118467046.782        3645.066          47.000  
E03  25846448.278   135823992.606        2617.226          40.000  
G25  25389123.557   133420713.551        4133.419          31.000  
> 2023 12 30 11 52 44.0000000  0 17                     
G24  19993231.235   105065135.4882        889.343          49.000  
G13  22328141.147   117335157.918       -3092.937          45.000  
E05  21842680.022   114784049.664         217.553          47.000  
G15  20670836.138   108625982.535       -2080.793          48.000  
E31  24699189.402   129795133.344       -1769.640          43.000  
E25  26154751.117   137444117.636        2957.048          43.000  
G10  23424201.119   123094991.238        1339.273          45.000  
G22  22815128.212   119894297.515       -2684.366          46.000  
G19  22421859.914   117827668.716        2070.125          44.000  
G17  22676436.394   119165468.747        -141.755          45.000  
G14  24140871.476   126861148.099       -3218.883          41.000  
E09  25252709.192   132703891.335       -2339.927          45.000  
G23  22473934.086   118101310.251       -1092.484          44.000  
E24  23356125.960   122737285.313         854.292          47.000  
G12  22542836.411   118463401.904        3644.813          47.000  
E03  25845950.040   135821375.370        2617.551          41.000  
G25  25388337.564   133416579.469        4133.352          31.000  
> 2023 12 30 11 52 45.0000000  0 17                     
G24  19993061.968   105064246.1832        888.912          49.000  
G13  22328729.533   117338250.760       -3093.276          44.000  
E05  21842638.595   114783832.230         217.237          47.000  
G15  20671232.083   108628063.598       -2081.523          48.000  
E31  24699526.226   129796903.218       -1770.229          43.000  
E25  26154188.557   137441160.727        2957.019          43.000  
G10  23423946.311   123093652.094        1338.860          45.000  
G22  22815639.294   119896981.904       -2684.500          46.000  
G19  22421465.784   117825598.972        2069.348          44.000  
G17  22676463.407   119165610.914        -142.727          45.000  
G14  24141484.013   126864367.399       -3219.256          41.000  
E09  25253154.696   132706231.499       -2340.501          46.000  
G23  22474141.884   118102402.949       -1093.314          44.000  
E24  23355963.393   122736431.087         853.700          47.000  
G12  22542143.253   118459757.058        3644.524          47.000  
E03  25845451.522   135818758.096        2617.085          41.000  
G25  25387550.176   133412445.043        4134.193          31.000  
> 2023 12 30 11 52 46.0000000  0 17                     
G24  19992892.526   105063357.4412        888.236          48.000  
G13  22329318.513   117341343.958       -3093.266          44.000  
E05  21842597.238   114783615.307         216.453          47.000  
G15  20671627.924   108630145.279       -2081.940          48.000  
E31  24699863.364   129798673.417       -1770.674          43.000  
E25  26153626.171   137438204.082        2956.324          43.000  
G10  23423691.782   123092313.672        1337.888          44.000  
G22  22816150.237   119899666.630       -2685.090          46.000  
G19  22421071.758   117823529.881        2068.581          44.000  
G17  22676489.862   119165753.782        -143.306          45.000  
G14  24142097.004   126867586.921       -3219.912          41.000  
E09  25253600.165   132708571.973       -2340.732          46.000  
G23  22474349.820   118103496.330       -1094.106          44.000  
E24  23355801.106   122735577.327         853.332          47.000  
G12  22541449.921   118456112.606        3644.089          47.000  
E03  25844953.248   135816141.082        2617.001          41.000  
G25  25386764.288   133408310.766        4134.293          31.000  
> 2023 12 30 11 52 47.0000000  0 17                     
G24  19992723.364   105062469.1442        887.879          48.000  
G13  22329907.213   117344437.439       -3093.836          44.000  
E05  21842555.916   114783398.765         216.196          47.000  
G15  20672024.114   108632227.507       -2082.730          48.000  
E31  24700200.537   129800443.844       -1770.770          42.000  
E25  26153063.751   137435247.585        2956.102          43.000  
G10  23423437.009   123090975.870        1337.339          44.000  
G22  22816661.179   119902351.584       -2685.081          45.000  
G19  22420678.116   117821461.288        2068.123          44.000  
G17  22676516.875   119165897.265        -144.028          44.000  
G14  24142709.647   126870806.542       -3219.962          41.000  
E09  25254045.425   132710912.692       -2341.090          45.000  
G23  22474558.071   118104590.320       -1094.579          44.000  
E24  23355639.064   122734723.932         852.898          47.000  
G12  22540756.973   118452468.439        3643.729          47.000  
E03  25844455.254   135813524.265        2616.556          41.000  
G25  25385975.398   133404176.512        4134.091          29.000  
> 2023 12 30 11 52 48.0000000  0 17                     
G24  19992554.376   105061581.2012        887.706          48.000  
G13  22330495.774   117347531.087       -3093.517          44.000  
E05  21842514.699   114783182.525         215.840          47.000  
G15  20672420.443   108634310.166       -2083.133          48.000  
E31  24700537.466   129802214.412       -1770.910          42.000  
E25  26152501.051   137432291.158        2956.272          43.000  
G10  23423182.794   123089638.584        1336.704          44.000  
G22  22817171.737   119905036.684       -2685.177          45.000  
G19  22420284.439   117819393.157        2067.725          43.000  
G17  22676544.027   119166041.247        -144.405          43.000  
G14  24143322.289   126874026.185       -3219.610          40.000  
E09  25254491.033   132713253.524       -2340.839          45.000  
G23  22474766.113   118105684.816       -1094.862          44.000  
E24  23355476.811   122733870.818         852.830          47.000  
G12  22540063.641   118448824.460        3643.628          47.000  
E03  25843957.993   135810907.510        2616.513          41.000  
G25  25385184.275   133400042.126        4134.696          28.000  
> 2023 12 30 11 52 49.0000000  0 17                     
G24  19992385.458   105060693.792         887.380          48.000  
G13  22331084.789   117350625.091       -3094.359          44.000  
E05  21842473.586   114782966.732         215.765          47.000  
G15  20672816.773   108636393.403       -2083.331          48.000  
E31  24700874.744   129803985.257       -1770.655          42.000  
E25  26151938.212   137429334.953        2956.125          43.000  
G10  23422928.545   123088301.979        1336.308          43.000  
G22  22817682.540   119907722.081       -2685.647          44.000  
G19  22419891.320   117817325.618        2067.365          43.000  
G17  22676571.459   119166185.901        -144.730          44.000  
G14  24143935.315   126877246.005       -3219.663          40.000  
E09  25254936.502   132715594.680       -2341.227          45.000  
G23  22474974.573   118106779.992       -1095.538          44.000  
E24  23355314.524   122733018.156         852.690          46.000  
G12  22539370.448   118445180.833        3643.632          47.000  
E03  25843460.557   135808290.994        2616.469          41.000  
G25  25384396.154   133395907.908        4134.567          28.000  
> 2023 12 30 11 52 50.0000000  0 18                     
G24  19992216.505   105059806.982         886.588          47.000  
G13  22331673.594   117353719.485       -3094.636          43.000  
E05  21842432.788   114782751.518         214.767          46.000  
G15  20673213.591   108638477.343       -2084.314          47.000  
E31  24701211.917   129805756.533       -1771.553          42.000  
E25  26151375.931   137426379.087        2955.381          42.000  
G10  23422674.016   123086966.150        1335.246          43.000  
G22  22818193.099   119910407.866       -2686.245          44.000  
G19  22419497.958   117815258.772        2066.454          43.000  
G17  22676598.891   119166331.338        -145.996          43.000  
G14  24144548.132   126880466.070       -3220.046          40.000  
G21  26082060.850                        -805.658          12.000  
E09  25255382.076   132717936.204       -2341.681          44.000  
G23  22475183.173   118107875.912       -1096.284          44.000  
E24  23355152.447   122732166.016         851.891          46.000  
G12  22538677.500   118441537.654        3642.927          46.000  
E03  25842962.597   135805674.832        2615.966          40.000  
G25  25383605.484   133391773.893        4133.256          28.000  
> 2023 12 30 11 52 51.0000000  0 18                     
G24  19992048.110   105058920.708         885.613          47.000  
G13  22332262.504   117356814.247       -3095.421          43.000  
E05  21842391.605   114782536.743         214.219          46.000  
G15  20673610.339   108640561.882       -2085.147          47.000  
E31  24701549.264   129807528.093       -1772.110          42.000  
E25  26150813.126   137423423.435        2955.133          42.000  
G10  23422419.592   123085631.003        1334.572          43.000  
G22  22818704.041   119913093.952       -2686.543          44.000  
G19  22419104.979   117813192.532        2065.666          43.000  
G17  22676626.707   119166477.453        -146.821          44.000  
G14  24145161.018   126883686.332       -3220.699          40.000  
G21  26082209.107                        -794.428          16.000  
E09  25255827.929   132720278.034       -2342.318          45.000  
G23  22475391.912   118108972.540       -1097.367          44.000  
E24  23354990.648   122731314.342         851.006          46.000  
G12  22537984.238   118437894.821        3642.338          46.000  
E03  25842465.161   135803058.905        2615.636          40.000  
G25  25382818.724   133387639.747        4134.151          28.000  
> 2023 12 30 11 52 52.0000000  0 18                     
G24  19991879.681   105058035.145         885.106          48.000  
G13  22332851.310   117359909.521       -3095.772          43.000  
E05  21842350.806   114782322.633         213.711          46.000  
G15  20674007.157   108642647.215       -2085.948          47.000  
E31  24701886.612   129809300.136       -1772.445          42.000  
E25  26150250.636   137420468.191        2955.178          42.000  
G10  23422165.586   123084296.746        1333.775          42.000  
G22  22819214.809   119915780.517       -2686.767          44.000  
G19  22418712.314   117811127.114        2064.635          43.000  
G17  22676654.522   119166624.437        -147.526          44.000  
G14  24145773.835   126886906.977       -3220.854          40.000  
G21  26082352.513                        -794.428          15.000  
E09  25256273.678   132722620.360       -2342.834          44.000  
G23  22475600.757   118110070.002       -1098.108          44.000  
E24  23354828.326   122730463.286         850.614          46.000  
G12  22537291.185   118434252.551        3641.808          47.000  
E03  25841967.307   135800443.431        2615.252          40.000  
G25  25382038.036   133383506.111        4133.442          28.000  
> 2023 12 30 11 52 53.0000000  0 18                     
G24  19991711.147   105057150.100         885.343          48.000  
G13  22333440.289   117363005.157       -3095.360          43.000  
E05  21842310.252   114782109.001         213.752          46.000  
G15  20674404.079   108644733.134       -2085.810          47.000  
E31  24702223.855   129811072.470       -1771.924          42.000  
E25  26149687.762   137417513.225        2955.184          41.000  
G10  23421911.337   123082963.179        1333.909          42.000  
G22  22819726.170   119918467.415       -2686.552          44.000  
G19  22418319.789   117809062.276        2064.928          43.000  
G17  22676682.896   119166772.095        -147.604          43.000  
G14  24146386.757   126890127.815       -3220.822          40.000  
G21  26082498.501                        -806.391          14.000  
E09  25256719.705   132724962.990       -2342.581          44.000  
G23  22475809.740   118111168.147       -1097.901          43.000  
E24  23354666.179   122729612.690         850.781          46.000  
G12  22536598.377   118430610.636        3642.101          47.000  
E03  25841469.382   135797828.205        2615.529          40.000  
G25  25381252.043   133379372.384        4134.043          28.000  
> 2023 12 30 11 52 54.0000000  0 14                     
E05  21842270.221                         215.817          45.000  
G15  20674801.491                       -2086.568          47.000  
E31  24702554.781                       -1771.572          42.000  
E25  26149126.039                        2955.702          40.000  
G10  23421653.527                        1333.587          42.000  
G22  22820236.798                       -2683.989          43.000  
G19  22417929.392                        2064.034          37.000  
G17  22676710.468                        -147.582          42.000  
G14  24146999.538                       -3216.290          38.000  
E09  25257161.091                       -2342.358          43.000  
E24  23354501.100                         852.112          44.000  
G12  22535906.022                        3640.541          46.000  
E03  25840966.397                        2618.671          38.000  
G25  25380466.016                        4138.490          28.000  
> 2023 12 30 11 52 55.0000000  0 17                     
G24  19991372.822   105055372.9223        884.084          47.000  
G13  22334619.121   117369214.7173      -3096.262          42.000  
E05  21842226.805   114781686.4451        212.653          45.000  
G15  20675199.181   108648904.6233      -2087.105          47.000  
E31  24702893.734   129814592.4501      -1772.950          41.000  
E25  26148563.270   137411637.2611       2954.597          41.000  
G10  23421398.161   123080277.8553       1332.403          42.000  
G22  22820748.229   119923840.9223      -2687.414          43.000  
G19  22417535.611   117804944.7343       2063.490          43.000  
G17  22676739.679   119167070.7693       -149.157          43.000  
G14  24147611.657   126896554.8153      -3220.893          39.000  
E09  25257609.003   132729641.4641      -2343.217          44.000  
G23  22476228.162   118113375.8143      -1099.651          43.000  
E24  23354341.326   122727902.1561        849.784          45.000  
G12  22535212.864   118423342.7083       3641.226          46.000  
E03  25840471.125   135792602.7891       2614.733          39.000  
G25  25379678.871   133371112.1613       4133.736          29.000  
> 2023 12 30 11 52 56.0000000  0 17                     
G24  19991202.857                         885.251          42.000  
G13  22335208.555                       -3097.224          38.000  
E05  21842185.658                         205.614          40.000  
G15  20675593.905                       -2087.726          43.000  
E31  24703228.499                       -1771.817          36.000  
E25  26147995.614                        2964.506          34.000  
G10  23421144.958                        1340.210          35.000  
G22  22821259.800                       -2686.538          39.000  
G19  22417143.086                        2063.895          39.000  
G17  22676765.820                        -148.591          39.000  
G14  24148224.683                       -3221.099          30.000  
E09  25258056.671                       -2357.543          38.000  
G23  22476435.226                       -1099.373          40.000  
E24  23354178.515                         850.561          41.000  
G12  22534520.614                        3642.236          46.000  
E03  25839976.690                        2617.150          34.000  
G25  25378891.029   133366971.9343       4134.085          21.000  
> 2023 12 30 11 52 57.0000000  0 17                     
G24  19991035.753   105053601.3163        883.260          47.000  
G13  22335795.336   117375396.5903      -3096.116          42.000  
E05  21842143.323   114781247.6971        212.260          45.000  
G15  20675992.782   108653074.4593      -2088.004          47.000  
E31  24703571.291   129818153.5421      -1773.093          41.000  
E25  26147438.045   137405724.1641       2954.825          41.000  
G10  23420892.279   123077618.7533       1331.074          42.000  
G22  22821771.650   119929219.0603      -2687.533          43.000  
G19  22416752.340   117800828.0683       2062.784          43.000  
G17  22676791.541   119167343.0913       -149.953          42.000  
G14  24148838.198   126903001.0073      -3220.975          40.000  
E09  25258502.489   132734336.0801      -2343.225          44.000  
G23  22476647.490   118115579.6123      -1100.700          43.000  
E24  23354016.158   122726193.3671        849.321          45.000  
G12  22533825.363   118416051.1473       3640.865          45.000  
E03  25839474.857   135787367.3331       2614.756          39.000  
G25  25378105.315   133362842.6782       4134.523          32.000  
> 2023 12 30 11 52 58.0000000  0 17                     
G24  19990869.209   105052718.1072        882.998          47.000  
G13  22336383.094   117378493.1302      -3096.799          42.000  
E05  21842106.678   114781035.588         212.124          45.000  
G15  20676389.844   108655162.5972      -2088.289          47.000  
E31  24703903.089   129819926.609       -1773.024          41.000  
E25  26146870.459   137402769.547        2954.656          41.000  
G10  23420639.984   123076287.7982       1330.846          42.000  
G22  22822281.999   119931906.6642      -2687.556          43.000  
G19  22416358.070   117798765.4712       2062.503          43.000  
G17  22676822.428   119167493.3432       -150.285          42.000  
G14  24149452.620   126906221.9522      -3220.935          40.000  
E09  25258945.027   132736679.418       -2343.216          44.000  
G23  22476857.486   118116680.3192      -1100.597          43.000  
E24  23353855.163   122725344.212         849.087          45.000  
G12  22533131.716   118412410.2252       3641.001          45.000  
E03  25838980.667   135784752.531        2615.058          39.000  
G25  25377321.382   133358708.6072       4135.124          32.000  
> 2023 12 30 11 52 59.0000000  0 14                     
G24  19990699.592                         884.277          46.000  
E05  21842066.787                         212.354          44.000  
G15  20676788.826                       -2088.128          46.000  
E31  24704242.182                       -1773.771          40.000  
E25  26146313.204                        2955.596          39.000  
G10  23420386.118                        1328.449          40.000  
G22  22822795.210                       -2688.710          43.000  
G19  22415968.197                        2061.194          42.000  
G14  24150067.182                       -3218.596          38.000  
E09  25259392.450                       -2343.713          42.000  
E24  23353695.703                         848.016          44.000  
G12  22532436.884                        3640.286          43.000  
E03  25838483.231                        2615.932          39.000  
G25  25376530.503                        4138.183          26.000  
> 2023 12 30 11 53 00.0000000  0 16                     
G24  19990535.037                         882.420          34.000  
G13  22337564.160                       -3074.092          12.000  
E05  21842021.730                         211.598          37.000  
G15  20677188.436                       -2074.996          34.000  
E31  24704581.798                       -1795.739          29.000  
E25  26145749.946   137396853.5441       2953.557          34.000  
G10  23420131.833                        1325.648          29.000  
G22  22823307.374                       -2690.129          24.000  
G19  22415572.741                        2057.508          10.000  
G14  24150676.962   126912663.3983      -3217.278          33.000  
E09  25259836.489                       -2312.694          33.000  
G23  22477276.292                       -1108.973          26.000  
E24  23353530.693                         848.240          35.000  
G12  22531744.529   118405115.7373       3636.355          27.000  
E03  25837981.956                        2619.353          30.000  
G25  25375747.477   133350452.5293       4125.872          22.000  
> 2023 12 30 11 53 01.0000000  0  4                     
G10  23419879.747                        1324.890          18.000  
E24  23353365.021                         843.760          13.000  
E03  25837488.394                        2620.314          14.000  
G25  25374966.300                        4093.163          18.000  
> 2023 12 30 11 53 02.0000000  0 16                     
G13  22338745.400                       -3096.924          44.000  
E05  21841938.597   114780172.4681        210.265          47.000  
G15  20677981.374   108663524.7893      -2090.554          49.000  
E31  24705253.178   129826991.5521      -1773.911          43.000  
E25  26144625.768   137390946.0271       2954.172          42.000  
G10  23419628.429   123070977.9193       1328.234          44.000  
G22  22824330.619   119942666.1993      -2688.531          45.000  
G19  22414789.575   117790513.2383       2060.036          45.000  
G17  22676931.492   119168078.7063       -152.451          44.000  
G14  24151903.538   126919109.6273      -3221.467          41.000  
E09  25260730.638   132746045.3891      -2344.373          46.000  
G23  22477695.376   118121085.6163      -1103.359          45.000  
E24  23353209.260   122721952.6831        847.662          47.000  
G12  22530359.959   118397839.7613       3639.756          46.000  
E03  25836989.632   135774306.4981       2614.070          40.000  
G25  25374157.099                        4130.617          31.000  
> 2023 12 30 11 53 03.0000000  0 17                     
G24  19990030.097   105048316.9283        880.752          49.000  
G13  22339326.213   117393951.2953      -3097.953          43.000  
E05  21841905.826   114779962.047         210.004          47.000  
G15  20678378.332   108665615.2872      -2090.957          49.000  
E31  24705587.384   129828765.503       -1774.432          43.000  
E25  26144059.962   137387991.951        2953.664          43.000  
G10  23419375.506   123069649.7352       1327.707          44.000  
G22  22824842.574   119945354.6572      -2688.749          45.000  
G19  22414398.446   117788453.0172       2059.724          45.000  
G17  22676967.858   119168231.7142       -153.720          44.000  
G14  24152515.657   126922330.8392      -3221.656          41.000  
E09  25261176.177   132748389.580       -2344.534          45.000  
G23  22477903.069   118122189.0992      -1104.064          45.000  
E24  23353051.510   122721105.104         847.206          47.000  
G12  22529667.325   118394199.9852       3639.415          46.000  
E03  25836489.893   135771692.303        2613.899          41.000  
G25  25373380.006   133338011.7153       4134.354          32.000  
> 2023 12 30 11 53 04.0000000  0 17                     
G24  19989864.844   105047436.1152        880.272          49.000  
G13  22339919.346   117397049.0862      -3098.242          43.000  
E05  21841863.247   114779751.978         209.702          47.000  
G15  20678776.301   108667706.2622      -2091.321          49.000  
E31  24705923.650   129830539.622       -1774.546          42.000  
E25  26143500.438   137385037.964        2953.626          43.000  
G10  23419122.478   123068322.1332       1327.388          45.000  
G22  22825352.679   119948043.3012      -2688.995          45.000  
G19  22414006.339   117786393.2772       2059.443          45.000  
G17  22676997.873   119168385.2482       -154.072          45.000  
G14  24153126.868   126925552.1002      -3221.554          41.000  
E09  25261619.796   132750733.946       -2344.703          45.000  
G23  22478111.913   118123293.1052      -1104.591          44.000  
E24  23352887.967   122720257.876         846.794          47.000  
G12  22528973.504   118390560.4492       3639.255          46.000  
E03  25835992.282   135769078.253        2613.719          41.000  
G25  25372597.224   133333877.4242       4134.101          31.000  
> 2023 12 30 11 53 05.0000000  0 18                     
G24  19989695.716   105046556.1702        879.378          49.000  
G13  22340510.594   117400147.5622      -3098.764          43.000  
E05  21841826.183   114779542.738         208.752          47.000  
G15  20679175.457   108669798.1982      -2092.531          49.000  
E31  24706271.852   129832314.401       -1775.102          43.000  
E14  31226267.135   164095151.0641       2494.473          38.000  
E25  26142940.251   137382084.572        2953.002          43.000  
G10  23418872.102   123066995.5642       1326.123          43.000  
G22  22825865.192   119950732.6082      -2689.761          45.000  
G19  22413613.116   117784334.5262       2058.080          45.000  
G17  22677028.411   119168539.8252       -155.252          44.000  
G14  24153738.010   126928773.9032      -3222.063          40.000  
E09  25262069.837   132753078.976       -2345.429          45.000  
G23  22478321.734   118124398.1622      -1105.846          44.000  
E24  23352727.390   122719411.443         846.016          47.000  
G12  22528279.963   118386921.6282       3638.386          46.000  
E03  25835498.336   135766464.771        2613.238          41.000  
G25  25371812.767   133329743.5852       4133.007          32.000  
> 2023 12 30 11 53 06.0000000  0 18                     
G24  19989529.032   105045677.2352        878.770          49.000  
G13  22341099.853   117403246.8832      -3099.349          43.000  
E05  21841787.513   114779334.429         208.320          47.000  
G15  20679573.253   108671891.2122      -2093.115          49.000  
E31  24706609.793   129834089.965       -1775.387          43.000  
E14  31225792.663   164092656.492        2494.869          38.000  
E25  26142380.832   137379131.881        2952.948          43.000  
G10  23418618.620   123065670.1682       1325.164          44.000  
G22  22826377.251   119953422.6852      -2690.154          45.000  
G19  22413221.289   117782276.8292       2057.471          45.000  
G17  22677058.285   119168695.5392       -155.942          45.000  
G14  24154352.955   126931996.3712      -3222.204          40.000  
E09  25262516.493   132755424.790       -2345.997          45.000  
G23  22478533.999   118125504.3502      -1106.330          44.000  
E24  23352565.312   122718565.957         845.337          47.000  
G12  22527588.794   118383283.6462       3637.946          46.000  
E03  25835001.354   135763852.038        2612.567          41.000  
G25  25371025.134   133325610.2292       4133.333          32.000  
> 2023 12 30 11 53 07.0000000  0 18                     
G24  19989361.440   105044798.5422        878.377          49.000  
G13  22341689.670   117406346.2322      -3099.793          43.000  
E05  21841747.622   114779126.312         207.726          47.000  
G15  20679971.990   108673984.5492      -2093.696          49.000  
E31  24706947.734   129835865.553       -1775.899          43.000  
E14  31225316.552   164090161.295        2495.296          38.000  
E25  26141818.028   137376179.149        2952.565          43.000  
G10  23418367.477   123064345.1422       1324.521          44.000  
G22  22826888.752   119956112.7812      -2690.300          45.000  
G19  22412829.496   117780219.4562       2057.021          45.000  
G17  22677087.916   119168851.6682       -156.776          45.000  
G14  24154966.086   126935218.7282      -3222.525          40.000  
E09  25262963.079   132757770.603       -2346.092          45.000  
G23  22478744.623   118126610.9402      -1107.094          44.000  
E24  23352406.760   122717720.603         845.086          47.000  
G12  22526896.509   118379645.7432       3637.596          46.000  
E03  25834503.814   135761239.298        2612.567          41.000  
G25  25370238.338   133321476.6942       4133.355          31.000  
> 2023 12 30 11 53 08.0000000  0 18                     
G24  19989194.651   105043920.4192        877.648          49.000  
G13  22342279.383   117409445.9552      -3099.981          43.000  
E05  21841707.836   114778918.683         207.310          47.000  
G15  20680369.715   108676078.5132      -2094.194          49.000  
E31  24707286.617   129837641.466       -1776.217          43.000  
E14  31224842.569   164087665.812        2495.440          38.000  
E25  26141255.328   137373226.690        2952.435          43.000  
G10  23418115.670   123063020.8662       1323.690          44.000  
G22  22827400.217   119958803.2182      -2690.750          45.000  
G19  22412438.018   117778162.7432       2056.332          45.000  
G17  22677116.883   119169008.5022       -157.419          45.000  
G14  24155579.810   126938441.2902      -3222.738          40.000  
E09  25263409.909   132760116.764       -2346.272          45.000  
G23  22478955.701   118127718.2402      -1107.723          44.000  
E24  23352245.590   122716875.745         844.625          47.000  
G12  22526204.887   118376008.2212       3637.154          46.000  
E03  25834006.971   135758626.795        2612.293          41.000  
G25  25369453.951   133317343.3042       4133.346          32.000  
> 2023 12 30 11 53 09.0000000  0 18                     
G24  19989027.547   105043042.8122        877.121          48.000  
G13  22342869.584   117412546.0402      -3100.542          42.000  
E05  21841668.398   114778711.539         206.515          47.000  
G15  20680768.627   108678173.0942      -2095.046          49.000  
E31  24707624.383   129839417.701       -1776.663          43.000  
E14  31224367.330   164085169.989        2495.941          38.000  
E25  26140694.164   137370274.477        2951.804          43.000  
G10  23417864.317   123061697.3092       1322.964          44.000  
G22  22827912.137   119961493.9682      -2691.355          45.000  
G19  22412046.854   117776106.6322       2055.526          44.000  
G17  22677147.665   119169166.0142       -158.324          45.000  
G14  24156193.919   126941664.0542      -3223.117          40.000  
E09  25263856.809   132762463.241       -2346.986          45.000  
G23  22479167.407   118128826.2162      -1108.649          44.000  
E24  23352084.175   122716031.342         843.958          47.000  
G12  22525512.847   118372371.0692       3636.648          46.000  
E03  25833509.326   135756014.586        2611.674          41.000  
G25  25368666.772   133313209.9872       4132.718          32.000  
