     2.11           OBSERVATION DATA    G (GPS)             RINEX VERSION / TYPE
teqc  2019Feb25                         20230828 19:34:05UTCPGM / RUN BY / DATE
Linux 2.6.32-573.12.1.x86_64|x86_64|gcc|Linux 64|=+         COMMENT
teqc  2019Feb25                         20230828 19:34:05UTCCOMMENT
     2.11           OBSERVATION DATA    M (MIXED)           COMMENT
teqc  2019Feb25     IGN-RGP             20230828 12:02:13UTCCOMMENT
teqc  2019Feb25     Administrateur RGP  20230828 12:02:13UTCCOMMENT
teqc  2019Feb25     IGN-RGP             20230828 12:02:11UTCCOMMENT
teqc  2019Feb25     IGN-RGP             20230828 12:02:10UTCCOMMENT
BIT 2 OF LLI FLAGS DATA COLLECTED UNDER A/S CONDITION       COMMENT
IGNF                                                        MARKER NAME
10001M009                                                   MARKER NUMBER
Automatic           IGN                                     OBSERVER / AGENCY
1834194             LEICA GR50          4.51                REC # / TYPE / VERS
5000113963          TRM57971.00     NONE                    ANT # / TYPE
  4201694.1440   177888.8370  4779371.7670                  APPROX POSITION XYZ
        0.0000        0.0000        0.0000                  ANTENNA: DELTA H/E/N
     1     1                                                WAVELENGTH FACT L1/2
    21    L1    L2    C1    P1    P2    D1    D2    S1    S2# / TYPES OF OBSERV
          L5    C5    D5    S5    L7    C7    D7    S7    L8# / TYPES OF OBSERV
          C8    D8    S8                                    # / TYPES OF OBSERV
    30.0000                                                 INTERVAL
DefaultJobName                                              COMMENT
DefaultUserDiscription                                      COMMENT
Project creator:                                            COMMENT
 SNR is mapped to RINEX snr flag value [0-9]                COMMENT
  L1 & L2: min(max(int(snr_dBHz/6), 0), 9)                  COMMENT
    18                                                      LEAP SECONDS
Forced Modulo Decimation to 30 seconds                      COMMENT
teqc_2019 edited: all GLONASS satellites excluded           COMMENT
teqc_2019 edited: all SBAS satellites excluded              COMMENT
teqc_2019 edited: all Galileo satellites excluded           COMMENT
  2023     8    28    11     0    0.0000000     GPS         TIME OF FIRST OBS
                                                            END OF HEADER
 23  8 28 11  0  0.0000000  0 11G02G03G04G06G09G12G17G19G21G22G31
 120553442.877 8  93937725.57647  22940556.540                    22940553.780
     -2729.514       -2126.896          48.450          42.700



 106164230.039 8  82725403.55448  20202370.960                    20202371.520
      -513.555        -400.173          51.400          51.450    79278509.938 9
  20202373.180        -383.415          56.700


 112985833.529 8  88040951.27347  21500473.860                    21500474.300
      2616.755        2039.030          48.450          45.300    84372608.377 8
  21500479.580        1954.159          52.050


 125108469.306 7  97487133.94647  23807349.300                    23807353.920
      3328.499        2593.638          43.650          43.000    93425179.245 7
  23807355.360        2485.466          46.800


 123224563.014 7  96019182.51647  23448842.120                    23448845.520
      3680.378        2867.833          43.350          43.600    92018401.453 8
  23448846.700        2748.238          48.200


 133620672.039 5 104120007.78145  25427169.060                    25427169.920
       636.277         495.785          33.050          31.350



 112922892.396 8  87991864.51048  21488510.220                    21488507.900
      -241.739        -188.368          50.050          50.050



 114000123.801 8  88831263.99547  21693499.020                    21693496.700
      1418.686        1105.471          48.600          45.850



 124561470.216 7  97060877.15046  23703265.600                    23703265.100
     -2842.946       -2215.286          45.550          40.200



 135269803.183 6 105405087.76945  25740994.620                    25740995.020
     -2544.089       -1982.408          36.350          35.200



 123322783.542 7  96095711.01447  23467535.340                    23467536.460
      1608.768        1253.588          45.250          45.050



 23  8 28 11  0 30.0000000  0 11G02G03G04G06G09G12G17G19G21G22G31
 120635463.166 8  94001637.40747  22956164.640                    22956161.540
     -2738.139       -2133.618          48.250          44.100



 106179837.968 8  82737565.56148  20205341.100                    20205341.760
      -526.729        -410.438          51.650          51.600    79290165.193 9
  20205343.200        -393.303          56.750


 112907544.904 8  87979947.18447  21485576.060                    21485576.440
      2602.761        2028.128          48.250          45.600    84314146.135 8
  21485581.640        1943.586          52.200


 125008665.092 7  97409364.49347  23788357.060                    23788361.860
      3325.494        2591.296          43.850          43.500    93350650.205 7
  23788363.340        2483.413          47.100


 123114251.084 7  95933225.27147  23427850.200                    23427853.640
      3674.220        2863.031          43.850          44.150    91936025.785 7
  23427854.780        2743.669          47.850


 133601876.161 5 104105368.36345  25423594.880                    25423596.100
       616.749         480.578          35.850          35.500



 112930429.354 8  87997737.44248  21489944.540                    21489942.220
      -260.498        -202.985          50.300          50.150



 113957876.934 8  88798344.38147  21685459.740                    21685457.560
      1398.127        1089.451          48.900          46.650



 124646841.320 7  97127399.96646  23719511.360                    23719511.020
     -2848.257       -2219.427          44.850          39.750



 135346166.195 6 105464591.32245  25755525.920                    25755526.460
     -2546.225       -1984.074          39.300          33.600



 123274788.118 7  96058312.05647  23458402.060                    23458402.760
      1591.550        1240.171          45.200          44.950



 23  8 28 11  1  0.0000000  0 11G02G03G04G06G09G12G17G19G21G22G31
 120717741.482 8  94065750.29347  22971821.840                    22971818.900
     -2746.606       -2140.216          48.400          42.700



 106195841.277 8  82750035.65848  20208386.420                    20208387.140
      -539.732        -420.571          51.450          51.350    79302115.703 9
  20208388.440        -403.054          56.650


 112829677.604 8  87919271.38547  21470758.420                    21470758.600
      2588.822        2017.265          48.700          45.150    84255998.503 8
  21470763.760        1933.209          52.000


 124908947.018 7  97331662.15647  23769381.200                    23769386.080
      3322.713        2589.128          43.850          43.750    93276185.472 7
  23769387.580        2481.244          47.200


 123004123.323 7  95847411.51847  23406893.480                    23406897.000
      3668.112        2858.272          43.200          43.400    91853787.629 7
  23406897.740        2739.114          47.150


 133583666.804 6 104091179.27146  25420130.120                    25420131.500
       597.289         465.428          37.050          36.500



 112938532.015 8  88004051.18748  21491486.500                    21491484.200
      -279.246        -217.595          50.400          50.550



 113916250.008 8  88765907.83447  21677538.380                    21677536.320
      1377.430        1073.321          48.850          46.400



 124732375.948 7  97194050.22946  23735788.240                    23735787.860
     -2853.662       -2223.637          44.700          41.550



 135422606.882 6 105524155.52245  25770072.020                    25770072.520
     -2549.312       -1986.475          40.150          34.500



 123227305.951 7  96021313.03947  23449366.560                    23449366.800
      1574.537        1226.914          45.600          45.700



 23  8 28 11  1 30.0000000  0 11G02G03G04G06G09G12G17G19G21G22G31
 120800273.015 8  94130060.48847  22987527.300                    22987524.420
     -2755.283       -2146.978          49.100          43.250



 106212235.537 8  82762810.39848  20211506.080                    20211506.880
      -553.034        -430.937          51.500          51.450    79314358.156 9
  20211508.180        -413.007          56.900


 112752229.890 8  87858922.55347  21456020.640                    21456020.860
      2574.505        2006.107          49.100          45.650    84198164.214 8
  21456025.860        1922.529          52.250


 124809313.096 7  97254025.38647  23750421.380                    23750426.140
      3319.611        2586.712          43.600          43.500    93201783.588 7
  23750427.860        2478.989          47.850


 122894178.309 7  95761740.18547  23385971.460                    23385975.040
      3661.745        2853.311          43.550          43.750    91771685.960 7
  23385975.600        2734.371          47.700


 133566026.380 6 104077433.41346  25416773.640                    25416775.020
       578.671         450.915          38.900          39.300



 112947196.199 8  88010802.48748  21493135.280                    21493133.160
      -298.217        -232.378          50.650          50.650



 113875241.062 8  88733952.83447  21669734.640                    21669732.580
      1356.681        1057.154          48.400          46.300



 124818069.394 7  97260824.22446  23752095.220                    23752094.960
     -2859.191       -2227.944          46.100          39.400



 135499119.000 6 105583775.39546  25784631.960                    25784632.300
     -2551.441       -1988.139          38.550          37.150



 123180335.732 7  95984712.93447  23440428.520                    23440428.380
      1556.980        1213.234          45.600          45.550



 23  8 28 11  2  0.0000000  0 11G02G03G04G06G09G12G17G19G21G22G31
 120883057.344 8  94194567.67647  23003280.760                    23003278.100
     -2764.268       -2153.978          48.700          43.600



 106229020.457 8  82775889.54648  20214700.120                    20214700.980
      -566.639        -441.537          51.550          51.300    79326892.336 9
  20214702.300        -423.085          56.450


 112675204.216 8  87798902.57847  21441363.140                    21441363.380
      2559.840        1994.682          48.650          46.700    84140645.067 8
  21441368.040        1911.605          51.850


 124709765.443 7  97176455.84247  23731477.980                    23731482.620
      3316.311        2584.141          43.100          43.400    93127446.133 7
  23731484.420        2476.403          47.750


 122784418.751 7  95676213.33847  23365084.860                    23365088.400
      3654.899        2847.979          42.650          42.650    91689722.760 7
  23365088.860        2729.257          47.000


 133548955.999 6 104064131.89346  25413525.460                    25413526.520
       559.198         435.739          38.450          37.950



 112956422.223 8  88017991.58048  21494890.940                    21494888.980
      -317.540        -247.434          50.400          50.200



 113834851.921 7  88702480.80847  21662048.740                    21662046.700
      1335.313        1040.506          47.950          46.700



 124903921.386 7  97327721.75346  23768432.340                    23768432.320
     -2865.099       -2232.550          44.550          41.100



 135575700.372 6 105643449.11846  25799204.940                    25799205.200
     -2554.554       -1990.552          38.250          37.100



 123133880.493 7  95948514.11647  23431588.300                    23431588.100
      1539.286        1199.447          44.000          44.150



 23  8 28 11  2 30.0000000  0 11G02G03G04G06G09G12G17G19G21G22G31
 120966095.375 8  94259272.56647  23019082.460                    23019080.080
     -2771.846       -2159.882          48.100          44.550



 106246197.239 8  82789274.04648  20217968.700                    20217969.520
      -578.803        -451.016          51.300          51.300    79339719.146 9
  20217971.000        -432.275          56.550


 112598604.472 8  87739214.49947  21426786.740                    21426787.180
      2546.455        1984.252          48.300          47.550    84083444.005 8
  21426791.500        1901.523          51.800


 124610307.727 7  97098956.37947  23712551.660                    23712556.220
      3314.102        2582.419          42.850          43.250    93053175.834 8
  23712558.080        2474.703          48.000


 122674848.802 7  95590834.26647  23344234.320                    23344237.980
      3649.397        2843.689          43.100          42.850    91607901.160 7
  23344238.180        2725.193          47.150


 133532457.629 6 104051276.09046  25410386.060                    25410386.980
       540.429         421.116          37.100          36.000



 112966211.923 8  88025619.90848  21496753.840                    21496752.100
      -335.331        -261.298          50.050          49.950



 113795086.484 8  88671494.77647  21654481.580                    21654479.480
      1315.368        1024.965          48.250          46.750



 124989932.759 7  97394743.52246  23784799.820                    23784799.680
     -2869.412       -2235.909          43.900          40.650



 135652349.852 6 105703175.95445  25813790.860                    25813791.180
     -2555.467       -1991.275          38.900          33.350



 123087944.213 7  95912719.71647  23422846.440                    23422846.800
      1522.698        1186.522          42.650          42.850



 23  8 28 11  3  0.0000000  0 11G02G03G04G06G09G12G17G19G21G22G31
 121049381.179 8  94324170.50047  23034931.160                    23034929.300
     -2780.605       -2166.709          48.200          43.250



 106263760.185 8  82802959.45648  20221310.820                    20221311.520
      -592.067        -461.352          51.100          51.200    79352834.323 9
  20221313.000        -442.102          56.200


 112522427.667 8  87679855.98247  21412290.800                    21412291.440
      2532.030        1973.012          48.450          47.050    84026558.762 8
  21412295.320        1890.766          51.950


 124510936.667 7  97021524.44146  23693641.840                    23693646.300
      3310.862        2579.895          42.250          41.850    92978970.241 8
  23693648.140        2472.282          48.000


 122565465.811 7  95505600.84047  23323419.480                    23323422.920
      3642.658        2838.438          42.900          43.350    91526219.165 7
  23323423.040        2720.242          47.200


 133516526.989 6 104038862.58645  25407354.480                    25407355.360
       521.278         406.194          36.550          35.150



 112976560.100 8  88033683.41648  21498723.060                    21498721.400
      -354.606        -276.316          50.550          50.350



 113755941.510 8  88640992.21147  21647032.580                    21647030.340
      1294.295        1008.542          48.400          45.700



 125076097.647 7  97461884.85846  23801196.440                    23801196.620
     -2874.991       -2240.256          45.050          38.800



 135729060.053 6 105762950.04745  25828388.180                    25828388.760
     -2558.288       -1993.473          37.150          33.000



 123042524.379 7  95877327.75747  23414202.940                    23414203.940
      1505.035        1172.759          44.250          44.550



 23  8 28 11  3 30.0000000  0 11G02G03G04G06G09G12G17G19G21G22G31
 121132921.941 7  94389267.10647  23050828.240                    23050826.900
     -2789.282       -2173.470          47.150          43.700



 106281716.633 8  82816951.48648  20224727.800                    20224728.520
      -605.439        -471.771          50.900          51.050    79366243.349 9
  20224729.740        -452.148          56.150


 112446683.796 8  87620834.82747  21397877.100                    21397878.160
      2517.198        1961.456          48.450          47.750    83969996.820 8
  21397881.600        1879.733          51.800


 124411662.063 6  96944167.67846  23674750.280                    23674754.800
      3307.208        2577.047          41.900          41.550    92904836.696 8
  23674756.560        2469.625          48.050


 122456280.082 7  95420521.15447  23302642.140                    23302645.580
      3636.035        2833.277          43.900          43.900    91444684.496 7
  23302645.560        2715.079          47.500


 133501172.093 6 104026897.82245  25404432.160                    25404433.400
       501.895         391.091          36.550          35.800



 112987474.682 8  88042188.26948  21500800.120                    21500798.420
      -373.593        -291.112          50.750          50.650



 113717426.472 8  88610980.51047  21639703.460                    21639701.040
      1272.948         991.908          48.700          45.800



 125162423.476 7  97529151.61546  23817623.620                    23817623.620
     -2880.515       -2244.561          44.600          39.600



 135805836.526 5 105822776.11045  25842998.400                    25842999.580
     -2560.687       -1995.339          34.350          34.100



 122997631.271 7  95842346.22447  23405660.180                    23405661.360
      1487.230        1158.884          45.350          45.600



 23  8 28 11  4  0.0000000  0 11G02G03G04G06G09G12G17G19G21G22G31
 121216710.195 7  94454556.58347  23066772.480                    23066771.440
     -2797.359       -2179.764          46.550          44.400



 106300059.513 8  82831244.63348  20228218.340                    20228219.120
      -618.120        -481.652          50.950          50.750    79379940.952 9
  20228220.040        -461.609          55.900


 112371368.499 8  87562147.61947  21383544.980                    21383546.320
      2503.050        1950.430          48.350          47.900    83913754.920 8
  21383549.540        1869.170          52.000


 124312479.294 7  96866882.48947  23655876.220                    23655880.820
      3304.102        2574.629          42.800          42.800    92830771.723 8
  23655882.560        2467.408          48.250


 122347287.632 7  95335592.06047  23281901.640                    23281905.060
      3629.521        2828.200          44.400          44.550    91363294.111 7
  23281904.900        2710.309          47.600


 133486387.724 6 104015377.59346  25401618.400                    25401619.700
       483.173         376.497          38.250          38.150



 112998948.789 8  88051129.11748  21502983.660                    21502981.840
      -392.045        -305.490          50.650          50.750



 113679536.920 8  88581456.21047  21632493.420                    21632490.860
      1252.243         975.775          49.100          46.100



 125248903.056 7  97596538.16846  23834080.100                    23834080.220
     -2885.547       -2248.484          44.650          39.750



 135882670.492 6 105882646.55445  25857619.360                    25857620.880
     -2562.673       -1996.892          36.350          35.250



 122953260.673 7  95807771.83347  23397217.020                    23397218.020
      1470.044        1145.492          45.250          45.100



 23  8 28 11  4 30.0000000  0 11G02G03G04G06G09G12G17G19G21G22G31
 121300747.059 7  94520039.76347  23082764.100                    23082763.240
     -2805.739       -2186.291          46.450          44.500



 106318790.152 8  82845839.91948  20231782.640                    20231783.420
      -631.232        -491.870          50.900          50.700    79393928.102 9
  20231784.040        -471.412          55.900


 112296485.757 8  87503797.47247  21369295.140                    21369296.680
      2488.474        1939.071          48.300          47.850    83857836.038 8
  21369299.740        1858.198          52.050


 124213392.268 7  96789671.88647  23637020.620                    23637025.040
      3300.679        2571.960          43.000          42.750    92756778.256 7
  23637026.780        2464.894          47.950


 122238492.701 7  95250816.87347  23261198.680                    23261202.000
      3622.573        2822.787          43.950          44.050    91282051.247 7
  23261201.800        2705.325          47.750


 133472176.190 6 104004303.67346  25398913.980                    25398915.200
       463.589         361.239          37.400          37.150



 113010984.106 8  88060507.26348  21505273.960                    21505272.020
      -411.009        -320.267          50.400          50.300



 113642276.296 8  88552421.97447  21625403.000                    21625400.420
      1231.035         959.249          49.250          45.850



 125335537.405 7  97664045.34546  23850566.280                    23850566.100
     -2890.800       -2252.575          44.800          40.000



 135959561.409 6 105942561.49345  25872251.240                    25872253.120
     -2564.098       -1998.009          39.700          35.950



 122909417.100 7  95773608.11247  23388874.060                    23388874.740
      1452.010        1131.439          44.950          44.850



 23  8 28 11  5  0.0000000  0 11G02G03G04G06G09G12G17G19G21G22G31
 121385032.596 7  94585716.70147  23098802.980                    23098802.340
     -2813.529       -2192.363          45.900          44.700



 106337908.709 8  82860737.49048  20235420.820                    20235421.520
      -643.611        -501.516          51.100          51.100    79408204.945 9
  20235421.920        -480.636          56.100


 112222038.434 8  87445786.61447  21355128.220                    21355129.840
      2474.313        1928.038          48.100          47.650    83802242.300 8
  21355132.940        1847.781          52.300


 124114403.643 7  96712537.95647  23618183.860                    23618188.080
      3297.911        2569.802          44.350          44.700    92682858.243 7
  23618189.740        2462.853          47.800


 122129898.502 7  95166198.09747  23240533.860                    23240537.200
      3616.504        2818.057          44.200          44.200    91200958.285 8
  23240536.960        2700.617          48.100


 133458538.747 6 103993677.11346  25396318.700                    25396319.960
       445.166         346.886          37.800          36.550



 113023581.608 8  88070323.47248  21507671.160                    21507669.140
      -429.096        -334.362          50.100          50.050



 113605646.628 8  88523879.38647  21618432.640                    21618430.100
      1210.642         943.358          49.050          46.700



 125422326.618 7  97731673.17746  23867081.900                    23867081.620
     -2895.493       -2256.231          45.800          39.000



 136036507.278 6 106002519.30946  25886893.700                    25886895.360
     -2565.497       -1999.088          40.150          37.900



 122866103.763 7  95739857.56047  23380631.900                    23380632.260
      1434.964        1118.157          46.150          46.250



 23  8 28 11  5 30.0000000  0 11G02G03G04G06G09G12G17G19G21G22G31
 121469559.077 7  94651581.42047  23114887.880                    23114887.180
     -2821.461       -2198.545          45.550          44.500



 106357407.907 8  82875931.66648  20239131.360                    20239132.100
      -656.103        -511.249          50.850          51.100    79422766.036 9
  20239132.560        -489.991          55.950


 112148021.866 8  87388111.40347  21341043.300                    21341044.740
      2460.024        1916.904          48.250          47.600    83746970.234 8
  21341048.080        1837.077          52.000


 124015508.600 7  96635476.94447  23599364.940                    23599369.000
      3295.181        2567.675          44.400          44.100    92609008.117 7
  23599370.480        2460.600          47.250


 122021500.757 7  95081732.39347  23219906.320                    23219909.760
      3609.870        2812.887          44.500          44.200    91120011.997 7
  23219909.540        2695.771          47.850


 133445469.332 6 103983493.20246  25393831.700                    25393833.000
       426.302         332.186          39.050          39.000



 113036734.171 8  88080572.20448  21510173.940                    21510171.960
      -447.562        -348.752          49.950          49.900



 113569643.810 8  88495825.26047  21611581.480                    21611579.060
      1189.795         927.114          48.300          46.900



 125509263.210 7  97799415.82746  23883625.620                    23883625.140
     -2900.317       -2259.993          45.350          39.900



 136113498.574 6 106062512.43146  25901544.820                    25901546.300
     -2566.771       -2000.086          40.050          36.050



 122823316.224 7  95706516.72147  23372489.820                    23372489.860
      1417.502        1104.551          46.550          46.250



 23  8 28 11  6  0.0000000  0 10G02G03G04G06G09G12G17G19G21G31
 121554327.476 7  94717634.63847  23131018.820                    23131018.000
     -2829.991       -2205.190          45.400          44.650



 106377289.041 8  82891423.44948  20242914.540                    20242915.300
      -669.340        -521.563          50.750          50.750    79437612.325 9
  20242916.040        -499.813          56.000


 112074439.995 8  87330774.91947  21327041.140                    21327042.340
      2445.170        1905.328          48.350          47.950    83692022.777 8
  21327046.000        1825.945          52.100


 123916710.975 7  96558491.83947  23580564.520                    23580568.460
      3291.265        2564.624          44.750          44.650    92535230.711 7
  23580569.700        2457.860          46.850


 121913303.723 7  94997423.09647  23199316.980                    23199320.480
      3602.858        2807.426          44.050          44.150    91039215.603 7
  23199320.280        2690.475          47.950


 133432970.524 6 103973753.89046  25391453.260                    25391454.460
       406.525         316.774          37.850          38.200



 113050443.478 8  88091254.75748  21512782.580                    21512780.680
      -466.627        -363.606          50.050          50.000



 113534271.157 8  88468262.18147  21604850.140                    21604847.900
      1168.202         910.289          48.000          47.100



 125596348.308 7  97867274.25146  23900197.740                    23900196.860
     -2905.695       -2264.180          44.650          40.150



 122781058.694 7  95673588.87647  23364448.480                    23364448.500
      1399.470        1090.500          46.000          46.050



 23  8 28 11  6 30.0000000  0 10G02G03G04G06G09G12G17G19G21G31
 121639347.862 7  94783884.18547  23147197.700                    23147196.960
     -2838.071       -2211.488          46.200          44.600



 106397562.109 8  82907220.64048  20246772.280                    20246773.160
      -682.475        -531.799          50.500          50.500    79452751.299 9
  20246774.060        -509.537          55.950


 112001305.443 8  87273786.99347  21313124.160                    21313125.000
      2430.378        1893.803          48.350          47.350    83637409.361 8
  21313129.080        1814.802          52.100


 123818023.272 7  96481592.40047  23561784.840                    23561788.760
      3287.738        2561.876          44.400          44.600    92461535.425 7
  23561789.900        2455.139          47.150


 121805320.435 7  94913280.32547  23178768.300                    23178771.860
      3596.007        2802.085          43.950          43.750    90958578.808 7
  23178771.760        2685.258          47.950


 133421052.958 5 103964467.48545  25389185.360                    25389186.680
       387.172         301.693          35.850          35.800



 113064719.959 8  88102379.26748  21515499.200                    21515497.340
      -485.335        -378.184          49.650          49.400



 113499540.326 7  88441199.21647  21598240.920                    21598238.700
      1146.930         893.712          47.950          46.950



 125683591.516 7  97935255.83646  23916799.840                    23916798.880
     -2910.753       -2268.122          46.400          39.800



 122739344.283 7  95641084.23647  23356510.240                    23356510.640
      1381.444        1076.453          45.400          45.600



 23  8 28 11  7  0.0000000  0 10G02G03G04G06G09G12G17G19G21G31
 121724607.925 7  94850320.50747  23163422.300                    23163421.440
     -2845.994       -2217.660          46.400          44.200



 106418215.533 8  82923314.21248  20250702.440                    20250703.520
      -694.839        -541.433          50.800          50.600    79468174.314 9
  20250704.400        -518.998          55.900


 111928609.321 8  87217140.70247  21299290.520                    21299291.100
      2415.754        1882.406          48.700          46.650    83583123.344 8
  21299295.680        1803.869          52.300


 123719436.484 7  96404771.59647  23543024.320                    23543028.200
      3284.367        2559.249          45.000          45.400    92387915.503 7
  23543029.380        2452.558          47.350


 121697542.396 7  94829297.51547  23158258.660                    23158262.360
      3589.038        2796.655          44.550          44.600    90878095.301 7
  23158262.300        2680.005          47.950


 133409706.614 5 103955626.19045  25387026.200                    25387027.520
       368.545         287.180          35.550          34.850



 113079552.528 8  88113937.09448  21518321.640                    21518319.840
      -503.820        -392.588          50.100          49.950



 113465442.390 8  88414629.41247  21591752.280                    21591749.900
      1125.800         877.247          48.900          46.350



 125770981.812 7  98003352.01946  23933429.780                    23933428.720
     -2915.329       -2271.688          45.000          38.500



 122698164.212 7  95608995.94147  23348673.700                    23348674.500
      1363.615        1062.560          46.250          46.050



 23  8 28 11  7 30.0000000  0 10G02G03G04G06G09G12G17G19G21G31
 121810113.198 7  94916947.90147  23179693.500                    23179692.560
     -2854.211       -2224.062          47.050          43.400



 106439254.909 8  82939708.53448  20254706.120                    20254707.400
      -707.569        -551.353          51.050          51.000    79483885.534 9
  20254708.080        -528.350          55.950


 111856359.799 8  87160842.42147  21285541.860                    21285542.300
      2401.034        1870.937          48.800          46.850    83529170.829 8
  21285547.200        1792.963          52.650


 123620958.774 7  96328035.79047  23524284.440                    23524288.360
      3280.709        2556.399          44.250          44.750    92314377.021 7
  23524289.620        2450.045          47.800


 121589978.210 7  94745481.35247  23137789.740                    23137793.500
      3582.082        2791.234          45.050          45.450    90797771.477 8
  23137793.380        2674.895          48.200


 133398938.071 6 103947235.08746  25384977.080                    25384978.460
       349.453         272.305          39.700          40.550



 113094946.950 8  88125932.72748  21521251.100                    21521249.340
      -522.354        -407.029          49.850          49.900



 113431984.977 8  88388558.70647  21585385.660                    21585382.900
      1104.771         860.860          49.350          46.100



 125858524.384 7  98071566.90246  23950088.780                    23950087.540
     -2920.405       -2275.645          45.550          38.800



 122657527.117 7  95577330.72147  23340940.540                    23340941.660
      1345.756        1048.644          45.400          45.050



 23  8 28 11  8  0.0000000  0 10G02G03G04G06G09G12G17G19G21G31
 121895860.022 7  94983763.47747  23196010.760                    23196009.940
     -2861.981       -2230.120          47.050          44.050



 106460676.937 8  82956401.02048  20258782.640                    20258783.940
      -720.200        -561.194          50.800          50.750    79499882.492 9
  20258784.500        -537.732          55.800


 111784556.174 8  87104891.60247  21271878.020                    21271878.420
      2386.235        1859.406          49.000          46.600    83475551.296 8
  21271883.660        1782.027          52.800


 123522589.348 7  96251384.36647  23505565.200                    23505569.120
      3277.330        2553.769          43.650          43.300    92240919.434 8
  23505570.460        2447.485          48.200


 121482627.510 7  94661831.51347  23117361.540                    23117365.260
      3575.017        2785.729          44.250          44.100    90717607.064 8
  23117365.320        2669.748          48.300


 133388744.842 6 103939292.31546  25383037.360                    25383038.600
       330.490         257.527          37.500          38.500



 113110900.186 8  88138363.79848  21524286.860                    21524285.200
      -540.868        -421.457          49.550          49.400



 113399166.973 8  88362986.23447  21579140.800                    21579137.620
      1083.545         844.321          50.000          45.700



 125946215.547 7  98139897.53346  23966775.880                    23966774.720
     -2925.202       -2279.382          45.600          37.900



 122617432.508 7  95546088.21647  23333310.620                    23333312.040
      1327.712        1034.584          45.900          46.050



 23  8 28 11  8 30.0000000  0 10G02G03G04G06G09G12G17G19G21G31
 121981845.422 7  95050765.00347  23212373.400                    23212372.500
     -2870.668       -2236.889          46.550          44.950



 106482478.739 8  82973389.43348  20262931.380                    20262932.700
      -733.310        -571.410          50.850          50.700    79516163.060 9
  20262933.140        -547.601          55.650


 111713198.179 8  87049288.01947  21258299.060                    21258299.520
      2370.888        1847.447          48.650          47.300    83422264.542 8
  21258304.720        1770.427          52.900


 123424327.956 7  96174817.10447  23486866.400                    23486870.480
      3273.223        2550.564          42.600          42.350    92167542.503 8
  23486871.780        2444.303          48.100


 121375490.487 7  94578348.18547  23096974.020                    23096977.680
      3567.125        2779.579          44.550          43.750    90637602.227 8
  23096977.780        2663.963          48.200


 133379125.439 6 103931796.71146  25381206.960                    25381208.300
       310.822         242.200          39.450          39.650



 113127409.818 8  88151228.42648  21527428.500                    21527427.040
      -559.908        -436.293          49.350          49.000



 113366987.855 8  88337911.60147  21573017.500                    21573013.940
      1061.638         827.250          50.050          45.700



 126034052.487 7  98208341.75946  23983490.660                    23983489.540
     -2930.395       -2283.431          45.000          38.600



 122577880.460 7  95515268.47547  23325784.040                    23325785.360
      1309.188        1020.148          45.650          45.950



 23  8 28 11  9  0.0000000  0 10G02G03G04G06G09G12G17G19G21G31
 122068068.036 7  95117951.34147  23228781.100                    23228780.360
     -2878.252       -2242.796          46.800          43.850



 106504659.238 8  82990672.93848  20267152.200                    20267153.500
      -745.670        -581.041          50.750          50.850    79532726.423 9
  20267153.980        -556.980          55.550


 111642287.358 8  86994032.88347  21244805.200                    21244805.700
      2356.105        1835.928          48.900          47.400    83369311.721 8
  21244810.860        1759.325          52.750


 123326176.093 7  96098335.21346  23468188.500                    23468192.760
      3269.929        2548.000          42.350          41.700    92094247.381 7
  23468193.940        2441.584          47.850


 121268569.058 7  94495032.86747  23076627.600                    23076631.060
      3560.367        2774.316          44.000          44.200    90557758.406 8
  23076631.280        2658.555          48.100


 133370079.340 6 103924747.74546  25379485.440                    25379486.940
       291.785         227.359          38.750          38.350



 113144474.905 8  88164525.87948  21530675.800                    21530674.540
      -578.172        -450.523          49.150          49.050



 113335448.514 8  88313335.48947  21567015.980                    21567012.100
      1040.464         810.751          50.100          46.400



 126122033.834 7  98276898.54546  24000233.060                    24000231.900
     -2935.305       -2287.255          44.700          37.900



 122538872.865 7  95484872.95847  23318361.080                    23318362.120
      1290.755        1005.784          44.900          44.000



 23  8 28 11  9 30.0000000  0 10G02G03G04G06G09G12G17G19G21G31
 122154530.622 7  95185324.68047  23245234.460                    23245233.820
     -2886.356       -2249.113          46.500          44.500



 106527221.649 8  83008254.03548  20271445.700                    20271446.980
      -758.770        -591.249          50.900          50.950    79549574.971 9
  20271447.580        -566.604          55.400


 111571829.438 8  86939130.66447  21231397.500                    21231398.200
      2340.628        1823.867          48.750          47.550    83316697.095 8
  21231403.040        1747.905          52.750


 123228139.529 6  96021943.17046  23449532.440                    23449537.020
      3265.646        2544.662          41.700          40.950    92021038.344 7
  23449538.020        2438.540          47.400


 121161869.472 7  94411890.40247  23056323.360                    23056326.660
      3552.556        2768.227          44.850          44.700    90478080.225 8
  23056327.100        2652.878          48.050


 133361610.446 6 103918148.65046  25377873.840                    25377875.500
       272.156         212.073          38.700          38.350



 113162098.849 8  88178258.81048  21534029.520                    21534028.360
      -597.192        -465.346          48.900          49.150



 113304554.242 8  88289262.03847  21561137.120                    21561133.100
      1018.683         793.778          50.250          46.200



 126210162.639 7  98345570.19046  24017003.580                    24017002.360
     -2940.366       -2291.199          45.250          40.250



 122500415.383 7  95454906.11647  23311042.840                    23311043.520
      1272.278         991.388          45.450          45.550



 23  8 28 11 10  0.0000000  0 10G02G03G04G06G09G12G17G19G21G31
 122241226.190 7  95252879.55347  23261732.100                    23261731.560
     -2893.849       -2254.951          46.550          43.900



 106550159.295 8  83026127.52248  20275810.700                    20275811.960
      -770.708        -600.553          51.300          51.200    79566703.737 9
  20275812.480        -575.611          56.000


 111501820.323 8  86884578.15947  21218075.240                    21218076.000
      2326.195        1812.621          48.700          47.750    83264417.623 8
  21218080.560        1736.998          53.250


 123130214.234 7  95945637.83646  23430897.880                    23430902.500
      3262.416        2542.146          42.050          41.700    91947912.405 8
  23430903.240        2436.062          48.050


 121055388.044 7  94328917.94547  23036060.600                    23036063.860
      3545.790        2762.956          45.050          45.350    90398564.971 8
  23036064.460        2647.763          48.900


 133353713.512 6 103911995.07046  25376371.120                    25376372.680
       254.525         198.331          38.250          38.600



 113180275.509 8  88192422.42848  21537488.420                    21537487.300
      -615.062        -479.270          49.900          49.850



 113274300.409 8  88265687.62547  21555380.060                    21555376.020
       997.968         777.638          50.500          46.150



 126298432.024 7  98414351.42146  24033800.760                    24033799.400
     -2944.691       -2294.569          44.750          38.550



 122462504.401 7  95425365.12447  23303828.580                    23303828.900
      1254.831         977.792          45.650          45.350



 23  8 28 11 10 30.0000000  0 10G02G03G04G06G09G12G17G19G21G31
 122328160.591 7  95320620.53547  23278275.240                    23278274.740
     -2901.824       -2261.165          47.000          43.900



 106573478.347 8  83044298.21248  20280248.260                    20280249.540
      -783.728        -610.697          51.350          51.400    79584117.305 9
  20280250.020        -585.232          55.800


 111432268.746 8  86830382.16648  21204839.940                    21204840.880
      2310.569        1800.444          48.100          48.000    83212479.806 8
  21204845.120        1725.518          53.050


 123032408.993 7  95869426.02347  23412286.220                    23412290.640
      3258.271        2538.914          42.600          42.700    91874876.100 8
  23412291.420        2433.003          48.200


 120949133.949 7  94246122.61047  23015841.140                    23015844.200
      3537.908        2756.813          45.250          44.950    90319219.461 8
  23015845.080        2641.965          48.900


 133346395.647 6 103906292.79746  25374978.620                    25374980.180
       234.747         182.917          37.300          36.150



 113199010.793 8  88207021.33848  21541053.700                    21541052.560
      -633.880        -493.933          50.050          50.050



 113244695.108 8  88242618.56347  21549746.360                    21549742.440
       975.841         760.396          50.050          47.100



 126386848.177 7  98483246.98346  24050625.980                    24050624.760
     -2949.875       -2298.609          44.550          38.850



 122425148.842 7  95396256.92947  23296719.980                    23296720.360
      1235.752         962.925          45.400          45.700



 23  8 28 11 11  0.0000000  0 10G02G03G04G06G09G12G17G19G21G31
 122415326.634 7  95388541.99647  23294862.540                    23294862.060
     -2909.254       -2266.955          47.450          43.450



 106597171.594 8  83062760.47448  20284757.000                    20284758.220
      -795.895        -620.178          51.350          51.250    79601810.310 9
  20284758.600        -594.366          55.350


 111363170.064 8  86776539.08247  21191690.800                    21191691.860
      2295.848        1788.974          48.400          47.550    83160880.198 8
  21191695.840        1714.382          52.900


 122934719.253 7  95793304.22147  23393696.540                    23393700.720
      3254.368        2535.874          42.950          43.250    91801926.036 8
  23393701.700        2430.338          48.450


 120843103.004 7  94163501.18447  22995664.100                    22995667.120
      3530.803        2751.280          44.600          44.750    90240040.608 8
  22995668.260        2636.553          48.950


 133339650.659 6 103901037.02146  25373695.240                    25373696.480
       215.490         167.915          39.250          39.450



 113218297.880 8  88222050.22448  21544724.080                    21544722.780
      -652.071        -508.107          50.050          49.900



 113215733.525 8  88220051.10447  21544235.140                    21544231.360
       954.710         743.930          49.900          46.550



 126475403.793 7  98552251.24546  24067477.540                    24067476.600
     -2954.062       -2301.869          44.500          37.950



 122388344.218 7  95367578.01847  23289716.380                    23289716.620
      1217.522         948.720          46.300          46.400



 23  8 28 11 11 30.0000000  0 10G02G03G04G06G09G12G17G19G21G31
 122502729.222 7  95456647.80647  23311494.880                    23311494.280
     -2917.443       -2273.338          47.300          44.650



 106621244.480 8  83081518.56148  20289337.920                    20289338.980
      -808.562        -630.048          51.700          51.750    79619786.812 9
  20289339.280        -603.812          55.400


 111294532.244 8  86723055.10947  21178629.320                    21178630.440
      2280.258        1776.825          48.850          47.200    83109624.729 8
  21178634.320        1702.887          52.950


 122837153.063 7  95717278.68747  23375130.240                    23375134.240
      3250.265        2532.678          43.650          42.850    91729068.250 8
  23375135.540        2427.170          48.700


 120737303.714 7  94081060.24447  22975531.200                    22975533.980
      3522.730        2744.987          46.050          45.800    90161034.712 8
  22975535.460        2630.753          49.050


 133333484.839 6 103896232.50746  25372522.040                    25372523.180
       196.560         153.164          39.950          39.700



 113238142.420 8  88237513.47848  21548500.580                    21548499.160
      -670.676        -522.605          50.250          50.050



 113187422.946 8  88197990.92547  21538847.760                    21538844.160
       932.899         726.935          50.050          46.650



 126564104.076 7  98621368.21546  24084356.660                    24084356.140
     -2959.065       -2305.771          43.950          38.550



 122352098.709 7  95339334.79147  23282819.120                    23282819.120
      1198.816         934.144          46.250          45.950



 23  8 28 11 12  0.0000000  0 10G02G03G04G06G09G12G17G19G21G31
 122590361.127 7  95524932.29447  23328170.920                    23328170.140
     -2924.411       -2278.765          47.150          43.550



 106645690.088 8  83100567.08348  20293989.760                    20293990.720
      -820.687        -639.497          51.150          51.250    79638041.643 9
  20293990.940        -612.834          55.550


 111226350.852 8  86669926.79947  21165654.720                    21165655.860
      2265.434        1765.274          48.650          47.400    83058710.112 8
  21165659.720        1691.695          53.000


 122739706.171 7  95641346.09747  23356586.820                    23356590.400
      3246.655        2529.862          43.700          43.650    91656299.555 8
  23356592.100        2424.287          48.850


 120631732.085 7  93998796.72147  22955441.500                    22955444.340
      3515.595        2739.428          44.900          44.800    90082198.851 8
  22955445.960        2625.292          49.400


 133327891.779 6 103891874.30946  25371457.820                    25371458.940
       177.208         138.085          40.550          40.300



 113258537.851 8  88253405.99148  21552381.840                    21552380.280
      -688.623        -536.590          50.200          50.350



 113159758.477 8  88176434.20247  21533583.260                    21533579.840
       911.733         710.442          49.550          46.200



 126652941.843 7  98690592.33446  24101261.980                    24101261.740
     -2963.264       -2309.041          43.700          39.550



 122316408.219 7  95311524.04647  23276027.440                    23276027.220
      1180.612         919.959          45.950          46.200



 23  8 28 11 12 30.0000000  0 10G02G03G04G06G09G12G17G19G21G31
 122678227.640 7  95593399.58447  23344891.580                    23344890.640
     -2932.707       -2285.231          47.250          44.150



 106670514.014 8  83119910.39748  20298713.620                    20298714.600
      -833.472        -649.459          51.550          51.550    79656578.992 9
  20298714.760        -622.511          55.800


 111158634.018 8  86617160.47247  21152768.580                    21152769.560
      2249.691        1753.008          48.800          47.350    83008142.408 8
  21152773.600        1679.871          53.100


 122642386.827 7  95565512.89547  23338067.640                    23338070.880
      3242.058        2526.279          44.700          44.700    91583626.093 8
  23338072.920        2420.859          49.100


 120526396.807 7  93916717.36047  22935396.860                    22935399.560
      3507.475        2733.099          45.900          45.900    90003539.494 8
  22935401.500        2619.077          49.750


 133322877.707 6 103887967.24046  25370503.620                    25370504.780
       157.686         122.874          40.150          40.600



 113279489.938 8  88269732.27848  21556368.920                    21556367.360
      -707.399        -551.220          49.900          49.800



 113132747.650 8  88155386.81747  21528443.040                    21528439.860
       889.611         693.204          49.050          46.900



 126741922.618 7  98759927.87046  24118194.460                    24118194.820
     -2968.223       -2312.905          44.000          40.300



 122281281.139 7  95284152.31047  23269342.900                    23269342.700
      1161.850         905.337          46.200          46.300



 23  8 28 11 13  0.0000000  0 10G02G03G04G06G09G12G17G19G21G31
 122766319.126 7  95662042.20147  23361654.940                    23361653.820
     -2940.106       -2290.994          46.600          43.900



 106695706.948 8  83139541.25748  20303507.640                    20303508.860
      -845.787        -659.055          50.850          50.800    79675391.886 9
  20303508.940        -631.582          56.150


 111091374.911 8  86564750.81948  21139969.520                    21139970.380
      2234.511        1741.179          48.600          48.000    82957916.500 8
  21139974.660        1668.589          53.550


 122545188.408 7  95489773.93347  23319571.460                    23319574.520
      3238.049        2523.158          44.150          43.600    91511042.914 8
  23319576.800        2418.061          49.700


 120421291.470 7  93834817.18347  22915395.980                    22915398.560
      3499.788        2727.110          46.200          46.250    89925051.833 8
  22915400.680        2613.438          49.950


 133318434.869 6 103884505.28846  25369658.060                    25369659.320
       138.775         108.137          40.400          40.250



 113300988.827 8  88286484.64848  21560459.940                    21560458.540
      -725.604        -565.406          49.350          49.150



 113106383.047 8  88134842.98747  21523425.800                    21523422.800
       868.134         676.469          48.750          46.350



 126831036.816 7  98829367.37646  24135152.400                    24135153.120
     -2972.529       -2316.260          43.100          40.000



 122246710.910 7  95257214.45847  23262764.380                    23262764.100
      1143.302         890.884          45.100          45.450



 23  8 28 11 13 30.0000000  0 10G02G03G04G06G09G12G17G19G21G31
 122854642.510 7  95730865.48147  23378462.340                    23378461.300
     -2947.958       -2297.113          46.250          43.750



 106721275.951 8  83159465.15448  20308373.200                    20308374.660
      -858.455        -668.926          50.600          50.600    79694485.616 9
  20308374.820        -640.963          55.850


 111024583.103 8  86512705.30147  21127259.480                    21127260.180
      2218.782        1728.923          48.700          47.400    82908039.554 8
  21127264.700        1656.881          53.150


 122448120.649 7  95414136.78547  23301099.880                    23301103.140
      3233.552        2519.652          44.050          44.200    91438557.343 8
  23301105.580        2414.661          49.550


 120316426.242 7  93753104.08647  22895440.940                    22895443.440
      3491.612        2720.739          45.900          46.050    89846743.454 8
  22895445.540        2607.440          49.900


 133314570.624 6 103881494.12446  25368922.680                    25368924.040
       119.058          92.772          40.750          41.600



 113323042.300 8  88303669.15148  21564656.440                    21564655.260
      -744.218        -579.910          48.850          48.950



 113080673.564 8  88114809.63247  21518533.360                    21518530.420
       846.235         659.405          49.000          45.950



 126920291.394 7  98898916.27146  24152136.960                    24152138.120
     -2977.403       -2320.058          43.800          40.700



 122212707.278 7  95230718.10547  23256293.620                    23256293.400
      1124.065         875.896          44.650          44.600



 23  8 28 11 14  0.0000000  0 10G02G03G04G06G09G12G17G19G21G31
 122943193.221 7  95799865.91647  23395312.860                    23395311.940
     -2954.964       -2302.573          45.600          44.200



 106747216.937 8  83179678.91548  20313309.500                    20313311.120
      -870.360        -678.202          50.350          50.200    79713857.144 9
  20313311.400        -650.024          55.750


 110958256.938 8  86461022.62647  21114638.040                    21114638.600
      2203.399        1716.937          48.950          47.700    82858510.335 8
  21114643.360        1645.456          53.350


 122351182.129 7  95338600.33747  23282652.900                    23282656.300
      3229.254        2516.303          43.550          43.400    91366168.259 8
  23282658.920        2411.662          49.650


 120211799.946 7  93671577.18647  22875531.220                    22875533.560
      3483.813        2714.664          46.450          46.500    89768613.526 8
  22875535.940        2601.606          49.900


 133311281.836 6 103878931.48646  25368296.820                    25368298.340
       100.268          78.132          40.050          40.000



 113345646.389 8  88321282.71848  21568957.720                    21568956.760
      -762.283        -593.986          48.800          48.850



 113055617.032 8  88095285.06947  21513765.260                    21513762.260
       824.703         642.627          49.350          46.100



 127009682.133 7  98968571.22046  24169147.480                    24169149.060
     -2981.569       -2323.307          43.700          38.450



 122179268.630 7  95204662.00247  23249930.280                    23249930.360
      1105.722         861.601          44.150          44.000



 23  8 28 11 14 30.0000000  0 10G02G03G04G06G09G12G17G19G21G31
 123031973.692 7  95869045.37447  23412207.220                    23412206.300
     -2963.726       -2309.400          45.800          42.800



 106773532.789 8  83200184.77448  20318317.220                    20318318.880
      -883.898        -688.752          51.100          51.000    79733508.587 9
  20318319.180        -660.029          55.850


 110892401.813 8  86409706.99647  21102106.260                    21102106.740
      2186.876        1704.061          49.250          47.650    82809332.864 8
  21102111.580        1633.048          53.600


 122254378.419 7  95263168.93947  23264231.540                    23264235.060
      3223.770        2512.028          43.050          42.900    91293879.851 8
  23264237.780        2407.597          49.800


 120107418.525 7  93590241.06947  22855668.160                    22855670.500
      3474.502        2707.406          46.350          46.250    89690666.422 8
  22855672.660        2594.828          49.750


 133308571.901 6 103876819.89946  25367781.040                    25367782.640
        80.007          62.344          40.650          39.400



 113368803.835 8  88339327.47148  21573364.380                    21573363.500
      -781.535        -608.987          49.350          49.600



 113031218.404 8  88076273.15447  21509122.420                    21509119.340
       801.726         624.722          49.750          46.650



 127099211.699 7  99038334.41246  24186184.460                    24186186.240
     -2987.079       -2327.598          42.950          39.300



 122146400.362 7  95179050.35047  23243675.400                    23243676.040
      1085.703         846.002          43.750          43.850



 23  8 28 11 15  0.0000000  0 10G02G03G04G06G09G12G17G19G21G31
 123120977.729 7  95938399.04147  23429144.120                    23429143.300
     -2969.884       -2314.199          45.650          43.900



 106800217.701 8  83220978.20848  20323395.140                    20323396.920
      -895.216        -697.570          50.750          50.800    79753435.636 9
  20323397.160        -668.424          55.700


 110827014.390 8  86358755.80447  21089663.520                    21089663.880
      2172.388        1692.771          49.550          47.800    82760504.641 8
  21089668.800        1622.240          53.350


 122157706.424 7  95187840.18147  23245835.360                    23245838.800
      3220.817        2509.729          43.250          43.500    91221689.805 8
  23245841.460        2405.188          49.250


 120003279.151 7  93509093.57147  22835851.100                    22835853.380
      3467.761        2702.152          47.250          47.200    89612900.092 8
  22835855.600        2589.613          49.950


 133306435.821 6 103875155.52046  25367374.520                    25367376.020
        62.407          48.633          40.100          39.800



 113392508.696 8  88357798.77948  21577875.280                    21577874.280
      -798.675        -622.344          49.850          50.000



 113007473.779 8  88057770.85447  21504604.100                    21504600.820
       781.208         608.734          50.200          46.300



 127188874.302 7  99108201.21046  24203246.660                    24203248.760
     -2990.395       -2330.183          44.700          39.250



 122114099.569 7  95153880.90547  23237528.880                    23237529.660
      1067.333         831.688          46.050          46.050



 23  8 28 11 15 30.0000000  0 10G02G03G04G06G09G12G17G19G21G31
 123210201.523 7  96007923.96147  23446122.740                    23446121.820
     -2977.548       -2320.171          44.800          43.500



 106827268.091 8  83242056.42148  20328542.580                    20328544.380
      -907.716        -707.312          50.550          50.400    79773635.598 9
  20328544.740        -677.930          56.150


 110762093.474 8  86308168.12747  21077309.500                    21077309.820
      2156.337        1680.265          49.150          47.800    82712024.791 8
  21077314.660        1610.104          53.800


 122061165.316 7  95112613.41747  23227464.200                    23227467.500
      3215.982        2505.962          43.600          43.600    91149597.522 8
  23227469.860        2401.328          49.250


 119899381.293 7  93428134.25447  22816079.940                    22816082.140
      3459.333        2695.587          46.700          46.550    89535314.100 8
  22816084.380        2583.104          49.900


 133304870.997 6 103873936.19546  25367076.660                    25367078.080
        42.663          33.245          39.600          39.250



 113416757.949 8  88376694.29548  21582489.880                    21582488.640
      -817.457        -636.979          49.550          49.650



 112984381.164 8  88039776.61947  21500209.800                    21500206.540
       758.873         591.330          49.800          47.050



 127278665.974 7  99178168.63346  24220333.540                    24220335.500
     -2995.131       -2333.872          43.600          38.750



 122082365.130 7  95129152.79547  23231490.380                    23231490.860
      1048.305         816.861          47.000          47.200



 23  8 28 11 16  0.0000000  0 10G02G03G04G06G09G12G17G19G21G31
 123299650.062 7  96077623.98647  23463144.220                    23463143.500
     -2985.114       -2326.067          44.150          43.000



 106854688.945 8  83263423.31448  20333760.480                    20333762.300
      -920.256        -717.083          50.350          50.250    79794112.196 9
  20333762.840        -687.136          56.000


 110697646.513 8  86257949.75248  21065045.620                    21065045.980
      2140.441        1667.877          49.200          48.100    82663898.852 8
  21065050.620        1598.334          53.550


 121964762.846 7  95037494.66347  23209119.680                    23209122.540
      3211.129        2502.182          44.750          45.050    91077608.710 8
  23209124.580        2397.934          48.800


 119795732.871 7  93347369.30947  22796356.240                    22796358.720
      3450.821        2688.953          47.650          47.550    89457914.347 8
  22796360.460        2576.914          50.000


 133303882.714 6 103873166.13546  25366888.540                    25366890.020
        23.306          18.159          40.200          40.600



 113441556.172 8  88396017.57148  21587208.960                    21587207.460
      -835.657        -651.161          49.750          49.600



 112961947.113 8  88022295.54847  21495940.700                    21495937.600
       736.855         574.174          49.550          47.050



 127368591.609 7  99248240.39846  24237445.940                    24237447.920
     -2999.786       -2337.501          44.350          39.350



 122051204.861 7  95104872.09547  23225561.200                    23225561.340
      1029.256         802.018          47.200          47.050



 23  8 28 11 16 30.0000000  0 10G02G03G04G06G09G12G17G19G21G31
 123389319.580 7  96147496.22647  23480207.680                    23480206.860
     -2993.167       -2332.341          44.350          42.800



 106882477.170 8  83285076.47748  20339048.420                    20339050.140
      -932.943        -726.969          50.650          50.750    79814863.140 9
  20339050.680        -696.685          55.650


 110633672.801 8  86208100.15447  21052871.800                    21052872.200
      2123.972        1655.043          49.350          47.850    82616126.329 8
  21052876.600        1586.086          53.400


 121868498.600 7  94962483.60947  23190801.500                    23190804.000
      3206.018        2498.197          45.250          45.100    91005723.128 8
  23190805.720        2394.053          48.650


 119692333.834 7  93266798.66147  22776679.980                    22776682.180
      3441.896        2682.000          46.500          46.700    89380700.851 8
  22776684.260        2570.208          49.700


 133303468.830 6 103872843.68246  25366809.780                    25366811.380
         3.493           2.719          38.200          38.500



 113466900.029 8  88415766.01248  21592031.860                    21592030.180
      -854.429        -665.789          49.650          49.750



 112940170.813 8  88005327.02047  21491796.680                    21491793.840
       714.398         556.675          49.300          46.950



 127458647.967 7  99318414.03546  24254583.200                    24254584.900
     -3004.600       -2341.252          43.050          40.600



 122020618.035 7  95081038.21947  23219740.980                    23219741.040
      1009.473         786.604          46.750          46.750



 23  8 28 11 17  0.0000000  0 10G02G03G04G06G09G12G17G19G21G31
 123479209.710 7  96217540.34047  23497313.180                    23497312.560
     -3000.381       -2337.965          43.600          42.850



 106910632.802 8  83307015.91848  20344406.340                    20344407.900
      -944.861        -736.256          50.600          50.250    79835888.430 9
  20344408.280        -705.586          55.400


 110570174.749 8  86158621.20048  21040788.440                    21040789.000
      2108.482        1642.975          48.850          48.300    82568709.005 8
  21040792.960        1574.467          53.300


 121772375.362 7  94887582.43247  23172510.060                    23172512.320
      3201.360        2494.568          45.350          45.100    90933942.835 8
  23172514.000        2390.767          48.950


 119589187.164 7  93186424.69947  22757051.760                    22757054.220
      3433.719        2675.627          47.150          47.050    89303675.786 8
  22757055.580        2564.164          49.300


 133303629.821 6 103872969.13346  25366840.380                    25366841.980
       -15.344         -11.958          38.600          38.550



 113492789.741 8  88435939.79448  21596958.540                    21596956.800
      -872.319        -679.729          49.500          49.750



 112919053.711 8  87988872.14947  21487778.140                    21487775.440
       692.617         539.701          49.150          47.100



 127548834.625 7  99388689.21246  24271745.160                    24271746.940
     -3008.576       -2344.350          43.700          39.650



 121990607.187 7  95057653.13647  23214030.260                    23214030.300
       990.627         771.917          45.950          46.250



 23  8 28 11 17 30.0000000  0 10G02G03G04G06G09G12G17G19G21G31
 123569319.235 7  96287755.43947  23514460.620                    23514459.720
     -3007.561       -2343.558          44.300          42.300



 106939154.956 8  83329240.96948  20349834.020                    20349835.460
      -957.128        -745.813          51.050          50.900    79857187.437 9
  20349835.660        -714.724          55.350


 110507153.915 8  86109514.09147  21028795.820                    21028796.580
      2092.480        1630.506          48.800          47.850    82521648.040 8
  21028800.300        1562.592          53.350


 121676395.019 7  94812792.61347  23154245.700                    23154247.940
      3196.783        2491.002          45.700          45.450    90862269.279 8
  23154249.740        2387.144          49.400


 119486295.052 7  93106249.07047  22737471.940                    22737474.260
      3425.179        2668.971          47.550          47.600    89226840.826 8
  22737475.720        2557.795          49.800


 133304365.358 6 103873542.31146  25366980.380                    25366981.720
       -34.340         -26.757          40.200          40.500



 113519224.627 8  88456538.38648  21601988.920                    21601987.280
      -890.438        -693.849          49.550          49.700



 112898596.711 8  87972931.63647  21483885.280                    21483882.600
       670.748         522.661          49.950          46.550



 127639150.991 7  99459065.44446  24288931.880                    24288933.600
     -3013.030       -2347.819          43.400          40.050



 121961173.815 7  95034718.03547  23208429.100                    23208429.420
       971.329         756.880          45.750          45.850



 23  8 28 11 18  0.0000000  0 10G02G03G04G06G09G12G17G19G21G31
 123659648.258 7  96358141.56047  23531649.800                    23531649.020
     -3014.527       -2348.987          44.650          43.100



 106968043.825 8  83351751.77048  20355331.460                    20355332.880
      -968.974        -755.045          50.850          50.950    79878760.292 9
  20355333.040        -723.562          55.400


 110444612.834 8  86060780.82048  21016894.520                    21016895.420
      2076.717        1618.222          48.450          48.550    82474945.334 8
  21016898.920        1550.841          53.500


 121580560.574 7  94738116.48447  23136008.940                    23136011.320
      3192.230        2487.454          45.550          45.650    90790704.661 8
  23136013.320        2383.835          50.100


 119383660.638 7  93026274.24147  22717941.260                    22717943.720
      3417.015        2662.611          46.900          46.750    89150198.290 8
  22717944.700        2551.615          49.100


 133305676.342 6 103874563.86146  25367229.960                    25367230.980
       -52.979         -41.280          40.850          41.250



 113546204.678 8  88477561.77148  21607122.960                    21607121.500
      -908.159        -707.657          49.000          49.300



 112878801.689 8  87957506.94247  21480118.520                    21480115.640
       648.912         505.646          50.000          46.650



 127729596.839 7  99529542.57446  24306143.340                    24306144.720
     -3016.915       -2350.849          43.600          39.600



 121932320.866 7  95012235.20847  23202938.140                    23202938.980
       952.396         742.127          44.900          45.350



 23  8 28 11 18 30.0000000  0 10G02G03G04G06G09G12G17G19G21G31
 123750193.271 7  96428695.99046  23548880.180                    23548879.240
     -3021.922       -2354.748          44.950          41.300



 106997296.497 8  83374546.04048  20360898.060                    20360899.500
      -981.419        -764.743          50.650          50.850    79900604.800 9
  20360899.620        -732.758          55.250


 110382550.913 8  86012420.92648  21005084.460                    21005085.460
      2060.608        1605.670          48.650          48.000    82428600.443 8
  21005088.940        1538.796          53.300


 121484871.801 7  94663553.86147  23117799.960                    23117802.420
      3186.986        2483.367          45.700          45.600    90719248.828 8
  23117804.540        2379.983          50.300


 119281283.984 7  92946500.28047  22698459.580                    22698462.200
      3408.229        2655.766          47.800          47.900    89073748.240 8
  22698462.660        2545.054          49.550


 133307560.285 6 103876031.86546  25367588.640                    25367589.540
       -72.540         -56.525          41.100          40.650



 113573726.807 8  88499007.55348  21612360.180                    21612359.000
      -926.598        -722.026          48.950          49.050



 112859667.477 8  87942597.15447  21476477.540                    21476474.460
       626.747         488.373          50.250          46.850



 127820168.881 7  99600118.02746  24323378.720                    24323380.000
     -3021.162       -2354.158          43.600          38.900



 121904047.790 7  94990204.22947  23197557.600                    23197558.980
       932.708         726.783          45.300          45.400



 23  8 28 11 19  0.0000000  0 10G02G03G04G06G09G12G17G19G21G31
 123840955.117 7  96499419.38847  23566151.840                    23566150.960
     -3028.727       -2360.051          45.550          43.050



 107026914.022 8  83397624.62248  20366534.060                    20366535.580
      -993.108        -773.851          50.750          50.650    79922721.781 9
  20366535.780        -741.659          55.600


 110320971.632 8  85964437.10847  20993366.280                    20993367.260
      2044.808        1593.357          48.650          47.850    82382615.966 8
  20993370.860        1526.860          53.750


 121389332.611 7  94589107.78247  23099619.440                    23099621.880
      3182.310        2479.724          45.400          45.500    90647904.695 8
  23099624.200        2376.353          50.650


 119179169.191 7  92866930.34247  22679027.760                    22679030.320
      3399.618        2649.055          46.950          46.700    88997493.744 8
  22679031.000        2538.610          49.600


 133310018.767 6 103877947.55346  25368056.500                    25368057.540
       -91.669         -71.429          39.000          39.300



 113601791.810 8  88520876.35648  21617700.700                    21617699.780
      -944.382        -735.883          49.200          49.100



 112841196.574 8  87928204.23847  21472962.700                    21472959.520
       604.883         471.337          50.050          47.500



 127910868.199 7  99670792.68846  24340638.400                    24340639.360
     -3025.305       -2357.384          43.800          38.500



 121876358.099 7  94968627.85747  23192288.420                    23192289.880
       913.513         711.828          46.250          46.300



 23  8 28 11 19 30.0000000  0 10G02G03G04G06G09G12G17G19G21G31
 123931930.359 7  96570309.04147  23583464.060                    23583463.260
     -3036.051       -2365.760          45.200          43.350



 107056893.516 8  83420985.26048  20372238.920                    20372240.440
     -1005.481        -783.492          50.300          50.150    79945109.056 9
  20372240.800        -750.839          55.450


 110259874.382 8  85916828.89848  20981739.840                    20981740.720
      2028.427        1580.595          48.600          48.150    82336991.438 8
  20981744.620        1514.761          53.750


 121293942.865 7  94514778.16347  23081467.220                    23081469.800
      3177.240        2475.773          45.200          45.350    90576672.164 8
  23081472.180        2372.506          50.350


 119077316.294 7  92787564.50547  22659645.860                    22659648.620
      3390.830        2642.207          47.500          47.500    88921434.799 8
  22659648.740        2532.027          49.550


 133313049.183 6 103880308.93046  25368633.160                    25368634.240
      -110.466         -86.078          39.850          39.350



 113630396.721 8  88543165.86448  21623143.960                    21623143.320
      -962.410        -749.931          49.050          48.750



 112823387.989 8  87914327.41747  21469573.900                    21469570.720
       582.609         453.981          49.800          47.250



 128001691.690 7  99741564.07746  24357921.700                    24357922.540
     -3029.449       -2360.616          43.650          37.500



 121849251.268 7  94947505.64647  23187130.460                    23187131.460
       893.895         696.540          46.850          46.350



 23  8 28 11 20  0.0000000  0 10G02G03G04G06G09G12G17G19G21G31
 124023119.255 7  96641365.21447  23600816.920                    23600816.120
     -3043.243       -2371.363          45.350          42.850



 107087235.528 8  83444628.37748  20378012.780                    20378014.200
     -1017.507        -792.863          50.750          50.950    79967767.038 9
  20378014.760        -759.819          55.250


 110199262.031 8  85869598.52947  20970205.720                    20970206.380
      2012.294        1568.022          49.250          47.500    82291729.017 8
  20970210.780        1502.635          53.800


 121198705.920 7  94440567.60847  23063344.120                    23063346.700
      3171.829        2471.558          45.300          45.400    90505553.723 8
  23063349.080        2368.655          49.650


 118975728.828 7  92708405.47247  22640314.360                    22640317.040
      3381.827        2635.191          47.700          47.600    88845574.090 8
  22640317.500        2525.279          49.700


 133316653.341 6 103883117.36746  25369318.800                    25369320.080
      -129.294        -100.751          39.150          39.250



 113659542.001 8  88565876.43648  21628690.120                    21628689.560
      -980.501        -764.028          49.200          49.150



 112806243.291 8  87900967.91647  21466311.340                    21466308.240
       560.277         436.580          49.950          46.650



 128092640.016 7  99812432.73646  24375228.780                    24375229.660
     -3033.652       -2363.891          43.900          39.000



 121822730.441 7  94926840.05947  23182083.960                    23182084.560
       874.263         681.243          46.850          46.750



 23  8 28 11 20 30.0000000  0 10G02G03G04G06G09G12G17G19G21G31
 124114520.605 7  96712586.90947  23618210.300                    23618209.740
     -3050.271       -2376.838          46.100          43.850



 107117939.200 8  83468553.29948  20383855.580                    20383856.920
     -1029.369        -802.106          50.750          50.850    79990695.083 9
  20383857.540        -768.718          55.600


 110139136.020 8  85822747.12747  20958764.200                    20958764.500
      1996.188        1555.473          49.050          47.700    82246829.758 9
  20958769.380        1490.610          54.250


 121103623.752 7  94366477.66247  23045250.360                    23045253.060
      3166.758        2467.605          44.900          44.700    90434550.866 8
  23045255.260        2364.930          49.100


 118874408.961 7  92629454.96147  22621033.840                    22621036.640
      3372.898        2628.234          47.250          47.400    88769913.180 8
  22621036.900        2518.817          49.650


 133320830.301 6 103886372.17646  25370113.380                    25370115.000
      -148.585        -115.776          36.900          37.100



 113689226.703 8  88589007.33448  21634338.920                    21634338.340
      -998.492        -778.047          49.250          48.750



 112789763.802 8  87888126.76447  21463175.360                    21463172.420
       538.319         419.470          49.750          47.100



 128183711.617 7  99883397.46946  24392559.240                    24392560.240
     -3037.744       -2367.079          43.200          40.200



 121796796.938 7  94906632.15747  23177149.100                    23177149.480
       854.779         666.063          46.800          46.700



 23  8 28 11 21  0.0000000  0 10G02G03G04G06G09G12G17G19G21G31
 124206132.936 7  96783973.00047  23635643.640                    23635643.140
     -3056.651       -2381.810          46.250          42.650



 107149003.441 8  83492759.19548  20389767.000                    20389768.320
     -1041.294        -811.398          51.000          50.400    80013892.402 9
  20389769.020        -777.453          55.600


 110079497.605 8  85776275.66547  20947415.400                    20947415.440
      1980.182        1543.001          49.050          47.750    82202294.621 9
  20947420.860        1478.716          54.400


 121008698.084 7  94292509.66247  23027186.440                    23027189.120
      3161.749        2463.703          45.250          45.250    90363664.876 8
  23027190.940        2361.218          48.350


 118773358.579 7  92550714.45047  22601804.400                    22601807.280
      3364.133        2621.402          46.850          46.750    88694453.543 8
  22601807.600        2512.203          49.900


 133325579.242 6 103890072.69545  25371016.680                    25371018.800
      -167.432        -130.466          36.350          35.700



 113719449.540 8  88612557.56548  21640090.180                    21640089.460
     -1015.987        -791.678          49.400          49.600



 112773949.793 8  87875804.16947  21460166.020                    21460163.160
       516.346         402.349          50.100          47.250



 128274905.177 7  99954457.21646  24409912.920                    24409914.020
     -3041.508       -2370.010          42.950          36.450



 121771452.118 7  94886882.96547  23172326.200                    23172326.400
       835.300         650.883          46.700          46.350



 23  8 28 11 21 30.0000000  0 10G02G03G04G06G09G12G17G19G21G31
 124297953.356 7  96855521.24947  23653116.780                    23653116.460
     -3063.990       -2387.530          45.900          43.550



 107180425.907 8  83517244.22848  20395746.600                    20395747.860
     -1053.286        -820.742          50.750          50.800    80037357.231 9
  20395748.560        -786.604          55.700


 110020346.686 8  85730184.06947  20936159.320                    20936159.120
      1963.436        1529.950          48.800          47.850    82158123.509 9
  20936164.940        1466.325          54.550


 120913929.408 7  94218663.98447  23009152.420                    23009155.120
      3156.157        2459.344          44.400          44.400    90292896.108 8
  23009156.400        2356.975          48.050


 118672578.252 7  92472184.38747  22582626.280                    22582629.320
      3354.778        2614.114          46.150          46.200    88619195.584 8
  22582629.700        2505.182          49.700


 133330898.576 6 103894217.64046  25372028.780                    25372030.900
      -186.886        -145.627          38.050          38.550



 113750207.909 8  88636525.09248  21645943.360                    21645942.480
     -1034.195        -805.867          49.150          49.050



 112758800.398 8  87863999.43847  21457283.240                    21457280.400
       493.921         384.873          50.250          47.000



 128366218.499 7 100025610.27646  24427289.360                    24427290.780
     -3045.771       -2373.335          43.000          36.550



 121746695.916 7  94867592.43247  23167615.160                    23167615.180
       815.394         635.372          45.900          46.100



 23  8 28 11 22  0.0000000  0 10G02G03G04G06G09G12G17G19G21G31
 124389981.826 7  96927231.61247  23670629.400                    23670629.160
     -3071.521       -2393.396          46.800          42.200



 107212206.780 8  83542008.53048  20401794.180                    20401795.460
     -1065.800        -830.494          50.300          50.250    80061089.677 9
  20401796.340        -795.861          55.650


 109961685.658 8  85684474.21847  20924996.480                    20924996.200
      1946.803        1516.991          49.150          47.100    82114318.238 9
  20925002.200        1453.773          54.400


 120819320.679 7  94144942.94347  22991148.860                    22991151.620
      3150.523        2454.955          44.350          44.400    90222246.798 7
  22991152.440        2352.667          47.950


 118572071.166 7  92393867.23547  22563500.160                    22563503.340
      3345.020        2606.511          46.550          46.700    88544141.648 8
  22563503.580        2498.098          49.550


 133336789.082 6 103898807.63046  25373149.820                    25373151.620
      -206.173        -160.659          38.250          38.100



 113781501.818 8  88660909.93048  21651898.420                    21651897.500
     -1052.554        -820.173          49.350          49.300



 112744317.115 8  87852713.75947  21454527.240                    21454524.360
       471.246         367.205          50.500          46.800



 128457651.471 7 100096856.57246  24444688.620                    24444690.180
     -3049.931       -2376.574          43.100          40.550



 121722530.909 7  94848762.59147  23163016.500                    23163016.420
       795.249         619.676          45.350          45.800



 23  8 28 11 22 30.0000000  0 10G02G03G04G06G09G12G17G19G21G31
 124482219.980 7  96999105.34847  23688181.880                    23688181.840
     -3078.183       -2398.589          46.550          42.900



 107244348.214 8  83567053.78348  20407910.320                    20407911.700
     -1077.533        -839.637          50.250          50.300    80085091.385 9
  20407912.840        -804.675          55.850


 109903518.998 8  85639149.58047  20913927.660                    20913927.440
      1930.354        1504.173          49.350          47.500    82070882.131 9
  20913933.400        1441.571          54.650


 120724877.016 7  94071350.52447  22973176.800                    22973179.660
      3145.177        2450.788          44.500          44.400    90151720.727 8
  22973180.220        2348.628          48.550


 118471842.421 7  92315766.97947  22544426.960                    22544430.160
      3336.068        2599.536          45.700          45.550    88469295.601 8
  22544430.460        2491.265          49.700


 133343252.725 6 103903844.19146  25374379.960                    25374381.620
      -225.031        -175.351          37.900          37.750



 113813333.008 8  88685713.41648  21657955.760                    21657954.820
     -1070.207        -833.929          49.650          49.700



 112730503.866 8  87841950.18447  21451898.680                    21451895.720
       449.072         349.927          50.250          46.800



 128549206.107 7 100168197.67546  24462110.920                    24462112.680
     -3053.914       -2379.679          42.250          37.700



 121698961.641 7  94830396.96147  23158531.100                    23158531.040
       775.254         604.095          44.750          44.600



 23  8 28 11 23  0.0000000  0 10G02G03G04G06G09G12G17G19G21G31
 124574658.531 7  97071135.25347  23705772.640                    23705772.620
     -3084.761       -2403.714          45.750          42.100



 107276841.210 8  83592372.99448  20414093.460                    20414094.940
     -1089.062        -848.620          50.500          50.350    80109355.624 9
  20414096.020        -813.317          55.600


 109845839.899 8  85594204.85947  20902951.620                    20902951.480
      1914.397        1491.739          48.900          47.100    82027810.118 9
  20902957.280        1429.552          54.350


 120630592.189 7  93997881.87647  22955235.020                    22955238.040
      3139.959        2446.724          44.750          45.000    90081313.270 8
  22955238.500        2344.814          48.650


 118371886.005 7  92237878.92047  22525405.680                    22525408.980
      3327.256        2592.670          44.950          45.350    88394652.904 8
  22525409.200        2484.550          49.550


 133350281.065 6 103909320.83146  25375717.700                    25375719.040
      -243.290        -189.576          37.050          36.300



 113845692.331 8  88710928.45348  21664113.580                    21664112.680
     -1087.606        -847.487          49.050          49.300



 112717352.997 8  87831702.75047  21449396.060                    21449393.000
       427.142         332.838          49.600          46.800



 128640872.962 7 100239626.23746  24479554.740                    24479556.560
     -3057.477       -2382.454          42.850          39.650



 121675981.030 7  94812490.03447  23154157.720                    23154157.940
       756.065         589.145          44.000          44.100



 23  8 28 11 23 30.0000000  0 10G02G03G04G06G09G12G17G19G21G31
 124667305.750 7  97143327.75246  23723402.960                    23723402.900
     -3091.892       -2409.271          46.450          40.950



 107309694.483 8  83617972.93548  20420345.340                    20420346.720
     -1101.264        -858.128          51.150          51.100    80133888.896 9
  20420347.700        -822.345          55.650


 109788659.322 8  85549648.59247  20892070.500                    20892070.480
      1897.567        1478.624          49.200          47.400    81985110.374 9
  20892075.960        1416.945          54.350


 120536477.759 7  93924546.01947  22937325.740                    22937328.800
      3134.265        2442.287          45.450          45.350    90011033.078 8
  22937329.380        2340.402          49.200


 118272213.548 7  92160212.14247  22506438.540                    22506441.660
      3317.419        2585.003          45.700          45.250    88320222.255 8
  22506441.860        2477.327          49.450


 133357883.275 6 103915244.62746  25377164.380                    25377165.620
      -262.726        -204.720          36.400          36.500



 113878588.217 8  88736561.58048  21670373.620                    21670372.720
     -1105.824        -861.683          49.550          49.200



 112704874.359 8  87821979.13547  21447021.300                    21447018.220
       404.689         315.343          49.100          46.700



 128732660.754 7 100311148.97546  24497021.500                    24497023.520
     -3061.516       -2385.605          42.250          39.900



 121653600.186 7  94795050.44647  23149898.720                    23149899.200
       735.917         573.442          45.400          45.200



 23  8 28 11 24  0.0000000  0 10G02G03G04G06G09G12G17G19G21G31
 124760154.533 7  97215677.30347  23741071.560                    23741071.720
     -3098.609       -2414.507          46.400          43.050



 107342901.330 8  83643848.38248  20426664.540                    20426665.760
     -1113.013        -867.283          51.050          51.250    80158686.200 9
  20426666.700        -831.176          55.400


 109731972.758 8  85505477.27848  20881283.360                    20881283.500
      1880.878        1465.620          48.950          48.200    81942779.529 9
  20881288.580        1404.648          54.050


 120442529.967 7  93851340.00447  22919448.220                    22919451.240
      3128.584        2437.858          46.250          46.300    89940877.314 8
  22919452.000        2336.133          49.550


 118172821.341 7  92082763.74347  22487524.900                    22487527.880
      3308.132        2577.768          46.100          45.800    88246000.886 8
  22487528.100        2470.407          49.700


 133366052.905 6 103921610.56346  25378719.080                    25378720.340
      -281.590        -219.418          37.250          36.900



 113912013.541 8  88762607.25848  21676734.380                    21676733.460
     -1123.237        -875.251          49.650          49.600



 112693062.739 8  87812775.27447  21444773.360                    21444770.460
       382.221         297.834          48.800          46.750



 128824562.499 7 100382760.58946  24514510.000                    24514512.060
     -3065.508       -2388.713          42.300          39.050



 121631814.672 7  94778074.76647  23145753.300                    23145753.400
       716.002         557.926          45.800          45.800



 23  8 28 11 24 30.0000000  0 10G02G03G04G06G09G12G17G19G21G31
 124853207.236 7  97288185.78246  23758779.020                    23758778.960
     -3104.659       -2419.218          45.550          41.850



 107376464.504 8  83670001.48348  20433051.600                    20433052.660
     -1124.328        -876.101          51.400          51.750    80183749.609 9
  20433053.440        -839.788          55.450


 109675785.146 8  85461694.74848  20870591.140                    20870591.460
      1864.861        1453.141          48.850          48.300    81900821.285 8
  20870596.060        1392.507          53.900


 120348754.413 7  93778268.19747  22901603.520                    22901606.320
      3123.342        2433.774          47.100          47.000    89870850.168 8
  22901607.440        2332.215          49.950


 118073715.090 7  92005538.16947  22468665.660                    22468668.480
      3299.035        2570.679          46.250          46.000    88171993.066 8
  22468668.780        2463.471          49.600


 133374793.146 6 103928421.13645  25380382.220                    25380383.580
      -300.603        -234.239          36.650          35.650



 113945970.936 8  88789067.53748  21683196.420                    21683195.440
     -1140.463        -888.674          49.550          49.650



 112681922.274 8  87804094.39847  21442653.180                    21442650.540
       360.552         280.950          48.350          47.150



 128916580.805 7 100454462.97346  24532020.620                    24532022.720
     -3068.817       -2391.296          42.350          38.050



 121610629.524 7  94761566.91447  23141722.060                    23141721.660
       696.396         542.648          45.700          46.050



 23  8 28 11 25  0.0000000  0 10G02G03G04G06G09G12G17G19G21G31
 124946456.602 7  97360847.46746  23776523.840                    23776523.780
     -3112.303       -2425.176          45.650          41.900



 107410377.218 8  83696426.96548  20439505.200                    20439506.120
     -1137.062        -886.022          51.200          51.100    80209074.003 9
  20439506.700        -848.965          55.350


 109620091.852 8  85418297.39848  20859992.980                    20859993.560
      1847.608        1439.695          48.450          48.450    81859232.168 8
  20859997.620        1379.662          53.650


 120255147.160 7  93705327.53047  22883790.780                    22883793.280
      3116.722        2428.616          46.850          46.700    89800948.691 8
  22883794.740        2327.477          50.150


 117974890.919 7  91928532.38547  22449860.140                    22449862.720
      3288.740        2562.657          45.900          45.600    88098195.878 8
  22449863.160        2455.868          50.000


 133384096.845 6 103935670.78046  25382152.640                    25382154.140
      -320.252        -249.548          38.800          38.850



 113980453.000 8  88815936.64148  21689758.220                    21689757.160
     -1158.878        -903.024          49.050          48.950



 112671447.588 8  87795932.30947  21440659.780                    21440657.380
       337.440         262.939          48.200          47.750



 129008708.732 6 100526250.80846  24549552.180                    24549554.440
     -3073.527       -2394.961          41.500          40.050



 121590039.812 7  94745523.02947  23137803.980                    23137803.200
       675.641         526.474          45.900          45.600



 23  8 28 11 25 30.0000000  0 10G02G03G04G06G09G12G17G19G21G31
 125039909.691 7  97433667.89146  23794307.440                    23794307.340
     -3118.385       -2429.915          44.900          40.550



 107444646.983 8  83723130.66248  20446026.680                    20446027.460
     -1148.264        -894.752          51.750          51.900    80234665.056 9
  20446028.000        -857.434          55.550


 109564902.605 8  85375292.81548  20849490.800                    20849491.540
      1831.473        1427.121          48.750          48.400    81818019.460 8
  20849494.940        1367.500          53.450


 120161718.707 7  93632526.18247  22866011.880                    22866014.260
      3111.331        2424.416          46.550          46.400    89731180.761 8
  22866016.020        2323.391          50.300


 117876359.312 7  91851754.59747  22431110.220                    22431112.920
      3279.582        2555.521          46.100          46.250    88024617.192 8
  22431113.500        2449.057          50.050


 133393972.394 6 103943366.03546  25384031.840                    25384033.420
      -339.275        -264.368          37.750          38.400



 114015467.180 8  88843220.38548  21696421.200                    21696420.160
     -1175.922        -916.304          48.750          48.650



 112661647.443 8  87788295.83147  21438794.860                    21438792.600
       315.593         245.917          48.450          47.850



 129100953.459 6 100598129.62246  24567105.760                    24567108.080
     -3076.873       -2397.571          41.150          37.000



 121570055.550 7  94729950.90647  23134001.140                    23134000.060
       656.187         511.314          45.850          45.750



 23  8 28 11 26  0.0000000  0 10G02G03G04G06G09G12G17G19G21G31
 125133558.406 7  97506640.76947  23812128.240                    23812128.160
     -3125.326       -2435.323          45.300          42.600



 107479266.043 8  83750106.54048  20452614.480                    20452615.240
     -1160.389        -904.199          51.600          51.450    80260516.927 9
  20452615.880        -866.453          55.550


 109510211.735 8  85332676.57548  20839083.440                    20839084.280
      1814.060        1413.555          48.800          48.550    81777178.893 8
  20839087.160        1354.736          53.200


 120068464.109 7  93559860.31747  22848265.920                    22848268.260
      3105.034        2419.510          46.300          46.400    89661542.661 8
  22848270.300        2318.762          50.400


 117778115.367 7  91775200.95247  22412415.020                    22412417.480
      3269.562        2547.715          45.900          45.800    87951253.301 8
  22412418.260        2441.494          50.150


 133404412.244 6 103951501.03546  25386018.520                    25386020.080
      -357.746        -278.762          37.000          37.150



 114051004.998 8  88870912.16348  21703183.660                    21703182.700
     -1193.875        -930.294          48.450          48.400



 112652515.119 8  87781179.72647  21437057.080                    21437054.920
       292.647         228.036          48.850          47.650



 129193306.808 6 100670093.10446  24584680.100                    24584682.480
     -3080.822       -2400.646          41.300          40.900



 121550670.826 7  94714845.96347  23130312.420                    23130311.320
       635.666         495.326          46.350          46.100



 23  8 28 11 26 30.0000000  0 10G02G03G04G06G09G12G17G19G21G31
 125227404.123 7  97579767.12346  23829986.480                    23829986.440
     -3131.820       -2440.387          44.200          41.250



 107514236.160 8  83777355.96848  20459269.000                    20459269.820
     -1171.743        -913.048          51.600          51.400    80286630.962 9
  20459270.600        -875.015          55.650


 109456023.157 8  85290451.74448  20828771.720                    20828772.540
      1797.724        1400.825          49.050          48.550    81736713.444 8
  20828775.060        1342.425          53.300


 119975388.077 7  93487333.60647  22830553.920                    22830556.260
      3099.218        2414.977          45.550          45.650    89592037.913 8
  22830558.560        2314.386          50.500


 117680163.866 7  91698875.19247  22393775.340                    22393778.040
      3259.979        2540.247          46.300          45.800    87878107.800 8
  22393779.020        2434.384          50.350


 133415418.096 6 103960077.06446  25388112.960                    25388114.380
      -376.104        -293.065          37.150          36.250



 114087068.016 8  88899013.18048  21710046.000                    21710045.160
     -1210.963        -943.608          48.300          48.250



 112644053.879 8  87774586.55447  21435447.040                    21435444.940
       270.692         210.929          48.550          47.500



 129285770.568 6 100742142.59946  24602275.280                    24602277.740
     -3084.212       -2403.289          40.650          38.000



 121531889.536 7  94700211.25547  23126738.500                    23126737.780
       615.830         479.869          46.350          46.600



 23  8 28 11 27  0.0000000  0 10G02G03G04G06G09G12G17G19G21G31
 125321445.660 7  97653046.08346  23847882.020                    23847882.060
     -3137.674       -2444.945          44.350          40.650



 107549556.743 8  83804878.48848  20465990.220                    20465991.000
     -1182.959        -921.787          51.650          51.500    80313006.710 9
  20465991.980        -883.362          55.800


 109402338.385 8  85248619.48748  20818555.820                    20818556.540
      1781.302        1388.028          48.950          48.450    81696624.195 8
  20818559.060        1330.232          53.500


 119882492.920 7  93414947.82847  22812876.380                    22812878.580
      3093.737        2410.706          45.300          44.900    89522668.222 8
  22812881.260        2310.291          50.500


 117582507.103 7  91622779.09647  22375191.740                    22375194.240
      3250.611        2532.946          46.200          46.650    87805182.389 8
  22375195.500        2427.324          50.250


 133426989.414 6 103969093.70246  25390314.980                    25390316.120
      -394.860        -307.682          36.900          37.000



 114123655.430 8  88927522.82348  21717008.180                    21717007.440
     -1227.966        -956.857          48.400          48.400



 112636264.353 8  87768516.78347  21433964.800                    21433962.720
       248.737         193.821          48.700          47.200



 129378343.594 6 100814277.23446  24619891.340                    24619893.720
     -3087.190       -2405.609          40.150          39.750



 121513713.228 7  94686047.95147  23123279.660                    23123279.260
       596.049         464.456          46.200          46.250



 23  8 28 11 27 30.0000000  0 10G02G03G04G06G09G12G17G19G21G31
 125415682.516 7  97726477.22246  23865814.500                    23865814.820
     -3144.827       -2450.521          43.700          40.500



 107585227.582 8  83832673.92448  20472778.100                    20472778.880
     -1195.154        -931.290          51.400          51.250    80339643.996 9
  20472780.100        -892.514          55.800


 109349159.299 8  85207181.26948  20808436.200                    20808436.740
      1763.758        1374.356          48.700          48.750    81656912.576 8
  20808439.520        1317.151          53.550


 119789781.346 7  93342705.09147  22795233.900                    22795235.860
      3087.051        2405.496          45.300          45.350    89453435.615 8
  22795238.920        2305.203          50.300


 117485147.831 7  91546914.81647  22356664.800                    22356667.360
      3239.919        2524.614          46.100          46.150    87732479.137 8
  22356668.800        2419.403          50.350


 133439126.186 6 103978550.98946  25392624.620                    25392625.840
      -414.559        -323.030          37.100          37.100



 114160766.265 8  88956440.32848  21724070.060                    21724069.280
     -1245.986        -970.899          48.400          48.150



 112629146.875 8  87762970.69447  21432610.420                    21432608.340
       225.770         175.924          48.450          47.750



 129471025.574 6 100886496.77746  24637528.300                    24637530.840
     -3091.631       -2409.068          40.150          38.250



 121496143.745 7  94672357.47847  23119936.320                    23119936.100
       575.247         448.245          46.500          46.300



 23  8 28 11 28  0.0000000  0 10G02G03G04G06G09G12G17G19G21G31
 125510108.745 7  97800055.92146  23883783.280                    23883783.620
     -3150.914       -2455.265          43.950          40.650



 107621243.302 8  83860738.10548  20479631.680                    20479632.560
     -1206.653        -940.250          51.550          51.550    80366538.820 9
  20479633.940        -901.015          55.900


 109296482.616 8  85166134.53448  20798412.140                    20798412.400
      1747.144        1361.411          48.850          48.700    81617576.129 8
  20798415.720        1304.734          53.900


 119697250.928 7  93270603.52147  22777625.920                    22777627.700
      3081.138        2400.888          45.650          45.650    89384338.294 8
  22777631.120        2300.744          50.350


 117388083.550 7  91471280.41147  22338193.980                    22338196.420
      3230.248        2517.080          46.750          46.650    87659996.184 8
  22338198.040        2412.177          50.200


 133451823.516 6 103988445.03046  25395040.760                    25395042.160
      -432.660        -337.136          38.350          38.500



 114198394.825 8  88985761.25848  21731230.580                    21731229.800
     -1263.238        -984.343          48.700          48.700



 112622697.938 8  87757945.53847  21431383.240                    21431381.060
       203.486         158.561          49.000          47.300



 129563811.292 6 100958797.12945  24655185.160                    24655187.820
     -3095.011       -2411.707          41.050          35.450



 121479177.944 7  94659137.37547  23116707.740                    23116707.260
       555.139         432.575          46.100          46.550



 23  8 28 11 28 30.0000000  0 10G02G03G04G06G09G12G17G19G21G31
 125604730.733 7  97873787.16646  23901789.220                    23901789.740
     -3157.234       -2460.188          43.600          41.150



 107657610.654 8  83889076.27948  20486552.200                    20486553.180
     -1217.939        -949.044          51.850          51.900    80393696.234 9
  20486554.520        -909.583          55.950


 109244317.148 8  85125486.15248  20788485.400                    20788485.420
      1730.499        1348.442          48.600          48.350    81578621.434 9
  20788489.360        1292.151          54.350


 119604911.360 7  93198650.67447  22760054.240                    22760055.980
      3074.853        2395.991          45.450          45.050    89315383.491 8
  22760059.600        2296.148          50.450


 117291323.972 7  91395883.41947  22319781.200                    22319783.420
      3220.288        2509.319          47.050          46.850    87587740.751 8
  22319785.180        2404.683          50.550


 133465087.830 6 103998780.83346  25397564.720                    25397566.480
      -451.341        -351.695          38.950          39.000



 114236547.405 8  89015490.52448  21738490.900                    21738490.080
     -1280.298        -997.636          48.800          49.050



 112616925.455 8  87753447.49347  21430284.820                    21430282.400
       181.266         141.245          49.150          47.000



 129656706.921 6 101031183.15846  24672862.800                    24672865.300
     -3098.364       -2414.314          41.350          36.800



 121462824.029 7  94646394.09047  23113595.460                    23113594.740
       535.023         416.900          45.750          45.750



 23  8 28 11 29  0.0000000  0 10G02G03G04G06G09G12G17G19G21G31
 125699536.499 7  97947661.61146  23919830.420                    23919830.860
     -3163.998       -2465.460          43.950          40.750



 107694318.227 8  83917679.55648  20493537.440                    20493538.300
     -1229.841        -958.318          51.650          51.700    80421107.705 9
  20493539.820        -918.426          55.550


 109192653.510 8  85085228.80048  20778654.140                    20778654.100
      1713.253        1335.003          48.800          48.400    81540041.473 9
  20778658.440        1279.260          54.150


 119512754.158 7  93126839.91447  22742517.260                    22742519.060
      3068.171        2390.784          45.900          46.050    89246564.854 8
  22742522.680        2291.235          50.250


 117194860.499 7  91320717.16347  22301424.720                    22301426.880
      3209.811        2501.153          47.650          47.750    87515706.426 8
  22301428.720        2397.008          49.900


 133478907.688 6 104009549.46946  25400194.400                    25400196.320
      -470.552        -366.664          39.100          38.550



 114275211.717 8  89045618.54548  21745848.620                    21745847.860
     -1298.015       -1011.439          49.000          49.250



 112611818.695 8  87749468.19247  21429313.080                    21429310.480
       158.426         123.448          49.550          46.700



 129749700.733 6 101103645.64346  24690559.220                    24690561.480
     -3101.829       -2417.018          41.800          37.150



 121447072.665 7  94634120.32847  23110598.020                    23110597.040
       514.378         400.813          46.850          46.400



 23  8 28 11 29 30.0000000  0 10G02G03G04G06G09G12G17G19G21G31
 125794536.024 7  98021687.03546  23937908.400                    23937908.600
     -3169.540       -2469.776          44.650          40.800



 107731376.191 8  83946555.88748  20500589.260                    20500590.060
     -1240.838        -966.887          50.850          50.750    80448780.846 9
  20500591.760        -926.639          55.700


 109141503.993 8  85045372.06448  20768920.740                    20768920.680
      1696.541        1321.981          49.100          48.600    81501845.437 9
  20768925.320        1266.911          54.600


 119420792.498 7  93055181.52547  22725017.500                    22725019.200
      3062.246        2386.168          46.600          46.400    89177892.245 8
  22725022.900        2286.740          50.600


 117098706.257 7  91245791.84547  22283127.140                    22283129.040
      3200.210        2493.674          47.200          47.200    87443903.029 8
  22283130.920        2389.720          50.250


 133493293.607 6 104020759.26646  25402931.800                    25402933.940
      -488.533        -380.678          36.250          36.500



 114314397.915 8  89076153.24148  21753305.640                    21753304.920
     -1314.627       -1024.384          48.950          48.950



 112607388.876 8  87746016.37747  21428470.240                    21428467.480
       136.556         106.407          49.350          46.950



 129842802.901 6 101176192.57446  24708276.320                    24708278.320
     -3104.932       -2419.437          41.750          37.850



 121431936.563 7  94622325.99947  23107717.760                    23107716.400
       494.533         385.352          46.300          46.200



 23  8 28 11 30  0.0000000  0 10G02G03G04G06G09G12G17G19G21G31
 125889722.166 7  98095857.89347  23956021.980                    23956021.980
     -3175.471       -2474.399          43.800          42.300



 107768778.083 8  83975700.20948  20507706.540                    20507707.420
     -1252.189        -975.732          50.900          50.550    80476710.821 9
  20507709.000        -935.062          55.650


 109090864.069 8  85005912.41448  20759284.340                    20759284.360
      1679.785        1308.924          48.800          48.700    81464029.951 9
  20759288.960        1254.418          54.600


 119329022.813 7  92983672.72447  22707554.440                    22707555.900
      3055.982        2381.286          46.650          46.500    89109362.997 8
  22707559.580        2282.090          50.400


 117002857.699 7  91171104.72947  22264887.700                    22264889.780
      3190.146        2485.830          47.350          47.300    87372327.878 8
  22264891.500        2382.312          50.350


 133508238.860 6 104032404.86446  25405775.920                    25405777.800
      -507.089        -395.135          37.850          37.750



 114354098.954 8  89107089.08948  21760860.640                    21760859.880
     -1331.512       -1037.543          48.900          48.800



 112603630.730 8  87743087.94147  21427755.180                    21427752.380
       114.425          89.162          49.250          47.350



 129936006.783 6 101248818.76946  24726012.560                    24726014.660
     -3107.884       -2421.735          40.550          39.200



 121417410.919 7  94611007.38447  23104953.640                    23104951.760
       474.334         369.612          45.350          45.350



 23  8 28 11 30 30.0000000  0 10G02G03G04G06G09G12G17G19G21G31
 125985091.900 7  98170171.77946  23974170.480                    23974170.320
     -3181.980       -2479.471          44.900          40.600



 107806521.448 8  84005110.60948  20514888.860                    20514889.760
     -1263.640        -984.654          51.550          51.650    80504895.773 9
  20514891.260        -943.654          55.700


 109040733.283 8  84966849.49648  20749744.780                    20749744.980
      1662.638        1295.563          49.100          49.050    81426594.658 9
  20749749.360        1241.532          54.650


 119237445.661 7  92912313.95447  22690127.940                    22690129.320
      3049.389        2376.148          46.800          46.600    89040977.517 8
  22690132.820        2277.174          50.250


 116907315.235 7  91096656.11348  22246706.500                    22246708.380
      3179.758        2477.734          47.950          48.100    87300981.307 8
  22246710.200        2374.439          50.350


 133523741.438 6 104044484.70746  25408726.160                    25408727.960
      -525.908        -409.801          38.550          38.700



 114394311.594 8  89138423.60748  21768512.900                    21768512.140
     -1348.845       -1051.050          48.850          48.650



 112600542.837 8  87740681.78647  21427167.620                    21427164.900
        91.799          71.531          49.650          47.300



 130029309.441 7 101321521.88746  24743767.740                    24743769.960
     -3111.477       -2424.536          42.300          37.400



 121403494.829 7  94600163.73447  23102305.320                    23102303.100
       453.947         353.727          45.050          44.850



 23  8 28 11 31  0.0000000  0 10G02G03G04G06G09G12G17G19G21G31
 126080649.084 7  98244631.74446  23992354.560                    23992354.160
     -3188.039       -2484.192          44.350          39.700



 107844610.337 8  84034790.24848  20522137.000                    20522137.840
     -1275.261        -993.709          51.350          51.250    80533338.763 9
  20522139.220        -952.344          55.350


 108991117.739 8  84928188.06048  20740303.240                    20740303.600
      1645.318        1282.066          49.350          48.750    81389544.122 9
  20740307.720        1228.650          54.400


 119146068.065 7  92841110.67147  22672739.300                    22672740.860
      3042.679        2370.920          46.650          46.600    88972741.053 8
  22672743.880        2272.079          49.700


 116812085.852 7  91022451.46647  22228584.900                    22228587.060
      3169.111        2469.441          47.300          47.150    87229868.527 8
  22228588.560        2366.548          50.500


 133539805.390 6 104057002.11646  25411783.300                    25411784.980
      -544.740        -424.469          38.350          37.900



 114435039.322 8  89170159.47948  21776263.100                    21776262.360
     -1366.095       -1064.489          48.900          49.050



 112598130.187 8  87738801.79347  21426708.560                    21426705.880
        69.169          53.897          49.550          47.350



 130122714.890 6 101394305.13546  24761542.500                    24761544.560
     -3115.106       -2427.362          41.200          38.550



 121390194.397 7  94589799.83147  23099774.220                    23099772.060
       433.190         337.553          44.650          44.650



 23  8 28 11 31 30.0000000  0 10G02G03G04G06G09G12G17G19G21G31
 126176389.209 7  98319234.25246  24010573.440                    24010572.980
     -3194.201       -2488.995          44.500          40.800



 107883041.013 8  84064736.20748  20529450.080                    20529450.940
     -1286.461       -1002.438          50.750          50.750    80562036.969 9
  20529452.220        -960.675          55.700


 108942015.534 8  84889926.62648  20730959.320                    20730959.800
      1628.529        1268.984          49.250          49.150    81352876.930 9
  20730963.640        1216.035          54.650


 119054889.213 7  92770062.25047  22655388.340                    22655390.320
      3036.284        2365.937          46.050          45.800    88904652.992 8
  22655392.700        2267.271          49.750


 116717168.618 7  90948490.03947  22210522.660                    22210524.720
      3158.894        2461.478          47.050          46.800    87158988.847 8
  22210526.320        2358.941          50.550


 133556426.708 6 104069953.77546  25414946.100                    25414947.960
      -563.095        -438.774          40.850          40.600



 114476278.113 8  89202293.57748  21784110.560                    21784109.900
     -1382.903       -1077.588          48.700          48.700



 112596389.895 8  87737445.70747  21426377.440                    21426374.860
        47.162          36.749          49.650          47.550



 130216218.724 6 101467164.99346  24779335.740                    24779337.720
     -3118.406       -2429.937          41.400          38.200



 121377507.546 7  94579914.00647  23097359.680                    23097358.160
       412.655         321.550          43.700          43.750



 23  8 28 11 32  0.0000000  0 10G02G03G04G06G09G12G17G19G21G31
 126272311.996 7  98393979.08146  24028826.960                    24028826.520
     -3201.011       -2494.302          44.750          40.400



 107921813.445 8  84094948.48348  20536828.080                    20536828.960
     -1298.583       -1011.883          50.350          50.250    80590990.389 9
  20536830.280        -969.724          55.200


 108893428.714 8  84852066.79148  20721713.420                    20721714.020
      1610.438        1254.887          49.300          48.800    81316594.591 9
  20721717.620        1202.640          54.150


 118963912.113 7  92699171.06547  22638075.720                    22638078.180
      3028.944        2360.218          45.900          45.450    88836715.601 8
  22638080.000        2261.680          49.400


 116622566.419 7  90874774.11947  22192520.400                    22192522.740
      3147.717        2452.770          47.550          47.000    87088344.424 8
  22192523.960        2350.509          50.550


 133573604.536 6 104083339.04246  25418215.060                    25418216.620
      -582.786        -454.121          38.350          38.100



 114518027.021 8  89234825.16348  21792055.080                    21792054.480
     -1400.664       -1091.428          49.100          48.800



 112595323.034 8  87736614.37447  21426174.420                    21426172.000
        23.911          18.632          50.050          47.150



 130309820.791 6 101540101.41046  24797147.840                    24797149.820
     -3122.030       -2432.761          41.950          38.800



 121365436.212 7  94570507.76147  23095061.940                    23095061.620
       391.479         305.049          42.100          42.000



 23  8 28 11 32 30.0000000  0 10G02G03G04G06G09G12G17G19G21G31
 126368413.936 7  98468863.53546  24047114.680                    24047114.220
     -3206.265       -2498.395          44.800          41.050



 107960924.656 8  84125424.73548  20544270.460                    20544271.580
     -1309.210       -1020.164          49.700          49.700    80620196.791 9
  20544272.860        -977.621          55.250


 108845356.185 8  84814607.70048  20712565.400                    20712566.080
      1593.949        1242.039          49.200          48.950    81280696.298 9
  20712569.500        1190.325          54.250


 118873136.788 7  92628437.10147  22620801.440                    22620804.340
      3022.679        2355.336          45.050          44.900    88768928.879 8
  22620805.840        2257.196          49.800


 116528279.201 7  90801303.61147  22174578.080                    22174580.340
      3137.617        2444.898          47.450          47.350    87017935.201 8
  22174581.640        2343.144          50.300


 133591336.917 6 104097156.54646  25421589.260                    25421590.980
      -600.144        -467.646          37.750          36.850



 114560282.557 8  89267751.53048  21800096.060                    21800095.480
     -1416.790       -1103.992          48.850          48.600



 112594927.314 8  87736306.00747  21426099.160                    21426096.840
         2.095           1.632          49.900          47.350



 130403518.044 6 101613111.99746  24814977.960                    24814980.160
     -3124.635       -2434.788          40.850          38.500



 121353979.312 7  94561580.30747  23092881.300                    23092881.840
       371.810         289.722          42.800          42.600



 23  8 28 11 33  0.0000000  0 10G02G03G04G06G09G12G17G19G21G31
 126464693.845 7  98543886.63446  24065436.240                    24065435.920
     -3211.988       -2502.854          45.050          40.800



 108000373.564 8  84156164.13148  20551777.260                    20551778.680
     -1320.346       -1028.842          50.300          50.300    80649655.377 9
  20551779.660        -985.931          55.250


 108797798.800 8  84777550.02448  20703515.460                    20703516.080
      1576.803        1228.679          49.000          48.850    81245182.702 9
  20703519.400        1177.573          54.300


 118782565.133 7  92557861.84847  22603566.020                    22603569.160
      3016.024        2350.150          45.400          45.850    88701294.276 8
  22603570.540        2252.142          50.000


 116434308.651 7  90728079.87847  22156696.100                    22156698.420
      3127.269        2436.835          47.150          46.900    86947762.472 8
  22156699.380        2335.354          50.600


 133609622.318 6 104111404.90846  25425068.860                    25425070.640
      -618.414        -481.883          39.300          38.900



 114603043.137 8  89301071.42248  21808233.160                    21808232.460
     -1433.634       -1117.118          48.600          48.600



 112595202.749 8  87736520.62547  21426151.600                    21426149.400
       -20.144         -15.696          49.750          47.500



 130497309.064 7 101686195.61346  24832826.080                    24832828.460
     -3127.779       -2437.239          42.200          37.800



 121343137.338 7  94553132.07147  23090818.500                    23090818.500
       351.378         273.803          45.700          45.700



 23  8 28 11 33 30.0000000  0 10G02G03G04G06G09G12G17G19G21G31
 126561152.861 7  98619049.32346  24083792.020                    24083791.760
     -3218.346       -2507.809          44.350          41.600



 108040162.532 8  84187168.50048  20559348.860                    20559350.340
     -1331.939       -1037.876          49.750          49.850    80679367.894 9
  20559351.180        -994.657          55.250


 108750760.780 8  84740897.04648  20694564.440                    20694564.880
      1559.317        1215.054          49.000          48.800    81210056.943 9
  20694568.320        1164.325          54.350


 118692202.572 7  92487449.50847  22586370.520                    22586373.700
      3008.325        2344.151          45.400          45.750    88633815.778 8
  22586375.040        2246.604          50.350


 116340660.044 7  90655106.99647  22138875.400                    22138877.640
      3116.101        2428.132          46.900          46.550    86877830.145 8
  22138878.600        2327.006          50.350


 133628462.571 6 104126085.65346  25428653.880                    25428655.860
      -637.075        -496.423          38.650          38.300



 114646310.115 8  89334785.90148  21816466.600                    21816465.900
     -1450.725       -1130.437          48.550          48.400



 112596152.362 8  87737260.57847  21426332.260                    21426330.100
       -42.993         -33.501          49.550          47.100



 130591195.722 6 101759353.78446  24850692.480                    24850694.760
     -3131.520       -2440.154          40.700          40.050



 121332914.437 7  94545166.24947  23088873.820                    23088872.500
       330.478         257.518          47.200          47.050



 23  8 28 11 34  0.0000000  0 10G02G03G04G06G09G12G17G19G21G31
 126657787.821 7  98694349.09447  24102181.200                    24102181.140
     -3224.562       -2512.652          44.200          42.200



 108080288.751 8  84218435.66148  20566984.720                    20566985.900
     -1343.627       -1046.982          50.350          50.100    80709332.256 9
  20566987.040       -1003.371          55.200


 108704241.246 8  84704648.08348  20685712.140                    20685712.380
      1541.614        1201.259          49.150          49.150    81175318.354 9
  20685716.020        1151.169          54.450


 118602049.231 7  92417200.19647  22569214.960                    22569218.040
      3001.287        2338.667          46.250          45.750    88566493.540 8
  22569219.300        2241.163          50.400


 116247333.399 7  90582384.99047  22121116.000                    22121118.160
      3105.025        2419.503          47.600          47.650    86808138.244 8
  22121118.960        2318.682          50.600


 133647855.015 6 104141196.64546  25432343.980                    25432346.040
      -655.809        -511.018          37.600          36.700



 114690080.085 8  89368892.32048  21824795.740                    21824795.040
     -1467.712       -1143.672          48.750          48.750



 112597774.324 8  87738524.43647  21426640.840                    21426638.680
       -65.762         -51.243          49.350          47.350



 130685175.220 7 101832584.26145  24868576.480                    24868578.580
     -3134.608       -2442.561          42.000          35.100



 121323309.695 7  94537682.08947  23087046.620                    23087044.060
       309.625         241.268          45.550          45.650



 23  8 28 11 34 30.0000000  0 10G02G03G04G06G09G12G17G19G21G31
 126754598.733 7  98769785.99846  24120603.880                    24120603.900
     -3230.037       -2516.919          44.750          40.100



 108120752.553 8  84249965.87448  20574684.880                    20574685.720
     -1354.548       -1055.493          50.350          50.350    80739548.698 9
  20574687.220       -1011.519          55.150


 108658242.355 8  84668804.82448  20676958.940                    20676958.960
      1524.578        1187.984          49.700          49.350    81140968.571 9
  20676962.900        1138.362          54.650


 118512108.505 7  92347116.56147  22552100.020                    22552102.820
      2994.562        2333.426          47.100          47.200    88499330.078 8
  22552103.980        2236.023          50.400


 116154331.891 8  90509916.33448  22103418.480                    22103420.580
      3094.465        2411.272          48.300          48.400    86738689.133 8
  22103421.240        2310.771          50.600


 133667800.547 6 104156738.60046  25436139.540                    25436141.560
      -674.295        -525.426          39.550          39.250



 114734353.089 8  89403390.72847  21833220.580                    21833220.040
     -1484.194       -1156.517          48.050          47.800



 112600069.285 8  87740312.71147  21427077.460                    21427075.280
       -87.905         -68.498          49.000          47.600



 130779247.523 6 101905887.08646  24886478.200                    24886480.320
     -3137.187       -2444.565          41.600          36.600



 121314325.043 7  94530681.09847  23085336.700                    23085334.300
       289.189         225.343          43.500          43.150



 23  8 28 11 35  0.0000000  0 10G02G03G04G06G09G12G17G19G21G31
 126851583.574 7  98845358.39446  24139059.580                    24139059.800
     -3235.603       -2521.254          43.900          41.550



 108161552.338 8  84281757.91048  20582449.040                    20582449.660
     -1365.415       -1063.959          50.900          50.800    80770016.066 9
  20582451.280       -1019.626          55.000


 108612764.445 8  84633367.52548  20668304.960                    20668304.800
      1507.386        1174.587          49.900          49.100    81107007.832 9
  20668309.060        1125.624          54.750


 118422381.893 7  92277199.75747  22535025.800                    22535028.340
      2987.287        2327.757          47.250          47.150    88432326.478 8
  22535029.460        2230.864          50.550


 116061656.776 8  90437702.01248  22085783.000                    22085785.080
      3083.896        2403.037          48.550          48.300    86669483.763 8
  22085785.720        2302.860          50.800


 133688296.617 6 104172709.62746  25440039.960                    25440041.600
      -692.314        -539.462          40.300          40.200



 114779126.512 8  89438279.07848  21841740.640                    21841740.260
     -1500.731       -1169.401          48.450          48.800



 112603036.685 8  87742624.96247  21427642.080                    21427639.840
      -109.941         -85.669          49.050          46.650



 130873410.822 7 101979260.78246  24904397.240                    24904399.580
     -3140.117       -2446.854          42.050          39.100



 121305960.390 7  94524163.17647  23083744.360                    23083742.740
       268.797         209.451          42.900          42.900



 23  8 28 11 35 30.0000000  0 10G02G03G04G06G09G12G17G19G21G31
 126948738.953 7  98921063.70746  24157547.860                    24157548.320
     -3241.289       -2525.685          43.900          40.600



 108202685.259 8  84313809.51448  20590276.520                    20590276.980
     -1376.763       -1072.803          50.750          50.800    80800732.183 9
  20590278.640       -1028.079          55.050


 108567806.387 8  84598335.30448  20659749.800                    20659749.720
      1489.974        1161.019          50.000          49.550    81073435.295 9
  20659754.160        1112.539          55.000


 118332869.435 7  92207449.82747  22517992.220                    22517994.540
      2980.180        2322.220          46.700          46.850    88365482.814 8
  22517995.760        2225.443          50.600


 115969308.004 8  90365741.96748  22068209.680                    22068211.840
      3072.896        2394.466          48.100          48.050    86600522.059 8
  22068212.160        2294.669          50.900


 133709339.790 6 104189106.83046  25444044.540                    25444045.840
      -710.392        -553.554          41.750          41.150



 114824396.577 8  89473554.41348  21850355.300                    21850354.940
     -1517.366       -1182.364          48.350          48.600



 112606674.339 8  87745459.48847  21428334.220                    21428331.880
      -132.482        -103.233          49.300          46.300



 130967661.970 6 102052702.93446  24922332.860                    24922335.400
     -3143.275       -2449.313          41.750          36.500



 121298214.500 7  94518127.40147  23082270.000                    23082268.800
       247.941         193.201          44.000          43.850



 23  8 28 11 36  0.0000000  0 10G02G03G04G06G09G12G17G19G21G31
 127046066.422 7  98996903.08046  24176068.720                    24176069.400
     -3246.998       -2530.134          43.900          40.300



 108244153.406 8  84346122.33148  20598167.700                    20598168.060
     -1387.805       -1081.407          51.250          51.300    80831698.635 9
  20598169.820       -1036.285          55.300


 108523372.119 8  84563711.23848  20651294.260                    20651294.360
      1472.525        1147.424          49.850          49.500    81040253.901 9
  20651298.920        1099.596          55.300


 118243576.332 7  92137870.82847  22501000.160                    22501002.500
      2972.840        2316.500          46.150          46.350    88298802.955 8
  22501003.880        2220.021          50.750


 115877290.496 8  90294040.06648  22050699.300                    22050701.480
      3061.783        2385.806          48.950          48.950    86531807.763 8
  22050701.980        2286.427          51.150


 133730932.357 6 104205932.28946  25448153.460                    25448154.900
      -728.873        -567.952          39.200          39.350



 114870164.730 8  89509217.87248  21859064.760                    21859064.380
     -1533.853       -1195.211          48.800          48.700



 112610985.089 8  87748818.49747  21429154.540                    21429152.080
      -154.774        -120.604          49.250          46.200



 131062002.794 6 102126214.95546  24940285.420                    24940288.280
     -3146.071       -2451.495          40.900          36.850



 121291091.091 7  94512576.65647  23080914.740                    23080912.980
       227.189         177.029          46.450          46.600



 23  8 28 11 36 30.0000000  0 10G02G03G04G06G09G12G17G19G21G31
 127143563.521 7  99072874.66546  24194621.920                    24194622.720
     -3253.080       -2534.874          43.750          41.950



 108285955.011 8  84378694.98848  20606122.280                    20606122.740
     -1399.188       -1090.277          50.650          50.900    80862914.092 9
  20606124.440       -1044.849          55.200


 108479461.713 8  84529495.36648  20642938.320                    20642938.660
      1454.654        1133.498          49.600          49.400    81007463.701 9
  20642943.200        1086.281          55.250


 118154503.877 7  92068463.77447  22484050.140                    22484052.480
      2965.079        2310.453          46.200          46.250    88232287.869 8
  22484053.980        2214.281          50.600


 115785605.338 8  90222597.15948  22033252.120                    22033254.540
      3050.354        2376.901          48.900          49.050    86463341.646 8
  22033254.640        2277.925          51.250


 133753072.302 6 104223184.20946  25452366.400                    25452368.060
      -747.023        -582.095          36.900          37.350



 114916428.399 8  89545267.45448  21867868.560                    21867868.100
     -1550.687       -1208.329          49.000          49.150



 112615967.950 8  87752701.22647  21430102.840                    21430100.100
      -177.540        -138.344          49.100          46.600



 131156431.112 6 102199795.16046  24958254.620                    24958257.700
     -3149.320       -2454.027          40.300          38.000



 121284590.150 7  94507510.97347  23079678.200                    23079675.420
       205.970         160.496          47.000          47.150



 23  8 28 11 37  0.0000000  0 10G02G03G04G06G09G12G17G19G21G31
 127241228.053 7  99148976.70146  24213206.940                    24213207.820
     -3258.562       -2539.145          43.600          41.350



 108328088.374 8  84411526.15448  20614140.020                    20614140.600
     -1410.193       -1098.853          50.750          50.750    80894377.288 9
  20614142.060       -1053.104          54.600


 108436075.199 8  84495687.72448  20634682.040                    20634682.560
      1437.215        1119.908          49.300          49.250    80975064.715 9
  20634687.100        1073.208          54.900


 118065653.398 7  91999229.68647  22467142.420                    22467144.660
      2957.672        2304.682          46.700          46.800    88165938.550 8
  22467146.240        2208.576          50.000


 115694253.623 8  90151414.05548  22015868.440                    22015870.780
      3039.189        2368.202          48.800          48.900    86395124.534 8
  22015871.240        2269.473          50.950


 133775757.502 6 104240860.92746  25456683.020                    25456684.840
      -765.706        -596.659          37.100          37.850



 114963185.306 8  89581701.36648  21876766.280                    21876765.600
     -1567.035       -1221.067          48.700          48.650



 112621621.746 8  87757106.75647  21431178.780                    21431175.900
      -199.921        -155.782          49.050          47.150



 131250945.054 6 102273442.07046  24976240.100                    24976242.960
     -3151.920       -2456.057          40.000          38.150



 121278711.245 7  94502930.01047  23078559.900                    23078556.180
       185.259         144.357          45.550          45.600



 23  8 28 11 37 30.0000000  0 10G02G03G04G06G09G12G17G19G21G31
 127339057.958 7  99225207.62446  24231823.560                    24231824.260
     -3263.877       -2543.286          43.750          40.800



 108370551.689 8  84444614.43048  20622220.540                    20622221.200
     -1420.954       -1107.237          50.650          50.550    80926086.880 9
  20622222.340       -1061.220          54.550


 108393212.576 8  84462288.30648  20626525.460                    20626526.040
      1419.954        1106.459          49.100          48.800    80943056.949 9
  20626530.480        1060.233          54.850


 117977026.179 7  91930169.56947  22450277.260                    22450279.320
      2950.189        2298.851          47.300          47.300    88099755.939 8
  22450280.880        2203.077          49.800


 115603236.343 8  90080491.57148  21998548.420                    21998550.880
      3028.169        2359.614          49.000          48.900    86327157.155 8
  21998551.020        2261.181          51.050


 133798986.091 6 104258961.05446  25461103.260                    25461104.820
      -783.490        -610.517          39.200          39.350



 115010432.778 8  89618517.52748  21885757.280                    21885756.600
     -1583.271       -1233.719          48.850          48.650



 112627945.322 8  87762034.20647  21432382.180                    21432379.260
      -222.095        -173.062          49.050          47.000



 131345542.497 6 102347154.09146  24994241.400                    24994244.600
     -3154.655       -2458.184          40.150          37.600



 121273454.294 7  94498833.70747  23077559.420                    23077555.660
       164.767         128.391          44.600          44.700



 23  8 28 11 38  0.0000000  0 10G02G03G04G06G09G12G17G19G21G31
 127437052.535 7  99301566.85546  24250471.540                    24250472.220
     -3269.103       -2547.359          43.800          41.200



 108413345.053 8  84477959.88648  20630363.860                    20630364.680
     -1431.928       -1115.788          50.800          50.750    80958042.937 9
  20630365.640       -1069.264          54.850


 108350875.611 8  84429298.48448  20618468.860                    20618469.400
      1402.461        1092.828          48.850          48.850    80911441.699 9
  20618473.740        1047.343          54.800


 117888625.321 7  91861285.83847  22433455.160                    22433456.960
      2943.023        2293.267          47.400          47.550    88033742.368 8
  22433458.440        2197.678          49.750


 115512556.368 8  90009831.91648  21981292.520                    21981294.880
      3017.119        2351.004          48.950          49.050    86259441.682 8
  21981295.460        2252.998          51.350


 133822757.305 6 104277484.11046  25465626.920                    25465628.160
      -801.259        -624.358          38.000          38.150



 115058169.875 8  89655715.21548  21894841.320                    21894840.720
     -1599.242       -1246.163          48.750          48.650



 112634939.041 8  87767483.84947  21433713.040                    21433710.240
      -244.316        -190.377          49.100          46.700



 131440223.112 6 102420930.84246  25012258.600                    25012262.200
     -3156.930       -2459.957          39.400          38.650



 121268820.934 7  94495223.31647  23076677.280                    23076674.520
       143.966         112.183          43.400          43.300



 23  8 28 11 38 30.0000000  0 10G02G03G04G06G09G12G17G19G21G31
 127535213.678 7  99378055.87346  24269151.180                    24269151.800
     -3274.963       -2551.925          43.850          40.600



 108456470.717 8  84511564.27348  20638570.420                    20638571.480
     -1443.115       -1124.507          50.600          50.300    80990247.141 9
  20638572.360       -1077.707          55.050


 108309068.336 8  84396721.40448  20610513.100                    20610513.480
      1384.557        1078.875          48.850          48.850    80880221.996 9
  20610517.700        1033.967          54.700


 117800456.168 7  91792582.64947  22416677.160                    22416678.640
      2934.966        2286.988          47.050          46.900    87967901.820 8
  22416680.100        2191.638          49.750


 115422218.795 8  89939439.06848  21964101.760                    21964104.260
      3005.405        2341.875          48.950          49.100    86191981.869 8
  21964104.680        2244.314          51.700


 133847073.628 6 104296431.92846  25470254.320                    25470255.520
      -820.005        -638.965          39.400          39.350



 115106398.373 7  89693295.83948  21904018.860                    21904018.480
     -1615.756       -1259.031          47.750          48.050



 112642605.515 8  87773457.71747  21435171.900                    21435169.220
      -266.933        -207.999          49.300          46.700



 131534988.736 6 102494773.87146  25030292.060                    25030296.000
     -3160.726       -2462.914          38.850          37.950



 121264814.719 7  94492101.57747  23075914.620                    23075912.900
       122.865          95.739          43.150          43.450



 23  8 28 11 39  0.0000000  0 10G02G03G04G06G09G12G17G19G21G31
 127633535.082 7  99454669.77246  24287861.260                    24287861.820
     -3280.007       -2555.857          43.300          41.250



 108499923.076 8  84545423.21748  20646839.100                    20646840.320
     -1453.561       -1132.646          51.300          51.350    81022695.296 9
  20646841.200       -1085.531          55.100


 108267786.827 8  84364554.02348  20602657.360                    20602657.560
      1367.463        1065.557          48.900          48.850    80849394.928 9
  20602661.640        1021.156          54.650


 117712516.158 7  91724058.01147  22399942.720                    22399943.940
      2927.836        2281.432          46.950          47.250    87902232.393 8
  22399945.560        2186.281          50.100


 115332220.687 8  89869310.73748  21946975.560                    21946977.980
      2994.551        2333.418          48.900          48.950    86124775.587 8
  21946978.800        2236.058          52.000


 133871928.411 6 104315799.32646  25474983.980                    25474985.180
      -837.026        -652.227          39.050          39.200



 115155111.722 8  89731254.23548  21913288.580                    21913288.440
     -1631.530       -1271.323          48.250          48.050



 112650940.093 8  87779952.18347  21436757.940                    21436755.280
      -288.676        -224.942          49.650          46.300



 131629833.860 6 102568678.81546  25048340.720                    25048344.720
     -3162.275       -2464.124          38.650          38.050



 121261431.637 7  94489465.39147  23075270.900                    23075269.720
       102.613          79.959          44.150          43.950



 23  8 28 11 39 30.0000000  0 10G02G03G04G06G09G12G17G19G21G31
 127732017.726 7  99531409.28546  24306602.140                    24306602.760
     -3285.707       -2560.299          44.000          40.400



 108543703.683 8  84579537.95848  20655170.260                    20655171.560
     -1464.910       -1141.489          50.900          50.950    81055388.581 9
  20655172.480       -1093.947          55.000


 108227034.345 8  84332798.85548  20594902.340                    20594902.280
      1349.523        1051.577          49.050          48.950    80818962.894 9
  20594906.240        1007.754          54.600


 117624809.957 7  91655715.55847  22383252.700                    22383253.840
      2919.445        2274.894          46.700          46.500    87836737.554 8
  22383255.620        2180.133          50.200


 115242566.487 8  89799450.38148  21929914.800                    21929917.340
      2982.695        2324.181          48.800          48.950    86057826.083 8
  21929918.180        2227.309          52.150


 133897323.357 6 104335587.68446  25479816.420                    25479817.740
      -855.404        -666.548          40.150          40.000



 115204310.428 7  89769590.84047  21922650.680                    21922650.820
     -1648.179       -1284.297          47.750          47.700



 112659944.846 8  87786968.85747  21438471.580                    21438468.780
      -311.413        -242.660          49.750          46.600



 131724759.480 6 102642646.53246  25066404.860                    25066409.020
     -3165.562       -2466.682          39.500          38.300



 121258674.559 7  94487317.00047  23074746.560                    23074745.680
        81.384          63.416          44.800          44.650



 23  8 28 11 40  0.0000000  0 10G02G03G04G06G09G12G17G19G21G31
 127830660.527 7  99608273.61846  24325373.420                    24325373.980
     -3290.610       -2564.118          43.700          39.550



 108587812.015 8  84613908.06048  20663563.840                    20663565.060
     -1475.631       -1149.843          50.750          50.650    81088326.599 9
  20663566.080       -1101.840          54.800


 108186812.032 8  84301456.81848  20587248.260                    20587247.980
      1332.043        1037.956          50.000          48.800    80788926.773 9
  20587251.860         994.740          54.450


 117537340.097 7  91587557.26447  22366607.540                    22366608.860
      2911.901        2269.016          45.950          45.750    87771419.208 8
  22366610.660        2174.501          50.250


 115153258.402 8  89729859.72948  21912919.920                    21912922.440
      2971.247        2315.260          49.100          48.950    85991135.057 8
  21912923.480        2218.788          52.300


 133923257.186 6 104355795.84346  25484751.500                    25484752.960
      -873.127        -680.361          40.600          40.800



 115253993.346 7  89808304.75148  21932105.020                    21932105.380
     -1664.043       -1296.659          47.900          48.000



 112669619.548 8  87794507.56147  21440312.740                    21440309.800
      -333.556        -259.915          49.550          46.700



 131819765.162 6 102716676.64045  25084484.300                    25084488.400
     -3168.119       -2468.672          39.650          35.600



 121256544.449 7  94485657.15347  23074341.420                    23074340.740
        60.664          47.270          45.200          45.300



 23  8 28 11 40 30.0000000  0 10G02G03G04G06G09G12G17G19G21G31
 127929460.864 7  99685260.69946  24344174.660                    24344175.300
     -3296.218       -2568.487          42.800          40.000



 108632245.954 8  84648531.87848  20672019.300                    20672020.700
     -1486.561       -1158.360          50.000          50.150    81121507.770 9
  20672021.540       -1110.187          54.650


 108147119.373 8  84270527.49948  20579695.100                    20579694.620
      1314.215        1024.063          50.100          48.850    80759286.186 9
  20579698.420         981.307          54.400


 117450107.509 7  91519583.86047  22350007.540                    22350009.140
      2903.779        2262.687          45.550          45.700    87706278.043 8
  22350010.880        2168.284          50.100


 115064297.015 8  89660539.22548  21895991.040                    21895993.600
      2959.558        2306.151          48.700          48.800    85924702.932 8
  21895994.740        2209.991          52.100


 133949727.722 6 104376422.25346  25489788.560                    25489790.100
      -891.414        -694.609          36.800          37.350



 115304157.132 7  89847393.34947  21941650.900                    21941651.420
     -1680.126       -1309.191          47.900          47.900



 112679962.511 8  87802566.99747  21442281.020                    21442278.000
      -356.021        -277.420          49.000          46.900



 131914848.073 6 102790766.87046  25102578.300                    25102582.460
     -3170.784       -2470.753          38.900          38.400



 121255040.311 7  94484485.09147  23074055.120                    23074054.700
        39.647          30.895          44.300          44.350



 23  8 28 11 41  0.0000000  0 10G02G03G04G06G09G12G17G19G21G31
 128028416.997 7  99762369.15546  24363005.700                    24363006.340
     -3300.722       -2571.997          42.900          40.050



 108677004.200 8  84683408.41348  20680536.500                    20680538.080
     -1497.053       -1166.535          50.750          50.650    81154931.108 9
  20680538.640       -1117.901          54.800


 108107956.757 8  84240011.20648  20572242.780                    20572242.340
      1296.826        1010.515          49.850          49.350    80730041.405 9
  20572246.020         968.455          54.750


 117363114.047 7  91451796.78947  22333453.040                    22333455.080
      2896.093        2256.696          45.350          45.450    87641315.438 8
  22333456.540        2162.721          50.150


 114975683.882 8  89591490.10548  21879128.480                    21879130.840
      2948.242        2297.333          48.400          48.550    85858530.867 8
  21879132.060        2201.599          52.450


 133976732.973 6 104397465.22146  25494927.380                    25494929.000
      -908.774        -708.137          38.100          37.550



 115354799.669 7  89886855.02847  21951287.940                    21951288.440
     -1695.747       -1321.361          47.850          47.900



 112690972.901 8  87811146.50747  21444376.220                    21444373.220
      -377.827        -294.411          48.250          47.500



 132010006.621 6 102864916.05846  25120686.600                    25120691.000
     -3173.076       -2472.537          39.100          37.350



 121254162.052 7  94483800.73247  23073887.720                    23073887.940
        19.296          15.037          43.950          43.500



 23  8 28 11 41 30.0000000  0 10G02G03G04G06G09G12G17G19G21G31
 128127526.675 7  99839597.25846  24381865.860                    24381866.660
     -3306.315       -2576.358          42.850          41.700



 108722085.203 8  84718536.44048  20689115.160                    20689116.740
     -1508.039       -1175.096          50.350          50.400    81188595.463 9
  20689117.340       -1126.223          54.950


 108069324.251 8  84209907.97348  20564891.320                    20564891.040
      1278.832         996.493          49.550          49.700    80701192.481 9
  20564894.720         954.954          54.900


 117276361.233 7  91384197.24847  22316944.360                    22316946.900
      2887.628        2250.102          46.100          46.250    87576532.550 8
  22316947.900        2156.309          50.100


 114887420.070 8  89522713.18447  21862332.400                    21862334.780
      2936.196        2287.947          48.250          47.900    85792619.665 8
  21862335.980        2192.600          52.150


 134004270.867 6 104418923.30646  25500167.700                    25500169.460
      -926.735        -722.129          38.150          37.800



 115405918.329 8  89926687.69948  21961015.600                    21961015.960
     -1711.781       -1333.857          48.050          48.250



 112702649.219 7  87820244.93147  21446597.960                    21446595.260
      -400.314        -311.933          47.850          47.600



 132105239.046 6 102939122.80546  25138809.120                    25138813.500
     -3175.773       -2474.640          41.250          39.650



 121253909.860 7  94483604.21147  23073839.400                    23073840.280
        -1.999          -1.558          43.400          43.700



 23  8 28 11 42  0.0000000  0 10G02G03G04G06G09G12G17G19G21G31
 128226793.028 7  99916947.48746  24400755.660                    24400756.540
     -3311.423       -2580.335          42.300          40.650



 108767492.771 8  84753918.94248  20697755.980                    20697757.380
     -1518.876       -1183.539          50.950          50.900    81222503.685 9
  20697758.140       -1134.247          54.850


 108031227.248 8  84180222.01548  20557641.700                    20557641.740
      1260.966         982.571          49.300          49.400    80672743.448 9
  20557645.360         941.694          55.200


 117189855.998 7  91316790.62247  22300483.040                    22300485.800
      2879.377        2243.672          46.350          46.300    87511934.527 8
  22300486.320        2150.218          50.250


 114799512.195 8  89454213.60248  21845604.000                    21845606.120
      2924.444        2278.790          48.600          48.650    85726974.247 8
  21845607.340        2183.777          52.600


 134032344.751 6 104440799.01846  25505510.080                    25505511.780
      -944.608        -736.058          40.650          40.350



 115457516.206 8  89966893.78848  21970834.420                    21970834.480
     -1727.691       -1346.255          48.000          48.100



 112714995.712 7  87829865.57047  21448947.180                    21448944.780
      -422.697        -329.374          47.300          47.100



 132200548.933 6 103013389.98646  25156946.460                    25156950.400
     -3178.212       -2476.538          39.650          36.700



 121254288.764 7  94483899.45147  23073911.420                    23073912.440
       -23.206         -18.083          44.300          44.350



 23  8 28 11 42 30.0000000  0 10G02G03G04G06G09G12G17G19G21G31
 128326208.470 7  99994413.84646  24419674.000                    24419675.000
     -3316.558       -2584.336          42.850          41.450



 108813219.851 8  84789550.41748  20706457.680                    20706458.760
     -1530.021       -1192.226          50.650          50.650    81256650.509 9
  20706459.520       -1142.425          54.450


 107993660.232 8  84150949.03248  20550492.880                    20550493.280
      1243.042         968.604          49.000          49.200    80644690.180 9
  20550496.880         928.313          55.200


 117103594.364 7  91249573.82047  22284068.200                    22284070.980
      2870.786        2236.979          47.750          47.700    87447518.410 8
  22284071.180        2143.936          50.400


 114711955.878 8  89385987.97948  21828942.520                    21828944.740
      2912.333        2269.353          49.000          49.200    85661591.352 8
  21828945.820        2174.844          52.000


 134060946.900 6 104463086.37746  25510953.060                    25510954.600
      -962.929        -750.336          41.350          41.600



 115509585.176 8  90007466.96648  21980742.920                    21980742.600
     -1743.706       -1358.733          48.550          48.700



 112728005.885 7  87840003.35747  21451422.760                    21451420.660
      -444.975        -346.734          47.600          47.300



 132295928.579 6 103087711.42146  25175096.820                    25175100.780
     -3180.611       -2478.414          39.750          38.250



 121255292.886 7  94484681.90347  23074102.920                    23074103.620
       -44.381         -34.581          45.900          45.800



 23  8 28 11 43  0.0000000  0 10G02G03G04G06G09G12G17G19G21G31
 128425772.868 7 100071996.28946  24438620.660                    24438621.780
     -3321.154       -2587.919          42.700          40.200



 108859266.634 8  84825431.01548  20715220.140                    20715221.180
     -1540.144       -1200.112          50.750          50.750    81291036.086 9
  20715221.740       -1150.233          54.400


 107956625.031 8  84122090.45248  20543445.200                    20543445.900
      1225.653         955.055          48.850          48.650    80617034.045 9
  20543449.480         915.159          55.150


 117017579.673 8  91182549.42448  22267700.400                    22267703.000
      2863.023        2230.929          48.200          48.400    87383286.699 8
  22267703.280        2137.908          50.850


 114624754.062 8  89318038.56948  21812348.500                    21812350.340
      2900.864        2260.416          48.600          48.450    85596473.185 8
  21812351.600        2166.096          52.300


 134090076.905 6 104485785.16746  25516496.380                    25516497.900
      -979.942        -763.587          40.150          40.250



 115562124.474 8  90048406.62148  21990740.920                    21990740.080
     -1759.192       -1370.801          49.250          49.350



 112741680.020 8  87850658.51147  21454024.800                    21454022.820
      -466.911        -363.827          48.200          47.250



 132391377.906 6 103162087.19046  25193260.580                    25193264.540
     -3182.671       -2480.015          41.400          36.900



 121256923.324 7  94485952.41547  23074413.520                    23074414.260
       -64.937         -50.599          46.650          46.450



 23  8 28 11 43 30.0000000  0 10G02G03G04G06G09G12G17G19G21G31
 128525487.920 7 100149696.11846  24457596.020                    24457597.200
     -3326.041       -2591.725          42.400          38.750



 108905635.572 8  84861562.63948  20724043.900                    20724044.940
     -1550.618       -1208.274          50.300          50.100    81325662.214 9
  20724045.380       -1157.927          54.750


 107920125.583 8  84093649.33248  20536499.500                    20536500.360
      1207.962         941.270          48.700          48.600    80589777.979 9
  20536503.860         902.116          55.350


 116931817.450 7  91115721.76147  22251380.580                    22251383.060
      2854.771        2224.499          47.900          47.950    87319243.526 8
  22251383.660        2131.888          51.700


 114537911.897 8  89250369.42548  21795822.980                    21795824.900
      2889.057        2251.215          48.450          48.650    85531623.583 8
  21795826.020        2157.384          52.200


 134119736.942 6 104508896.82746  25522140.540                    25522141.900
      -997.074        -776.944          40.350          40.550



 115615135.474 8  90089713.84548  22000828.720                    22000827.420
     -1774.574       -1382.787          48.100          48.200



 112756020.781 8  87861833.10347  21456753.800                    21456751.940
      -488.807        -380.889          48.350          47.350



 132486899.040 6 103236518.96846  25211437.960                    25211442.060
     -3185.173       -2481.960          39.600          37.800



 121259183.987 7  94487714.00847  23074843.880                    23074844.900
       -85.506         -66.627          46.800          46.400



 23  8 28 11 44  0.0000000  0 10G02G03G04G06G09G12G17G19G21G31
 128625351.569 7 100227511.73846  24476599.540                    24476600.620
     -3331.331       -2595.853          42.700          39.150



 108952325.251 8  84897944.18248  20732928.480                    20732929.480
     -1561.595       -1216.827          50.600          50.400    81360527.853 9
  20732930.200       -1166.046          54.800


 107884161.999 8  84065625.77248  20529655.760                    20529656.640
      1189.927         927.217          48.950          48.750    80562922.072 9
  20529660.140         888.631          55.400


 116846309.368 7  91049092.13347  22235108.920                    22235111.500
      2846.204        2217.823          47.750          47.300    87255390.152 8
  22235112.480        2125.355          52.200


 114451430.656 8  89182981.49848  21779366.120                    21779367.660
      2876.809        2241.671          48.750          48.350    85467043.502 8
  21779369.180        2148.321          52.900


 134149924.940 6 104532419.92046  25527884.900                    25527886.120
     -1014.802        -790.756          38.750          38.800



 115668616.099 8  90131387.00848  22011005.920                    22011004.200
     -1790.385       -1395.107          48.500          48.550



 112771027.031 8  87873526.26347  21459609.460                    21459607.540
      -511.165        -398.311          48.400          47.250



 132582490.392 6 103311005.41945  25229628.260                    25229632.600
     -3187.414       -2483.713          36.750          34.850



 121262074.596 7  94489966.43947  23075393.880                    23075395.300
      -106.861         -83.270          46.300          45.800



 23  8 28 11 44 30.0000000  0 10G02G03G04G06G09G12G17G19G21G31
 128725359.810 7 100305440.03346  24495630.680                    24495631.580
     -3336.219       -2599.658          42.700          38.150



 108999332.166 8  84934572.93748  20741873.500                    20741874.460
     -1572.495       -1225.320          50.550          50.600    81395630.404 9
  20741875.480       -1174.270          54.850


 107848732.326 8  84038018.24548  20522913.720                    20522914.420
      1171.827         913.111          49.000          48.900    80536464.865 9
  20522918.000         875.020          55.300


 116761055.106 7  90982660.29947  22218885.420                    22218888.200
      2837.265        2210.858          47.400          47.150    87191726.321 8
  22218889.520        2118.731          52.400


 114365309.579 8  89115874.22948  21762977.700                    21762979.440
      2864.319        2231.938          48.800          48.700    85402732.367 8
  21762980.900        2138.970          52.750


 134180636.513 7 104556351.10847  25533729.060                    25533730.020
     -1032.743        -804.729          42.800          42.500



 115722561.374 8  90173422.20948  22021271.520                    22021269.620
     -1806.167       -1407.405          49.050          48.900



 112786695.434 8  87885735.37947  21462591.160                    21462589.100
      -533.506        -415.720          48.450          47.050



 132678147.853 6 103385543.43446  25247831.160                    25247835.580
     -3189.771       -2485.542          38.600          36.350



 121265592.677 7  94492707.78847  23076063.220                    23076064.480
      -128.231         -99.921          46.250          46.200



 23  8 28 11 45  0.0000000  0 10G02G03G04G06G09G12G17G19G21G31
 128825514.188 6 100383482.19446  24514689.500                    24514690.520
     -3340.466       -2602.968          41.650          40.050



 109046658.606 8  84971450.65548  20750879.340                    20750880.460
     -1582.591       -1233.188          50.300          50.350    81430971.547 9
  20750881.700       -1181.795          54.900


 107813840.265 8  84010829.64748  20516274.040                    20516274.460
      1154.398         899.532          49.250          49.250    80510409.124 9
  20516278.240         862.022          55.300


 116676059.995 7  90916430.39747  22202711.180                    22202714.120
      2829.162        2204.544          46.900          47.150    87128256.021 8
  22202715.720        2112.611          52.600


 114279553.527 8  89049051.37948  21746658.820                    21746660.380
      2852.693        2222.880          48.300          48.350    85338693.826 8
  21746662.280        2130.232          53.100


 134211873.421 6 104580691.62046  25539673.160                    25539673.940
     -1049.521        -817.806          39.600          39.600



 115776972.195 8  90215820.18248  22031625.720                    22031623.700
     -1821.062       -1419.014          48.650          48.650



 112803028.466 7  87898462.39247  21465699.220                    21465697.040
      -555.043        -432.502          47.800          47.500



 132773873.681 6 103460134.71246  25266047.420                    25266051.880
     -3191.782       -2487.109          40.650          36.250



 121269741.837 7  94495940.91347  23076852.720                    23076853.420
      -148.509        -115.722          46.100          46.100



 23  8 28 11 45 30.0000000  0 10G02G03G04G06G09G12G17G19G21G31
 128925811.264 6 100461635.55846  24533775.420                    24533776.320
     -3345.708       -2607.051          41.550          39.500



 109094301.333 8  85008574.83848  20759945.420                    20759946.800
     -1593.383       -1241.598          50.600          50.550    81466548.891 9
  20759948.060       -1189.832          54.800


 107779484.102 8  83984058.63148  20509736.280                    20509736.520
      1136.287         885.420          49.550          49.650    80484753.567 9
  20509740.540         848.531          55.250


 116591323.990 7  90850402.39547  22186586.260                    22186589.260
      2820.246        2197.596          47.300          47.500    87064979.202 8
  22186591.080        2105.971          52.350


 114194162.036 8  88982512.60848  21730409.300                    21730410.940
      2840.340        2213.254          48.650          48.300    85274927.511 8
  21730412.860        2120.995          53.000


 134243631.874 6 104605438.46546  25545716.620                    25545717.600
     -1067.289        -831.652          40.050          40.100



 115831845.002 8  90258578.16948  22042067.780                    22042065.840
     -1836.718       -1431.210          49.200          49.500



 112820022.930 7  87911704.80547  21468933.100                    21468930.840
      -577.502        -450.002          47.800          46.600



 132869664.502 6 103534776.62746  25284275.900                    25284280.740
     -3193.764       -2488.656          40.050          36.400



 121274519.747 7  94499664.01247  23077761.860                    23077761.920
      -169.841        -132.343          46.700          46.350



 23  8 28 11 46  0.0000000  0 10G02G03G04G06G09G12G17G19G21G31
 129026250.284 7 100539899.50846  24552888.400                    24552889.140
     -3350.583       -2610.852          42.000          40.100



 109142260.878 8  85045945.90848  20769071.780                    20769073.420
     -1603.989       -1249.862          49.800          49.900    81502362.829 9
  20769074.660       -1197.809          54.700


 107745665.796 8  83957706.72548  20503300.880                    20503300.980
      1118.272         871.382          49.650          49.400    80459499.666 9
  20503305.240         835.036          55.200


 116506850.751 7  90784579.13847  22170511.340                    22170514.400
      2811.300        2190.625          47.350          47.800    87001898.597 8
  22170516.300        2099.350          52.050


 114109138.287 8  88916260.38748  21714229.800                    21714231.440
      2827.858        2203.528          49.100          49.150    85211435.806 8
  21714233.520        2111.706          52.950


 134275911.638 6 104630591.56246  25551859.280                    25551860.440
     -1084.732        -845.244          40.500          40.250



 115887179.062 8  90301695.56748  22052597.560                    22052595.700
     -1852.133       -1443.222          48.950          49.100



 112837679.489 8  87925463.14147  21472292.980                    21472290.720
      -599.736        -467.328          48.050          47.100



 132965520.264 6 103609469.12445  25302516.540                    25302521.480
     -3196.058       -2490.450          37.400          31.050



 121279928.279 7  94503878.48447  23078790.940                    23078790.540
      -190.901        -148.754          45.850          45.550



 23  8 28 11 46 30.0000000  0 10G02G03G04G06G09G12G17G19G21G31
 129126829.635 6 100618272.78646  24572027.980                    24572028.940
     -3354.948       -2614.253          41.100          40.350



 109190536.041 8  85083562.90948  20778258.200                    20778259.980
     -1614.280       -1257.882          49.950          50.000    81538412.457 9
  20778261.100       -1205.526          54.600


 107712385.573 8  83931774.09848  20496967.920                    20496967.940
      1100.473         857.512          49.600          49.700    80434647.566 9
  20496972.380         821.759          55.400


 116422642.181 7  90718962.12247  22154486.900                    22154489.860
      2802.732        2183.949          46.850          46.950    86939015.643 8
  22154491.800        2092.846          51.850


 114024483.688 8  88850295.81448  21698120.580                    21698122.300
      2815.646        2194.011          49.100          49.100    85148219.764 8
  21698124.240        2102.655          53.100


 134308710.624 6 104656149.18846  25558100.720                    25558101.960
     -1101.956        -858.665          39.000          39.300



 115942971.711 8  90345170.29948  22063214.540                    22063212.980
     -1867.212       -1454.972          48.850          49.100



 112855996.787 8  87939736.34647  21475778.680                    21475776.420
      -621.477        -484.268          48.600          47.200



 133061439.157 6 103684210.83845  25320769.060                    25320774.500
     -3198.255       -2492.158          37.550          34.000



 121285966.833 7  94508583.86047  23079939.780                    23079939.420
      -211.534        -164.833          44.950          45.250



 23  8 28 11 47  0.0000000  0 10G02G03G04G06G09G12G17G19G21G31
 129227544.418 6 100696751.58646  24591193.420                    24591194.660
     -3359.359       -2617.690          41.500          39.400



 109239122.514 8  85121422.47448  20787503.860                    20787505.720
     -1624.903       -1266.159          50.050          49.950    81574694.547 9
  20787506.660       -1213.339          54.800


 107679640.535 8  83906258.49848  20490736.800                    20490736.780
      1082.525         843.527          49.650          49.350    80410195.119 9
  20490741.340         808.440          55.750


 116338697.099 7  90653550.41547  22138512.700                    22138515.460
      2793.838        2177.018          47.400          47.300    86876329.441 8
  22138517.340        2086.218          51.700


 113940196.580 8  88784617.60648  21682081.280                    21682083.060
      2803.343        2184.425          49.600          49.400    85085278.165 8
  21682084.840        2093.463          53.150


 134342023.758 6 104682107.55246  25564440.040                    25564441.260
     -1119.114        -872.030          39.550          39.200



 115999217.543 8  90388998.17548  22073917.720                    22073916.460
     -1882.521       -1466.900          48.850          48.800



 112874970.792 8  87954521.26047  21479389.460                    21479387.140
      -643.423        -501.369          49.550          46.550



 133157416.660 6 103758998.24245  25339033.340                    25339039.140
     -3199.716       -2493.299          40.400          35.850



 121292632.088 7  94513777.58347  23081207.960                    23081207.720
      -232.635        -181.273          44.950          44.900



 23  8 28 11 47 30.0000000  0 10G02G03G04G06G09G12G17G19G21G31
 129328398.730 6 100775339.13946  24610385.420                    24610387.160
     -3363.849       -2621.187          41.700          38.850



 109288024.558 8  85159527.95148  20796809.620                    20796811.460
     -1635.075       -1274.085          50.350          50.350    81611212.295 9
  20796812.380       -1221.041          55.150


 107647436.356 8  83881164.34748  20484608.600                    20484608.560
      1064.690         829.630          49.700          49.750    80386146.561 9
  20484613.220         795.009          55.900


 116255022.977 7  90588349.84147  22122590.180                    22122592.600
      2785.020        2170.146          47.500          47.700    86813845.568 8
  22122594.440        2079.466          51.650


 113856283.874 8  88719231.13848  21666113.200                    21666115.120
      2791.212        2174.972          49.600          49.700    85022616.154 8
  21666116.660        2084.209          53.350


 134375855.214 6 104708469.73246  25570877.840                    25570879.240
     -1136.192        -885.348          37.700          37.900



 116055920.114 8  90433181.94348  22084707.860                    22084706.860
     -1897.438       -1478.524          49.050          49.250



 112894605.641 8  87969821.11547  21483126.100                    21483123.560
      -665.263        -518.387          49.850          47.250



 133253456.844 6 103833834.52745  25357309.520                    25357315.600
     -3202.470       -2495.439          40.200          33.800



 121299929.483 7  94519463.89147  23082596.660                    23082596.200
      -253.561        -197.578          46.000          46.000



 23  8 28 11 48  0.0000000  0 10G02G03G04G06G09G12G17G19G21G31
 129429387.697 6 100854031.58746  24629603.120                    24629605.260
     -3368.265       -2624.630          41.600          40.050



 109337238.330 8  85197876.33948  20806174.780                    20806176.580
     -1645.463       -1282.179          50.750          50.800    81647962.819 9
  20806177.520       -1228.813          55.050


 107615770.505 8  83856489.67548  20478582.800                    20478582.720
      1046.800         815.688          49.650          49.650    80362500.000 9
  20478587.440         781.645          55.700


 116171619.061 7  90523359.81247  22106719.080                    22106721.200
      2775.896        2163.036          47.650          47.400    86751563.450 8
  22106722.940        2072.794          51.200


 113772744.352 8  88654135.45748  21650216.140                    21650218.060
      2778.584        2165.131          49.600          49.650    84960232.799 8
  21650219.340        2074.869          53.050


 134410199.832 6 104735231.81246  25577413.320                    25577414.720
     -1152.938        -898.389          38.950          38.250



 116113074.150 8  90477717.48648  22095583.900                    22095583.120
     -1912.368       -1490.159          49.300          49.400



 112914897.556 8  87985632.96847  21486987.720                    21486985.020
      -687.089        -535.395          49.900          46.750



 133349555.410 6 103908716.21946  25375596.660                    25375602.880
     -3204.127       -2496.731          39.000          37.700



 121307856.060 7  94525640.47547  23084105.240                    23084104.460
      -274.428        -213.838          46.050          45.950



 23  8 28 11 48 30.0000000  0 10G02G03G04G06G09G12G17G19G21G31
 129530508.889 7 100932827.06146  24648846.020                    24648848.380
     -3372.682       -2628.073          42.250          38.550



 109386762.037 8  85236466.23248  20815598.980                    20815600.700
     -1655.743       -1290.189          50.800          50.650    81684944.784 9
  20815601.680       -1236.373          55.100


 107584642.600 8  83832234.17648  20472659.340                    20472659.160
      1028.852         801.703          49.350          49.600    80339255.149 9
  20472663.940         768.295          55.650


 116088486.704 7  90458581.38747  22090899.580                    22090901.540
      2766.629        2155.814          47.800          47.800    86689484.124 8
  22090903.040        2066.096          51.100


 113689578.812 8  88589331.21048  21634390.160                    21634392.280
      2766.167        2155.457          49.550          49.600    84898128.747 8
  21634393.360        2065.676          53.150


 134445055.189 6 104762391.83746  25584045.940                    25584047.380
     -1170.159        -911.812          40.500          39.950



 116170676.883 8  90522602.68748  22106545.340                    22106544.700
     -1927.363       -1501.844          48.800          48.600



 112935844.781 8  88001955.45947  21490973.940                    21490971.140
      -708.956        -552.434          49.400          46.600



 133445709.960 6 103983641.50545  25393894.380                    25393901.000
     -3205.768       -2498.017          39.000          33.200



 121316410.972 7  94532306.68947  23085733.200                    23085732.360
      -295.536        -230.286          45.200          45.000



 23  8 28 11 49  0.0000000  0 10G02G03G04G06G09G12G17G19G21G31
 129631766.100 7 101011728.51946  24668114.860                    24668117.480
     -3377.626       -2631.929          42.050          37.600



 109436599.955 8  85275300.96348  20825082.940                    20825084.720
     -1666.474       -1298.551          50.550          50.600    81722161.388 9
  20825085.540       -1244.464          54.950


 107554058.251 8  83808402.23948  20466839.300                    20466839.060
      1010.458         787.370          49.350          49.200    80316416.203 9
  20466843.720         754.521          55.450


 116005633.332 8  90394020.36247  22075133.140                    22075134.920
      2757.165        2148.441          48.000          47.900    86627613.142 8
  22075136.160        2058.895          51.000


 113606794.183 8  88524823.75948  21618636.720                    21618638.820
      2753.132        2145.299          49.350          49.250    84836309.127 8
  21618639.720        2055.886          53.150


 134480424.547 6 104789952.37646  25590776.340                    25590777.740
     -1187.681        -925.455          36.950          36.500



 116228731.107 8  90567839.66948  22117592.680                    22117592.100
     -1942.526       -1513.658          48.650          48.550



 112957451.338 8  88018791.72347  21495085.480                    21495082.760
      -731.121        -569.705          48.900          46.600



 133541924.307 6 104058613.45546  25412203.600                    25412210.340
     -3208.058       -2499.796          40.200          36.450



 121325599.446 7  94539466.56147  23087481.400                    23087480.940
      -316.809        -246.862          44.800          44.450



 23  8 28 11 49 30.0000000  0 10G02G03G04G06G09G12G17G19G21G31
 129733151.817 6 101090730.14946  24687408.200                    24687411.060
     -3381.604       -2635.023          41.400          39.900



 109486745.177 8  85314375.15248  20834625.300                    20834627.200
     -1676.532       -1306.389          50.850          50.850    81759607.480 9
  20834627.760       -1251.929          54.450


 107524011.827 8  83784989.45548  20461121.680                    20461121.340
       992.568         773.431          49.800          49.850    80293978.954 9
  20461125.740         741.276          55.000


 115923055.221 8  90329673.81548  22059419.080                    22059420.660
      2747.941        2141.254          48.450          48.300    86565947.692 8
  22059421.740        2052.136          50.750


 113524386.128 8  88460609.74748  21602955.000                    21602956.980
      2740.707        2135.616          50.050          49.950    84774770.711 8
  21602957.920        2046.714          52.900


 134516300.401 6 104817907.63046  25597603.420                    25597604.880
     -1204.482        -938.556          38.850          36.400



 116287228.661 8  90613422.11848  22128724.380                    22128723.860
     -1957.141       -1525.046          48.900          48.800



 112979710.357 8  88036136.38847  21499321.120                    21499318.520
      -752.837        -586.626          49.200          46.300



 133638191.412 7 104133626.56046  25430523.000                    25430530.080
     -3209.616       -2501.005          42.200          36.250



 121335415.150 7  94547115.18347  23089349.000                    23089348.940
      -337.676        -263.124          44.750          44.700



 23  8 28 11 50  0.0000000  0 10G02G03G04G06G09G12G17G19G21G31
 129834667.221 6 101169832.80546  24706726.220                    24706729.400
     -3386.053       -2638.492          40.950          38.000



 109537200.037 8  85353690.59848  20844226.640                    20844228.460
     -1687.169       -1314.678          50.750          50.700    81797284.786 9
  20844229.000       -1259.897          54.600


 107494506.954 8  83761998.66248  20455507.020                    20455506.760
       974.259         759.163          49.550          49.600    80271946.118 9
  20455510.700         727.511          55.000


 115840757.834 8  90265546.00248  22043758.440                    22043759.760
      2738.477        2133.878          48.100          48.200    86504491.884 8
  22043760.960        2044.826          51.200


 113442359.549 8  88396692.99448  21587345.940                    21587347.780
      2727.575        2125.386          49.750          49.650    84713517.175 8
  21587348.660        2036.836          53.100


 134552684.272 6 104846258.64746  25604526.980                    25604528.680
     -1221.545        -951.858          36.700          37.350



 116346171.165 8  90659351.27847  22139940.720                    22139940.200
     -1972.427       -1536.958          48.000          47.800



 113002623.738 8  88053990.94947  21503681.340                    21503678.800
      -774.812        -603.750          49.100          46.050



 133734513.383 6 104208682.36745  25448852.740                    25448859.900
     -3212.016       -2502.882          39.250          35.650



 121345861.454 7  94555255.18047  23091336.840                    23091336.920
      -358.932        -279.686          46.000          45.600



 23  8 28 11 50 30.0000000  0 10G02G03G04G06G09G12G17G19G21G31
 129936309.476 6 101249034.27246  24726068.300                    24726071.660
     -3390.246       -2641.760          40.850          39.800



 109587961.685 8  85393245.12148  20853886.340                    20853887.720
     -1696.949       -1322.299          51.000          51.050    81835191.198 9
  20853888.740       -1267.252          54.750


 107465542.134 8  83739428.68048  20449995.120                    20449995.060
       956.540         745.356          49.650          49.850    80250316.559 9
  20449998.480         714.295          55.050


 115758741.481 7  90201637.17648  22028151.160                    22028152.340
      2729.335        2126.756          47.950          48.000    86443245.944 8
  22028153.860        2038.070          51.550


 113360714.212 8  88333073.29448  21571809.360                    21571810.920
      2715.246        2115.778          49.600          49.650    84652548.320 8
  21571812.060        2027.580          53.100


 134589572.222 6 104875002.60946  25611546.660                    25611548.320
     -1237.793        -964.516          40.750          40.950



 116405554.041 8  90705623.57948  22151240.980                    22151240.440
     -1986.723       -1548.098          48.600          48.350



 113026188.681 8  88072353.22347  21508165.660                    21508163.020
      -796.284        -620.482          49.700          46.000



 133830887.141 6 104283778.49346  25467192.140                    25467199.380
     -3213.217       -2503.816          38.000          36.600



 121356936.352 7  94563884.97147  23093444.680                    23093444.440
      -379.551        -295.754          46.250          46.250



 23  8 28 11 51  0.0000000  0 10G02G03G04G06G09G12G17G19G21G31
 130038079.972 6 101328335.67646  24745434.640                    24745438.420
     -3393.862       -2644.581          40.000          38.800



 109639032.579 8  85433040.61048  20863604.900                    20863605.900
     -1707.212       -1330.295          51.050          51.050    81873328.535 9
  20863607.460       -1274.889          55.050


 107437120.995 8  83717282.34848  20444586.680                    20444586.880
       938.595         731.372          49.450          49.350    80229092.996 9
  20444589.860         700.914          55.200


 115677011.788 8  90137951.72148  22012598.380                    22012599.540
      2719.861        2119.373          48.200          48.300    86382214.069 8
  22012601.400        2031.062          51.800


 113279455.097 8  88269754.55648  21556346.260                    21556347.680
      2702.512        2105.855          49.750          49.450    84591867.874 8
  21556348.940        2018.104          53.200


 134626966.219 6 104904140.84146  25618662.640                    25618664.040
     -1254.493        -977.531          36.900          37.950



 116465378.602 8  90752240.04848  22162625.240                    22162624.640
     -2001.112       -1559.311          48.650          49.050



 113050407.405 8  88091224.92847  21512774.540                    21512771.660
      -817.887        -637.315          49.950          46.400



 133927314.509 6 104358916.35246  25485541.480                    25485548.960
     -3214.872       -2505.107          38.850          37.850



 121368642.960 7  94573007.00547  23095672.780                    23095672.200
      -400.490        -312.069          47.550          47.600



 23  8 28 11 51 30.0000000  0 10G02G03G04G06G09G12G17G19G21G31
 130139975.454 6 101407734.46546  24764824.740                    24764828.840
     -3397.662       -2647.540          39.650          39.100



 109690409.886 8  85473074.85348  20873381.720                    20873382.640
     -1717.263       -1338.128          50.650          50.600    81911694.678 9
  20873384.460       -1282.436          55.100


 107409241.975 8  83695558.45148  20439281.400                    20439281.840
       920.541         717.305          49.150          49.050    80208274.264 9
  20439284.600         687.446          55.200


 115595569.086 7  90074489.90047  21997100.080                    21997101.480
      2710.338        2111.952          47.650          47.650    86321396.508 8
  21997103.580        2023.940          51.800


 113198581.954 8  88206736.57148  21540956.460                    21540957.780
      2689.589        2095.784          49.250          49.450    84531475.645 8
  21540959.340        2008.549          53.150


 134664862.366 6 104933670.23346  25625873.960                    25625875.300
     -1271.469        -990.753          39.700          39.850



 116525640.876 7  90799197.61047  22174092.880                    22174092.300
     -2015.687       -1570.668          47.650          47.650



 113075276.971 8  88110603.78847  21517507.280                    21517504.180
      -839.456        -654.123          49.750          46.750



 134023792.107 6 104434093.38645  25503900.780                    25503907.700
     -3216.797       -2506.609          37.850          32.450



 121380979.167 7  94582619.65847  23098020.560                    23098019.580
      -421.441        -328.396          46.950          47.050



 23  8 28 11 52  0.0000000  0 10G02G03G04G06G09G12G17G19G21G31
 130241988.381 6 101487224.78046  24784237.280                    24784241.600
     -3402.241       -2651.104          39.200          38.900



 109742086.846 8  85513342.59648  20883215.480                    20883216.540
     -1727.566       -1346.156          50.750          50.850    81950284.584 9
  20883218.400       -1290.087          55.100


 107381899.521 8  83674252.65548  20434078.320                    20434078.860
       902.401         703.170          49.400          49.400    80187856.213 9
  20434081.660         673.918          55.400


 115514409.771 7  90011248.90447  21981655.740                    21981657.480
      2700.528        2104.309          47.400          47.500    86260790.575 8
  21981659.680        2016.626          51.900


 113118090.544 8  88144016.03748  21525639.280                    21525640.500
      2676.654        2085.705          49.100          49.100    84471368.488 8
  21525642.360        1998.757          53.000


 134703252.749 6 104963584.75246  25633179.460                    25633180.660
     -1287.654       -1003.370          38.600          37.900



 116586332.957 8  90846490.08348  22185642.280                    22185641.540
     -2030.224       -1581.995          48.600          48.200



 113100790.152 8  88130484.16647  21522362.400                    21522359.300
      -861.161        -671.036          49.650          46.550



 134120313.047 6 104509304.17945  25522268.420                    25522275.340
     -3218.135       -2507.650          39.200          35.050



 121393938.791 7  94592718.06947  23100486.780                    23100485.420
      -442.281        -344.634          47.500          47.550



 23  8 28 11 52 30.0000000  0 11G02G03G04G06G09G11G12G17G19G21G31
 130344126.674 6 101566812.74246  24803673.620                    24803678.300
     -3406.805       -2654.662          38.650          38.700



 109794072.235 8  85553850.66048  20893107.880                    20893109.200
     -1738.138       -1354.395          50.700          50.650    81989104.811 9
  20893110.820       -1298.020          55.150


 107355103.596 8  83653372.73848  20428979.240                    20428979.760
       883.797         688.673          49.650          49.550    80167846.295 9
  20428982.840         659.939          55.850


 115433545.787 7  89948238.04947  21966267.660                    21966269.780
      2690.157        2096.228          47.350          47.250    86200405.182 8
  21966272.020        2008.908          52.200


 113037992.184 8  88081601.77648  21510396.920                    21510398.220
      2663.226        2075.243          48.950          48.850    84411554.833 8
  21510400.400        1988.637          53.400


 135877798.151 7 105878813.75646  25856686.240                    25856687.520
      3620.191        2820.924          42.900          38.250   101467218.086 7
  25856693.100        2703.532          44.600


 134742145.035 6 104993890.43746  25640580.440                    25640581.580
     -1304.985       -1016.872          40.350          40.150



 116647462.659 8  90894123.55747  22197274.920                    22197274.200
     -2045.146       -1593.621          48.300          47.950



 113126955.510 8  88150872.73647  21527341.460                    21527338.500
      -883.312        -688.296          49.250          46.550



 134216885.640 6 104584555.22745  25540645.940                    25540652.660
     -3220.336       -2509.362          38.150          32.700



 121407531.476 7  94603309.78647  23103073.360                    23103071.860
      -464.032        -361.584          46.350          46.400



 23  8 28 11 53  0.0000000  0 11G02G03G04G06G09G11G12G17G19G21G31
 130446386.687 6 101646495.51746  24823133.100                    24823138.080
     -3410.825       -2657.798          38.000          37.850



 109846362.736 8  85594596.47248  20903058.460                    20903059.740
     -1748.146       -1362.192          50.900          50.800    82028152.865 9
  20903061.280       -1305.356          54.850


 107328852.090 8  83632917.04348  20423983.880                    20423984.180
       865.950         674.767          49.900          49.850    80148242.923 9
  20423987.680         646.675          55.900


 115352976.981 7  89885457.20647  21950935.940                    21950938.260
      2680.842        2088.970          47.600          47.750    86140240.214 8
  21950940.540        2001.859          52.300


 112958286.084 8  88019493.15948  21495229.220                    21495230.480
      2650.327        2065.192          48.750          48.650    84352034.076 8
  21495232.860        1979.183          53.200


 135769174.382 6 105794171.75846  25836016.040                    25836018.360
      3620.767        2821.366          39.900          36.650   101386102.833 7
  25836023.400        2703.853          44.050


 134781535.562 6 105024584.33646  25648076.320                    25648077.200
     -1321.187       -1029.502          40.900          40.950



 116709024.393 8  90942093.68947  22208989.860                    22208988.780
     -2059.270       -1604.628          48.000          47.700



 113153769.465 8  88171766.70747  21532443.880                    21532441.140
      -904.669        -704.938          49.250          45.950



 134313505.994 5 104659843.47745  25559032.480                    25559039.020
     -3221.523       -2510.294          35.900          33.800



 121421754.569 7  94614392.70547  23105779.880                    23105778.460
      -484.544        -377.566          47.300          47.300



 23  8 28 11 53 30.0000000  0 11G02G03G04G06G09G11G12G17G19G21G31
 130548760.719 6 101726267.16246  24842614.300                    24842619.720
     -3414.690       -2660.809          38.300          37.900



 109898951.515 8  85635574.71848  20913065.820                    20913066.720
     -1757.834       -1369.741          50.750          50.750    82067423.685 9
  20913068.360       -1312.797          54.300


 107303139.317 8  83612881.13948  20419090.980                    20419091.020
       848.166         660.910          49.600          49.850    80129041.850 9
  20419095.020         633.272          55.850


 115272699.730 8  89822903.54648  21935659.820                    21935662.180
      2670.918        2081.236          48.600          48.850    86080292.959 8
  21935664.520        1994.531          52.250


 112878967.964 8  87957686.85448  21480135.420                    21480136.780
      2637.354        2055.082          48.750          48.550    84292803.057 8
  21480139.480        1969.407          53.250


 135660538.006 6 105709519.98945  25815343.240                    25815345.780
      3621.372        2821.846          39.400          35.200   101304978.167 7
  25815351.060        2704.236          43.600


 134821416.207 7 105055660.13347  25655665.320                    25655666.180
     -1337.529       -1042.230          42.800          42.900



 116771010.324 7  90990394.33947  22220785.480                    22220784.400
     -2073.347       -1615.598          47.850          47.600



 113181224.697 8  88193160.38047  21537668.360                    21537665.680
      -925.842        -721.436          49.250          46.850



 134410167.397 6 104735163.65845  25577426.760                    25577433.020
     -3222.682       -2511.196          37.100          35.500



 121436601.760 7  94625961.95347  23108605.240                    23108604.100
      -505.291        -393.732          46.250          46.600



 23  8 28 11 54  0.0000000  0 11G02G03G04G06G09G11G12G17G19G21G31
 130651254.001 6 101806131.73146  24862118.420                    24862123.940
     -3418.405       -2663.706          38.600          37.950



 109951844.474 8  85676789.98648  20923131.060                    20923131.580
     -1768.096       -1377.738          50.550          50.350    82106921.637 9
  20923133.040       -1320.299          54.150


 107277972.325 8  83593270.50548  20414301.820                    20414301.660
       830.019         646.768          49.200          49.150    80110248.324 9
  20414306.120         619.767          56.200


 115192723.054 8  89760584.10748  21920440.900                    21920443.220
      2661.131        2073.609          48.700          48.700    86020570.165 8
  21920445.600        1987.073          52.550


 112800046.175 8  87896189.40248  21465117.040                    21465118.620
      2624.269        2044.886          49.450          49.700    84233867.994 8
  21465121.180        1959.654          53.800


 135551897.071 5 105624864.59045  25794669.560                    25794671.560
      3621.857        2822.223          35.800          34.900   101223850.109 6
  25794677.500        2704.574          41.400


 134861791.722 6 105087121.53846  25663348.400                    25663349.580
     -1354.128       -1055.165          38.000          37.600



 116833425.258 7  91039029.29747  22232662.620                    22232661.540
     -2087.266       -1626.441          47.600          47.550



 113209326.872 8  88215058.14847  21543016.040                    21543013.380
      -947.277        -738.140          49.600          46.150



 134506874.990 6 104810519.80645  25595829.960                    25595836.240
     -3223.827       -2512.091          36.700          33.900



 121452079.768 7  94638022.72447  23111550.600                    23111549.760
      -526.243        -410.059          47.150          47.200



 23  8 28 11 54 30.0000000  0 11G02G03G04G06G09G11G12G17G19G21G31
 130753861.414 6 101886085.22046  24881644.340                    24881649.760
     -3422.156       -2666.624          38.600          38.400



 110005037.073 8  85718238.73448  20933253.220                    20933253.780
     -1778.270       -1385.666          50.600          50.700    82146643.354 9
  20933254.840       -1327.937          54.050


 107253347.646 8  83574082.45748  20409615.840                    20409615.660
       811.762         632.542          49.200          49.150    80091859.789 9
  20409620.220         606.060          56.050


 115113045.607 8  89698497.83248  21905278.840                    21905281.140
      2650.670        2065.459          48.700          48.900    85961070.814 8
  21905283.540        1979.432          52.350


 112721518.672 8  87834999.18248  21450173.720                    21450175.440
      2610.901        2034.470          49.700          49.900    84175227.381 8
  21450178.120        1949.648          53.800


 135443249.641 6 105540204.22246  25773994.620                    25773996.540
      3621.498        2821.941          40.100          37.000   101142717.224 7
  25774002.620        2704.431          42.300


 134902656.875 5 105118964.60245  25671124.780                    25671126.320
     -1369.964       -1067.510          32.650          31.550



 116896263.343 7  91087993.96347  22244620.240                    22244619.540
     -2101.754       -1637.732          47.250          47.100



 113238071.104 8  88237456.21847  21548485.980                    21548483.240
      -968.947        -755.025          50.050          45.850



 134603623.953 6 104885908.28945  25614241.220                    25614247.600
     -3226.000       -2513.773          37.950          34.050



 121468184.468 7  94650571.85747  23114615.180                    23114614.400
      -547.338        -426.495          46.550          46.400



 23  8 28 11 55  0.0000000  0 11G02G03G04G06G09G11G12G17G19G21G31
 130856584.159 6 101966128.51446  24901191.980                    24901197.520
     -3426.039       -2669.653          38.150          38.250



 110058531.180 8  85759922.42048  20943432.720                    20943433.560
     -1788.076       -1393.307          50.300          50.250    82186590.210 9
  20943434.520       -1335.208          54.350


 107229268.341 8  83555319.37648  20405033.520                    20405033.500
       793.803         618.549          48.800          48.800    80073878.499 9
  20405037.960         592.678          56.050


 115033672.426 8  89636648.64648  21890174.600                    21890176.860
      2640.795        2057.764          48.300          48.300    85901798.677 8
  21890179.340        1971.995          52.400


 112643389.803 8  87774119.59548  21435306.360                    21435308.240
      2597.840        2024.293          49.250          49.100    84116884.453 9
  21435310.700        1939.857          54.300


 135334599.723 6 105455541.77646  25753319.380                    25753321.580
      3622.090        2822.396          40.350          37.050   101061582.405 6
  25753327.140        2704.580          40.500


 134944026.587 5 105151195.79545  25678994.560                    25678996.040
     -1385.890       -1079.909          34.550          34.200



 116959525.050 7  91137288.73547  22256658.360                    22256658.100
     -2115.520       -1648.458          46.900          46.850



 113267458.781 8  88260355.67647  21554078.300                    21554075.560
      -990.156        -771.551          49.650          46.650



 134700415.574 6 104961329.94245  25632660.520                    25632666.900
     -3227.092       -2514.634          38.750          35.650



 121484918.416 7  94663611.26347  23117799.520                    23117798.420
      -568.059        -442.644          46.250          45.950



 23  8 28 11 55 30.0000000  0 10G02G03G04G06G09G11G17G19G21G31
 130959415.862 6 102046256.79346  24920760.560                    24920766.180
     -3430.111       -2672.825          40.250          39.400



 110112321.276 8  85801836.74848  20953668.580                    20953669.620
     -1798.519       -1401.444          50.100          50.050    82226758.092 9
  20953670.640       -1343.042          54.300


 107205729.899 8  83536977.74348  20400554.160                    20400554.420
       775.153         604.016          48.750          48.850    80056301.103 9
  20400558.480         578.756          55.950


 114954601.122 8  89575034.68548  21875127.720                    21875129.920
      2630.021        2049.367          48.550          48.700    85842751.969 8
  21875132.540        1963.996          52.550


 112565656.532 8  87713548.25948  21420514.320                    21420516.180
      2583.997        2013.507          49.850          49.950    84058836.930 9
  21420518.540        1929.572          54.300


 135225944.337 6 105370875.19545  25732643.080                    25732644.720
      3620.826        2821.420          37.750          34.850   100980443.494 6
  25732650.740        2704.260          41.750


 117023203.481 7  91186908.23347  22268775.820                    22268776.160
     -2130.184       -1659.885          46.450          46.450



 113297483.802 8  88283751.75747  21559791.820                    21559789.160
     -1012.028        -788.595          48.900          46.300



 134797243.990 6 105036780.32345  25651086.900                    25651092.820
     -3227.956       -2515.310          37.350          34.000



 121502276.360 7  94677136.96247  23121102.420                    23121101.100
      -589.595        -459.422          45.350          45.100



 23  8 28 11 56  0.0000000  0 10G02G03G04G06G09G11G17G19G21G31
 131062359.658 6 102126472.40246  24940350.640                    24940355.880
     -3433.542       -2675.499          39.250          37.500



 110166411.028 8  85843984.57848  20963961.460                    20963962.800
     -1807.730       -1408.622          49.800          49.850    82267149.766 9
  20963963.740       -1349.934          54.400


 107182737.106 8  83519061.29148  20396178.760                    20396179.200
       757.464         590.231          49.150          49.200    80039131.178 9
  20396182.820         565.649          56.150


 114875838.653 8  89513661.36648  21860139.720                    21860141.720
      2620.386        2041.859          48.900          48.850    85783935.876 8
  21860144.460        1956.813          52.750


 112488325.025 8  87653289.99148  21405798.780                    21405800.500
      2571.271        2003.590          50.650          50.650    84001089.431 9
  21405802.720        1920.051          54.650


 135117289.608 6 105286209.12145  25711966.920                    25711968.740
      3622.235        2822.515          39.100          35.050   100899305.228 6
  25711974.560        2704.749          41.400


 117087301.017 7  91236854.29747  22280973.140                    22280973.760
     -2143.384       -1670.172          47.550          47.400



 113328149.459 8  88307647.04547  21565627.100                    21565624.680
     -1032.596        -804.621          48.350          46.200



 134894112.868 6 105112262.19245  25669520.640                    25669526.560
     -3229.552       -2516.546          36.950          34.750



 121520262.592 7  94691152.18947  23124524.800                    23124523.640
      -609.914        -475.260          45.250          45.400



 23  8 28 11 56 30.0000000  0 10G02G03G04G06G09G11G17G19G21G31
 131165413.171 6 102206773.48246  24959961.240                    24959966.640
     -3437.087       -2678.260          37.950          38.250



 110220799.082 8  85886364.85148  20974311.180                    20974312.660
     -1818.222       -1416.797          50.150          50.150    82307764.198 9
  20974313.620       -1357.803          54.300


 107160289.570 8  83501569.72648  20391907.180                    20391907.620
       738.826         575.709          49.700          49.850    80022368.433 9
  20391911.040         551.681          56.150


 114797386.722 8  89452530.02448  21845210.800                    21845212.660
      2609.402        2033.302          48.800          48.900    85725351.680 8
  21845215.400        1948.632          52.750


 112411396.298 8  87593345.57948  21391159.880                    21391161.360
      2557.166        1992.600          50.950          50.850    83943642.711 9
  21391163.460        1909.575          54.350


 135008636.978 6 105201544.68946  25691291.160                    25691293.160
      3621.259        2821.759          39.650          37.350   100818168.423 7
  25691298.620        2704.197          42.800


 117151814.462 7  91287124.44747  22293249.640                    22293250.520
     -2157.819       -1681.421          47.450          47.600



 113359453.750 7  88332039.97747  21571583.820                    21571581.760
     -1054.336        -821.561          47.600          46.400



 134991020.191 6 105187774.03245  25687961.740                    25687967.020
     -3231.987       -2518.450          36.350          33.650



 121538876.025 7  94705656.17547  23128066.680                    23128065.740
      -631.294        -491.917          45.550          45.450



 23  8 28 11 57  0.0000000  0 10G02G03G04G06G09G11G17G19G21G31
 131268572.605 6 102287157.08846  24979592.080                    24979597.540
     -3440.462       -2680.892          38.850          38.250



 110275482.006 8  85928974.90348  20984717.140                    20984718.600
     -1827.721       -1424.198          50.450          50.600    82348598.828 9
  20984719.780       -1364.858          54.050


 107138384.925 8  83484501.19348  20387738.940                    20387739.260
       721.062         561.867          49.750          49.750    80006011.099 9
  20387742.760         538.436          56.200


 114719245.115 8  89391640.48648  21830340.940                    21830342.740
      2599.435        2025.534          48.600          48.800    85666999.216 8
  21830345.300        1941.161          52.550


 112334869.387 8  87533714.26748  21376597.420                    21376598.640
      2544.184        1982.482          51.050          50.900    83886496.045 9
  21376600.580        1899.895          54.050


 134899984.942 6 105116880.74046  25670615.340                    25670617.520
      3621.720        2822.125          38.300          36.700   100737032.145 6
  25670622.880        2704.527          41.400


 117216739.214 7  91337715.09947  22305604.600                    22305605.380
     -2171.050       -1691.729          47.400          47.100



 113391392.757 7  88356927.50347  21577661.340                    21577659.560
     -1075.087        -837.729          47.250          47.000



 135087961.817 6 105263312.57445  25706409.440                    25706415.320
     -3232.064       -2518.507          37.150          35.500



 121558113.903 7  94720646.71747  23131727.500                    23131726.980
      -651.926        -507.996          44.800          44.400



 23  8 28 11 57 30.0000000  0 10G02G03G04G06G09G11G17G19G21G31
 131371838.658 6 102367623.77146  24999243.440                    24999248.380
     -3444.096       -2683.723          40.250          38.650



 110330461.338 8  85971815.91548  20995179.540                    20995181.000
     -1837.524       -1431.838          50.500          50.500    82389654.801 9
  20995182.280       -1372.228          54.150


 107117025.686 8  83467857.65348  20383674.540                    20383674.640
       702.823         547.655          49.600          49.600    79990061.036 9
  20383678.400         524.866          56.600


 114641418.562 8  89330996.45248  21815531.080                    21815532.860
      2589.027        2017.425          48.650          48.550    85608882.029 8
  21815535.120        1933.315          52.750


 112258748.251 8  87474399.14548  21362112.120                    21362113.080
      2530.666        1971.949          51.100          51.000    83829652.412 9
  21362114.940        1889.729          54.100


 134791337.835 6 105032220.58346  25649940.420                    25649942.580
      3621.651        2822.061          40.500          38.600   100655899.508 6
  25649947.800        2704.325          41.400


 117282075.396 7  91388626.32747  22318037.860                    22318038.400
     -2184.647       -1702.325          47.550          47.550



 113423967.327 7  88382310.25647  21583860.020                    21583858.320
     -1096.431        -854.362          47.650          46.850



 135184939.445 5 105338879.22945  25724863.880                    25724870.460
     -3232.952       -2519.201          34.650          33.550



 121577978.273 7  94736125.42947  23135507.660                    23135507.780
      -672.526        -524.048          45.200          45.150



 23  8 28 11 58  0.0000000  0 10G02G03G04G06G09G11G17G19G21G31
 131475207.410 6 102448170.49946  25018914.040                    25018918.860
     -3447.031       -2686.011          38.150          36.900



 110385734.001 8  86014885.49748  21005697.740                    21005699.040
     -1847.069       -1439.275          50.550          50.750    82430929.810 9
  21005700.380       -1379.289          54.000


 107096209.778 8  83451637.48448  20379713.420                    20379713.320
       684.924         533.707          49.650          49.600    79974516.705 9
  20379717.500         511.567          56.750


 114563907.144 8  89270597.97348  21800781.200                    21800782.900
      2578.717        2009.391          48.900          48.900    85551000.162 8
  21800784.960        1925.648          52.900


 112183032.203 8  87415399.67648  21347703.840                    21347704.720
      2517.182        1961.442          51.000          51.000    83773111.258 9
  21347706.320        1879.833          54.050


 134682695.042 6 104947563.85946  25629266.300                    25629269.080
      3621.647        2822.061          39.500          36.100   100574770.088 7
  25629273.500        2704.517          43.050


 117347818.467 7  91439854.63947  22330548.500                    22330548.860
     -2198.023       -1712.748          47.400          47.350



 113457174.111 8  88408185.64647  21590179.260                    21590177.340
     -1117.212        -870.556          48.650          46.200



 135281949.517 5 105414471.12145  25743324.400                    25743331.100
     -3234.333       -2520.278          35.700          33.000



 121598466.043 7  94752089.91147  23139406.500                    23139407.140
      -693.101        -540.079          45.300          45.400



 23  8 28 11 58 30.0000000  0 10G02G03G04G06G09G11G17G19G21G31
 131578678.995 6 102528797.34445  25038604.120                    25038609.020
     -3450.887       -2689.015          37.800          35.350



 110441300.556 8  86058184.09648  21016271.740                    21016272.900
     -1857.234       -1447.196          50.000          50.050    82472424.287 8
  21016274.260       -1386.917          53.600


 107075938.776 8  83435841.90548  20375855.940                    20375855.800
       666.412         519.282          49.100          49.150    79959379.278 9
  20375860.200         497.712          56.450


 114486714.653 8  89210448.00948  21786091.900                    21786093.620
      2567.560        2000.696          48.700          48.850    85493356.451 8
  21786095.640        1917.388          52.850


 112107724.234 8  87356718.19548  21333373.120                    21333374.040
      2503.415        1950.715          50.950          51.000    83716874.854 8
  21333375.440        1869.401          53.700


 134574059.946 6 104862913.09446  25608593.860                    25608596.580
      3620.644        2821.277          38.700          36.950   100493646.437 7
  25608601.200        2704.031          42.450


 117413968.052 7  91491399.70747  22343136.480                    22343136.520
     -2211.864       -1723.532          47.150          47.250



 113491012.972 8  88434553.55847  21596618.860                    21596616.640
     -1138.578        -887.205          49.100          46.250



 135378991.701 5 105490088.05745  25761791.100                    25761798.100
     -3235.370       -2521.071          33.650          32.150



 121619578.153 7  94768540.88347  23143424.040                    23143424.840
      -714.369        -556.652          45.850          45.750



 23  8 28 11 59  0.0000000  0 10G02G03G04G06G09G11G17G19G21G31
 131682250.440 6 102609502.00546  25058313.520                    25058318.400
     -3454.478       -2691.813          40.350          38.550



 110497158.735 8  86101709.92948  21026901.180                    21026902.420
     -1867.049       -1454.844          50.250          50.050    82514136.530 8
  21026903.340       -1394.279          53.100


 107056211.291 8  83420469.85048  20372101.800                    20372101.820
       648.210         505.099          49.350          49.350    79944647.735 9
  20372106.200         484.047          56.200


 114409841.956 8  89150547.24048  21771463.480                    21771465.180
      2556.780        1992.298          48.750          48.600    85435951.567 8
  21771467.320        1909.259          52.850


 112032824.476 8  87298354.79748  21319120.020                    21319121.060
      2489.503        1939.875          50.600          50.600    83660943.280 8
  21319122.320        1859.027          53.550


 134465432.593 6 104778268.42645  25587922.560                    25587925.560
      3620.887        2821.471          38.650          35.250   100412528.644 6
  25587930.240        2703.749          40.950


 117480519.826 7  91543258.14447  22355800.860                    22355800.740
     -2225.434       -1734.108          47.000          46.950



 113525480.839 8  88461411.58747  21603178.160                    21603175.620
     -1159.624        -903.605          49.650          46.300



 135476063.615 5 105565728.11245  25780263.420                    25780270.600
     -3236.562       -2522.009          35.550          35.450



 121641312.935 7  94785477.06747  23147560.140                    23147560.700
      -735.107        -572.811          46.400          46.600



 23  8 28 11 59 30.0000000  0 10G02G03G04G06G09G11G17G19G21G31
 131785921.800 6 102690284.53146  25078042.020                    25078046.740
     -3457.516       -2694.180          39.600          38.300



 110553309.635 8  86145463.84648  21037586.320                    21037587.780
     -1876.389       -1462.123          49.800          49.800    82556067.367 8
  21037587.800       -1401.242          52.950


 107037029.369 8  83405522.91848  20368451.540                    20368451.700
       630.597         491.374          49.550          49.650    79930323.597 9
  20368455.880         470.801          56.450


 114333293.304 8  89090898.96748  21756896.740                    21756898.460
      2546.381        1984.193          48.450          48.600    85378788.655 8
  21756900.700        1901.449          53.300


 111958336.348 8  87240312.14648  21304945.240                    21304946.480
      2476.150        1929.469          50.050          50.050    83605319.079 9
  21304947.580        1849.125          54.000


 134356816.701 6 104693632.58445  25567253.680                    25567256.360
      3620.975        2821.537          36.800          32.650   100331419.286 7
  25567261.260        2703.592          42.300


 117547473.403 7  91595429.69347  22368541.720                    22368541.380
     -2238.314       -1744.144          47.000          46.800



 113560578.146 8  88488760.09147  21609857.120                    21609854.420
     -1180.149        -919.598          49.100          46.600



 135573165.876 5 105641391.89645  25798741.940                    25798748.760
     -3236.637       -2522.044          34.450          30.200



 121663671.821 7  94802899.55547  23151814.920                    23151815.100
      -755.456        -588.668          46.150          46.100



                            4  1
RINEX FILE SPLICE; other post-header comments skipped       COMMENT
 23  8 28 12  0  0.0000000  0 10G02G03G04G06G09G11G17G19G21G31
 131889693.645 6 102771145.35746  25097789.300                    25097794.060
     -3460.783       -2696.730          37.900          37.550



 110609754.397 8  86189446.74148  21048327.300                    21048329.020
     -1886.451       -1469.963          49.650          49.550    82598217.641 8
  21048328.260       -1408.687          52.800


 107018395.031 8  83391002.68148  20364905.520                    20364905.740
       611.996         476.881          49.600          49.700    79916408.373 9
  20364909.660         457.017          56.400


 114257073.056 8  89031506.59148  21742392.500                    21742394.320
      2535.180        1975.465          48.900          48.950    85321870.964 8
  21742396.440        1893.172          53.150


 111884263.341 8  87182592.98248  21290849.400                    21290850.740
      2462.136        1918.549          49.950          49.750    83550004.899 9
  21290851.940        1838.596          54.050


 134248215.996 6 104609008.65645  25546587.700                    25546590.280
      3619.521        2820.408          38.550          34.300   100250321.347 6
  25546595.300        2703.047          41.600


 117614828.714 7  91647914.27147  22381359.120                    22381358.520
     -2251.888       -1754.721          46.950          47.150



 113596305.330 8  88516599.41847  21616655.840                    21616653.060
     -1201.366        -936.131          48.650          46.950



 135670299.626 6 105717251.06845  25817226.340                    25817232.760
     -3238.099       -2523.203          38.650          34.350



 121686655.988 7  94820809.27247  23156188.680                    23156188.320
      -776.549        -605.104          46.100          46.000



 23  8 28 12  0 30.0000000  0 10G02G03G04G06G09G11G17G19G21G31
 131993555.343 6 102852076.19846  25117553.580                    25117558.660
     -3463.887       -2699.144          39.650          36.050



 110666483.201 8  86233650.97148  21059122.320                    21059124.180
     -1895.962       -1477.374          49.550          49.350    82640580.030 8
  21059123.040       -1415.813          52.400


 107000299.361 8  83376902.18248  20361461.980                    20361462.220
       593.984         462.846          49.550          49.300    79902895.394 9
  20361465.860         443.483          56.200


 114181174.531 8  88972364.90848  21727949.440                    21727951.440
      2524.236        1966.938          49.450          49.500    85265193.528 8
  21727953.220        1884.986          52.900


 111810598.044 8  87125191.51348  21276831.180                    21276832.660
      2448.384        1907.834          49.950          50.000    83494995.160 9
  21276833.900        1828.320          54.050


 134139623.103 6 104524390.84646  25525923.140                    25525925.760
      3619.201        2820.160          38.250          36.350   100169229.255 6
  25525930.700        2702.638          41.350


 117682573.993 7  91700702.72647  22394250.780                    22394249.960
     -2264.997       -1764.937          47.150          46.950



 113632651.861 8  88544921.35647  21623572.300                    21623569.680
     -1222.053        -952.251          48.400          46.300



 135767454.514 6 105792955.79345  25835714.900                    25835721.160
     -3239.133       -2524.008          39.750          32.550



 121710255.940 7  94839198.82947  23160679.520                    23160678.740
      -797.133        -621.143          45.300          45.650



 23  8 28 12  1  0.0000000  0 10G02G03G04G06G09G11G17G19G21G31
 132097516.356 6 102933084.45246  25137337.140                    25137342.360
     -3466.662       -2701.303          41.550          37.550



 110723506.111 8  86278084.38948  21069973.500                    21069975.140
     -1905.205       -1484.575          50.750          50.650    82683162.060 8
  21069973.900       -1422.689          52.400


 106982753.308 8  83363229.94448  20358123.080                    20358123.280
       575.971         448.809          49.600          49.550    79889792.841 9
  20358126.700         430.236          56.200


 114105611.047 8  88913484.29548  21713570.260                    21713572.280
      2513.520        1958.588          49.550          49.500    85208766.272 8
  21713573.720        1877.062          52.800


 111737352.899 8  87068117.41548  21262892.900                    21262894.480
      2434.812        1897.256          50.000          49.900    83440299.162 9
  21262895.760        1818.246          54.000


 134031050.864 6 104439789.06346  25505262.680                    25505265.240
      3619.171        2820.135          39.600          37.150   100088152.562 7
  25505270.080        2702.698          42.650


 117750718.072 7  91753801.93547  22407218.380                    22407217.440
     -2277.782       -1774.896          47.400          47.300



 113669627.116 7  88573733.21447  21630608.320                    21630605.960
     -1242.541        -968.215          47.950          46.650



 135864639.837 6 105868684.24145  25854209.260                    25854215.100
     -3239.218       -2524.076          36.200          31.050



 121734481.916 7  94858076.20747  23165289.320                    23165288.520
      -817.594        -637.087          44.600          44.850



 23  8 28 12  1 30.0000000  0 10G02G03G04G06G09G11G17G19G21G31
 132201567.514 6 103014162.96546  25157138.020                    25157143.320
     -3469.877       -2703.810          41.800          37.550



 110780814.627 8  86322740.35348  21080879.120                    21080880.460
     -1915.151       -1492.326          50.400          50.350    82725957.353 8
  21080879.600       -1429.994          52.850


 106965749.206 8  83349980.01348  20354887.300                    20354887.380
       557.729         434.596          49.500          49.600    79877094.994 9
  20354890.760         416.541          56.150


 114030377.211 8  88854860.55948  21699253.660                    21699255.760
      2502.252        1949.809          49.250          49.150    85152585.192 8
  21699257.040        1868.621          52.850


 111664521.652 8  87011365.84648  21249033.520                    21249035.120
      2420.729        1886.284          49.950          50.050    83385912.251 9
  21249036.480        1807.768          54.000


 133922493.353 6 104355198.74745  25484604.820                    25484607.380
      3618.603        2819.689          36.650          32.300   100007086.849 6
  25484612.100        2702.109          40.550


 117819251.144 7  91807204.25547  22420259.960                    22420258.920
     -2290.935       -1785.146          47.100          47.150



 113707221.671 7  88603027.64047  21637762.220                    21637760.060
     -1263.423        -984.486          47.850          46.950



 135961847.210 6 105944429.85745  25872707.800                    25872713.820
     -3240.120       -2524.779          36.000          32.250



 121759325.861 7  94877435.10247  23170016.820                    23170016.460
      -838.297        -653.219          44.950          44.750



 23  8 28 12  2  0.0000000  0 10G02G03G04G06G09G11G17G19G21G31
 132305710.832 6 103095313.25346  25176956.420                    25176961.460
     -3472.870       -2706.147          40.050          39.950



 110838411.650 8  86367621.13648  21091839.560                    21091840.840
     -1924.534       -1499.637          50.150          50.200    82768968.103 8
  21091840.460       -1437.123          53.200


 106949290.755 8  83337155.27148  20351755.360                    20351755.280
       539.856         420.668          49.850          49.850    79864804.626 9
  20351758.780         403.031          56.300


 113955479.137 8  88796498.44948  21685000.960                    21685003.080
      2491.104        1941.121          49.050          49.250    85096654.850 8
  21685004.400        1860.242          52.900


 111592109.544 8  86954940.87148  21235253.940                    21235255.520
      2406.908        1875.515          50.250          50.200    83331838.331 9
  21235256.800        1797.340          54.150


 133813956.192 6 104270624.33846  25463951.100                    25463953.640
      3617.719        2819.005          38.200          36.350    99926036.301 7
  25463958.300        2701.511          44.150


 117888174.379 7  91860910.59247  22433375.680                    22433374.900
     -2303.600       -1795.016          46.650          46.800



 113745437.437 7  88632806.13847  21645034.460                    21645032.300
     -1284.046       -1000.556          47.950          46.500



 136059079.428 6 106020194.65145  25891210.940                    25891216.280
     -3241.168       -2525.607          40.100          35.250



 121784790.373 7  94897277.56147  23174862.620                    23174862.540
      -858.879        -669.258          45.750          45.800



 23  8 28 12  2 30.0000000  0 10G02G03G04G06G09G11G17G19G21G31
 132409940.974 6 103176531.18746  25196791.160                    25196796.180
     -3475.913       -2708.515          38.800          38.150



 110896292.676 8  86412723.21348  21102853.980                    21102855.240
     -1934.160       -1507.139          50.150          50.200    82812190.931 8
  21102855.340       -1444.298          53.200


 106933374.312 8  83324752.86848  20348726.640                    20348726.360
       521.479         406.349          50.100          50.150    79852918.986 9
  20348730.020         389.412          56.150


 113880915.470 8  88738396.91748  21670811.840                    21670814.040
      2479.781        1932.299          49.000          49.050    85040974.219 8
  21670815.520        1851.818          52.650


 111520114.386 8  86898840.78348  21221553.700                    21221555.220
      2392.771        1864.498          50.350          50.300    83278075.756 8
  21221556.560        1786.791          53.800


 133705437.371 6 104186064.15045  25443300.900                    25443303.380
      3616.929        2818.387          40.050          33.800    99844999.478 6
  25443308.320        2700.949          41.850


 117957481.525 7  91914916.09747  22446564.360                    22446563.720
     -2316.726       -1805.242          47.000          46.950



 113784269.517 8  88663064.87547  21652424.060                    21652421.780
     -1304.658       -1016.617          48.450          46.600



 136156331.395 5 106095974.90945  25909717.880                    25909722.400
     -3242.846       -2526.913          32.450          32.350



 121810871.426 7  94917600.44947  23179825.880                    23179825.800
      -879.801        -685.561          46.200          46.150



 23  8 28 12  3  0.0000000  0 10G02G03G04G06G09G11G17G19G21G31
 132514260.636 6 103257818.87246  25216642.800                    25216648.000
     -3478.217       -2710.310          40.750          39.150



 110954460.879 8  86458049.06148  21113922.980                    21113924.300
     -1943.582       -1514.480          49.550          49.400    82855628.198 8
  21113924.900       -1451.408          53.400


 106918003.814 8  83312775.87548  20345801.820                    20345801.400
       503.386         392.249          50.200          50.150    79841441.033 9
  20345805.240         375.901          56.150


 113806692.598 8  88680560.93748  21656687.520                    21656689.840
      2468.419        1923.444          48.900          48.700    84985548.075 8
  21656691.440        1843.388          52.350


 111448541.639 8  86843069.85048  21207933.800                    21207935.300
      2378.730        1853.558          50.150          50.150    83224628.614 8
  21207936.640        1776.380          53.850


 133596942.789 6 104101522.85646  25422655.100                    25422657.380
      3616.208        2817.818          38.900          37.850    99763980.769 6
  25422662.740        2700.387          41.800


 118027174.386 7  91969222.13347  22459826.400                    22459826.240
     -2329.396       -1815.118          46.350          46.300



 113823720.040 8  88693805.50047  21659931.400                    21659928.860
     -1325.141       -1032.578          48.950          46.150



 136253606.290 5 106171773.05145  25928229.000                    25928233.640
     -3242.528       -2526.663          35.400          31.550



 121837572.280 7  94938406.30147  23184907.060                    23184906.680
      -900.075        -701.357          45.700          45.350



 23  8 28 12  3 30.0000000  0 10G02G03G04G06G09G11G17G19G21G31
 132618668.534 7 103339175.35946  25236511.420                    25236516.600
     -3481.669       -2712.997          42.050          37.400



 111012915.844 8  86503598.36048  21125046.560                    21125047.900
     -1953.272       -1522.031          49.300          49.150    82899279.603 8
  21125048.900       -1458.613          53.800


 106903179.590 8  83301224.55548  20342980.880                    20342980.440
       485.063         377.972          49.650          49.750    79830371.027 9
  20342984.380         362.223          56.400


 113732813.263 8  88622992.65048  21642628.680                    21642631.040
      2456.797        1914.388          48.600          48.550    84930378.464 8
  21642632.580        1834.667          52.250


 111377393.172 8  86787629.52348  21194394.680                    21194396.120
      2364.395        1842.387          50.000          50.050    83171498.309 9
  21194397.420        1765.706          54.000


 133488474.753 6 104017002.31046  25402014.360                    25402016.620
      3615.081        2816.947          40.250          36.800    99682981.858 7
  25402022.220        2699.619          43.350


 118097251.081 7  92023827.29647  22473161.560                    22473161.320
     -2342.207       -1825.098          46.400          46.400



 113863787.865 8  88725027.13847  21667556.180                    21667553.460
     -1345.714       -1048.610          48.850          46.000



 136350902.584 5 106247598.82743  25946743.940                    25946748.940
     -3243.328       -2527.311          30.800          23.400



 121864892.392 7  94959694.68647  23190106.060                    23190105.280
      -921.064        -717.713          45.800          45.700



 23  8 28 12  4  0.0000000  0 10G02G03G04G06G09G11G17G19G21G31
 132723159.998 6 103420596.96246  25256395.900                    25256401.140
     -3485.255       -2715.791          41.600          38.250



 111071653.622 8  86549368.01448  21136223.920                    21136225.340
     -1963.314       -1529.856          49.800          49.950    82943142.183 8
  21136226.540       -1466.080          53.900


 106888898.482 8  83290096.43548  20340263.200                    20340262.880
       466.278         363.335          49.500          49.700    79819706.583 9
  20340266.860         348.245          56.550


 113659276.682 8  88565691.44548  21628635.160                    21628637.480
      2444.847        1905.075          48.550          48.300    84875464.809 8
  21628638.860        1825.724          52.200


 111306667.300 8  86732518.48548  21180935.980                    21180937.400
      2349.800        1831.016          50.050          50.100    83118683.577 9
  21180938.720        1754.775          54.000


 133380031.880 6 103932501.35445  25381378.400                    25381380.560
      3613.806        2815.953          39.900          34.100    99602001.773 7
  25381386.380        2698.521          42.450


 118167705.937 7  92078727.08447  22486568.640                    22486568.660
     -2355.521       -1835.474          46.950          46.800



 113904467.893 8  88756725.83147  21675297.440                    21675294.620
     -1366.835       -1065.066          49.100          45.850



 136448353.756 5                  25965261.260
     -3244.461                          32.750



 121892827.935 7  94981462.64347  23195422.000                    23195421.060
      -941.990        -734.019          45.000          45.250



 23  8 28 12  4 30.0000000  0 10G02G03G04G06G09G11G17G19G21G31
 132827736.142 6 103502084.48946  25276296.360                    25276301.500
     -3487.588       -2717.614          39.350          38.100



 111130676.202 8  86595359.61248  21147455.540                    21147457.060
     -1972.460       -1536.982          49.400          49.200    82987217.458 8
  21147458.360       -1472.917          53.900


 106875163.217 8  83279393.64348  20337649.340                    20337649.160
       448.514         349.492          49.150          49.100    79809449.747 9
  20337653.200         334.938          56.550


 113586088.059 8  88508661.38848  21614707.740                    21614710.100
      2433.587        1896.303          48.450          48.200    84820811.004 8
  21614711.560        1817.252          52.300


 111236368.268 8  86677740.05148  21167558.500                    21167559.920
      2335.972        1820.238          50.350          50.350    83066187.586 8
  21167561.140        1744.382          53.800


 133271618.980 6 103848023.73546  25360748.240                    25360750.460
      3613.018        2815.339          39.600          37.800    99521044.041 6
  25360756.200        2697.973          41.700


 118238539.246 7  92133921.80947  22500047.840                    22500047.560
     -2367.692       -1844.957          45.750          45.850



 113945761.105 8  88788902.31547  21683155.460                    21683152.540
     -1387.001       -1080.781          49.300          45.750



 136545687.846 5 106399274.08755  25983783.700                    25983789.600
     -3245.066       -2528.623          35.100          33.350



 121921380.939 7  95003711.73347  23200855.460                    23200854.380
      -962.318        -749.859          45.200          44.950



 23  8 28 12  5  0.0000000  0 10G02G03G04G06G09G11G17G19G21G31
 132932391.067 6 103583633.41146  25296211.600                    25296217.120
     -3489.423       -2719.047          39.150          37.150



 111189978.549 8  86641569.20348  21158740.240                    21158741.980
     -1981.253       -1543.835          48.800          48.650    83031501.646 8
  21158743.400       -1479.606          53.900


 106861969.468 8  83269112.81048  20335138.500                    20335138.500
       430.868         335.741          49.150          49.250    79799597.287 9
  20335142.620         321.724          56.600


 113513245.534 8  88451901.02748  21600846.180                    21600848.600
      2422.574        1887.722          48.650          48.400    84766415.658 8
  21600850.380        1808.890          52.800


 111166493.286 8  86623292.04848  21154261.780                    21154263.180
      2322.245        1809.543          50.800          51.000    83014008.263 8
  21154264.320        1734.026          53.800


 133163233.598 6 103763567.54446  25340123.020                    25340125.240
      3612.652        2815.052          40.050          38.350    99440106.887 7
  25340131.340        2697.583          43.000


 118309744.664 7  92189406.45447  22513597.800                    22513597.460
     -2379.364       -1854.054          46.650          46.550



 113987661.387 8  88821551.85247  21691128.900                    21691126.080
     -1406.643       -1096.086          49.100          46.150



 136643036.653 5                  26002309.100
     -3244.850                          30.350



 121950546.451 7  95026438.07647  23206405.520                    23206404.320
      -982.283        -765.417          44.550          44.550



 23  8 28 12  5 30.0000000  0  9G02G03G04G06G09G11G17G19G31
 133037123.398 6 103665242.66145  25316141.600                    25316146.960
     -3492.508       -2721.444          41.300          35.750



 111249559.779 8  86687996.09448  21170078.080                    21170079.760
     -1990.529       -1551.062          49.800          49.850    83075994.071 8
  21170081.340       -1486.512          53.700


 106849317.000 8  83259253.75548  20332730.740                    20332730.800
       412.727         321.605          49.500          49.600    79790149.026 9
  20332734.960         308.221          56.700


 113440751.348 8  88395412.08748  21587051.120                    21587053.320
      2410.688        1878.460          49.650          49.700    84712280.435 8
  21587055.600        1800.125          53.100


 111097043.680 8  86569175.51348  21141045.980                    21141047.400
      2308.083        1798.507          50.850          50.800    82962146.594 8
  21141048.280        1723.439          53.750


 133054877.672 6 103679134.33746  25319503.460                    25319505.580
      3611.401        2814.080          40.050          36.000    99359191.754 7
  25319512.080        2696.788          42.600


 118381319.277 7  92245178.80147  22527218.040                    22527217.420
     -2391.802       -1863.745          46.200          46.100



 114030167.214 8  88854673.24947  21699217.520                    21699214.800
     -1426.944       -1111.906          48.850          46.400



 121980323.537 7  95049640.98147  23212071.940                    23212070.740
     -1002.725        -781.345          45.100          44.850



 23  8 28 12  6  0.0000000  0  9G02G03G04G06G09G11G17G19G31
 133141935.995 6 103746914.45045  25336087.120                    25336092.060
     -3494.709       -2723.162          41.000          35.450



 111309423.745 8  86734643.31248  21181469.960                    21181471.400
     -1999.797       -1558.284          50.200          50.400    83120697.641 8
  21181472.740       -1493.373          53.350


 106837210.368 8  83249820.03048  20330426.960                    20330426.940
       394.962         307.763          49.700          49.900    79781108.379 9
  20330431.200         294.868          56.750


 113368612.546 8  88339200.06748  21573323.820                    21573325.600
      2399.107        1869.436          49.950          49.950    84658410.592 8
  21573328.320        1791.455          53.250


 111028025.569 8  86515395.21348  21127912.300                    21127913.740
      2293.790        1787.371          50.750          50.750    82910607.144 8
  21127914.480        1712.848          53.750


 132946557.768 6 103594729.22845  25298890.760                    25298893.100
      3610.651        2813.487          39.750          33.950    99278303.517 7
  25298899.300        2696.117          42.900


 118453265.810 7  92301240.95947  22540908.980                    22540908.360
     -2403.854       -1873.137          46.600          46.300



 114073281.117 8  88888268.46847  21707421.700                    21707419.220
     -1446.910       -1127.463          48.450          46.000



 122010716.111 7  95073323.48247  23217855.520                    23217854.460
     -1022.697        -796.907          45.350          44.850



 23  8 28 12  6 30.0000000  0  9G02G03G04G06G09G11G17G19G31
 133246825.294 6 103828646.00345  25356047.200                    25356051.940
     -3497.620       -2725.429          39.900          35.550



 111369567.410 8  86781508.47748  21192915.060                    21192916.360
     -2009.348       -1565.727          49.850          50.100    83165610.087 8
  21192917.500       -1500.492          53.300


 106825647.209 8  83240809.79248  20328226.640                    20328226.520
       376.416         293.312          50.050          50.200    79772473.560 9
  20328230.820         281.122          56.600


 113296829.248 8  88283265.05748  21559664.160                    21559665.500
      2386.861        1859.894          50.150          50.200    84604806.221 8
  21559668.520        1782.354          53.100


 110959438.041 8  86461950.43248  21114860.520                    21114861.980
      2279.188        1775.992          50.650          50.600    82859389.242 8
  21114862.500        1701.938          53.650


 132838273.553 6 103510351.93646  25278284.780                    25278287.220
      3609.009        2812.219          37.900          36.700    99197441.936 7
  25278293.360        2694.956          42.350


 118525579.137 7  92357588.92647  22554669.780                    22554669.060
     -2416.296       -1882.832          46.000          45.750



 114116999.190 8  88922334.47647  21715740.860                    21715738.500
     -1467.339       -1143.381          48.450          45.750



 122041720.731 7  95097482.88747  23223755.460                    23223754.760
     -1043.679        -813.257          44.250          44.250



 23  8 28 12  7  0.0000000  0  9G02G03G04G06G09G11G17G19G31
 133351787.657 6 103910434.55845  25376021.220                    25376025.480
     -3500.042       -2727.317          38.150          35.000



 111429988.184 8  86828589.57348  21204412.760                    21204413.940
     -2018.889       -1573.161          49.650          49.550    83210729.459 8
  21204415.320       -1507.601          53.750


 106814625.529 8  83232221.48648  20326129.400                    20326129.140
       358.155         279.082          49.800          49.750    79764243.100 9
  20326133.500         267.466          56.800


 113225402.012 8  88227607.49848  21546072.080                    21546073.280
      2374.884        1850.560          50.000          49.650    84551467.742 8
  21546076.340        1773.376          53.400


 110891280.688 8  86408840.85748  21101890.580                    21101892.040
      2264.648        1764.662          50.600          50.400    82808492.576 8
  21101892.480        1691.073          53.700


 132730025.040 6 103426002.46445  25257685.660                    25257688.240
      3607.680        2811.180          39.800          34.250    99116607.062 7
  25257694.540        2693.829          43.400


 118598255.197 7  92414219.55947  22568499.640                    22568499.060
     -2428.712       -1892.504          46.550          46.250



 114161317.933 8  88956868.52947  21724174.340                    21724172.080
     -1487.507       -1159.096          48.600          46.150



 122073334.924 7  95122117.27447  23229771.160                    23229770.940
     -1064.024        -829.111          43.150          42.800



 23  8 28 12  7 30.0000000  0  9G02G03G04G06G09G11G17G19G31
 133456825.372 6 103992281.71946  25396009.300                    25396013.220
     -3502.010       -2728.847          37.650          36.200



 111490688.776 8  86875888.70748  21215963.660                    21215964.700
     -2027.744       -1580.062          49.350          49.400    83256057.780 8
  21215966.520       -1514.259          53.950


 106804148.670 8  83224057.71448  20324135.760                    20324135.460
       340.422         265.265          49.600          49.550    79756419.493 9
  20324139.860         254.227          57.050


 113154336.746 8  88172231.99748  21532548.780                    21532550.040
      2362.925        1841.241          50.050          49.950    84498399.559 8
  21532552.940        1764.563          53.700


 110823558.479 8  86356070.34748  21089003.480                    21089004.840
      2250.313        1753.493          50.600          50.600    82757920.851 8
  21089005.300        1680.515          53.950


 132621817.801 6 103341685.12745  25237094.480                    25237097.080
      3606.621        2810.352          38.750          35.850    99035802.920 7
  25237103.280        2693.222          42.900


 118671294.983 7  92471133.61047  22582398.700                    22582398.200
     -2440.353       -1901.575          46.300          46.250



 114206238.652 8  88991871.65747  21732722.480                    21732720.240
     -1507.117       -1174.378          49.000          45.550



 122105561.127 7  95147228.57547  23235903.420                    23235903.400
     -1084.040        -844.709          42.650          42.700



 23  8 28 12  8  0.0000000  0  9G02G03G04G06G09G11G17G19G31
 133561934.431 6 104074184.49346  25416011.220                    25416015.460
     -3504.379       -2730.701          39.500          37.650



 111551666.232 8  86923403.57448  21227567.360                    21227568.260
     -2036.976       -1587.255          50.000          49.900    83301592.863 8
  21227570.160       -1521.244          53.250


 106794214.317 8  83216316.66848  20322245.280                    20322245.000
       322.242         251.099          49.400          49.350    79749000.997 9
  20322249.480         240.618          56.650


 113083633.615 8  88117138.67848  21519094.320                    21519095.800
      2350.939        1831.902          50.200          50.100    84445601.817 8
  21519098.420        1755.470          53.250


 110756270.579 8  86303638.26348  21076199.060                    21076200.260
      2235.819        1742.198          51.450          51.400    82707673.453 8
  21076200.700        1669.585          53.400


 132513651.703 6 103257399.94246  25216511.240                    25216513.800
      3605.009        2809.102          40.200          36.550    98955029.633 7
  25216520.020        2691.934          43.550


 118744693.942 7  92528327.53947  22596366.140                    22596365.960
     -2452.457       -1911.010          46.250          46.650



 114251757.356 8  89027340.75747  21741384.520                    21741382.120
     -1527.227       -1190.047          49.550          46.200



 122138396.252 7  95172814.35647  23242151.540                    23242151.560
     -1104.541        -860.682          42.750          42.750



 23  8 28 12  8 30.0000000  0  9G02G03G04G06G09G11G17G19G31
 133667111.746 6 104156140.49045  25436026.040                    25436030.340
     -3506.535       -2732.375          40.300          35.350



 111612918.108 8  86971132.28948  21239223.420                    21239224.000
     -2046.011       -1594.295          50.350          50.350    83347332.875 8
  21239225.960       -1527.911          53.600


 106784820.557 8  83208996.86248  20320457.660                    20320457.440
       304.357         237.162          49.250          49.200    79741986.184 9
  20320461.980         227.265          56.800


 113013293.328 8  88062328.10048  21505708.880                    21505710.620
      2338.862        1822.492          49.650          49.750    84393075.021 8
  21505712.880        1746.522          53.150


 110689416.678 8  86251544.35048  21063477.220                    21063478.220
      2221.382        1730.948          51.200          51.250    82657750.136 8
  21063478.820        1658.817          53.550


 132405526.826 6 103173146.81146  25195935.580                    25195938.740
      3603.862        2808.208          40.350          36.700    98874287.077 7
  25195944.460        2690.971          43.150


 118818447.679 7  92585797.92647  22610401.020                    22610401.080
     -2464.177       -1920.139          46.600          46.500



 114297870.251 8  89063272.85047  21750159.760                    21750157.180
     -1546.745       -1205.257          49.600          45.600



 122171837.761 7  95198872.61547  23248515.060                    23248515.140
     -1124.386        -876.148          43.050          42.600



 23  8 28 12  9  0.0000000  0  9G02G03G04G06G09G11G17G19G31
 133772357.931 6 104238150.14145  25456054.120                    25456058.340
     -3509.128       -2734.396          39.850          35.850



 111674445.803 8  87019075.91648  21250931.900                    21250932.320
     -2055.310       -1601.541          49.550          49.550    83393278.846 9
  21250934.360       -1534.896          54.000


 106775969.315 8  83202099.80048  20318773.260                    20318773.120
       286.218         223.027          49.600          49.500    79735376.505 9
  20318777.720         213.700          57.050


 112943320.474 8  88007803.83148  21492393.280                    21492395.320
      2326.515        1812.870          49.450          49.600    84340822.600 8
  21492397.180        1737.275          53.350


 110623000.310 8  86199791.37248  21050838.620                    21050839.420
      2206.773        1719.565          51.200          51.100    82608153.543 8
  21050840.140        1647.867          53.850


 132297447.507 6 103088929.16546  25175368.700                    25175372.080
      3602.089        2806.819          40.850          36.650    98793578.509 7
  25175377.560        2689.801          44.050


 118892556.091 7  92643544.67747  22624503.440                    22624503.740
     -2475.869       -1929.252          45.900          45.900



 114344578.002 8  89099668.47247  21759048.220                    21759045.380
     -1566.547       -1220.687          49.250          46.550



 122205886.851 7  95225404.33547  23254994.440                    23254994.680
     -1144.878        -892.114          43.300          43.000



 23  8 28 12  9 30.0000000  0  9G02G03G04G06G09G11G17G19G31
 133877670.021 6 104320211.13645  25476094.640                    25476098.920
     -3511.396       -2736.161          39.800          35.350



 111736247.371 8  87067232.95848  21262692.320                    21262692.820
     -2064.804       -1608.938          49.750          49.600    83439429.330 9
  21262694.840       -1541.930          54.150


 106767659.225 8  83195624.42048  20317191.860                    20317191.820
       267.687         208.587          49.850          50.000    79729170.941 9
  20317196.400         199.916          57.150


 112873716.218 8  87953566.78348  21479147.860                    21479150.100
      2313.764        1802.934          49.350          49.250    84288845.431 8
  21479151.640        1727.751          53.450


 110557021.624 8  86148379.44948  21038283.180                    21038283.960
      2191.787        1707.888          51.200          51.050    82558883.794 8
  21038284.920        1636.642          53.950


 132189414.488 6 103004747.64046  25154810.700                    25154814.160
      3600.147        2805.308          41.100          38.900    98712904.546 7
  25154819.520        2688.282          44.550


 118967015.658 7  92701565.05347  22638672.640                    22638673.240
     -2488.139       -1938.812          46.300          46.200



 114391877.144 8  89136524.89947  21768049.080                    21768046.140
     -1586.748       -1236.429          49.150          45.950



 122240541.346 7  95252407.80847  23261589.120                    23261589.480
     -1165.322        -908.043          43.400          43.350



 23  8 28 12 10  0.0000000  0  9G02G03G04G06G09G11G17G19G31
 133983046.399 5 104402322.25545  25496147.160                    25496151.640
     -3513.930       -2738.138          35.950          35.500



 111798321.771 8  87115602.60048  21274504.680                    21274505.400
     -2073.658       -1615.839          49.950          49.850    83485783.549 9
  21274507.160       -1548.433          54.300


 106759889.755 8  83189570.30348  20315713.360                    20315713.380
       249.976         194.787          49.850          49.800    79723369.079 9
  20315717.960         186.743          57.250


 112804482.681 8  87899618.60148  21465972.960                    21465975.360
      2301.531        1793.401          49.150          49.100    84237145.084 8
  21465976.800        1718.771          53.600


 110491481.762 8  86097309.46048  21025811.300                    21025812.000
      2177.425        1696.695          51.550          51.650    82509941.717 9
  21025813.240        1626.039          54.350


 132081429.542 6 102920603.55746  25134261.920                    25134265.540
      3598.573        2804.083          41.150          39.100    98632266.480 7
  25134270.640        2687.391          45.250


 119041823.461 7  92759856.76847  22652908.080                    22652909.000
     -2499.278       -1947.492          46.350          46.500



 114439765.578 8  89173840.53547  21777161.860                    21777159.040
     -1606.033       -1251.456          48.150          46.050



 122275799.883 7  95279881.97247  23268298.840                    23268299.120
     -1185.294        -923.605          44.300          44.300



 23  8 28 12 10 30.0000000  0  9G02G03G04G06G09G11G17G19G31
 134088486.426 6 104484482.84746  25516211.680                    25516217.080
     -3516.334       -2740.020          37.750          36.250



 111860669.088 8  87164184.89648  21286368.940                    21286369.980
     -2082.562       -1622.776          50.000          50.050    83532341.579 8
  21286371.320       -1555.195          53.950


 106752661.551 8  83183937.94748  20314337.880                    20314337.860
       232.067         180.832          49.950          50.050    79717971.402 9
  20314342.480         173.282          56.950


 112735623.108 8  87845961.81248  21452869.340                    21452871.800
      2289.123        1783.733          48.800          48.750    84185724.002 8
  21452873.200        1709.470          53.350


 110426382.872 8  86046583.08648  21013423.300                    21013423.960
      2162.776        1685.281          50.950          50.900    82461328.950 9
  21013425.580        1615.007          54.250


 131973495.528 6 102836499.19846  25113722.740                    25113726.720
      3597.089        2802.926          41.250          39.700    98551666.458 7
  25113731.380        2686.158          44.000


 119116977.928 7  92818418.62047  22667209.540                    22667210.580
     -2510.686       -1956.383          46.100          45.950



 114488242.061 8  89211614.38947  21786386.400                    21786383.820
     -1625.561       -1266.671          48.000          46.050



 122311662.226 7  95307826.60847  23275123.440                    23275123.540
     -1205.290        -939.187          44.500          44.250



 23  8 28 12 11  0.0000000  0  9G02G03G04G06G09G11G17G19G31
 134193987.212 6 104566690.82546  25536287.860                    25536293.960
     -3517.660       -2741.050          37.700          36.200



 111923287.098 8  87212978.11648  21298284.680                    21298285.920
     -2091.658       -1629.864          49.700          49.750    83579101.730 8
  21298287.100       -1561.983          53.850


 106745972.779 8  83178725.93348  20313065.040                    20313064.960
       214.076         166.813          50.200          50.100    79712976.562 9
  20313069.600         159.827          57.000


 112667138.411 8  87792597.12948  21439837.140                    21439839.600
      2276.622        1773.991          49.250          49.300    84134582.862 8
  21439840.920        1700.008          53.350


 110361724.787 8  85996200.19648  21001119.220                    21001119.820
      2148.055        1673.810          50.750          50.750    82413045.344 9
  21001121.840        1604.076          54.700


 131865612.986 6 102752434.92346  25093193.380                    25093197.360
      3595.482        2801.680          40.750          37.950    98471104.875 7
  25093201.840        2684.794          44.700


 119192475.125 7  92877247.52847  22681576.220                    22681577.400
     -2522.082       -1965.263          46.550          46.550



 114537303.219 8  89249843.82547  21795722.200                    21795719.900
     -1645.035       -1281.845          48.100          45.000



 122348125.924 7  95336239.83447  23282062.440                    23282062.400
     -1225.339        -954.812          44.550          44.800



 23  8 28 12 11 30.0000000  0  9G02G03G04G06G09G11G17G19G31
 134299548.475 6 104648946.05045  25556376.020                    25556381.780
     -3519.620       -2742.563          37.600          33.550



 111986176.338 8  87261982.69448  21310252.080                    21310253.440
     -2100.962       -1637.113          49.950          50.050    83626064.431 8
  21310254.440       -1568.902          53.550


 106739824.534 8  83173935.10848  20311895.140                    20311894.880
       195.981         152.714          50.400          50.350    79708385.354 9
  20311899.460         146.232          57.050


 112599032.285 8  87739527.43648  21426876.960                    21426879.440
      2263.730        1763.946          49.650          49.600    84083724.398 8
  21426880.620        1690.478          53.200


 110297510.148 8  85946162.84348  20988899.520                    20988900.080
      2133.016        1662.091          50.950          50.800    82365092.886 9
  20988902.440        1592.776          54.950


 131757785.337 6 102668413.40346  25072674.480                    25072678.600
      3593.354        2800.019          41.200          38.900    98390584.257 7
  25072682.740        2683.193          44.800


 119268313.777 7  92936342.51147  22696007.900                    22696009.180
     -2533.743       -1974.348          46.250          46.000



 114586948.125 8  89288528.11447  21805169.200                    21805167.100
     -1664.546       -1297.050          48.600          45.200



 122385191.137 7  95365121.77947  23289115.740                    23289115.820
     -1245.649        -970.639          44.500          44.550



 23  8 28 12 12  0.0000000  0  9G02G03G04G06G09G11G17G19G31
 134405167.744 6 104731246.32246  25576475.180                    25576481.000
     -3521.750       -2744.235          38.750          37.650



 112049335.112 8  87311197.31648  21322270.820                    21322272.160
     -2110.057       -1644.201          49.600          49.600    83673228.442 8
  21322272.920       -1575.726          53.200


 106734215.535 8  83169564.47848  20310827.840                    20310827.420
       177.573         138.369          50.150          50.150    79704196.828 9
  20310831.920         132.646          56.850


 112531306.197 8  87686753.88648  21413989.200                    21413991.600
      2250.952        1753.989          49.950          49.700    84033149.752 8
  21413992.560        1680.791          52.900


 110233739.333 8  85896471.32848  20976764.340                    20976764.860
      2118.066        1650.442          51.000          50.900    82317471.850 9
  20976767.480        1581.627          54.950


 131650013.716 6 102584435.54546  25052166.040                    25052170.260
      3591.122        2798.276          41.250          37.700    98310105.492 7
  25052174.380        2681.639          44.850


 119344490.458 7  92995700.88647  22710504.000                    22710505.260
     -2545.148       -1983.235          46.700          46.900



 114637173.841 8  89327664.98047  21814726.900                    21814724.880
     -1684.063       -1312.259          48.850          45.400



 122422855.799 7  95394470.84547  23296283.020                    23296283.200
     -1265.791        -986.333          43.250          43.150



 23  8 28 12 12 30.0000000  0  9G02G03G04G06G09G11G17G19G31
 134510842.823 6 104813590.06346  25596584.940                    25596590.480
     -3524.055       -2746.032          39.750          37.050



 112112761.834 8  87360620.70648  21334340.440                    21334341.780
     -2118.980       -1651.154          49.150          49.550    83720592.524 8
  21334342.420       -1582.352          53.550


 106729144.581 8  83165613.09348  20309862.900                    20309862.460
       159.738         124.472          49.750          49.950    79700410.090 9
  20309866.760         119.282          57.000


 112463961.627 8  87634277.62948  21401174.000                    21401176.300
      2238.221        1744.069          49.800          49.900    83982859.995 8
  21401177.080        1671.359          53.000


 110170412.764 8  85847125.97848  20964713.700                    20964714.240
      2103.049        1638.740          51.050          51.050    82270182.554 9
  20964716.900        1570.515          55.200


 131542299.299 6 102500502.28846  25031668.620                    25031673.040
      3589.249        2796.820          40.500          39.750    98229669.435 7
  25031676.800        2680.245          45.250


 119421001.812 7  93055320.02347  22725063.820                    22725065.040
     -2556.290       -1991.919          46.650          46.450



 114687977.391 8  89367252.11647  21824394.620                    21824392.500
     -1703.455       -1327.369          48.900          45.100



 122461117.962 7  95424285.49247  23303563.900                    23303564.280
     -1285.560       -1001.735          43.750          44.150



 23  8 28 12 13  0.0000000  0  9G02G03G04G06G09G11G17G19G31
 134616574.336 6 104895977.82745  25616705.480                    25616710.940
     -3525.270       -2746.980          36.800          35.050



 112176458.182 8  87410254.18948  21346461.360                    21346462.780
     -2127.631       -1657.896          48.600          48.400    83768157.945 8
  21346463.500       -1588.904          53.050


 106724613.782 8  83162082.60048  20309000.660                    20309000.380
       142.008         110.655          49.750          49.750    79697026.706 9
  20309004.460         106.039          56.800


 112397003.410 8  87582102.43448  21388432.220                    21388434.420
      2225.383        1734.066          49.550          49.400    83932858.759 8
  21388435.240        1661.837          52.700


 110107534.112 8  85798129.65148  20952748.340                    20952748.880
      2088.543        1627.436          51.100          51.050    82223227.757 9
  20952751.460        1559.543          54.900


 131434646.584 6 102416617.09146  25011182.960                    25011187.440
      3587.364        2795.352          39.600          39.450    98149279.458 7
  25011191.040        2678.804          44.900


 119497847.753 7  93115199.88747  22739687.400                    22739688.260
     -2567.100       -2000.341          46.600          46.700



 114739359.094 8  89407289.75847  21834172.380                    21834170.180
     -1722.354       -1342.097          48.800          45.850



 122499978.939 7  95454566.75147  23310958.780                    23310959.360
     -1305.478       -1017.256          43.450          43.300



 23  8 28 12 13 30.0000000  0  9G02G03G04G06G09G11G17G19G31
 134722357.990 5 104978406.23545  25636835.620                    25636840.780
     -3526.844       -2748.208          34.850          33.550



 112240420.627 8  87460095.00848  21358632.940                    21358634.280
     -2136.916       -1665.132          48.650          48.450    83815922.065 8
  21358635.180       -1595.792          52.950


 106720619.991 8  83158970.56448  20308240.640                    20308240.500
       123.665          96.361          50.150          50.000    79694044.344 9
  20308244.480          92.401          57.000


 112330431.137 8  87530227.96148  21375763.940                    21375765.840
      2212.123        1723.733          49.700          49.750    83883145.737 8
  21375766.980        1651.893          52.850


 110045101.889 8  85749481.20748  20940867.880                    20940868.540
      2073.299        1615.558          51.700          51.850    82176606.337 9
  20940870.900        1548.148          55.050


 131327054.873 6 102332779.42646  24990708.960                    24990713.400
      3585.079        2793.566          40.000          39.300    98068935.053 7
  24990716.840        2677.014          45.100


 119575022.915 7  93175336.27747  22754373.580                    22754374.300
     -2578.524       -2009.242          46.550          46.450



 114791314.092 8  89447774.11547  21844059.140                    21844056.840
     -1741.800       -1357.249          49.000          45.550



 122539434.560 7  95485311.35947  23318466.980                    23318467.720
     -1325.577       -1032.918          43.550          43.350



 23  8 28 12 14  0.0000000  0  9G02G03G04G06G09G11G17G19G31
 134828193.577 5 105060875.05645  25656975.860                    25656981.260
     -3529.040       -2749.920          35.500          32.700



 112304649.423 8  87510143.37948  21370855.360                    21370856.600
     -2145.757       -1672.019          49.550          49.450    83863885.086 8
  21370857.660       -1602.329          53.100


 106717163.865 8  83156277.49248  20307582.960                    20307582.920
       105.867          82.494          49.850          49.850    79691463.490 9
  20307586.900          79.063          57.000


 112264248.200 8  87478656.87748  21363169.820                    21363171.420
      2199.276        1713.723          49.700          49.650    83833723.457 8
  21363172.860        1642.217          52.750


 109983118.383 8  85701182.40648  20929072.800                    20929073.600
      2058.221        1603.810          50.800          50.750    82130319.991 9
  20929075.620        1536.957          54.900


 131219527.369 6 102248991.82546  24970247.060                    24970251.520
      3582.683        2791.702          39.250          38.300    97988638.580 7
  24970254.880        2675.522          45.250


 119652525.681 7  93235727.94047  22769122.140                    22769122.480
     -2589.159       -2017.530          46.300          46.300



 114843841.201 8  89488704.27747  21854054.800                    21854052.400
     -1760.795       -1372.049          48.450          45.350



 122579484.717 7  95516519.24747  23326088.300                    23326089.340
     -1345.294       -1048.282          43.400          43.450



 23  8 28 12 14 30.0000000  0  9G02G03G04G06G09G11G17G19G31
 134934078.500 5 105143382.37345  25677125.520                    25677131.000
     -3530.582       -2751.129          35.950          30.600



 112369143.162 8  87560398.21248  21383128.320                    21383129.440
     -2154.463       -1678.804          49.250          49.100    83912045.962 8
  21383130.940       -1608.753          53.650


 106714244.335 8  83154002.55148  20307027.440                    20307027.360
        88.076          68.632          50.000          50.250    79689283.334 9
  20307031.500          65.896          57.050


 112198456.291 8  87427390.48748  21350650.160                    21350651.500
      2186.282        1703.598          50.100          50.250    83784593.163 8
  21350653.160        1632.704          53.000


 109921584.125 8  85653233.66848  20917363.120                    20917364.180
      2043.511        1592.347          50.850          50.650    82084369.120 9
  20917365.820        1526.003          54.850


 131112065.397 6 102165255.28246  24949797.780                    24949802.080
      3580.781        2790.221          39.100          39.650    97908391.097 7
  24949805.480        2673.975          45.300


 119730352.812 7  93296372.36947  22783932.260                    22783932.340
     -2599.759       -2025.788          46.500          46.850



 114896937.536 8  89530077.98247  21864158.700                    21864156.200
     -1779.603       -1386.705          48.750          44.750



 122620127.679 7  95548189.06147  23333822.580                    23333823.580
     -1364.947       -1063.597          44.350          44.100



 23  8 28 12 15  0.0000000  0  9G02G03G04G06G09G11G17G19G31
 135040011.634 7 105225927.33246  25697284.540                    25697289.700
     -3532.026       -2752.248          43.650          37.350



 112433900.746 8  87610858.63148  21395451.420                    21395452.500
     -2163.205       -1685.615          49.150          49.300    83960403.857 8
  21395454.540       -1615.360          53.700


 106711860.641 8  83152145.13948  20306573.820                    20306573.700
        70.324          54.799          49.900          49.900    79687503.322 9
  20306578.000          52.543          56.800


 112133057.467 8  87376430.39748  21338205.220                    21338206.400
      2173.197        1693.401          50.500          50.350    83735756.418 8
  21338208.320        1622.890          53.100


 109860500.019 8  85605635.69348  20905739.040                    20905740.360
      2028.366        1580.547          50.550          50.400    82038754.408 9
  20905741.660        1514.755          54.600


 131004670.809 6 102081571.25546  24929361.360                    24929365.440
      3578.387        2788.354          39.400          38.650    97828193.893 7
  24929368.880        2672.301          45.300


 119808501.747 7  93357267.54147  22798803.520                    22798803.700
     -2610.428       -2034.103          46.050          45.850



 114950600.844 8  89571893.48047  21874370.500                    21874367.920
     -1798.353       -1401.316          48.850          44.150



 122661361.753 7  95580319.48947  23341669.400                    23341670.300
     -1384.434       -1078.781          45.850          45.550



 23  8 28 12 15 30.0000000  0  9G02G03G04G06G09G11G17G19G31
 135145993.938 6 105308510.57345  25717452.820                    25717458.180
     -3533.396       -2753.307          37.350          35.650



 112498924.700 8  87661526.60048  21407825.060                    21407826.260
     -2171.922       -1692.408          48.550          48.600    84008960.650 9
  21407828.740       -1621.865          54.300


 106710015.658 8  83150707.49648  20306222.720                    20306222.500
        52.554          40.951          49.650          49.700    79686125.585 9
  20306226.880          39.267          56.950


 112068057.284 8  87325780.93748  21325836.080                    21325837.100
      2160.024        1683.137          50.200          50.100    83687217.371 8
  21325839.440        1612.993          53.950


 109799870.528 8  85558391.97148  20894201.440                    20894203.040
      2013.399        1568.883          50.500          50.750    81993479.186 9
  20894204.000        1503.565          54.800


 130897348.917 6 101997943.89346  24908938.660                    24908942.640
      3576.467        2786.860          40.100          39.300    97748051.022 7
  24908946.160        2670.589          45.350


 119886972.954 7  93418413.86447  22813736.120                    22813735.840
     -2621.099       -2042.415          46.350          46.350



 115004831.814 8  89614151.30747  21884690.360                    21884687.680
     -1817.232       -1416.028          48.450          45.250



 122703188.759 7  95612911.96247  23349628.940                    23349629.920
     -1404.100       -1094.104          45.850          45.900



 23  8 28 12 16  0.0000000  0 10G02G03G04G06G07G09G11G17G19G31
 135252020.827 6 105391128.49845  25737629.320                    25737634.840
     -3534.946       -2754.521          39.200          35.700



 112564209.839 8  87712398.09048  21420248.440                    21420249.760
     -2180.308       -1698.942          48.400          48.300    84057712.484 8
  21420252.380       -1628.218          53.900


 106708704.464 8  83149685.80248  20305973.160                    20305972.880
        34.802          27.118          50.000          49.750    79685146.458 9
  20305977.160          26.045          56.450


 112003453.715 8  87275440.52248  21313542.320                    21313543.260
      2146.888        1672.900          49.550          49.300    83638974.493 8
  21313546.060        1603.187          53.900


                                  25727838.740                    25727849.240
      3262.495        2542.214          36.700          35.700



 109739692.434 8  85511499.98748  20882749.760                    20882751.560
      1998.519        1557.288          50.600          50.650    81948541.052 9
  20882752.300        1492.349          54.400


 130790097.516 6 101914371.41846  24888529.380                    24888533.360
      3574.315        2785.184          39.800          39.250    97667960.759 7
  24888536.900        2668.883          45.250


 119965759.441 7  93479805.83647  22828728.620                    22828728.440
     -2631.404       -2050.448          46.100          46.050



 115059623.878 8  89656846.35647  21895117.140                    21895114.240
     -1835.625       -1430.360          48.800          44.300



 122745603.146 7  95645962.12647  23357700.220                    23357700.880
     -1423.518       -1109.234          45.450          45.450



 23  8 28 12 16 30.0000000  0 10G02G03G04G06G07G09G11G17G19G31
 135358094.619 6 105473782.93245  25757814.900                    25757820.360
     -3536.228       -2755.519          37.800          35.150



 112629759.360 8  87763475.60548  21432722.100                    21432723.620
     -2189.215       -1705.883          48.650          48.750    84106661.756 8
  21432725.780       -1634.819          53.650


 106707930.542 8  83149082.75248  20305825.840                    20305825.520
        16.917          13.183          50.000          50.100    79684568.541 9
  20305829.600          12.670          56.600


 111939253.025 8  87225414.04548  21301325.220                    21301326.160
      2133.303        1662.315          49.850          50.100    83591032.463 9
  21301329.200        1593.095          54.200


 135102777.591 6 105274919.51746  25709205.200                    25709215.320
      3265.803        2544.784          41.200          41.150



 109679970.842 8  85464963.71248  20871385.060                    20871386.880
      1983.310        1545.438          50.800          50.550    81903943.791 9
  20871387.440        1480.997          54.700


 130682922.634 6 101830858.59846  24868134.580                    24868138.540
      3571.325        2782.852          40.550          39.200    97587927.642 7
  24868142.340        2666.854          45.650


 120044862.507 7  93541444.48847  22843781.320                    22843781.400
     -2641.686       -2058.459          46.450          46.500



 115114978.735 8  89699979.94947  21905650.980                    21905647.860
     -1854.353       -1444.953          48.800          43.700



 122788607.498 7  95679471.98447  23365883.720                    23365883.780
     -1443.140       -1124.525          45.600          45.700



 23  8 28 12 17  0.0000000  0 10G02G03G04G06G07G09G11G17G19G31
 135464205.869 6 105556466.54645  25778007.520                    25778013.020
     -3537.607       -2756.592          38.200          33.750



 112695565.413 8  87814752.99848  21445244.480                    21445246.240
     -2197.533       -1712.365          48.400          48.250    84155802.577 8
  21445247.900       -1641.027          53.250


 106707686.280 8  83148892.43548  20305779.320                    20305779.040
        -0.423          -0.328          49.950          50.000    79684386.153 9
  20305782.880          -0.362          56.550


 111875450.413 8  87175697.75048  21289183.880                    21289184.960
      2120.298        1652.181          49.700          49.600    83543387.704 9
  21289187.900        1583.318          54.300


 135004743.201 6 105198529.31345  25690550.500                    25690560.260
      3269.850        2547.940          36.100          35.400



 109620699.768 8  85418778.48048  20860106.120                    20860107.860
      1968.478        1533.880          50.400          50.500    81859682.968 9
  20860108.340        1469.895          54.600


 130575819.236 6 101747401.46246  24847753.380                    24847757.380
      3569.065        2781.091          40.550          39.700    97507947.920 7
  24847761.480        2665.226          45.800


 120124272.583 7  93603322.40247  22858892.380                    22858892.340
     -2651.688       -2066.255          45.000          45.100



 115170886.978 8  89743544.76747  21916290.040                    21916286.900
     -1872.534       -1459.119          48.550          43.250



 122832193.237 7  95713434.88147  23374177.840                    23374177.420
     -1462.332       -1139.480          46.700          46.850



 23  8 28 12 17 30.0000000  0 10G02G03G04G06G07G09G11G17G19G31
 135570498.186 5 105639371.66444  25798208.520                    25798214.240
     -3539.349       -2757.948          35.500          26.550



 112761635.316 7  87866235.98447  21457817.020                    21457818.900
     -2206.760       -1719.555          47.950          47.950    84205140.424 8
  21457820.060       -1647.924          52.650


 106707979.240 8  83149120.72448  20305835.020                    20305834.820
       -18.979         -14.788          49.900          49.800    79684604.934 9
  20305838.500         -14.071          56.400


 111812056.345 8  87126299.79848  21277120.420                    21277121.620
      2106.118        1641.131          50.000          50.300    83496048.000 9
  21277124.360        1572.754          54.250


 134906607.122 6 105122059.94246  25671875.440                    25671884.480
      3272.796        2550.243          36.450          36.550



 109561888.480 8  85372951.53348  20848914.740                    20848916.240
      1952.528        1521.451          50.750          50.700    81815765.478 9
  20848916.820        1458.070          54.500


 130468797.569 6 101664008.02846  24827387.800                    24827391.720
      3565.907        2778.631          41.400          39.950    97428029.211 7
  24827396.080        2662.760          45.650


 120203995.078 7  93665443.73147  22874062.940                    22874063.380
     -2662.881       -2074.975          45.950          45.750



 115227354.457 8  89787545.37147  21927035.440                    21927032.380
     -1891.754       -1474.095          48.050          44.050



 122876367.084 7  95747856.06547  23382584.000                    23382583.120
     -1482.573       -1155.251          46.300          46.350



 23  8 28 12 18  0.0000000  0 10G02G03G04G06G07G09G11G17G19G31
 135676691.063 5 105722118.88945  25818416.260                    25818422.140
     -3540.443       -2758.804          35.600          31.950



 112827962.689 8  87917919.61948  21470438.720                    21470440.400
     -2215.214       -1726.142          48.300          48.250    84254670.559 8
  21470441.380       -1654.250          52.750


 106708803.311 8  83149762.86548  20305991.760                    20305991.700
       -36.360         -28.333          50.050          49.900    79685220.325 9
  20305995.340         -27.157          56.700


 111749067.519 8  87077217.61448  21265134.160                    21265135.480
      2092.820        1630.770          50.300          50.100    83449010.919 9
  21265138.020        1562.803          54.450


 134808364.878 5 105045507.79345  25653180.160                    25653187.980
      3275.916        2552.658          34.650          35.100



 109503532.438 8  85327479.32548  20837810.000                    20837811.240
      1937.613        1509.830          50.950          50.700    81772187.965 9
  20837811.940        1446.840          54.800


 130361854.150 6 101580675.57546  24807036.980                    24807041.080
      3563.661        2776.883          41.300          40.300    97348168.962 7
  24807045.680        2661.024          46.000


 120284021.525 7  93727801.91747  22889291.400                    22889292.040
     -2672.679       -2082.610          45.650          45.450



 115284372.977 7  89831975.33947  21937885.500                    21937882.700
     -1909.789       -1488.148          47.250          44.550



 122921121.896 7  95782729.92347  23391100.820                    23391099.580
     -1501.483       -1169.987          45.950          45.850



 23  8 28 12 18 30.0000000  0 10G02G03G04G06G07G09G11G17G19G31
 135782927.979 5 105804902.69745  25838632.340                    25838638.760
     -3541.833       -2759.870          34.000          30.750



 112894552.552 8  87969807.79748  21483110.400                    21483111.880
     -2223.830       -1732.855          48.200          48.250    84304396.714 8
  21483112.880       -1660.553          52.700


 106710163.740 8  83150822.95048  20306250.600                    20306250.640
       -53.980         -42.062          49.700          49.400    79686236.240 9
  20306254.380         -40.302          56.650


 111686492.020 8  87028457.51048  21253226.460                    21253227.880
      2079.391        1620.306          50.200          50.050    83402282.493 9
  21253230.320        1552.704          54.050


 134710023.733 6 104968878.73046  25634465.980                    25634473.980
      3279.788        2555.688          38.350          38.600



 109445638.590 8  85282367.26948  20826793.220                    20826794.260
      1922.474        1498.033          50.800          50.900    81728955.583 9
  20826795.160        1435.581          54.600


 130254996.990 6 101497410.33346  24786702.580                    24786706.720
      3560.819        2774.669          41.700          39.400    97268373.121 7
  24786711.440        2658.968          45.550


 120364355.457 7  93790399.70447  22904578.460                    22904579.260
     -2682.603       -2090.343          46.400          46.250



 115341946.157 7  89876837.50947  21948841.100                    21948838.740
     -1928.093       -1502.413          46.950          45.650



 122966462.284 7  95818060.08847  23399728.920                    23399727.660
     -1520.966       -1185.169          46.350          46.400



 23  8 28 12 19  0.0000000  0 10G02G03G04G06G07G09G11G17G19G31
 135889194.416 6 105887714.43045  25858853.960                    25858861.520
     -3542.632       -2760.525          38.950          32.950



 112961393.003 7  88021891.22547  21495829.700                    21495831.240
     -2232.097       -1739.299          47.700          47.550    84354309.989 8
  21495832.460       -1666.849          52.600


 106712048.832 8  83152291.85048  20306609.340                    20306609.420
       -71.562         -55.762          49.700          49.600    79687643.942 9
  20306613.320         -53.437          56.600


 111624321.044 8  86980012.61148  21241395.640                    21241397.200
      2065.601        1609.560          50.200          50.150    83355856.138 8
  21241399.480        1542.447          53.750


 134611575.694 5 104892166.44145  25615731.480                    25615739.080
      3283.464        2558.561          35.900          35.250



 109388196.895 8  85237607.54648  20815862.420                    20815863.360
      1907.250        1486.170          50.700          50.800    81686060.855 9
  20815864.440        1424.202          54.600


 130148217.113 6 101414205.28946  24766382.960                    24766386.820
      3557.975        2772.451          41.600          40.050    97188634.956 7
  24766391.800        2657.044          44.750


 120444983.272 7  93853226.49347  22919921.620                    22919922.840
     -2692.433       -2098.003          45.550          45.450



 115400060.586 7  89922121.43847  21959899.820                    21959897.720
     -1946.093       -1516.438          47.200          45.200



 123012375.605 7  95853836.70047  23408465.860                    23408464.880
     -1539.875       -1199.902          46.200          46.150



 23  8 28 12 19 30.0000000  0  9G03G04G06G07G09G11G17G19G31
 113028494.475 7  88074178.03747  21508598.700                    21508600.420
     -2241.171       -1746.369          47.950          47.850    84404418.183 8
  21508601.560       -1673.646          52.100


 106714469.101 8  83154177.77748  20307069.940                    20307069.980
       -89.814         -69.985          49.850          49.800    79689451.292 9
  20307074.020         -67.084          56.650


 111562568.037 8  86931893.40848  21229644.380                    21229645.980
      2051.412        1598.504          49.750          49.900    83309741.905 8
  21229648.080        1531.801          53.600


 134513033.847 6 104815381.08345  25596979.200                    25596987.140
      3286.372        2560.826          36.350          35.950



 109331219.586 8  85193209.68148  20805020.000                    20805020.900
      1891.230        1473.688          50.550          50.350    81643512.899 9
  20805022.160        1412.304          54.800


 130041527.782 7 101331070.80046  24746080.680                    24746084.180
      3554.582        2769.808          42.400          39.950    97108964.429 7
  24746089.400        2654.371          44.800


 120525913.015 7  93916288.54747  22935322.180                    22935323.340
     -2702.907       -2106.165          46.100          46.100



 115458725.132 7  89967834.03747  21971063.320                    21971061.500
     -1964.841       -1531.047          47.150          46.300



 123058871.691 7  95890067.40047  23417313.520                    23417313.020
     -1559.750       -1215.390          44.950          44.850



 23  8 28 12 20  0.0000000  0  9G03G04G06G07G09G11G17G19G31
 113095850.858 8  88126663.49748  21521416.320                    21521418.180
     -2249.599       -1752.935          49.450          49.550    84454716.746 8
  21521418.960       -1679.864          51.900


 106717418.611 8  83156476.10248  20307631.280                    20307631.260
      -107.224         -83.551          50.250          50.400    79691653.858 9
  20307635.340         -80.112          56.650


 111501229.988 8  86884097.54648  21217972.040                    21217973.760
      2037.552        1587.704          49.850          50.000    83263937.538 8
  21217975.620        1521.532          53.550


 134414393.946 5 104738519.43145  25578208.120                    25578216.560
      3289.255        2563.073          35.750          35.650



 109274702.378 8  85149170.31948  20794265.140                    20794266.060
      1876.101        1461.897          50.850          50.900    81601308.530 9
  20794267.440        1400.999          54.950


 129934925.851 7 101248004.38446  24725795.080                    24725798.160
      3551.801        2767.638          42.850          38.500    97029359.148 7
  24725803.520        2652.276          44.750


 120607137.061 7  93979579.94347  22950778.840                    22950779.840
     -2712.449       -2113.600          46.350          46.400



 115517931.496 8  90013968.82147  21982330.040                    21982328.200
     -1982.641       -1544.917          48.550          44.800



 123105943.330 7  95926746.58247  23426270.620                    23426270.760
     -1578.740       -1230.189          45.450          45.400



 23  8 28 12 20 30.0000000  0  9G03G04G06G07G09G11G17G19G31
 113163463.195 8  88179348.39648  21534282.700                    21534284.660
     -2258.253       -1759.679          49.200          49.250    84505206.441 8
  21534284.960       -1686.355          51.800


 106720898.592 8  83159187.78248  20308293.580                    20308293.480
      -124.994         -97.397          49.950          50.050    79694252.549 9
  20308297.520         -93.340          56.600


 111440310.995 8  86836628.22548  21206379.420                    21206381.300
      2023.316        1576.611          49.650          49.500    83218446.102 8
  21206382.960        1511.017          53.400


 134315660.937 6 104661585.34346  25559419.360                    25559428.080
      3291.893        2565.135          36.300          36.400



 109218648.160 8  85105491.73448  20783598.400                    20783599.380
      1860.604        1449.821          50.400          50.600    81559449.890 9
  20783600.740        1389.354          55.000


 129828415.318 7 101165009.22946  24705526.940                    24705529.780
      3548.481        2765.051          43.300          36.850    96949822.136 7
  24705534.960        2649.958          44.650


 120688654.046 7  94043099.57447  22966291.160                    22966292.500
     -2722.151       -2121.159          46.300          46.350



 115577679.066 8  90060525.31247  21993699.820                    21993697.980
     -2000.702       -1558.990          48.350          45.300



 123153590.865 7  95963874.50147  23435337.460                    23435337.900
     -1598.105       -1245.278          45.200          45.400



 23  8 28 12 21  0.0000000  0  9G03G04G06G07G09G11G17G19G31
 113231331.348 8  88232232.62648  21547197.760                    21547199.580
     -2266.101       -1765.794          49.350          49.050    84555887.165 8
  21547199.700       -1692.177          51.850


 106724909.033 8  83162312.80348  20309056.780                    20309056.580
      -142.016        -110.661          50.350          50.150    79697247.353 9
  20309060.600        -106.060          56.600


 111379813.933 8  86789487.68548  21194867.080                    21194869.160
      2009.871        1566.135          49.750          49.750    83173269.756 8
  21194870.600        1500.914          53.350


 134216837.693 6 104584580.78746  25540613.480                    25540621.720
      3296.178        2568.468          39.200          39.700



 109163058.537 8  85062175.16948  20773020.060                    20773021.140
      1845.670        1438.186          51.100          50.950    81517938.192 9
  20773022.420        1378.286          55.150


 129721999.016 7 101082087.48246  24685276.680                    24685279.320
      3546.147        2763.232          43.000          38.350    96870355.487 7
  24685284.140        2648.140          44.050


 120770462.310 7  94106846.18747  22981858.880                    22981859.880
     -2731.397       -2128.365          46.450          46.500



 115637966.428 8  90107502.41747  22005172.240                    22005170.260
     -2018.025       -1572.489          48.850          43.850



 123201813.635 7  96001450.66147  23444513.900                    23444514.300
     -1616.504       -1259.614          45.950          46.250



 23  8 28 12 21 30.0000000  0  9G03G04G06G07G09G11G17G19G31
 113299452.391 8  88285313.92348  21560160.840                    21560162.360
     -2274.817       -1772.587          48.950          49.000    84606756.742 8
  21560162.780       -1698.721          51.850


 106729447.098 8  83165848.96548  20309920.320                    20309920.120
      -159.963        -124.646          49.900          50.000    79700636.170 9
  20309924.020        -119.482          56.250


 111319738.946 8  86742676.04548  21183434.980                    21183437.260
      1995.560        1554.982          49.500          49.500    83128408.598 8
  21183438.540        1490.165          53.000


 134117923.960 6 104507505.72546  25521790.420                    25521797.880
      3298.923        2570.605          39.850          38.800



 109107932.430 8  85019219.78848  20762529.880                    20762531.060
      1830.030        1425.998          51.350          51.150    81476772.626 9
  20762532.200        1366.479          55.050


 129615676.968 7 100999239.19346  24665044.260                    24665046.960
      3542.602        2760.470          43.050          39.050    96790959.227 7
  24665051.400        2645.326          44.150


 120852557.091 7  94170816.07347  22997481.080                    22997482.000
     -2741.023       -2135.864          45.700          45.650



 115698789.162 8  90154896.69047  22016746.500                    22016744.480
     -2036.210       -1586.660          48.300          44.200



 123250607.927 7  96039472.16747  23453799.260                    23453799.440
     -1635.795       -1274.646          46.100          46.000



 23  8 28 12 22  0.0000000  0  9G03G04G06G07G09G11G17G19G31
 113367823.032 8  88338589.72648  21573171.360                    21573172.700
     -2283.601       -1779.430          48.700          48.750    84657812.699 8
  21573173.520       -1705.184          52.050


 106734509.573 8  83169793.74948  20310883.620                    20310883.520
      -177.827        -138.566          49.800          49.600    79704416.589 9
  20310887.180        -132.771          56.200


 111260085.772 8  86696193.10048  21172083.200                    21172085.540
      1981.057        1543.683          49.300          49.150    83083862.442 8
  21172086.740        1479.387          53.000


 134018919.733 6 104430360.06146  25502950.160                    25502956.960
      3300.895        2572.146          37.550          37.700



 109053268.232 8  84976624.33948  20752127.640                    20752128.780
      1814.115        1413.598          51.450          51.600    81435951.994 9
  20752129.900        1354.706          55.200


 129509448.812 7 100916464.06846  24644829.840                    24644832.320
      3539.106        2757.748          43.000          37.350    96711633.077 7
  24644836.680        2642.699          44.300


 120934933.207 7  94235005.14547  23013156.820                    23013157.940
     -2750.708       -2143.411          45.700          45.900



 115760141.835 7  90202703.91147  22028421.460                    22028419.340
     -2054.153       -1600.641          47.900          44.950



 123299969.179 7  96077935.45447  23463192.580                    23463192.520
     -1655.056       -1289.655          46.050          46.200



 23  8 28 12 22 30.0000000  0  9G03G04G06G07G09G11G17G19G31
 113436447.582 8  88392063.36548  21586230.100                    21586231.480
     -2291.448       -1785.545          48.450          48.550    84709058.257 8
  21586232.480       -1711.107          52.000


 106740100.836 8  83174150.58248  20311947.560                    20311947.540
      -194.761        -151.762          49.950          49.900    79708591.891 9
  20311950.960        -145.486          56.150


 111200861.738 8  86650044.54148  21160813.180                    21160815.340
      1967.331        1532.986          49.350          49.550    83039636.747 8
  21160816.580        1469.026          52.950


 133919832.343 6 104353149.59546  25484094.180                    25484101.200
      3304.852        2575.226          38.250          38.500



 108999072.058 8  84934393.58748  20741814.480                    20741815.520
      1799.211        1401.983          51.650          51.650    81395480.868 9
  20741816.720        1343.425          55.250


 129403321.818 7 100833767.76846  24624634.660                    24624637.180
      3536.240        2755.514          42.950          38.750    96632382.463 7
  24624641.240        2640.729          44.550


 121017592.770 7  94299415.11947  23028886.400                    23028887.280
     -2759.657       -2150.385          44.650          44.300



 115822026.820 7  90250925.90747  22040197.660                    22040195.600
     -2071.287       -1613.992          47.500          43.600



 123349901.126 7  96116843.42947  23472694.500                    23472694.200
     -1673.607       -1304.111          45.500          45.700



