     2.11           OBSERVATION DATA    G (GPS)             RINEX VERSION / TYPE
teqc  2019Feb25                         20230828 19:34:05UTCPGM / RUN BY / DATE
Linux 2.6.32-573.12.1.x86_64|x86_64|gcc|Linux 64|=+         COMMENT
teqc  2019Feb25                         20230828 19:34:05UTCCOMMENT
     2.11           OBSERVATION DATA    M (MIXED)           COMMENT
teqc  2019Feb25     IGN-RGP             20230828 12:04:20UTCCOMMENT
teqc  2019Feb25     Administrateur RGP  20230828 12:04:20UTCCOMMENT
teqc  2019Feb25     IGN-RGP             20230828 12:04:20UTCCOMMENT
teqc  2019Feb25     IGN-RGP             20230828 12:04:19UTCCOMMENT
BIT 2 OF LLI FLAGS DATA COLLECTED UNDER A/S CONDITION       COMMENT
PANA                                                        MARKER NAME
10001M008                                                   MARKER NUMBER
Automatic           Lycee Dorian - Paris 11                 OBSERVER / AGENCY
1700671             LEICA GR10          2.00/4.007          REC # / TYPE / VERS
11311010            LEIAS10         NONE                    ANT # / TYPE
  4201030.6890   175603.7900  4780030.2470                  APPROX POSITION XYZ
        0.0000        0.0000        0.0000                  ANTENNA: DELTA H/E/N
     1     1                                                WAVELENGTH FACT L1/2
    21    L1    L2    C1    P1    P2    D1    D2    S1    S2# / TYPES OF OBSERV
          L5    C5    D5    S5    L7    C7    D7    S7    L8# / TYPES OF OBSERV
          C8    D8    S8                                    # / TYPES OF OBSERV
    30.0000                                                 INTERVAL
DefaultJobName                                              COMMENT
DefaultUserDiscription                                      COMMENT
Project creator:                                            COMMENT
 SNR is mapped to RINEX snr flag value [0-9]                COMMENT
  L1 & L2: min(max(int(snr_dBHz/6), 0), 9)                  COMMENT
    18                                                      LEAP SECONDS
Forced Modulo Decimation to 30 seconds                      COMMENT
teqc_2019 edited: all GLONASS satellites excluded           COMMENT
teqc_2019 edited: all SBAS satellites excluded              COMMENT
teqc_2019 edited: all Galileo satellites excluded           COMMENT
  2023     8    28    11     0    0.0000000     GPS         TIME OF FIRST OBS
                                                            END OF HEADER
 23  8 28 11  0  0.0000000  0  9G02G03G04G06G09G17G19G21G31
 120563869.196 7  93945843.98147  22942547.360                    22942543.120
                                        46.400          42.400



 106164431.733 8  82725540.622 8  20202411.020                    20202409.320
                                        50.750          48.450



 112989446.947 7  88043746.660 7  21501167.260                    21501165.420
                                        47.400          47.550



 125096288.084 7  97477641.838 7  23805031.560                    23805031.960
                                        43.750          44.900



 123225193.642 7  96019648.782 7  23448969.820                    23448971.040
                                        45.700          43.750



 112915496.101 8  87986100.471 7  21487099.020                    21487094.940
                                        48.350          45.550



 113990208.177 7  88823536.75547  21691609.800                    21691604.200
                                        47.550          44.750



 124572685.767 7  97069596.23946  23705401.860                    23705399.200
                                        44.750          38.000



 123333384.659 7  96103943.371 6  23469556.540                    23469554.660
                                        44.850          40.800



 23  8 28 11  0 30.0000000  0  9G02G03G04G06G09G17G19G21G31
 120645910.533 7  94009772.22147  22958159.340                    22958155.160
                                        46.050          43.300



 106180083.817 8  82737737.053 8  20205389.520                    20205387.800
                                        50.750          48.700



 112911151.661 7  87982737.397 7  21486268.140                    21486266.280
                                        47.550          47.800



 124996502.667 7  97399887.044 7  23786042.980                    23786043.440
                                        44.000          44.550



 123114876.225 7  95933687.254 7  23427977.120                    23427978.220
                                        45.650          43.900



 112923054.690 8  87991990.270 7  21488537.380                    21488533.300
                                        48.200          45.750



 113947977.201 7  88790629.52947  21683573.480                    21683567.940
                                        47.300          44.350



 124658071.783 7  97136130.67546  23721650.380                    23721647.740
                                        44.050          38.950



 123285363.039 7  96066523.977 6  23460418.260                    23460416.400
                                        44.650          40.350



 23  8 28 11  1  0.0000000  0  9G02G03G04G06G09G17G19G21G31
 120728204.807 7  94073897.54447  22973819.460                    22973815.320
                                        45.550          43.250



 106196126.520 8  82750237.835 8  20208442.400                    20208440.660
                                        50.700          48.950



 112833272.784 7  87922052.587 7  21471448.260                    21471446.400
                                        47.650          47.500



 124896798.632 7  97322195.629 7  23767069.900                    23767070.440
                                        44.200          44.600



 123004738.010 7  95847865.352 7  23407018.500                    23407019.500
                                        45.250          43.600



 112931174.058 8  87998317.047 7  21490082.460                    21490078.360
                                        48.250          45.150



 113906361.288 7  88758201.55747  21675654.200                    21675648.720
                                        47.600          44.300



 124743616.251 7  97202788.59046  23737929.060                    23737926.420
                                        44.500          38.900



 123237849.607 7  96029500.626 6  23451376.660                    23451374.800
                                        44.850          40.950



 23  8 28 11  1 30.0000000  0  9G02G03G04G06G09G17G19G21G31
 120810751.513 7  94138219.55347  22989527.640                    22989523.520
                                        45.800          42.650



 106212559.699 8  82763042.913 8  20211569.540                    20211567.800
                                        50.600          48.850



 112755812.886 7  87861694.264 7  21456708.120                    21456706.240
                                        47.400          46.800



 124797178.265 7  97244569.445 7  23748112.720                    23748113.300
                                        42.250          44.300



 122894781.905 7  95762185.386 7  23386094.520                    23386095.420
                                        45.250          44.250



 112939854.368 8  88005080.922 7  21491734.280                    21491730.160
                                        48.200          45.900



 113865362.796 7  88726254.71247  21667852.400                    21667846.940
                                        47.050          44.400



 124829318.732 7  97269569.62446  23754237.780                    23754235.180
                                        44.300          38.250



 123190847.322 7  95992875.557 6  23442432.340                    23442430.460
                                        45.600          41.000



 23  8 28 11  2  0.0000000  0  9G02G03G04G06G09G17G19G21G31
 120893552.632 7  94202739.79947  23005284.220                    23005280.140
                                        45.800          43.650



 106229385.479 8  82776153.903 8  20214771.400                    20214769.660
                                        50.600          48.800



 112678776.841 7  87801666.199 7  21442048.640                    21442046.740
                                        47.500          46.900



 124697646.110 7  97167012.025 7  23729172.300                    23729172.900
                                        43.050          42.900



 122785013.037 7  95676651.309 7  23365206.160                    23365207.000
                                        45.300          44.750



 112949098.322 8  88012283.985 7  21493493.360                    21493489.260
                                        48.000          46.250



 113824985.954 7  88694792.24847  21660168.900                    21660163.480
                                        47.750          43.900



 124915181.369 7  97336475.49046  23770576.980                    23770574.360
                                        44.750          39.000



 123144361.738 7  95956653.100 6  23433586.380                    23433584.460
                                        46.450          40.900



 23  8 28 11  2 30.0000000  0  9G02G03G04G06G09G17G19G21G31
 120976604.266 7  94267455.26247  23021088.480                    23021084.420
                                        45.600          43.550



 106246600.264 8  82789568.008 8  20218047.300                    20218045.540
                                        50.950          48.650



 112602163.739 7  87741967.713 7  21427469.640                    21427467.680
                                        47.400          47.250



 124598201.095 7  97089522.416 7  23710248.520                    23710249.160
                                        44.550          42.650



 122675430.776 7  95591262.622 7  23344353.300                    23344354.080
                                        44.350          44.500



 112958903.002 7  88019923.956 7  21495359.140                    21495355.100
                                        47.900          45.950



 113785229.859 8  88663813.49047  21652603.520                    21652598.140
                                        48.250          43.600



 125001200.283 7  97403503.08246  23786945.940                    23786943.320
                                        44.200          38.600



 123098392.004 7  95920832.606 6  23424838.620                    23424836.620
                                        46.700          41.400



 23  8 28 11  3  0.0000000  0  9G02G03G04G06G09G17G19G21G31
 121059910.762 7  94332369.33447  23036941.220                    23036937.180
                                        44.900          42.650



 106264208.637 8  82803288.826 8  20221398.060                    20221396.280
                                        50.950          48.200



 112525980.907 7  87682604.504 7  21412972.500                    21412970.520
                                        47.300          47.550



 124498850.175 7  97012106.174 7  23691342.620                    23691343.240
                                        44.700          43.200



 122566042.678 7  95506025.274 7  23323537.360                    23323538.080
                                        43.450          44.200



 112969273.410 7  88028004.785 7  21497332.560                    21497328.560
                                        47.950          45.800



 113746101.574 8  88633323.92047  21645157.640                    21645152.280
                                        48.050          44.300



 125087379.814 7  97470655.84946  23803345.460                    23803342.840
                                        43.350          38.300



 123052945.871 7  95885420.127 6  23416190.500                    23416188.400
                                        46.600          41.500



 23  8 28 11  3 30.0000000  0  9G02G03G04G06G09G17G19G21G31
 121143465.600 7  94397476.90447  23052841.220                    23052837.220
                                        44.950          43.150



 106282204.211 8  82817311.331 8  20224822.560                    20224820.740
                                        50.950          48.600



 112450224.584 7  87623573.617 7  21398556.540                    21398554.560
                                        47.500          47.000



 124399589.439 7  96934760.199 7  23672453.920                    23672454.500
                                        44.550          42.750



 122456845.405 7  95420936.593 7  23302757.720                    23302758.420
                                        43.700          44.750



 112980203.818 7  88036521.987 7  21499412.520                    21499408.560
                                        47.700          45.350



 113707596.844 8  88603320.24247  21637830.440                    21637825.060
                                        48.450          43.600



 125173713.701 7  97537928.86546  23819774.340                    23819771.780
                                        42.400          39.900



 123008019.824 7  95850412.918 6  23407641.360                    23407639.160
                                        46.200          41.200



 23  8 28 11  4  0.0000000  0  9G02G03G04G06G09G17G19G21G31
 121227269.689 7  94462778.70847  23068788.640                    23068784.700
                                        44.650          42.550



 106300588.301 8  82831636.590 8  20228320.960                    20228319.100
                                        50.750          48.700



 112374898.797 7  87564878.240 7  21384222.480                    21384220.460
                                        47.550          47.050



 124300422.629 7  96857487.436 7  23653583.060                    23653583.600
                                        45.450          42.200



 122347843.316 7  95336000.000 7  23282015.220                    23282015.900
                                        44.600          45.000



 112991695.716 7  88045476.712 7  21501599.340                    21501595.380
                                        47.350          45.100



 113669719.552 7  88573805.51447  21630622.600                    21630617.200
                                        47.600          44.200



 125260203.122 7  97605323.07146  23836232.780                    23836230.320
                                        43.100          40.050



 122963618.069 7  95815814.260 6  23399191.960                    23399189.660
                                        45.850          41.500



 23  8 28 11  4 30.0000000  0  9G02G03G04G06G09G17G19G21G31
 121311322.994 7  94528274.67547  23084783.500                    23084779.640
                                        45.050          42.050



 106319361.051 8  82846264.691 8  20231893.320                    20231891.440
                                        50.900          48.600



 112300006.376 7  87506520.542 7  21369970.900                    21369968.860
                                        47.900          47.500



 124201352.530 7  96780289.999 6  23634730.640                    23634731.120
                                        45.600          41.350



 122239039.543 7  95251217.929 7  23261310.500                    23261311.140
                                        45.650          45.000



 113003749.601 7  88054869.323 7  21503893.100                    21503889.180
                                        47.650          45.600



 113632472.021 7  88544781.48147  21623534.620                    21623529.180
                                        47.100          44.700



 125346847.960 7  97672838.37646  23852720.820                    23852718.460
                                        44.100          37.700



 122919744.015 7  95781626.806 6  23390842.960                    23390840.580
                                        45.850          41.950



 23  8 28 11  5  0.0000000  0  9G02G03G04G06G09G17G19G21G31
 121395621.937 7  94593962.05747  23100825.080                    23100821.300
                                        45.650          42.050



 106338519.032 8  82861192.985 8  20235538.960                    20235537.100
                                        50.750          48.550



 112225546.543 7  87448499.938 7  21355801.640                    21355799.560
                                        47.850          47.650



 124102378.123 7  96703167.111 7  23615896.440                    23615896.860
                                        46.000          42.050



 122130433.670 7  95166590.054 7  23240643.460                    23240644.040
                                        45.400          45.300



 113016362.860 7  88064697.819 7  21506293.300                    21506289.420
                                        47.250          45.100



 113595852.671 7  88516246.94347  21616566.160                    21616560.720
                                        47.800          43.550



 125433644.616 7  97740472.04046  23869237.720                    23869235.420
                                        45.550          38.100



 122876397.221 7  95747850.201 6  23382594.260                    23382591.860
                                        44.950          41.950



 23  8 28 11  5 30.0000000  0  9G02G03G04G06G09G17G19G21G31
 121480166.548 7  94659840.90247  23116913.420                    23116909.680
                                        46.200          42.550



 106358062.679 8  82876421.804 8  20239258.000                    20239256.120
                                        50.600          48.250



 112151522.390 7  87390818.820 7  21341715.300                    21341713.180
                                        47.650          47.900



 124003502.379 7  96626121.120 7  23597081.020                    23597081.340
                                        46.300          42.900



 122022029.080 7  95082119.044 7  23220014.720                    23220015.240
                                        45.250          45.100



 113029536.094 7  88074962.650 7  21508800.060                    21508796.220
                                        47.800          45.400



 113559865.077 7  88488204.70147  21609717.900                    21609712.460
                                        47.850          44.250



 125520593.351 7  97808224.20046  23885783.620                    23885781.300
                                        45.350          36.650



 122833580.990 7  95714487.004 6  23374446.500                    23374444.140
                                        44.550          41.200



 23  8 28 11  6  0.0000000  0  9G02G03G04G06G09G17G19G21G31
 121564955.426 7  94725910.08847  23133048.240                    23133044.520
                                        45.750          42.050



 106377990.899 8  82891950.286 8  20243050.220                    20243048.340
                                        50.700          48.650



 112077935.500 7  87333478.426 8  21327712.160                    21327710.020
                                        47.350          48.650



 123904726.683 7  96549153.127 7  23578284.600                    23578284.820
                                        46.000          43.800



 121913827.745 7  94997806.401 7  23199424.660                    23199425.120
                                        45.600          45.600



 113043268.581 8  88085663.254 7  21511413.260                    21511409.460
                                        48.250          46.100



 113524510.257 7  88460655.48647  21602990.100                    21602984.660
                                        47.850          43.900



 125607693.017 7  97876093.95946  23902358.260                    23902355.920
                                        44.700          36.800



 122791297.164 7  95681538.638 7  23366400.060                    23366397.740
                                        45.200          42.500



 23  8 28 11  6 30.0000000  0  9G02G03G04G06G09G17G19G21G31
 121649990.326 7  94792170.94147  23149229.940                    23149226.200
                                        44.050          43.300



 106398305.397 8  82907779.765 8  20246915.940                    20246914.060
                                        50.600          48.350



 112004790.149 7  87276482.089 8  21313793.020                    21313790.900
                                        46.700          48.400



 123806055.304 7  96472266.410 7  23559508.040                    23559508.200
                                        45.600          43.750



 121805834.338 7  94913655.770 7  23178874.180                    23178874.580
                                        45.750          45.550



 113057562.483 8  88096801.341 7  21514133.300                    21514129.500
                                        48.100          45.950



 113489791.523 8  88433601.93747  21596383.340                    21596377.880
                                        48.150          44.000



 125694944.799 7  97944082.23446  23918961.880                    23918959.460
                                        44.550          37.750



 122749550.587 7  95649008.925 7  23358455.840                    23358453.560
                                        45.650          43.200



 23  8 28 11  7  0.0000000  0  9G02G03G04G06G09G17G19G21G31
 121735268.548 7  94858621.39147  23165457.900                    23165454.200
                                        44.600          42.750



 106419004.238 8  82923908.726 8  20250854.800                    20250852.920
                                        50.450          48.400



 111932087.099 7  87219830.419 8  21299958.000                    21299955.920
                                        46.350          48.750



 123707488.842 7  96395461.453 7  23540751.440                    23540751.500
                                        44.850          42.800



 121698050.019 7  94829668.046 7  23158363.500                    23158363.840
                                        46.100          45.450



 113072416.295 7  88108375.736 7  21516959.900                    21516956.100
                                        47.700          46.050



 113455709.523 7  88407044.56547  21589897.740                    21589892.240
                                        47.700          44.100



 125782347.382 7  98012188.01246  23935594.180                    23935591.720
                                        44.550          38.400



 122708342.007 7  95616898.417 7  23350614.020                    23350611.760
                                        45.800          43.050



 23  8 28 11  7 30.0000000  0  9G02G03G04G06G09G17G19G21G31
 121820786.827 7  94925258.90147  23181731.540                    23181727.880
                                        46.400          43.050



 106440084.211 8  82940334.681 8  20254866.180                    20254864.320
                                        50.300          48.250



 111859825.734 7  87163522.917 8  21286207.040                    21286205.020
                                        46.700          48.400



 123609026.646 7  96318737.729 7  23522014.660                    23522014.660
                                        44.700          43.700



 121590474.614 7  94745843.108 7  23137892.560                    23137892.880
                                        46.150          44.950



 113087827.065 7  88120384.104 7  21519892.480                    21519888.700
                                        47.400          46.100



 113422263.200 7  88380982.49447  21583533.120                    21583527.620
                                        47.350          43.800



 125869897.137 7  98080408.46746  23952254.480                    23952251.980
                                        44.700          37.900



 122667671.369 7  95585207.059 7  23342874.620                    23342872.400
                                        46.050          43.250



 23  8 28 11  8  0.0000000  0  9G02G03G04G06G09G17G19G21G31
 121906546.783 7  94992084.74847  23198051.200                    23198047.540
                                        46.900          42.000



 106461547.266 8  82957059.121 8  20258950.460                    20258948.600
                                        50.200          48.000



 111788010.622 7  87107563.128 8  21272541.000                    21272539.040
                                        47.300          48.050



 123510673.231 7  96242098.778 7  23503298.560                    23503298.540
                                        44.900          44.650



 121483112.975 7  94662184.733 7  23117462.320                    23117462.580
                                        46.050          44.550



 113103796.947 7  88132828.147 7  21522931.440                    21522927.700
                                        47.650          45.950



 113389456.616 8  88355418.91347  21577290.240                    21577284.720
                                        48.050          43.650



 125957595.626 7  98148744.83746  23968943.080                    23968940.500
                                        44.150          37.350



 122627543.354 7  95553938.512 7  23335238.480                    23335236.280
                                        45.650          42.550



 23  8 28 11  8 30.0000000  0  9G02G03G04G06G09G17G19G21G31
 121992546.206 7  95059097.22046  23214416.420                    23214412.760
                                        46.150          41.700



 106483391.300 8  82974080.444 8  20263107.220                    20263105.360
                                        50.100          48.200



 111716642.227 7  87051951.452 7  21258960.000                    21258958.040
                                        47.700          47.750



 123412429.072 7  96165544.990 7  23484603.260                    23484603.180
                                        45.400          44.800



 121375966.070 7  94578693.709 7  23097072.900                    23097073.140
                                        45.400          44.800



 113120324.325 7  88145706.613 7  21526076.480                    21526072.780
                                        47.850          45.750



 113357290.029 7  88330354.05647  21571169.140                    21571163.600
                                        47.850          44.200



 126045440.840 7  98217195.52246  23985659.600                    23985656.960
                                        42.900          37.750



 122587958.895 7  95523093.508 6  23327705.800                    23327703.580
                                        45.600          41.950



 23  8 28 11  9  0.0000000  0  9G02G03G04G06G09G17G19G21G31
 122078786.698 7  95126297.51546  23230827.540                    23230823.840
                                        44.950          41.350



 106505618.182 8  82991400.095 8  20267336.820                    20267334.980
                                        50.100          48.100



 111645725.050 8  86996691.367 7  21245464.860                    21245462.900
                                        48.100          47.450



 123314298.615 7  96089079.768 7  23465929.600                    23465929.500
                                        45.750          44.700



 121269038.800 7  94495373.819 7  23076725.280                    23076725.520
                                        45.650          44.600



 113137411.215 7  88159021.036 7  21529328.020                    21529324.360
                                        47.650          46.000



 113325767.302 7  88305790.89747  21565170.560                    21565165.040
                                        47.650          43.800



 126133434.291 6  98285761.70146  24002404.320                    24002401.640
                                        41.350          37.800



 122548922.739 7  95492675.769 7  23320277.440                    23320275.200
                                        45.250          42.800



 23  8 28 11  9 30.0000000  0  9G02G03G04G06G09G17G19G21G31
 122165263.548 7  95193681.97647  23247283.620                    23247279.920
                                        44.850          42.700



 106528223.584 8  83009014.704 8  20271638.440                    20271636.620
                                        50.100          48.300



 111575257.342 7  86941781.499 7  21232055.300                    21232053.300
                                        47.650          47.350



 123216280.122 7  96012701.808 7  23447277.260                    23447277.120
                                        45.550          44.900



 121162329.863 7  94412224.064 7  23056419.220                    23056419.420
                                        44.800          44.500



 113155053.475 8  88172768.248 7  21532685.240                    21532681.580
                                        48.150          45.450



 113294886.212 7  88281727.71247  21559294.080                    21559288.580
                                        47.650          44.050



 126221571.578 6  98354439.96046  24019176.340                    24019173.720
                                        41.650          38.750



 122510433.123 7  95462683.893 7  23312953.100                    23312950.840
                                        45.750          42.700



 23  8 28 11 10  0.0000000  0  9G02G03G04G06G09G17G19G21G31
 122251976.847 7  95261250.68147  23263784.660                    23263781.020
                                        45.300          43.150



 106551208.084 8  83026924.696 8  20276012.240                    20276010.420
                                        50.350          48.300



 111505242.213 7  86887224.283 7  21218731.860                    21218729.820
                                        47.650          47.150



 123118376.807 7  95936413.582 7  23428646.840                    23428646.700
                                        45.850          45.250



 121055842.797 7  94329247.198 7  23036155.340                    23036155.540
                                        45.100          45.200



 113173252.173 8  88186949.026 7  21536148.360                    21536144.700
                                        48.100          46.500



 113264649.305 8  88258166.48847  21553540.180                    21553534.680
                                        48.200          44.000



 126309853.029 7  98423230.56246  24035975.780                    24035973.240
                                        42.050          38.250



 122472493.640 7  95433120.694 7  23305733.460                    23305731.140
                                        45.700          42.700



 23  8 28 11 10 30.0000000  0  9G02G03G04G06G09G17G19G21G31
 122338923.684 7  95329001.34747  23280330.160                    23280326.560
                                        45.550          43.000



 106574568.911 8  83045127.925 8  20280457.640                    20280455.840
                                        50.500          48.450



 111435679.446 7  86833019.570 7  21205494.500                    21205492.420
                                        47.500          47.050



 123020588.518 7  95860214.987 7  23410038.320                    23410038.160
                                        45.850          44.600



 120949577.889 7  94246443.442 7  23015933.780                    23015933.940
                                        45.950          45.100



 113192004.341 8  88201561.114 7  21539716.800                    21539713.120
                                        48.800          45.900



 113235055.799 8  88235106.62147  21547908.720                    21547903.220
                                        48.200          44.000



 126398275.914 7  98492131.37846  24052802.120                    24052799.680
                                        42.000          37.950



 122435104.257 7  95403986.124 7  23298618.520                    23298616.140
                                        45.900          42.400



 23  8 28 11 11  0.0000000  0  9G02G03G04G06G09G17G19G21G31
 122426104.073 7  95396934.01447  23296920.100                    23296916.560
                                        45.800          42.700



 106598306.169 8  83063624.480 8  20284974.700                    20284972.900
                                        50.250          48.650



 111366571.720 7  86779169.453 7  21192343.700                    21192341.580
                                        47.800          46.850



 122922917.941 7  95784108.121 7  23391452.180                    23391452.000
                                        45.750          43.650



 120843538.268 7  94163815.229 7  22995755.100                    22995755.220
                                        45.100          45.700



 113211310.469 7  88216604.811 7  21543390.700                    21543387.000
                                        47.800          46.550



 113206108.200 8  88212550.06747  21542400.180                    21542394.660
                                        48.200          44.350



 126486840.206 7  98561142.38846  24069655.400                    24069653.040
                                        42.450          36.600



 122398267.759 7  95375282.376 7  23291608.820                    23291606.340
                                        45.250          42.250



 23  8 28 11 11 30.0000000  0  9G02G03G04G06G09G17G19G21G31
 122513518.801 7  95465049.27547  23313554.660                    23313551.160
                                        45.900          42.750



 106622421.167 8  83082415.377 8  20289563.620                    20289561.860
                                        50.500          48.600



 111297922.877 8  86725676.889 7  21179280.240                    21179278.080
                                        48.100          46.700



 122825369.132 7  95708096.104 7  23372889.220                    23372889.040
                                        46.200          44.150



 120737728.203 7  94081365.920 7  22975620.060                    22975620.180
                                        45.000          46.050



 113231171.986 8  88232081.299 7  21547170.260                    21547166.580
                                        48.100          46.100



 113177809.605 8  88190499.20347  21537015.140                    21537009.640
                                        48.300          44.750



 126575546.947 7  98630264.41746  24086535.780                    24086533.500
                                        42.350          36.050



 122361988.318 7  95347012.672 7  23284705.140                    23284702.580
                                        45.700          42.750



 23  8 28 11 12  0.0000000  0  9G02G03G04G06G09G17G19G21G31
 122601165.779 7  95533345.48547  23330233.440                    23330229.980
                                        43.950          42.000



 106646912.049 8  83101499.175 8  20294224.080                    20294222.340
                                        50.550          48.650



 111229733.555 8  86672542.392 7  21166304.240                    21166302.000
                                        48.200          47.700



 122727942.769 7  95632179.533 7  23354349.540                    23354349.340
                                        46.050          44.400



 120632148.862 7  93999096.396 7  22955528.920                    22955529.040
                                        45.400          46.900



 113251587.491 8  88247989.461 7  21551055.220                    21551051.560
                                        48.800          46.700



 113150160.228 8  88168954.24947  21531753.660                    21531748.160
                                        48.600          45.250



 126664394.102 7  98699495.86546  24103442.900                    24103440.680
                                        42.650          37.050



 122326266.815 7  95319177.749 7  23277907.600                    23277904.960
                                        44.800          43.150



 23  8 28 11 12 30.0000000  0  9G02G03G04G06G09G17G19G21G31
 122689047.319 7  95601824.45946  23346956.820                    23346953.440
                                        44.300          41.500



 106671781.502 8  83120877.970 8  20298956.580                    20298954.860
                                        50.650          48.350



 111162008.980 7  86619770.031 7  21153416.680                    21153414.360
                                        47.750          47.850



 122630644.253 7  95556362.563 7  23335834.200                    23335834.000
                                        45.850          43.950



 120526806.035 7  93917011.158 7  22935482.780                    22935482.900
                                        45.550          46.650



 113272559.802 8  88264331.507 7  21555046.140                    21555042.500
                                        48.300          45.600



 113123164.680 8  88147918.76547  21526616.580                    21526611.100
                                        48.200          44.950



 126753384.265 7  98768838.71845  24120377.260                    24120375.100
                                        42.200          35.600



 122291108.760 7  95291781.855 7  23271217.280                    23271214.600
                                        44.150          42.650



 23  8 28 11 13  0.0000000  0  9G02G03G04G06G09G17G19G21G31
 122777155.330 7  95670479.93846  23363723.240                    23363719.940
                                        45.350          41.150



 106697021.755 8  83140545.695 8  20303759.640                    20303757.920
                                        50.550          48.550



 111094743.856 7  86567355.716 7  21140616.500                    21140614.140
                                        47.350          47.950



 122533468.494 7  95480641.244 7  23317342.220                    23317342.000
                                        45.050          44.000



 120421694.839 7  93835106.397 7  22915480.700                    22915480.860
                                        45.100          47.050



 113294080.604 8  88281100.967 7  21559141.440                    21559137.780
                                        48.600          45.600



 113096817.125 8  88127388.20747  21521602.820                    21521597.380
                                        48.300          45.050



 126842509.383 7  98838286.73946  24137337.280                    24137335.180
                                        42.000          38.950



 122256509.091 7  95264821.089 7  23264633.160                    23264630.460
                                        44.550          42.450



 23  8 28 11 13 30.0000000  0  9G02G03G04G06G09G17G19G21G31
 122865492.729 7  95739314.18446  23380533.360                    23380530.040
                                        45.850          41.800



 106722635.899 8  83160504.775 8  20308633.860                    20308632.140
                                        50.400          48.350



 111027943.790 7  86515303.773 8  21127904.840                    21127902.440
                                        47.550          48.300



 122436421.253 7  95405020.092 7  23298874.660                    23298874.440
                                        44.050          43.300



 120316821.412 7  93753386.953 7  22895523.840                    22895524.040
                                        45.550          46.800



 113316153.763 8  88298300.782 7  21563341.880                    21563338.200
                                        48.300          44.300



 113071122.411 8  88107366.36847  21516713.260                    21516707.880
                                        48.750          45.650



 126931772.448 6  98907842.23746  24154323.560                    24154321.520
                                        41.500          38.250



 122222473.593 7  95238299.921 7  23258156.380                    23258153.700
                                        45.050          42.050



 23  8 28 11 14  0.0000000  0  9G02G03G04G06G09G17G19G21G31
 122954057.673 7  95808325.71047  23397386.800                    23397383.500
                                        45.050          42.750



 106748622.512 8  83180754.091 8  20313578.960                    20313577.220
                                        50.500          48.350



 110961609.800 7  86463615.000 8  21115281.860                    21115279.440
                                        47.900          48.900



 122339503.777 7  95329500.065 7  23280431.780                    23280431.580
                                        44.700          43.700



 120212187.355 7  93671854.001 7  22875612.560                    22875612.800
                                        45.900          47.000



 113338777.876 8  88315929.959 7  21567647.120                    21567643.400
                                        48.450          44.950



 113046081.058 8  88087853.64847  21511948.040                    21511942.720
                                        48.750          45.400



 127021171.861 6  98977503.96346  24171335.780                    24171333.820
                                        40.050          37.100



 122189003.355 7  95212219.227 7  23251787.160                    23251784.500
                                        45.050          42.750



 23  8 28 11 14 30.0000000  0  9G02G03G04G06G09G17G19G21G31
 123042848.528 7  95877513.24847  23414283.260                    23414279.960
                                        45.100          42.950



 106774980.398 8  83201292.702 8  20318594.720                    20318592.960
                                        50.350          48.100



 110895743.194 8  86412290.426 8  21102747.820                    21102745.420
                                        48.400          48.800



 122242717.582 7  95254082.296 7  23262013.900                    23262013.720
                                        45.100          44.250



 120107794.447 7  93590508.925 7  22855747.200                    22855747.500
                                        46.950          46.000



 113361951.684 8  88333987.453 7  21572057.000                    21572053.220
                                        48.350          44.700



 113021693.957 8  88068850.72547  21507307.340                    21507302.080
                                        48.750          44.650



 127110706.317 6  99047270.94546  24188373.640                    24188371.800
                                        40.600          37.600



 122156099.649 7  95186579.992 7  23245525.720                    23245523.100
                                        44.600          42.950



 23  8 28 11 15  0.0000000  0  9G02G03G04G06G09G17G19G21G31
 123131862.859 7  95946874.92246  23431222.260                    23431218.980
                                        45.250          41.550



 106801707.527 8  83222119.034 8  20323680.720                    20323678.980
                                        50.150          48.350



 110830344.406 8  86361330.383 8  21090302.800                    21090300.420
                                        48.000          48.950



 122146063.383 7  95178767.391 7  23243621.160                    23243620.980
                                        45.600          44.200



 120003643.690 7  93509352.565 7  22835927.920                    22835928.260
                                        46.950          45.750



 113385672.966 7  88352471.571 7  21576571.020                    21576567.200
                                        47.800          45.100



 112997961.003 8  88050357.53447  21502791.120                    21502785.860
                                        49.000          44.800



 127200373.725 6  99117141.49746  24205436.840                    24205435.100
                                        40.150          36.350



 122123763.435 7  95161382.944 7  23239372.280                    23239369.720
                                        44.800          43.050



 23  8 28 11 15 30.0000000  0  9G02G03G04G06G09G17G19G21G31
 123221098.075 7  96016408.74146  23448203.260                    23448200.000
                                        46.100          40.350



 106828801.549 8  83243231.257 8  20328836.540                    20328834.800
                                        50.150          48.250



 110765413.492 7  86310734.907 8  21077946.840                    21077944.480
                                        47.400          48.850



 122049541.519 7  95103555.596 7  23225253.600                    23225253.440
                                        45.000          44.950



 119899735.777 7  93428385.374 7  22816154.920                    22816155.240
                                        46.800          45.450



 113409939.985 7  88371380.911 7  21581188.900                    21581185.060
                                        47.450          44.400



 112974881.429 8  88032373.44847  21498399.260                    21498393.980
                                        48.100          44.950



 127290171.338 6  99187113.54846  24222524.760                    24222523.160
                                        40.000          38.050



 122091994.851 7  95136628.201 7  23233326.860                    23233324.380
                                        45.550          43.500



 23  8 28 11 16  0.0000000  0  9G02G03G04G06G09G17G19G21G31
 123310558.937 7  96086118.41846  23465227.200                    23465223.900
                                        45.850          40.100



 106856267.218 8  83264633.077 7  20334063.080                    20334061.360
                                        50.250          47.900



 110700957.655 7  86260509.631 8  21065681.240                    21065678.920
                                        47.800          48.300



 121953159.486 7  95028452.771 7  23206912.640                    23206912.480
                                        45.450          45.300



 119796078.371 7  93347613.416 7  22796429.560                    22796429.880
                                        47.000          46.100



 113434757.113 8  88390718.905 7  21585911.460                    21585907.600
                                        48.000          44.750



 112952461.532 7  88014903.41347  21494132.920                    21494127.620
                                        47.650          44.550



 127380103.876 6  99257190.68046  24239638.400                    24239636.960
                                        39.550          37.750



 122060801.363 7  95112321.599 7  23227390.900                    23227388.460
                                        44.900          43.150



 23  8 28 11 16 30.0000000  0  9G02G03G04G06G09G17G19G21G31
 123400241.688 7  96156000.96646  23482293.400                    23482290.060
                                        45.050          40.350



 106884101.433 8  83286322.066 7  20339359.760                    20339358.040
                                        50.350          47.850



 110636976.198 8  86210653.982 8  21053505.940                    21053503.640
                                        48.200          48.250



 121856916.920 7  94953458.612 7  23188598.240                    23188598.100
                                        45.200          45.200



 119692671.449 7  93267036.628 7  22776751.880                    22776752.180
                                        46.850          46.200



 113460120.923 8  88410482.884 7  21590738.020                    21590734.180
                                        48.050          44.250



 112930700.511 8  87997946.78847  21489991.940                    21489986.640
                                        48.350          44.100



 127470168.061 6  99327370.43446  24256777.080                    24256775.780
                                        38.450          37.200



 122030182.278 7  95088462.562 7  23221564.240                    23221561.900
                                        45.300          43.100



 23  8 28 11 17  0.0000000  0  9G02G03G04G06G09G17G19G21G31
 123490146.109 7  96226056.22247  23499401.780                    23499398.400
                                        44.600          42.050



 106912304.352 8  83308298.364 8  20344726.600                    20344724.860
                                        50.100          48.050



 110573471.674 7  86161169.967 8  21041421.420                    21041419.120
                                        47.800          48.250



 121760816.680 7  94878575.364 7  23170310.900                    23170310.800
                                        44.100          45.550



 119589518.129 7  93186657.453 7  22757122.460                    22757122.740
                                        46.000          45.850



 113486031.781 8  88430673.196 7  21595668.660                    21595664.780
                                        48.350          44.900



 112909599.949 8  87981504.79747  21485976.620                    21485971.340
                                        48.400          44.400



 127560363.608 6  99397652.49646  24273940.760                    24273939.660
                                        39.050          38.500



 122000140.252 7  95065053.222 7  23215847.380                    23215845.080
                                        45.100          43.200



 23  8 28 11 17 30.0000000  0  9G02G03G04G06G09G17G19G21G31
 123580267.211 7  96296280.32847  23516551.360                    23516548.020
                                        45.450          42.050



 106940871.366 8  83330558.375 8  20350162.720                    20350160.960
                                        50.350          48.050



 110510441.859 7  86112055.866 8  21029427.220                    21029424.940
                                        47.950          48.100



 121664856.984 7  94803801.644 7  23152050.280                    23152050.220
                                        44.300          45.400



 119486616.797 7  93106474.660 7  22737540.960                    22737541.220
                                        45.300          45.800



 113512485.336 7  88451286.323 7  21600702.620                    21600698.740
                                        47.800          44.550



 112889157.007 7  87965575.24147  21482086.460                    21482081.160
                                        47.850          44.250



 127650686.196 6  99468033.54546  24291128.600                    24291127.720
                                        39.850          37.100



 121970673.140 7  95042091.840 7  23210239.960                    23210237.700
                                        45.800          42.950



 23  8 28 11 18  0.0000000  0  9G02G03G04G06G09G17G19G21G31
 123670607.482 7  96366675.21046  23533742.660                    23533739.340
                                        46.300          41.650



 106969805.029 8  83353104.084 8  20355668.620                    20355666.860
                                        50.500          48.100



 110447891.687 8  86063315.515 8  21017524.280                    21017522.000
                                        48.600          48.550



 121569043.144 7  94729141.569 7  23133817.420                    23133817.420
                                        44.850          45.550



 119383973.035 7  93026492.537 7  22718008.480                    22718008.720
                                        45.300          45.400



 113539483.900 7  88472324.134 7  21605840.300                    21605836.400
                                        47.600          44.800



 112869375.919 8  87950161.40947  21478322.240                    21478316.940
                                        48.050          44.050



 127741137.945 6  99538515.31346  24308341.020                    24308340.260
                                        41.300          38.500



 121941786.157 7  95019582.513 7  23204742.960                    23204740.700
                                        45.800          43.600



 23  8 28 11 18 30.0000000  0  9G02G03G04G06G09G17G19G21G31
 123761163.917 7  96437238.54646  23550975.100                    23550971.780
                                        46.050          41.400



 106999102.940 8  83375933.617 8  20361243.840                    20361242.060
                                        50.250          48.400



 110385821.108 7  86014948.867 8  21005712.640                    21005710.340
                                        47.950          48.400



 121473375.505 7  94654595.415 7  23115612.400                    23115612.440
                                        44.600          45.800



 119281587.397 7  92946711.567 7  22698525.080                    22698525.320
                                        46.000          45.600



 113567024.905 7  88493784.627 7  21611081.180                    21611077.300
                                        47.500          44.300



 112850256.034 7  87935262.80447  21474683.840                    21474678.540
                                        47.850          44.200



 127831716.112 6  99609095.55946  24325577.540                    24325576.880
                                        40.400          38.750



 121913479.305 7  94997525.209 7  23199356.360                    23199354.120
                                        45.000          43.250



 23  8 28 11 19  0.0000000  0  9G02G03G04G06G09G17G19G21G31
 123851934.835 7  96507968.97946  23568248.380                    23568245.060
                                        45.850          40.850



 107028763.608 8  83399045.811 8  20366888.100                    20366886.300
                                        50.350          48.350



 110324231.012 8  85966956.624 7  20993992.420                    20993990.100
                                        48.100          47.900



 121377855.369 7  94580164.196 7  23097435.460                    23097435.520
                                        44.100          45.250



 119179461.406 7  92867132.914 7  22679091.100                    22679091.340
                                        45.900          45.700



 113595106.611 8  88515666.437 7  21616424.960                    21616421.060
                                        48.200          44.400



 112831797.289 7  87920879.36847  21471171.240                    21471165.920
                                        47.400          43.550



 127922419.151 6  99679773.08846  24342837.840                    24342837.260
                                        40.300          37.350



 121885753.509 7  94975920.703 7  23194080.300                    23194078.060
                                        45.450          43.550



 23  8 28 11 19 30.0000000  0  9G02G03G04G06G09G17G19G21G31
 123942922.535 7  96578868.34046  23585562.920                    23585559.580
                                        45.100          40.950



 107058789.908 8  83422442.902 8  20372601.940                    20372600.140
                                        50.500          48.550



 110263126.553 8  85919342.784 7  20982364.620                    20982362.280
                                        48.400          47.850



 121282488.399 7  94505852.330 7  23079287.660                    23079287.760
                                        44.200          44.900



 119077600.914 7  92787761.145 7  22659707.620                    22659707.880
                                        45.750          45.550



 113623731.822 8  88537971.774 7  21621872.160                    21621868.260
                                        48.150          44.800



 112814004.495 7  87907014.83647  21467785.380                    21467780.020
                                        47.150          43.150



 128013249.791 6  99750550.06946  24360122.420                    24360121.920
                                        38.900          36.750



 121858614.057 7  94954773.072 7  23188915.820                    23188913.620
                                        45.950          43.700



 23  8 28 11 20  0.0000000  0  9G02G03G04G06G09G17G19G21G31
 124034122.212 7  96649932.89246  23602917.740                    23602914.400
                                        44.500          39.550



 107089177.272 8  83446121.365 8  20378384.480                    20378382.660
                                        50.550          48.950



 110202505.554 8  85872105.662 8  20970828.800                    20970826.460
                                        48.100          48.000



 121187272.866 7  94431658.458 7  23061168.680                    23061168.800
                                        45.550          45.750



 118976004.326 7  92708595.030 7  22640374.360                    22640374.620
                                        46.300          45.700



 113652895.819 8  88560696.962 7  21627421.880                    21627417.960
                                        48.450          45.600



 112796874.149 8  87893666.49347  21464525.560                    21464520.200
                                        48.150          43.100



 128104203.605 6  99821423.01246  24377430.440                    24377430.020
                                        37.350          36.200



 121832059.007 7  94934080.825 7  23183862.580                    23183860.400
                                        46.100          43.900



 23  8 28 11 20 30.0000000  0  9G02G03G04G06G09G17G19G21G31
 124125532.067 7  96721161.20346  23620312.580                    23620309.240
                                        44.900          40.350



 107119924.214 8  83470080.017 8  20384235.440                    20384233.640
                                        50.250          49.150



 110142368.786 8  85825245.888 8  20959385.120                    20959382.740
                                        48.000          48.350



 121092210.144 7  94357583.667 7  23043078.800                    23043078.940
                                        46.500          46.050



 118874673.179 7  92629635.746 7  22621091.620                    22621091.880
                                        46.800          45.300



 113682597.135 7  88583840.807 7  21633073.860                    21633069.980
                                        47.950          45.450



 112780406.867 7  87880834.84947  21461391.920                    21461386.540
                                        47.850          43.650



 128195278.481 6  99892390.28146  24394761.460                    24394761.160
                                        38.150          38.250



 121806089.073 7  94913844.536 7  23178920.660                    23178918.480
                                        46.350          43.800



 23  8 28 11 21  0.0000000  0  9G02G03G04G06G09G17G19G21G31
 124217151.442 7  96792552.79146  23637747.260                    23637743.940
                                        45.850          40.650



 107151030.692 8  83494318.817 8  20390154.800                    20390153.060
                                        50.300          49.250



 110082718.511 8  85778765.195 8  20948034.020                    20948031.640
                                        48.050          48.750



 120997302.879 7  94283630.007 7  23025018.500                    23025018.660
                                        46.900          45.650



 118773610.379 7  92550885.563 7  22601859.940                    22601860.200
                                        47.650          45.450



 113712835.484 8  88607403.104 7  21638828.060                    21638824.200
                                        48.250          46.300



 112764603.922 8  87868520.86047  21458384.700                    21458379.300
                                        48.250          43.750



 128286473.914 6  99963451.51646  24412115.380                    24412115.180
                                        39.050          37.200



 121780706.488 7  94894065.920 7  23174090.520                    23174088.340
                                        45.550          43.750



 23  8 28 11 21 30.0000000  0  9G02G03G04G06G09G17G19G21G31
 124308978.733 7  96864106.40846  23655221.520                    23655218.200
                                        45.250          40.250



 107182495.361 8  83518836.723 8  20396142.340                    20396140.660
                                        50.150          49.250



 110023555.682 7  85732664.322 8  20936775.660                    20936773.300
                                        47.750          48.800



 120902552.658 7  94209798.720 7  23006988.120                    23006988.260
                                        46.900          45.600



 118672817.590 7  92472345.764 7  22582679.700                    22582679.900
                                        47.650          45.400



 113743609.221 8  88631382.621 7  21644684.100                    21644680.320
                                        49.000          46.000



 112749465.560 8  87856724.72147  21455503.980                    21455498.540
                                        48.650          44.100



 128377788.892 6 100034605.85846  24429492.120                    24429492.020
                                        40.300          38.500



 121755912.366 7  94874745.860 7  23169372.340                    23169370.160
                                        46.050          43.500



 23  8 28 11 22  0.0000000  0  9G02G03G04G06G09G17G19G21G31
 124401014.847 7  96935822.71446  23672735.560                    23672732.220
                                        44.750          40.250



 107214319.475 8  83543634.717 8  20402198.240                    20402196.660
                                        50.100          48.700



 109964883.786 7  85686945.996 8  20925610.740                    20925608.380
                                        47.550          48.350



 120807963.538 7  94136092.939 7  22988988.400                    22988988.540
                                        46.550          45.300



 118572298.988 7  92394019.636 7  22563551.640                    22563551.760
                                        46.550          45.000



 113774919.534 8  88655780.253 7  21650642.300                    21650638.520
                                        48.050          45.650



 112734994.301 7  87845448.42647  21452750.200                    21452744.720
                                        47.700          44.000



 128469224.384 6 100105854.14046  24446891.800                    24446891.760
                                        41.050          39.200



 121731710.355 7  94855887.158 7  23164766.840                    23164764.660
                                        46.000          42.700



 23  8 28 11 22 30.0000000  0  9G02G03G04G06G09G17G19G21G31
 124493258.670 7  97007700.87347  23690289.100                    23690285.780
                                        44.500          42.050



 107246502.413 8  83568712.323 8  20408322.440                    20408320.920
                                        50.300          48.850



 109906704.503 7  85641611.523 8  20914539.520                    20914537.200
                                        47.650          48.850



 120713537.742 7  94062514.456 7  22971019.760                    22971019.860
                                        46.650          45.650



 118472056.963 7  92315909.037 7  22544476.180                    22544476.240
                                        46.050          45.850



 113806765.299 7  88680595.078 7  21656702.420                    21656698.660
                                        47.000          45.350



 112721191.307 7  87834692.86247  21450123.560                    21450118.080
                                        47.700          44.350



 128560779.493 7 100177195.67346  24464314.280                    24464314.220
                                        42.050          39.250



 121708102.166 7  94837491.175 7  23160274.360                    23160272.160
                                        46.600          42.850



 23  8 28 11 23  0.0000000  0  9G02G03G04G06G09G17G19G21G31
 124585708.954 7  97079739.92046  23707881.920                    23707878.620
                                        45.700          40.950



 107279043.251 8  83594068.795 8  20414514.760                    20414513.300
                                        50.250          48.450



 109849019.093 7  85596661.892 8  20903562.300                    20903560.000
                                        47.700          48.700



 120619277.186 7  93989064.714 7  22953082.560                    22953082.660
                                        45.650          45.650



 118372093.527 7  92238015.528 7  22525453.740                    22525453.740
                                        46.900          45.850



 113839145.482 7  88705826.363 7  21662864.180                    21662860.440
                                        47.600          45.550



 112708057.008 8  87824458.35047  21447624.200                    21447618.720
                                        48.100          44.600



 128652453.011 6 100248629.37246  24481759.400                    24481759.340
                                        41.700          38.650



 121685088.842 7  94819558.745 7  23155895.080                    23155892.840
                                        45.900          42.900



 23  8 28 11 23 30.0000000  0  9G02G03G04G06G09G17G19G21G31
 124678366.554 7  97151940.48946  23725514.220                    23725510.940
                                        45.050          40.750



 107311943.220 8  83619705.119 8  20420775.440                    20420773.980
                                        50.150          48.350



 109791831.083 7  85552099.832 8  20892679.740                    20892677.480
                                        47.850          48.850



 120525186.018 7  93915746.974 7  22935177.560                    22935177.660
                                        45.950          45.200



 118272412.871 7  92160342.360 7  22506485.100                    22506485.040
                                        46.650          45.800



 113872061.025 7  88731474.780 7  21669127.840                    21669124.120
                                        47.900          44.700



 112695593.803 7  87814746.76647  21445252.540                    21445247.080
                                        47.900          44.050



 128744246.058 6 100320156.22546  24499227.260                    24499227.200
                                        41.900          37.700



 121662673.916 7  94802092.615 7  23151629.640                    23151627.360
                                        46.100          43.650



 23  8 28 11 24  0.0000000  0  9G02G03G04G06G09G17G19G21G31
 124771224.507 7  97224297.22346  23743184.620                    23743181.300
                                        45.250          39.950



 107345195.847 8  83645616.246 8  20427103.200                    20427101.760
                                        50.350          48.050



 109735136.158 8  85507922.004 8  20881891.000                    20881888.760
                                        48.350          48.800



 120431260.596 7  93842558.358 7  22917304.120                    22917304.240
                                        45.850          45.400



 118173011.471 7  92082886.824 7  22487569.560                    22487569.460
                                        47.100          45.650



 113905504.977 7  88757535.011 7  21675492.000                    21675488.280
                                        47.250          45.300



 112683796.637 7  87805554.16947  21443007.620                    21443002.160
                                        47.650          44.550



 128836151.964 6 100391771.06246  24516716.580                    24516716.520
                                        40.900          38.650



 121640853.217 7  94785089.521 7  23147477.300                    23147474.980
                                        46.900          43.750



 23  8 28 11 24 30.0000000  0  9G02G03G04G06G09G17G19G21G31
 124864288.326 7  97296814.31346  23760894.220                    23760890.920
                                        43.000          38.500



 107378806.970 8  83671806.723 8  20433499.200                    20433497.740
                                        50.500          48.050



 109678942.319 8  85464134.621 8  20871197.660                    20871195.420
                                        48.400          49.100



 120337509.607 7  93769505.699 7  22899463.840                    22899463.980
                                        45.900          45.050



 118073898.152 7  92005655.744 7  22468708.880                    22468708.720
                                        47.700          45.550



 113939483.122 8  88784011.452 7  21681957.840                    21681954.140
                                        49.000          44.700



 112672672.778 8  87796886.21547  21440890.820                    21440885.380
                                        48.050          43.700



 128928176.372 6 100463478.18745  24534228.440                    24534228.420
                                        40.700          35.100



 121619634.882 7  94768555.776 7  23143439.620                    23143437.260
                                        46.850          43.650



 23  8 28 11 25  0.0000000  0  9G02G03G04G06G09G17G19G21G31
 124957550.329 7  97369485.85446  23778641.500                    23778638.200
                                        42.650          40.300



 107412769.368 8  83698270.913 8  20439962.040                    20439960.580
                                        50.650          48.250



 109623244.561 8  85420733.797 8  20860598.720                    20860596.480
                                        48.450          49.200



 120243928.752 7  93696585.606 7  22881655.940                    22881656.100
                                        46.650          45.350



 117975068.608 8  91928645.799 7  22449902.220                    22449901.960
                                        48.650          45.600



 113973987.637 8  88810898.045 7  21688523.880                    21688520.180
                                        48.900          44.950



 112662216.419 8  87788738.40447  21438901.040                    21438895.620
                                        48.000          43.700



 129020311.931 7 100535271.97245  24551761.420                    24551761.400
                                        42.450          33.200



 121599013.613 7  94752487.290 7  23139515.540                    23139513.140
                                        47.200          43.200



 23  8 28 11 25 30.0000000  0  9G02G03G04G06G09G17G19G21G31
 125051010.168 7  97442311.53146  23796426.440                    23796423.140
                                        43.900          40.700



 107447083.144 8  83725008.913 8  20446491.760                    20446490.300
                                        50.500          48.600



 109568045.150 8  85377721.298 8  20850094.600                    20850092.380
                                        48.600          49.350



 120150521.101 7  93623800.468 7  22863881.000                    22863881.180
                                        46.300          45.650



 117876525.904 7  91851859.365 7  22431150.140                    22431149.800
                                        47.950          46.050



 114009018.492 8  88838194.807 7  21695190.060                    21695186.320
                                        48.450          45.000



 112652428.863 7  87781111.73747  21437038.520                    21437033.100
                                        47.800          44.050



 129112558.388 6 100607152.19545  24569315.460                    24569315.440
                                        41.600          34.350



 121578991.959 7  94736886.042 7  23135705.540                    23135703.100
                                        46.400          43.350



 23  8 28 11 26  0.0000000  0  9G02G03G04G06G09G17G19G21G31
 125144668.618 7  97515291.98046  23814249.160                    23814245.860
                                        44.050          37.250



 107481749.434 8  83752021.589 8  20453088.560                    20453087.100
                                        50.400          48.650



 109513347.307 8  85335099.635 8  20839685.940                    20839683.740
                                        48.700          49.200



 120057290.576 7  93551153.372 7  22846139.760                    22846139.940
                                        46.250          46.100



 117778274.046 7  91775299.557 7  22412453.420                    22412452.980
                                        47.650          45.950



 114044576.193 8  88865902.069 7  21701956.520                    21701952.740
                                        49.100          45.100



 112643312.343 8  87774007.95247  21435303.700                    21435298.280
                                        48.200          44.500



 129204916.503 6 100679119.40045  24586890.780                    24586890.740
                                        39.800          35.950



 121559572.890 7  94721754.355 7  23132010.200                    23132007.740
                                        46.850          43.000



 23  8 28 11 26 30.0000000  0  9G02G03G04G06G09G17G19G21G31
 125238522.995 7  97588425.10846  23832109.180                    23832105.860
                                        43.950          37.550



 107516765.976 8  83779307.186 8  20459752.000                    20459750.560
                                        50.200          48.550



 109459151.004 8  85292868.779 8  20829372.740                    20829370.540
                                        48.600          49.050



 119964237.885 7  93478644.852 7  22828432.340                    22828432.540
                                        46.150          45.650



 117680313.763 7  91698966.941 7  22393812.160                    22393811.660
                                        47.250          46.200



 114080658.247 8  88894017.922 7  21708822.780                    21708818.960
                                        48.750          45.100



 112634866.067 7  87767426.41947  21433696.440                    21433691.000
                                        47.800          44.250



 129297384.005 6 100751171.77545  24604486.960                    24604486.920
                                        41.200          35.250



 121540756.371 7  94707092.173 7  23128429.520                    23128427.040
                                        46.750          42.550



 23  8 28 11 27  0.0000000  0  9G02G03G04G06G09G17G19G21G31
 125332569.017 7  97661707.55346  23850005.680                    23850002.360
                                        43.850          39.800



 107552129.036 8  83806862.797 8  20466481.380                    20466479.960
                                        50.200          48.250



 109405454.553 8  85251027.414 8  20819154.640                    20819152.440
                                        48.550          48.850



 119871362.182 7  93406274.210 7  22810758.640                    22810758.860
                                        46.400          46.150



 117582644.244 7  91622860.908 7  22375226.200                    22375225.680
                                        47.100          46.550



 114117260.683 8  88922539.236 7  21715788.080                    21715784.220
                                        48.100          45.250



 112627087.524 7  87761365.20047  21432216.240                    21432210.800
                                        47.150          44.900



 129389956.612 6 100823306.08645  24622103.100                    24622103.080
                                        40.300          35.900



 121522540.702 7  94692898.187 7  23124963.200                    23124960.660
                                        46.950          42.850



 23  8 28 11 27 30.0000000  0  9G02G03G04G06G09G17G19G21G31
 125426812.889 7  97735144.16546  23867939.860                    23867936.520
                                        44.550          39.600



 107587845.076 8  83834693.473 7  20473277.920                    20473276.500
                                        50.400          47.950



 109352266.523 8  85209582.235 8  20809033.300                    20809031.060
                                        48.850          48.350



 119778672.892 7  93334048.856 7  22793120.420                    22793120.620
                                        46.650          46.650



 117485274.879 7  91546988.758 7  22356697.380                    22356696.840
                                        47.400          45.950



 114154389.185 8  88951470.554 7  21722853.420                    21722849.520
                                        48.550          45.600



 112619983.730 7  87755829.78147  21430864.400                    21430859.000
                                        47.000          44.250



 129482640.729 6 100895527.27345  24639740.500                    24639740.460
                                        40.150          35.350



 121504934.447 7  94679179.090 7  23121612.820                    23121610.240
                                        46.750          42.650



 23  8 28 11 28  0.0000000  0  9G02G03G04G06G09G17G19G21G31
 125521248.979 7  97808730.55746  23885910.600                    23885907.260
                                        43.900          39.100



 107623909.100 8  83862795.277 7  20480140.700                    20480139.260
                                        50.350          47.800



 109299584.023 8  85168530.949 7  20799008.180                    20799005.880
                                        48.600          47.950



 119686167.932 7  93261967.121 7  22775517.280                    22775517.480
                                        46.000          46.200



 117388203.607 7  91471348.873 7  22338225.300                    22338224.740
                                        46.850          45.750



 114192038.476 8  88980807.624 7  21730017.900                    21730013.980
                                        49.150          45.000



 112613551.575 7  87750817.68947  21429640.400                    21429635.040
                                        46.800          44.150



 129575431.473 6 100967831.54946  24657398.180                    24657398.120
                                        41.100          36.550



 121487934.778 7  94665932.625 7  23118377.880                    23118375.280
                                        46.750          43.350



 23  8 28 11 28 30.0000000  0  9G02G03G04G06G09G17G19G21G31
 125615875.728 7  97882465.51746  23903917.620                    23903914.280
                                        44.850          38.650



 107660319.848 8  83891167.274 7  20487069.440                    20487067.980
                                        50.600          47.950



 109247407.847 8  85127874.207 8  20789079.400                    20789077.040
                                        48.800          48.200



 119593849.014 7  93190030.361 7  22757949.540                    22757949.720
                                        46.400          46.350



 117291432.128 7  91395942.590 7  22319810.240                    22319809.660
                                        47.000          46.350



 114230206.895 8  89010549.240 7  21737281.140                    21737277.180
                                        49.000          46.400



 112607790.978 7  87746328.89847  21428544.160                    21428538.840
                                        46.750          44.800



 129668327.066 6 101040217.48946  24675075.840                    24675075.800
                                        41.200          37.000



 121471542.039 7  94653159.097 7  23115258.440                    23115255.820
                                        46.850          43.150



 23  8 28 11 29  0.0000000  0  9G02G03G04G06G09G17G19G21G31
 125710692.574 7  97956348.59446  23921960.800                    23921957.480
                                        44.600          39.600



 107697077.315 8  83919809.434 7  20494064.180                    20494062.700
                                        50.400          47.950



 109195739.989 8  85087613.588 8  20779247.300                    20779244.880
                                        48.100          48.400



 119501719.012 7  93118240.800 7  22740417.740                    22740417.940
                                        46.650          46.550



 117194963.193 7  91320772.069 7  22301452.740                    22301452.180
                                        46.900          46.800



 114268893.441 8  89040694.593 7  21744642.980                    21744639.020
                                        48.700          45.450



 112602702.572 7  87742363.91347  21427575.800                    21427570.560
                                        47.550          44.600



 129761327.142 6 101112684.87245  24692773.400                    24692773.320
                                        41.550          34.600



 121455758.235 7  94640860.062 7  23112254.880                    23112252.240
                                        46.800          43.300



 23  8 28 11 29 30.0000000  0  9G02G03G04G06G09G17G19G21G31
 125805694.096 7  98030375.59246  23940039.120                    23940035.800
                                        43.900          39.700



 107734176.376 8  83948717.773 7  20501123.900                    20501122.400
                                        50.300          47.750



 109144577.450 8  85047746.711 8  20769511.360                    20769508.920
                                        48.050          48.300



 119409775.808 7  93046596.792 7  22722921.500                    22722921.700
                                        47.050          46.150



 117098794.678 7  91245835.647 7  22283152.400                    22283151.860
                                        47.000          46.900



 114308093.037 8  89071239.722 7  21752102.460                    21752098.480
                                        48.550          46.050



 112598282.273 7  87738919.52447  21426734.620                    21426729.400
                                        47.900          43.900



 129854426.548 7 101185229.63746  24710489.880                    24710489.780
                                        42.550          38.100



 121440580.707 7  94629033.458 7  23109366.680                    23109364.020
                                        46.350          43.000



 23  8 28 11 30  0.0000000  0  9G02G03G04G06G09G17G19G21G31
 125900886.838 7  98104551.56346  23958153.840                    23958150.560
                                        43.700          39.550



 107771624.156 8  83977897.842 7  20508249.980                    20508248.480
                                        50.600          47.750



 109093929.381 7  85008280.708 8  20759873.320                    20759870.860
                                        47.950          48.350



 119318029.442 7  92975106.187 7  22705462.720                    22705462.880
                                        46.650          46.250



 117002936.612 7  91171141.116 7  22264911.120                    22264910.660
                                        47.600          46.800



 114347812.197 8  89102189.699 7  21759660.820                    21759656.820
                                        48.100          45.800



 112594538.431 8  87736002.23447  21426022.180                    21426016.980
                                        48.000          44.600



 129947632.267 7 101257857.22645  24728226.620                    24728226.480
                                        42.650          35.650



 121426018.347 7  94617686.212 7  23106595.520                    23106592.860
                                        46.600          42.250



 23  8 28 11 30 30.0000000  0  9G02G03G04G06G09G17G19G21G31
 125996264.134 7  98178871.36046  23976303.640                    23976300.420
                                        43.250          38.600



 107809414.563 8  84007344.905 7  20515441.260                    20515439.740
                                        50.750          47.900



 109043791.624 8  84969212.358 8  20750332.360                    20750329.920
                                        48.450          48.550



 119226476.899 7  92903766.595 7  22688040.820                    22688040.980
                                        46.800          46.400



 116907385.815 7  91096685.993 7  22246728.360                    22246727.940
                                        47.550          46.950



 114388044.160 7  89133539.231 7  21767316.760                    21767312.780
                                        47.600          46.050



 112591466.019 8  87733608.14747  21425437.500                    21425432.320
                                        48.600          44.550



 130040937.799 7 101330562.60846  24745982.340                    24745982.160
                                        42.450          37.200



 121412066.606 7  94606814.783 6  23103940.560                    23103937.880
                                        46.900          41.500



 23  8 28 11 31  0.0000000  0  9G02G03G04G06G09G17G19G21G31
 126091828.405 7  98253336.81646  23994489.060                    23994485.920
                                        43.750          39.300



 107847550.230 8  84037060.990 8  20522698.280                    20522696.720
                                        50.650          48.250



 108994168.847 8  84930545.292 8  20740889.420                    20740886.980
                                        48.750          48.800



 119135123.678 7  92832582.334 7  22670656.860                    22670656.980
                                        46.850          46.050



 116812147.761 7  91022474.571 7  22228605.120                    22228604.720
                                        47.100          47.100



 114428790.851 7  89165289.898 7  21775070.580                    21775066.660
                                        47.300          46.000



 112589068.533 8  87731739.97147  21424981.320                    21424976.100
                                        48.500          44.200



 130134345.561 7 101403347.68745  24763757.500                    24763757.240
                                        42.400          35.950



 121398730.109 7  94596422.748 6  23101402.700                    23101399.960
                                        46.950          41.900



 23  8 28 11 31 30.0000000  0  9G02G03G04G06G09G17G19G21G31
 126187575.640 7  98327944.88546  24012709.280                    24012706.180
                                        44.100          39.750



 107886027.936 8  84067043.612 8  20530020.360                    20530018.780
                                        50.650          48.100



 108945059.747 8  84892278.494 8  20731544.220                    20731541.800
                                        48.650          48.850



 119043969.607 7  92761553.230 7  22653310.820                    22653310.920
                                        46.800          46.000



 116717222.159 7  90948506.641 7  22210541.320                    22210540.940
                                        46.550          47.500



 114470048.852 7  89197438.952 7  21782921.720                    21782917.880
                                        47.900          45.850



 112587343.733 8  87730395.96147  21424653.140                    21424647.880
                                        48.400          44.100



 130227851.828 7 101476209.47345  24781551.420                    24781551.100
                                        42.900          35.750



 121386007.342 7  94586508.955 7  23098981.600                    23098978.820
                                        46.750          42.200



 23  8 28 11 32  0.0000000  0  9G02G03G04G06G09G17G19G21G31
 126283504.229 7  98402694.24246  24030964.060                    24030960.980
                                        44.600          38.700



 107924846.339 8  84097291.698 8  20537407.300                    20537405.700
                                        50.500          48.050



 108896464.928 8  84854412.426 8  20722296.920                    20722294.500
                                        48.300          48.900



 118953016.275 7  92690680.548 7  22636002.960                    22636003.020
                                        46.450          46.150



 116622610.472 7  90874783.316 7  22192537.220                    22192536.920
                                        45.850          47.350



 114511815.843 8  89229984.631 7  21790869.720                    21790865.940
                                        48.250          46.650



 112586291.241 8  87729575.81147  21424452.920                    21424447.600
                                        48.400          44.650



 130321455.037 7 101549146.79346  24799363.780                    24799363.420
                                        42.550          36.200



 121373898.863 7  94577073.811 7  23096677.420                    23096674.600
                                        46.850          42.400



 23  8 28 11 32 30.0000000  0  9G02G03G04G06G09G17G19G21G31
 126379611.334 7  98477582.73646  24049252.800                    24049249.720
                                        44.000          39.750



 107964003.040 8  84127803.391 8  20544858.620                    20544857.000
                                        50.550          48.200



 108848383.968 8  84816946.773 8  20713147.380                    20713144.980
                                        48.350          49.050



 118862264.312 7  92619964.779 7  22618733.400                    22618733.460
                                        46.300          46.250



 116528313.274 7  90801305.048 7  22174592.960                    22174592.720
                                        46.600          47.200



 114554088.951 8  89262924.692 7  21798914.020                    21798910.300
                                        48.050          45.750



 112585909.386 8  87729278.26047  21424380.300                    21424374.960
                                        48.350          44.200



 130415152.827 6 101622157.78245  24817194.140                    24817193.800
                                        41.700          35.900



 121362404.185 7  94568116.966 7  23094490.020                    23094487.160
                                        46.950          42.250



 23  8 28 11 33  0.0000000  0  9G02G03G04G06G09G17G19G21G31
 126475899.866 7  98552612.58346  24067576.080                    24067573.020
                                        44.300          39.400



 108003501.143 8  84158581.129 8  20552374.880                    20552373.240
                                        50.500          48.300



 108800821.909 8  84779885.457 8  20704096.600                    20704094.220
                                        48.750          49.150



 118771719.832 7  92549410.705 7  22601503.300                    22601503.360
                                        46.600          46.550



 116434336.458 7  90728076.430 7  22156709.660                    22156709.480
                                        47.100          46.750



 114596870.749 7  89296261.132 7  21807055.140                    21807051.460
                                        47.800          46.050



 112586202.418 8  87729506.58647  21424436.100                    21424430.760
                                        48.400          43.650



 130508947.858 7 101695244.53446  24835043.000                    24835042.680
                                        42.250          36.350



 121351528.109 7  94559642.141 6  23092420.360                    23092417.460
                                        47.150          41.700



 23  8 28 11 33 30.0000000  0  9G02G03G04G06G09G17G19G21G31
 126572366.324 7  98627781.06546  24085933.220                    24085930.160
                                        43.500          39.600



 108043338.240 8  84189623.000 8  20559955.660                    20559954.020
                                        50.350          48.300



 108753778.227 8  84743228.069 8  20695144.460                    20695142.080
                                        48.700          49.000



 118681383.453 7  92479018.733 7  22584312.840                    22584312.920
                                        46.400          46.400



 116340680.530 7  90655097.830 7  22138887.460                    22138887.300
                                        47.250          46.800



 114640157.892 7  89329991.320 7  21815292.460                    21815288.820
                                        47.650          44.500



 112587168.567 7  87730259.42747  21424619.980                    21424614.600
                                        47.750          43.400



 130602837.320 6 101768404.89046  24852909.800                    24852909.520
                                        41.900          36.550



 121341269.983 7  94551648.822 6  23090468.280                    23090465.340
                                        46.750          41.550



 23  8 28 11 34  0.0000000  0  9G02G03G04G06G09G17G19G21G31
 126669005.816 7  98703084.36146  24104323.300                    24104320.260
                                        42.300          40.200



 108083509.917 8  84220925.587 8  20567600.100                    20567598.460
                                        50.600          48.600



 108707250.379 8  84706972.626 8  20686290.500                    20686288.120
                                        48.750          48.750



 118591253.732 7  92408787.829 7  22567161.680                    22567161.760
                                        46.750          46.650



 116247343.891 7  90582368.044 7  22121126.040                    22121125.880
                                        47.550          47.250



 114683945.354 8  89364111.343 7  21823624.980                    21823621.360
                                        48.150          45.000



 112588804.407 8  87731534.09947  21424931.300                    21424925.860
                                        48.000          42.750



 130696816.803 7 101841635.35145  24870793.780                    24870793.540
                                        42.650          35.400



 121331627.245 7  94544135.025 6  23088633.320                    23088630.340
                                        46.950          41.500



 23  8 28 11 34 30.0000000  0  9G02G03G04G06G09G17G19G21G31
 126765822.630 7  98778525.84346  24122747.060                    24122744.100
                                        42.850          39.650



 108124020.646 8  84252492.361 8  20575309.060                    20575307.440
                                        50.650          48.450



 108661244.733 8  84671124.084 8  20677535.920                    20677533.520
                                        48.650          48.800



 118501338.207 7  92338723.835 7  22550051.300                    22550051.360
                                        45.950          46.750



 116154333.872 7  90509892.748 7  22103426.780                    22103426.620
                                        47.600          47.100



 114728237.300 8  89398624.512 7  21832053.480                    21832049.860
                                        48.050          44.150



 112591114.722 7  87733334.33747  21425370.920                    21425365.460
                                        47.650          43.550



 130790890.409 6 101914939.18146  24888695.640                    24888695.460
                                        40.650          39.200



 121322605.994 7  94537105.487 6  23086916.620                    23086913.600
                                        46.800          41.000



 23  8 28 11 35  0.0000000  0  9G02G03G04G06G09G17G19G21G31
 126862812.922 7  98854102.49046  24141203.840                    24141200.960
                                        42.600          41.950



 108164867.220 8  84284320.837 8  20583081.940                    20583080.320
                                        50.600          48.550



 108615759.918 8  84635681.400 8  20668880.420                    20668878.020
                                        48.450          49.650



 118411636.667 7  92268826.590 7  22532981.620                    22532981.700
                                        46.200          46.850



 116061650.108 7  90437671.688 7  22085789.620                    22085789.460
                                        47.500          47.550



 114773029.420 8  89433527.440 7  21840577.140                    21840573.520
                                        48.300          44.400



 112594097.299 7  87735658.42347  21425938.480                    21425932.980
                                        47.900          43.300



 130885054.725 6 101988313.63746  24906614.800                    24906614.700
                                        40.350          38.700



 121314204.416 7  94530558.811 6  23085317.860                    23085314.780
                                        46.550          41.900



 23  8 28 11 35 30.0000000  0  9G02G03G04G06G09G17G19G21G31
 126959974.539 7  98929812.64347  24159693.200                    24159690.420
                                        42.800          42.100



 108206047.832 8  84316409.606 7  20590918.380                    20590916.760
                                        50.550          47.900



 108570795.953 8  84600644.583 8  20660324.040                    20660321.620
                                        48.900          49.550



 118322150.350 7  92199097.043 7  22515952.900                    22515952.980
                                        46.050          46.550



 115969293.597 7  90365705.611 7  22068214.740                    22068214.560
                                        46.900          47.050



 114818319.126 8  89468818.083 7  21849195.520                    21849191.860
                                        48.800          44.550



 112597751.078 8  87738505.52047  21426633.740                    21426628.260
                                        48.050          43.250



 130979307.591 6 102061757.09845  24924550.820                    24924550.760
                                        41.250          35.900



 121306422.460 7  94524494.958 6  23083836.980                    23083833.860
                                        46.500          41.750



 23  8 28 11 36  0.0000000  0  9G02G03G04G06G09G17G19G21G31
 127057307.752 7  99005656.49546  24178215.220                    24178212.560
                                        42.750          40.550



 108247563.390 8  84348759.393 7  20598818.540                    20598816.900
                                        50.350          47.750



 108526355.547 8  84566015.735 8  20651867.280                    20651864.860
                                        49.050          49.500



 118232883.160 7  92129538.257 7  22498965.880                    22498965.940
                                        45.700          46.250



 115877268.081 7  90293997.472 7  22050702.800                    22050702.620
                                        46.600          47.100



 114864106.623 7  89504496.614 7  21857908.620                    21857904.940
                                        47.750          43.750



 112602077.670 8  87741876.88847  21427457.060                    21427451.540
                                        48.350          43.500



 131073649.705 6 102135270.14445  24942503.780                    24942503.760
                                        41.650          33.050



 121299262.598 7  94518915.859 6  23082474.500                    23082471.340
                                        46.400          41.750



 23  8 28 11 36 30.0000000  0  9G02G03G04G06G09G17G19G21G31
 127154806.995 7  99081629.73346  24196768.840                    24196766.280
                                        42.750          38.600



 108289409.020 8  84381366.355 8  20606781.500                    20606779.860
                                        50.500          48.100



 108482435.671 8  84531792.491 8  20643509.580                    20643507.160
                                        48.900          49.150



 118143833.354 7  92060148.835 7  22482020.220                    22482020.280
                                        46.100          46.400



 115785571.554 7  90222545.704 7  22033253.440                    22033253.280
                                        46.150          47.350



 114910386.170 7  89540558.578 7  21866715.340                    21866711.640
                                        47.300          45.200



 112607072.993 8  87745769.32947  21428407.640                    21428402.120
                                        48.400          44.200



 131168075.738 6 102208848.55745  24960472.740                    24960472.740
                                        41.750          33.100



 121292721.768 7  94513819.090 6  23081229.820                    23081226.640
                                        46.750          41.600



 23  8 28 11 37  0.0000000  0  9G02G03G04G06G09G17G19G21G31
 127252476.419 7  99157735.59846  24215354.840                    24215352.360
                                        42.650          38.550



 108331589.326 8  84414234.106 8  20614808.180                    20614806.520
                                        50.650          48.250



 108439042.676 8  84497979.790 8  20635252.180                    20635249.740
                                        49.000          48.800



 118055008.544 7  91990934.734 7  22465117.380                    22465117.440
                                        46.000          46.050



 115694211.383 7  90151356.036 7  22015868.080                    22015867.920
                                        46.200          46.400



 114957161.871 8  89577007.166 7  21875616.480                    21875612.760
                                        48.600          44.300



 112612742.184 8  87750186.86247  21429486.480                    21429480.940
                                        48.200          43.750



 131262590.173 7 102282495.89245  24978458.500                    24978458.480
                                        42.700          32.800



 121286805.823 7  94509209.256 6  23080104.060                    23080100.860
                                        47.150          41.650



 23  8 28 11 37 30.0000000  0  9G02G03G04G06G09G17G19G21G31
 127350311.561 7  99233970.63446  24233972.340                    24233969.920
                                        43.600          36.800



 108374100.096 8  84447359.348 8  20622897.740                    20622896.080
                                        50.750          48.350



 108396174.141 8  84464575.770 8  20627094.560                    20627092.100
                                        48.950          48.800



 117966407.595 7  91921895.093 7  22448257.120                    22448257.180
                                        46.450          46.000



 115603186.210 7  90080427.397 7  21998546.440                    21998546.320
                                        46.850          46.650



 115004428.677 8  89613838.369 7  21884611.100                    21884607.400
                                        48.800          44.000



 112619081.667 7  87755126.71847  21430692.860                    21430687.280
                                        47.850          43.650



 131357188.470 7 102356208.54545  24996460.240                    24996460.180
                                        42.900          32.700



 121281512.305 7  94505084.429 6  23079096.760                    23079093.500
                                        47.000          41.650



 23  8 28 11 38  0.0000000  0  9G02G03G04G06G09G17G19G21G31
 127448314.236 7  99310336.17346  24252621.760                    24252619.380
                                        42.900          38.750



 108416943.930 8  84480744.119 7  20631050.680                    20631049.020
                                        50.500          47.850



 108353834.322 8  84431583.712 8  20619037.560                    20619035.080
                                        48.700          48.700



 117878036.120 7  91853034.244 7  22431440.540                    22431440.600
                                        46.050          45.800



 115512501.395 7  90009763.964 7  21981289.600                    21981289.480
                                        47.050          46.150



 115052188.123 7  89651053.488 7  21893699.460                    21893695.740
                                        47.500          44.750



 112626094.335 8  87760591.11147  21432027.340                    21432021.740
                                        48.050          43.750



 131451872.840 6 102429988.24545  25014478.360                    25014478.300
                                        41.850          33.100



 121276845.297 7  94501447.777 6  23078208.680                    23078205.400
                                        46.900          41.350



 23  8 28 11 38 30.0000000  0  9G02G03G04G06G09G17G19G21G31
 127546476.875 7  99386826.38146  24271301.600                    24271299.260
                                        43.750          39.300



 108460113.655 8  84514382.839 7  20639265.640                    20639263.980
                                        50.550          47.800



 108312017.830 8  84398999.466 8  20611080.140                    20611077.620
                                        48.550          48.900



 117789890.023 7  91784349.044 7  22414666.820                    22414666.880
                                        45.950          46.350



 115422152.545 7  89939362.335 7  21964096.700                    21964096.580
                                        47.250          46.750



 115100432.478 7  89688646.469 7  21902880.060                    21902876.360
                                        47.500          44.250



 112633773.358 8  87766574.74147  21433488.640                    21433483.020
                                        48.200          44.650



 131546635.539 6 102503829.02345  25032511.380                    25032511.260
                                        41.650          35.400



 121272798.915 7  94498294.756 7  23077438.700                    23077435.360
                                        47.000          42.300



 23  8 28 11 39  0.0000000  0  9G02G03G04G06G09G17G19G21G31
 127644801.912 7  99463443.08446  24290012.400                    24290010.100
                                        43.550          40.950



 108503612.366 8  84548277.914 7  20647543.200                    20647541.520
                                        50.400          47.850



 108270729.497 8  84366826.752 8  20603223.200                    20603220.680
                                        48.550          48.900



 117701975.466 7  91715844.245 7  22397937.180                    22397937.240
                                        46.200          46.350



 115332145.519 7  89869227.051 7  21946968.880                    21946968.720
                                        46.950          46.050



 115149163.994 8  89726619.017 7  21912153.400                    21912149.700
                                        48.800          45.900



 112642122.819 8  87773080.78347  21435077.540                    21435071.900
                                        48.450          43.600



 131641479.922 6 102577733.41346  25050559.960                    25050559.820
                                        41.150          36.950



 121269377.905 7  94495629.034 7  23076787.720                    23076784.340
                                        46.700          42.200



 23  8 28 11 39 30.0000000  0  9G02G03G04G06G09G17G19G21G31
 127743287.344 7  99540184.78846  24308753.700                    24308751.440
                                        44.300          39.550



 108547438.702 8  84582428.283 8  20655883.100                    20655881.400
                                        50.350          48.000



 108229969.642 8  84335065.848 8  20595466.820                    20595464.300
                                        48.850          48.850



 117614294.193 7  91647521.226 7  22381251.940                    22381252.000
                                        46.350          46.050



 115242481.786 7  89799359.238 7  21929906.400                    21929906.200
                                        47.700          46.250



 115198380.278 8  89764969.303 7  21921519.000                    21921515.320
                                        48.900          45.550



 112651141.831 8  87780108.57347  21436793.820                    21436788.180
                                        48.300          44.050



 131736404.103 6 102651699.95946  25068623.700                    25068623.620
                                        41.750          36.850



 121266582.213 7  94493450.579 7  23076255.740                    23076252.320
                                        46.400          42.450



 23  8 28 11 40  0.0000000  0  8G02G03G04G06G09G17G19G31
 127841936.856 7  99617054.32946  24327526.260                    24327524.040
                                        42.600          40.000



 108591596.828 8  84616837.190 7  20664286.140                    20664284.440
                                        50.250          47.900



 108189744.082 8  84303721.281 8  20587812.140                    20587809.600
                                        48.550          48.400



 117526853.393 7  91579385.581 7  22364612.460                    22364612.520
                                        46.750          45.250



 115153168.231 7  89729764.322 7  21912910.540                    21912910.320
                                        47.700          46.900



 115248084.794 7  89803700.023 7  21930977.540                    21930973.880
                                        47.800          46.150



 112660834.839 7  87787661.55747  21438638.360                    21438632.720
                                        47.800          44.350



 121264417.490 7  94491763.778 7  23075843.840                    23075840.400
                                        45.950          42.150



 23  8 28 11 40 30.0000000  0  8G02G03G04G06G09G17G19G31
 127940741.741 6  99694044.93246  24346328.380                    24346326.200
                                        41.800          38.550



 108636078.546 8  84651498.236 8  20672750.760                    20672749.060
                                        50.350          48.050



 108150046.254 8  84272787.925 8  20580257.860                    20580255.300
                                        48.850          48.450



 117439647.994 7  91511433.366 7  22348017.780                    22348017.840
                                        47.050          45.300



 115064199.442 7  89660438.061 7  21895980.300                    21895980.040
                                        47.900          47.300



 115298268.165 7  89842803.887 7  21940527.160                    21940523.560
                                        47.800          45.450



 112671194.148 7  87795733.72447  21440609.700                    21440604.080
                                        47.850          43.900



 121262876.724 7  94490563.179 7  23075550.640                    23075547.200
                                        46.100          42.450



 23  8 28 11 41  0.0000000  0  8G02G03G04G06G09G17G19G31
 128039701.498 6  99771156.21846  24365159.960                    24365157.840
                                        41.900          38.700



 108680883.827 8  84686411.418 7  20681276.940                    20681275.260
                                        50.050          47.950



 108110877.818 8  84242267.084 8  20572804.340                    20572801.760
                                        48.550          48.600



 117352681.072 7  91443666.978 7  22331468.480                    22331468.520
                                        46.750          45.300



 114975578.198 7  89591382.630 7  21879116.180                    21879115.920
                                        47.900          47.550



 115348929.529 8  89882280.228 7  21950167.740                    21950164.180
                                        48.250          45.250



 112682220.164 7  87804325.42247  21442707.880                    21442702.260
                                        47.700          43.950



 121261961.061 7  94489849.683 7  23075376.400                    23075372.940
                                        45.750          42.050



 23  8 28 11 41 30.0000000  0  8G02G03G04G06G09G17G19G31
 128138816.036 6  99848388.12946  24384020.980                    24384018.900
                                        41.000          39.350



 108726013.255 8  84721577.189 7  20689864.780                    20689863.120
                                        49.950          47.400



 108072240.992 8  84212160.491 8  20565451.980                    20565449.360
                                        48.750          48.250



 117265956.329 7  91376089.274 7  22314965.300                    22314965.320
                                        47.050          45.350



 114887307.741 8  89522600.531 7  21862318.840                    21862318.540
                                        48.650          47.300



 115400068.403 8  89922128.676 7  21959899.160                    21959895.620
                                        48.800          44.650



 112693913.548 8  87813437.12047  21444933.080                    21444927.480
                                        48.250          42.850



 121261672.749 7  94489625.032 6  23075321.520                    23075318.080
                                        45.850          41.550



 23  8 28 11 42  0.0000000  0  8G02G03G04G06G09G17G19G31
 128238085.319 6  99925740.62946  24402911.420                    24402909.400
                                        41.300          39.250



 108771467.520 8  84756996.082 8  20698514.460                    20698512.800
                                        50.250          48.050



 108034138.005 8  84182469.866 8  20558201.220                    20558198.560
                                        48.700          48.650



 117179477.481 7  91308703.208 7  22298508.900                    22298508.900
                                        46.700          45.900



 114799391.515 8  89454094.442 7  21845588.920                    21845588.580
                                        48.000          47.750



 115451684.782 8  89962349.180 7  21969721.480                    21969717.940
                                        48.400          44.650



 112706275.388 8  87823069.70847  21447285.460                    21447279.860
                                        48.000          42.900



 121262013.698 7  94489890.701 7  23075386.380                    23075382.980
                                        46.100          42.200



 23  8 28 11 42 30.0000000  0  8G02G03G04G06G09G17G19G31
 128337504.857 6 100003210.20446  24421830.440                    24421828.500
                                        39.850          39.350



 108817242.599 8  84792664.949 8  20707225.180                    20707223.540
                                        50.400          48.250



 107996566.414 8  84153193.316 8  20551051.580                    20551048.880
                                        48.650          49.000



 117093243.647 7  91241508.033 7  22282099.140                    22282099.120
                                        46.200          46.050



 114711828.205 7  89385863.359 7  21828926.160                    21828925.780
                                        47.300          47.950



 115503773.553 7  90002937.780 7  21979633.720                    21979630.160
                                        47.650          45.600



 112719302.271 8  87833220.48747  21449764.420                    21449758.800
                                        48.700          43.300



 121262981.197 7  94490644.590 7  23075570.460                    23075567.100
                                        46.150          42.000



 23  8 28 11 43  0.0000000  0  8G02G03G04G06G09G17G19G31
 128437076.715 6 100080798.42146  24440778.460                    24440776.660
                                        39.300          38.850



 108863340.871 8  84828585.668 8  20715997.380                    20715995.780
                                        50.300          48.050



 107959530.190 8  84124333.947 8  20544003.800                    20544001.060
                                        48.700          49.650



 117007260.350 7  91174508.119 7  22265737.020                    22265737.000
                                        45.900          46.450



 114624622.941 7  89317911.291 7  21812331.500                    21812331.100
                                        47.250          47.900



 115556336.105 7  90043895.575 7  21989636.080                    21989632.520
                                        47.750          45.950



 112732996.565 8  87843891.37447  21452370.380                    21452364.680
                                        48.200          43.400



 121264578.486 7  94491889.241 6  23075874.380                    23075871.060
                                        45.950          41.950



 23  8 28 11 43 30.0000000  0  8G02G03G04G06G09G17G19G31
 128536796.599 6 100158501.99546  24459754.620                    24459752.980
                                        39.900          38.550



 108909758.823 8  84864755.500 7  20724830.440                    20724828.840
                                        50.100          47.500



 107923027.350 8  84095890.201 8  20537057.540                    20537054.780
                                        48.600          49.650



 116921527.144 7  91107703.089 7  22249422.480                    22249422.460
                                        46.850          46.350



 114537774.888 7  89250237.563 7  21795804.800                    21795804.400
                                        47.800          47.550



 115609367.939 7  90085219.007 7  21999727.780                    21999724.260
                                        47.850          45.550



 112747355.096 7  87855079.81747  21455102.740                    21455097.020
                                        47.650          43.900



 121266803.479 7  94493623.022 6  23076297.740                    23076294.420
                                        45.750          41.950



 23  8 28 11 44  0.0000000  0  8G02G03G04G06G09G17G19G31
 128636660.910 6 100236318.12446  24478758.260                    24478756.780
                                        41.850          39.800



 108956493.524 8  84901172.129 7  20733723.780                    20733722.200
                                        50.050          47.600



 107887056.485 8  84067860.969 8  20530212.500                    20530209.780
                                        48.350          49.600



 116836044.213 7  91041093.070 7  22233155.580                    22233155.560
                                        47.050          46.300



 114451283.825 7  89182841.989 7  21779346.040                    21779345.640
                                        47.950          47.550



 115662865.432 7  90126905.293 7  22009908.060                    22009904.580
                                        47.600          45.000



 112762375.117 8  87866783.71547  21457960.960                    21457955.240
                                        48.150          44.250



 121269654.378 7  94495844.512 7  23076840.200                    23076836.920
                                        46.400          42.600



 23  8 28 11 44 30.0000000  0  8G02G03G04G06G09G17G19G31
 128736669.818 7 100314246.95146  24497789.440                    24497788.060
                                        42.550          39.750



 109003545.675 8  84937836.132 7  20742677.520                    20742675.920
                                        49.850          47.550



 107851619.829 8  84040248.017 8  20523469.100                    20523466.420
                                        48.700          49.450



 116750815.423 7  90974681.062 7  22216937.060                    22216937.040
                                        47.500          46.250



 114365153.165 7  89115727.247 7  21762955.900                    21762955.480
                                        47.900          47.900



 115716827.734 7  90168953.787 7  22020176.760                    22020173.320
                                        47.850          43.750



 112778057.541 7  87879003.75947  21460945.260                    21460939.520
                                        47.900          43.600



 121273132.893 7  94498555.085 7  23077502.100                    23077498.820
                                        46.250          42.900



 23  8 28 11 45  0.0000000  0  8G02G03G04G06G09G17G19G31
 128836821.427 6 100392286.96146  24516847.840                    24516846.480
                                        40.850          38.650



 109050913.950 8  84974746.467 7  20751691.400                    20751689.800
                                        49.900          47.350



 107816717.531 8  84013051.440 8  20516827.400                    20516824.740
                                        48.950          49.250



 116665842.550 7  90908468.480 7  22200767.240                    22200767.200
                                        47.400          46.050



 114279384.255 8  89048894.367 7  21746634.600                    21746634.160
                                        48.650          47.800



 115771252.220 8  90211362.445 7  22030533.420                    22030529.960
                                        48.100          43.500



 112794401.258 7  87891739.11347  21464055.400                    21464049.640
                                        47.500          43.900



 121277239.099 7  94501754.742 7  23078283.460                    23078280.200
                                        46.650          43.350



 23  8 28 11 45 30.0000000  0  8G02G03G04G06G09G17G19G31
 128937121.506 6 100470442.65246  24535934.500                    24535933.180
                                        41.550          38.750



 109098604.463 8  85011907.888 7  20760766.600                    20760765.000
                                        50.150          47.250



 107782357.166 8  83986277.136 8  20510288.840                    20510286.180
                                        49.450          49.050



 116581134.821 7  90842462.501 7  22184647.880                    22184647.820
                                        47.900          45.750



 114193985.885 8  88982350.239 7  21730383.820                    21730383.360
                                        48.750          47.400



 115826144.653 8  90254135.744 7  22040979.120                    22040975.640
                                        48.600          43.750



 112811412.423 7  87904994.52947  21467292.540                    21467286.780
                                        46.800          43.600



 121281980.000 7  94505448.967 7  23079185.600                    23079182.380
                                        47.000          42.800



 23  8 28 11 46  0.0000000  0  8G02G03G04G06G09G17G19G31
 129037561.661 6 100548707.50446  24555047.820                    24555046.500
                                        41.250          39.750



 109146610.077 8  85049314.841 7  20769901.780                    20769900.160
                                        50.350          47.200



 107748533.062 8  83959920.697 8  20503852.340                    20503849.660
                                        49.400          49.200



 116496688.237 7  90776660.012 7  22168578.200                    22168578.140
                                        47.250          46.200



 114108953.612 8  88916091.375 7  21714202.720                    21714202.200
                                        48.350          47.200



 115881496.653 8  90297267.101 7  22051512.340                    22051508.800
                                        48.300          44.300



 112829083.959 8  87918764.51847  21470655.340                    21470649.600
                                        48.000          44.050



 121287349.756 7  94509633.231 7  23080207.400                    23080204.200
                                        46.700          42.950



 23  8 28 11 46 30.0000000  0  8G02G03G04G06G09G17G19G31
 129138143.960 6 100627083.05446  24574188.220                    24574186.940
                                        40.500          39.000



 109194933.199 8  85086969.198 7  20779097.380                    20779095.740
                                        50.200          47.400



 107715249.005 8  83933985.076 8  20497518.620                    20497515.900
                                        49.150          49.650



 116412508.326 7  90711065.323 7  22152559.260                    22152559.200
                                        47.100          45.850



 114024292.445 8  88850121.691 7  21698092.220                    21698091.660
                                        48.100          47.550



 115937309.153 7  90340757.291 7  22062133.160                    22062129.620
                                        47.850          45.400



 112847418.168 7  87933050.91147  21474144.200                    21474138.520
                                        46.100          45.100



 121293351.406 7  94514309.872 7  23081349.460                    23081346.300
                                        46.800          42.950



 23  8 28 11 47  0.0000000  0  8G02G03G04G06G09G17G19G31
 129238863.241 7 100705565.35846  24593354.660                    24593353.460
                                        42.700          37.550



 109243569.365 8  85124867.498 7  20788352.560                    20788350.880
                                        50.050          47.000



 107682501.996 8  83908467.937 8  20491287.100                    20491284.340
                                        49.250          49.650



 116328593.773 7  90645677.384 7  22136590.840                    22136590.760
                                        47.300          45.750



 113940000.606 8  88784439.780 7  21682052.000                    21682051.380
                                        48.400          47.500



 115993576.541 8  90384601.942 7  22072840.540                    22072837.020
                                        48.100          43.600



 112866410.915 7  87947850.42147  21477758.380                    21477752.800
                                        47.750          44.100



 121299981.495 7  94519476.196 7  23082611.120                    23082607.960
                                        46.900          42.750



 23  8 28 11 47 30.0000000  0  8G02G03G04G06G09G17G19G31
 129339717.425 6 100784152.81646  24612546.720                    24612545.580
                                        40.000          37.800



 109292516.575 8  85163008.166 7  20797666.920                    20797665.220
                                        49.750          47.100



 107650291.435 8  83883368.811 8  20485157.640                    20485154.880
                                        48.950          49.750



 116244945.729 7  90580497.127 7  22120673.120                    22120673.020
                                        47.350          45.900



 113856078.707 8  88719046.156 7  21666082.160                    21666081.500
                                        48.350          47.900



 116050296.225 7  90428799.027 7  22083634.000                    22083630.480
                                        47.800          44.150



 112886059.965 7  87963161.37547  21481497.420                    21481491.920
                                        46.800          44.200



 121307239.206 7  94525131.573 7  23083992.220                    23083989.080
                                        46.650          43.250



 23  8 28 11 48  0.0000000  0  8G02G03G04G06G09G17G19G31
 129440710.883 6 100862848.74245  24631765.300                    24631764.260
                                        40.500          34.800



 109341780.310 8  85201395.471 7  20807041.500                    20807039.780
                                        49.750          47.200



 107618624.097 8  83858692.979 8  20479131.540                    20479128.800
                                        49.150          49.600



 116161572.804 7  90515531.239 7  22104807.760                    22104807.660
                                        47.650          45.800



 113772534.846 8  88653947.105 8  21650184.260                    21650183.560
                                        48.450          48.100



 116107472.159 7  90473351.659 7  22094514.260                    22094510.720
                                        47.300          43.650



 112906370.950 7  87978988.07647  21485362.440                    21485357.040
                                        47.650          43.700



 121315130.858 7  94531280.929 7  23085493.940                    23085490.820
                                        46.800          43.550



 23  8 28 11 48 30.0000000  0  8G02G03G04G06G09G17G19G31
 129541833.118 6 100941645.07446  24651008.320                    24651007.380
                                        40.800          36.800



 109391350.642 8  85240021.689 7  20816474.440                    20816472.700
                                        49.550          47.150



 107587491.502 8  83834433.828 8  20473207.200                    20473204.460
                                        49.150          49.600



 116078468.218 8  90450774.473 7  22088993.440                    22088993.300
                                        48.050          46.000



 113689361.766 8  88589136.966 8  21634356.900                    21634356.220
                                        48.500          48.350



 116165093.489 7  90518251.344 7  22105479.280                    22105475.720
                                        46.800          44.300



 112927333.899 7  87995322.84847  21489351.520                    21489346.160
                                        47.150          45.350



 121323647.523 7  94537917.324 7  23087114.580                    23087111.500
                                        46.700          43.500



 23  8 28 11 49  0.0000000  0  8G02G03G04G06G09G17G19G31
 129643089.537 6 101020545.93746  24670276.900                    24670276.020
                                        38.750          38.000



 109441233.446 8  85278891.382 7  20825966.820                    20825965.100
                                        49.600          46.850



 107556900.842 8  83810596.971 8  20467385.980                    20467383.220
                                        48.950          49.350



 115995641.011 8  90386233.829 7  22073231.940                    22073231.760
                                        48.200          46.050



 113606567.902 8  88524622.326 7  21618601.720                    21618601.020
                                        48.350          47.700



 116223164.587 7  90563501.482 7  22116529.880                    22116526.340
                                        46.050          45.250



 112948954.573 7  88012170.06947  21493465.820                    21493460.500
                                        47.100          44.350



 121332795.978 7  94545046.029 7  23088855.460                    23088852.400
                                        46.900          42.800



 23  8 28 11 49 30.0000000  0  8G02G03G04G06G09G17G19G31
 129744475.607 6 101099547.82545  24689570.140                    24689569.340
                                        38.350          35.000



 109491424.855 8  85318001.560 7  20835517.920                    20835516.200
                                        49.250          47.200



 107526849.548 8  83787180.399 8  20461667.400                    20461664.640
                                        48.700          49.450



 115913090.468 7  90321908.778 7  22057523.100                    22057522.840
                                        47.800          46.300



 113524151.998 7  88460402.200 7  21602918.460                    21602917.760
                                        47.650          47.800



 116281680.355 7  90609098.111 7  22127665.080                    22127661.620
                                        46.700          45.250



 112971228.992 7  88029526.74747  21497704.460                    21497699.220
                                        47.700          44.300



 121342572.979 7  94552664.500 7  23090715.940                    23090712.900
                                        46.300          42.750



 23  8 28 11 50  0.0000000  0  8G02G03G04G06G09G17G19G31
 129845989.957 6 101178649.66646  24708887.800                    24708887.060
                                        39.150          37.950



 109541924.547 8  85357351.944 7  20845127.680                    20845126.000
                                        49.150          47.400



 107497338.604 8  83764184.866 8  20456051.620                    20456048.880
                                        48.750          49.400



 115830819.456 7  90257801.518 7  22041867.460                    22041867.140
                                        47.850          46.450



 113442116.364 7  88396478.361 7  21587307.540                    21587306.880
                                        47.950          47.300



 116340639.746 7  90655040.396 7  22138884.720                    22138881.360
                                        47.350          45.400



 112994156.549 8  88047392.34547  21502067.440                    21502062.220
                                        48.300          43.700



 121352979.253 7  94560773.295 7  23092696.200                    23092693.160
                                        46.700          42.700



 23  8 28 11 50 30.0000000  0  8G02G03G04G06G09G17G19G31
 129947632.120 6 101257851.08546  24728229.800                    24728229.140
                                        38.750          36.800



 109592732.175 8  85396942.292 7  20854796.020                    20854794.380
                                        49.250          47.300



 107468368.952 8  83741611.134 8  20450538.840                    20450536.100
                                        48.650          49.300



 115748830.705 7  90193914.219 7  22026265.520                    22026265.160
                                        47.550          46.500



 113360463.169 8  88332852.535 7  21571769.400                    21571768.740
                                        48.400          47.400



 116400040.683 7  90701326.758 7  22150188.380                    22150185.100
                                        47.150          44.350



 113017736.792 8  88065766.56647  21506554.600                    21506549.380
                                        48.250          43.750



 121364015.276 7  94569372.794 7  23094796.300                    23094793.260
                                        46.750          42.650



 23  8 28 11 51  0.0000000  0  8G02G03G04G06G09G17G19G31
 130049400.593 6 101337150.84846  24747595.900                    24747595.360
                                        39.700          37.500



 109643847.177 8  85436772.154 7  20864522.860                    20864521.260
                                        49.350          47.400



 107439941.244 8  83719459.687 8  20445129.200                    20445126.480
                                        48.900          49.300



 115667126.896 7  90130248.933 7  22010717.800                    22010717.420
                                        47.850          46.900



 113279194.429 8  88269526.289 7  21556304.420                    21556303.760
                                        48.800          47.000



 116459881.427 7  90747955.842 7  22161575.740                    22161572.520
                                        47.500          43.850



 113041969.035 7  88084648.79647  21511165.900                    21511160.660
                                        47.750          44.550



 121375681.153 7  94578463.102 7  23097016.240                    23097013.200
                                        46.200          42.300



 23  8 28 11 51 30.0000000  0  8G02G03G04G06G09G17G19G31
 130151295.370 6 101416549.10446  24766986.020                    24766985.580
                                        41.000          40.100



 109695270.098 8  85476841.944 7  20874308.320                    20874306.740
                                        49.600          47.150



 107412057.298 8  83697731.953 8  20439823.040                    20439820.320
                                        49.000          49.400



 115585711.661 8  90066808.534 7  21995224.960                    21995224.580
                                        48.050          46.850



 113198313.243 8  88206502.037 7  21540913.220                    21540912.520
                                        48.550          46.950



 116520161.432 7  90794927.248 7  22173046.660                    22173043.440
                                        47.700          43.800



 113066853.659 7  88104039.40447  21515901.320                    21515896.060
                                        47.850          43.950



 121387978.101 7  94588045.154 7  23099356.280                    23099353.220
                                        45.900          42.450



 23  8 28 11 52  0.0000000  0  8G02G03G04G06G09G17G19G31
 130253311.300 6 101496041.72146  24786399.240                    24786398.900
                                        41.650          39.550



 109746996.544 8  85517148.250 7  20884151.540                    20884149.960
                                        49.650          47.200



 107384713.942 8  83676425.459 8  20434619.760                    20434617.020
                                        49.350          49.750



 115504583.840 8  90003592.075 7  21979786.820                    21979786.460
                                        48.400          47.250



 113117817.786 8  88143778.346 7  21525595.420                    21525594.680
                                        48.450          47.250



 116580875.167 8  90842236.604 7  22184600.160                    22184596.900
                                        48.600          43.100



 113092385.856 7  88123934.59647  21520759.960                    21520754.720
                                        47.850          43.650



 121400902.425 7  94598116.072 7  23101815.660                    23101812.600
                                        46.000          42.000



 23  8 28 11 52 30.0000000  0  8G02G03G04G06G09G17G19G31
 130355448.603 6 101575628.91346  24805835.580                    24805835.300
                                        41.700          36.950



 109799027.462 8  85557691.798 7  20894052.700                    20894051.120
                                        49.600          47.300



 107357913.298 8  83655541.853 8  20429519.760                    20429517.020
                                        48.900          49.850



 115423747.516 7  89940602.780 7  21964404.140                    21964403.780
                                        47.900          47.550



 113037711.526 8  88081357.910 7  21510351.680                    21510350.900
                                        48.000          47.150



 116642022.628 8  90889883.890 7  22196236.220                    22196232.920
                                        48.250          43.650



 113118566.332 7  88144334.94347  21525741.960                    21525736.740
                                        47.750          43.950



 121414455.850 7  94608677.176 6  23104394.800                    23104391.720
                                        45.950          41.600



 23  8 28 11 53  0.0000000  0  8G02G03G04G06G09G17G19G31
 130457705.159 6 101655309.04746  24825294.620                    24825294.400
                                        41.800          38.950



 109851361.202 8  85598471.321 7  20904011.500                    20904009.900
                                        49.600          47.250



 107331654.940 8  83635080.823 8  20424522.940                    20424520.180
                                        48.950          49.650



 115343204.194 8  89877841.791 7  21949077.200                    21949076.880
                                        48.100          46.800



 112957995.342 8  88019241.450 7  21495182.160                    21495181.340
                                        48.300          47.500



 116703599.859 7  90937866.083 7  22207954.080                    22207950.720
                                        47.850          43.300



 113145393.201 8  88165238.96847  21530846.960                    21530841.740
                                        48.050          43.100



 121428637.409 7  94619727.746 6  23107093.440                    23107090.360
                                        46.000          41.150



 23  8 28 11 53 30.0000000  0  8G02G03G04G06G09G17G19G31
 130560078.967 6 101735080.49546  24844776.020                    24844775.840
                                        41.450          37.800



 109903996.504 8  85639485.819 7  20914027.700                    20914026.100
                                        49.400          47.700



 107305938.693 8  83615042.205 8  20419629.280                    20419626.540
                                        48.850          49.700



 115262955.801 7  89815310.623 7  21933806.400                    21933806.080
                                        47.850          46.950



 112878670.474 8  87957429.930 7  21480087.100                    21480086.240
                                        48.800          47.700



 116765604.540 8  90986181.364 7  22219753.260                    22219749.840
                                        48.000          43.600



 113172864.640 7  88186645.27447  21536074.600                    21536069.360
                                        47.900          43.900



 121443446.357 7  94631267.190 6  23109911.480                    23109908.360
                                        46.250          41.550



 23  8 28 11 54  0.0000000  0  8G02G03G04G06G09G17G19G31
 130662569.595 6 101814942.99545  24864279.640                    24864279.480
                                        40.750          35.950



 109956933.637 8  85680735.509 7  20924101.320                    20924099.720
                                        49.400          47.650



 107280766.056 8  83595427.180 8  20414839.060                    20414836.340
                                        49.000          49.550



 115183005.831 8  89753011.990 7  21918592.380                    21918592.080
                                        48.200          46.750



 112799739.770 8  87895925.520 8  21465067.080                    21465066.160
                                        49.100          48.250



 116828036.017 7  91034829.198 7  22231633.660                    22231630.200
                                        47.550          42.550



 113200980.793 8  88208553.92547  21541424.960                    21541419.720
                                        48.300          43.550



 121458883.848 7  94643296.396 6  23112849.140                    23112846.000
                                        46.050          41.200



 23  8 28 11 54 30.0000000  0  7G03G04G06G09G17G19G31
 110010180.290 8  85722226.364 7  20934233.860                    20934232.280
                                        49.400          47.700



 107256145.784 8  83576242.559 8  20410153.960                    20410151.260
                                        49.400          49.700



 115103365.080 8  89690954.294 7  21903437.220                    21903436.900
                                        48.450          46.550



 112721213.328 8  87834736.139 7  21450124.000                    21450123.000
                                        48.900          47.950



 116890900.506 7  91083814.483 6  22243596.420                    22243592.900
                                        47.450          41.450



 113229748.920 8  88230970.61747  21546899.400                    21546894.140
                                        48.650          43.800



 121474957.977 7  94655821.689 6  23115907.940                    23115904.800
                                        46.300          41.750



 23  8 28 11 55  0.0000000  0  7G03G04G06G09G17G19G31
 110063718.935 8  85763944.760 7  20944421.940                    20944420.380
                                        49.200          47.600



 107232061.481 8  83557475.590 8  20405570.840                    20405568.160
                                        49.350          49.650



 115024019.202 8  89629126.387 7  21888338.180                    21888337.800
                                        48.700          45.250



 112643076.116 8  87773850.059 7  21435254.980                    21435253.920
                                        49.000          47.800



 116954179.168 7  91133122.483 7  22255638.000                    22255634.420
                                        46.650          42.400



 113259151.056 8  88253881.32347  21552494.500                    21552489.240
                                        48.450          43.850



 121491651.793 7  94668829.851 6  23119084.640                    23119081.520
                                        46.050          41.550



 23  8 28 11 55 30.0000000  0  7G03G04G06G09G17G19G31
 110117557.436 8  85805896.806 7  20954667.080                    20954665.560
                                        49.250          47.650



 107208522.062 8  83539133.200 8  20401091.440                    20401088.740
                                        49.350          49.650



 114944979.207 8  89567536.797 7  21873297.360                    21873296.920
                                        48.900          45.150



 112565338.463 8  87713275.320 8  21420462.000                    21420460.860
                                        49.350          48.350



 117017878.446 7  91182758.263 7  22267759.600                    22267755.960
                                        46.200          42.800



 113289194.422 8  88277291.71447  21558211.620                    21558206.360
                                        48.950          43.300



 121508973.562 7  94682327.343 6  23122380.840                    23122377.720
                                        45.700          41.850



 23  8 28 11 56  0.0000000  0  7G03G04G06G09G17G19G31
 110171695.513 8  85848082.296 7  20964969.220                    20964967.720
                                        49.000          47.100



 107185528.360 8  83521216.048 8  20396715.880                    20396713.180
                                        49.150          49.100



 114866248.050 8  89506187.886 7  21858315.320                    21858314.740
                                        48.450          44.650



 112488002.624 8  87653013.680 7  21405745.500                    21405744.280
                                        49.200          47.850



 117081996.815 7  91232720.526 7  22279960.980                    22279957.340
                                        45.250          43.200



 113319878.433 7  88301201.30647  21564050.660                    21564045.360
                                        47.900          43.650



 121526923.551 7  94696314.346 6  23125796.580                    23125793.480
                                        45.400          41.350



 23  8 28 11 56 30.0000000  0  7G03G04G06G09G17G19G31
 110226131.621 8  85890500.016 7  20975328.100                    20975326.580
                                        49.100          46.800



 107163079.831 8  83503723.694 8  20392444.080                    20392441.340
                                        49.150          48.850



 114787827.316 8  89445080.845 7  21843392.340                    21843391.640
                                        48.650          44.750



 112411069.417 8  87593065.765 8  21391105.620                    21391104.320
                                        49.200          48.100



 117146530.905 7  91283006.740 7  22292241.420                    22292237.840
                                        45.350          43.750



 113351200.916 8  88325608.40147  21570011.180                    21570005.860
                                        48.150          43.100



 121545500.575 7  94710789.930 7  23129331.640                    23129328.580
                                        45.250          42.250



 23  8 28 11 57  0.0000000  0  7G03G04G06G09G17G19G31
 110280860.855 8  85933146.158 7  20985742.720                    20985741.200
                                        48.950          46.950



 107141172.603 8  83486653.138 8  20388275.280                    20388272.480
                                        49.250          49.300



 114709715.286 8  89384214.359 7  21828528.120                    21828527.280
                                        48.700          45.850



 112334536.412 8  87533429.699 8  21376541.900                    21376540.520
                                        49.300          48.650



 117211474.559 7  91333612.119 7  22304599.780                    22304596.280
                                        46.050          44.200



 113383156.440 8  88350508.78547  21576092.180                    21576086.800
                                        48.550          43.050



 121564700.296 7  94725750.752 6  23132985.180                    23132982.180
                                        45.000          41.850



 23  8 28 11 57 30.0000000  0  7G03G04G06G09G17G19G31
 110335883.081 8  85976020.591 7  20996213.120                    20996211.580
                                        48.850          47.200



 107119807.541 8  83470005.061 8  20384209.620                    20384206.780
                                        49.200          49.550



 114631915.030 8  89323590.810 7  21813723.220                    21813722.280
                                        48.650          46.200



 112258405.909 8  87474107.284 8  21362054.760                    21362053.320
                                        49.200          48.450



 117276826.267 7  91384535.440 7  22317035.800                    22317032.380
                                        46.850          43.900



 113415744.161 8  88375901.80147  21582293.460                    21582288.020
                                        48.300          42.850



 121584523.165 7  94741197.139 6  23136757.300                    23136754.360
                                        45.850          41.750



 23  8 28 11 58  0.0000000  0  7G03G04G06G09G17G19G31
 110391198.867 8  86019123.768 7  21006739.380                    21006737.840
                                        48.950          47.700



 107098986.192 8  83453780.660 8  20380247.440                    20380244.560
                                        49.250          49.750



 114554430.286 8  89263213.114 7  21798978.360                    21798977.340
                                        49.200          46.950



 112182680.854 8  87415100.802 8  21347644.740                    21347643.300
                                        48.750          48.400



 117342585.177 7  91435776.104 7  22329549.320                    22329545.940
                                        47.050          43.700



 113448964.419 8  88401787.68847  21588615.120                    21588609.620
                                        48.350          42.850



 121604969.693 7  94757129.493 6  23140648.120                    23140645.220
                                        45.800          41.700



 23  8 28 11 58 30.0000000  0  7G03G04G06G09G17G19G31
 110446809.938 8  86062457.044 7  21017321.820                    21017320.300
                                        48.950          47.850



 107078711.285 8  83437982.051 8  20376389.220                    20376386.360
                                        49.200          49.650



 114477265.989 8  89203085.121 7  21784294.480                    21784293.420
                                        48.750          47.500



 112107365.402 8  87356413.480 8  21333312.640                    21333311.220
                                        48.300          48.400



 117408752.054 7  91487334.650 7  22342140.480                    22342137.160
                                        46.900          43.800



 113482818.217 8  88428167.23247  21595057.340                    21595051.780
                                        48.500          43.400



 121626042.028 7  94773549.466 6  23144658.060                    23144655.200
                                        45.550          41.150



 23  8 28 11 59  0.0000000  0  7G03G04G06G09G17G19G31
 110502714.684 8  86106019.149 8  21027960.160                    21027958.660
                                        49.100          48.000



 107058982.132 8  83422608.700 8  20372634.860                    20372632.020
                                        49.400          49.600



 114400423.655 8  89143208.022 7  21769671.820                    21769670.780
                                        48.600          46.950



 112032460.339 8  87298045.962 8  21319058.600                    21319057.220
                                        48.200          48.650



 117475323.216 7  91539208.217 7  22354808.600                    22354805.300
                                        46.550          44.150



 113517303.142 7  88455038.55747  21601619.660                    21601614.060
                                        47.900          43.350



 121647739.174 7  94790456.314 6  23148786.860                    23148784.040
                                        44.850          40.900



 23  8 28 11 59 30.0000000  0  7G03G04G06G09G17G19G31
 110558912.935 8  86149809.961 7  21038654.340                    21038652.900
                                        49.400          47.950



 107039799.492 8  83407661.209 8  20368984.520                    20368981.660
                                        49.500          49.750



 114323906.287 8  89083584.116 7  21755111.040                    21755110.000
                                        48.450          46.750



 111957967.833 8  87239999.899 7  21304883.040                    21304881.740
                                        48.100          47.900



 117542297.017 7  91591395.521 7  22367553.340                    22367550.100
                                        46.550          43.550



 113552418.340 7  88482401.02947  21608301.880                    21608296.260
                                        47.850          43.850



 121670061.251 7  94807850.105 6  23153034.620                    23153031.800
                                        45.900          40.800



                            4  1
RINEX FILE SPLICE; other post-header comments skipped       COMMENT
 23  8 28 12  0  0.0000000  0  7G03G04G06G09G17G19G31
 110615401.760 8  86193827.217 7  21049403.820                    21049402.400
                                        49.300          47.850



 107021161.379 8  83393138.022 8  20365437.800                    20365434.940
                                        49.300          49.750



 114247714.192 8  89024213.681 7  21740612.120                    21740611.100
                                        48.700          46.750



 111883887.375 8  87182274.908 8  21290785.920                    21290784.660
                                        48.450          48.250



 117609669.367 7  91643893.383 7  22380373.940                    22380370.720
                                        47.100          43.950



 113588160.274 7  88510251.84847  21615103.380                    21615097.760
                                        47.700          43.650



 121693005.458 7  94825728.678 6  23157400.780                    23157397.940
                                        45.800          41.300



 23  8 28 12  0 30.0000000  0  7G03G04G06G09G17G19G31
 110672182.006 8  86238071.544 7  21060208.760                    21060207.360
                                        49.150          47.500



 107003069.448 8  83379040.430 8  20361995.040                    20361992.140
                                        49.100          49.600



 114171851.329 8  88965099.792 7  21726175.860                    21726174.840
                                        48.550          47.000



 111810222.130 8  87124873.449 8  21276767.800                    21276766.580
                                        48.850          48.400



 117677439.148 7  91696700.912 7  22393270.200                    22393267.000
                                        46.700          43.400



 113624529.037 8  88538591.10147  21622024.160                    21622018.560
                                        48.100          43.050



 121716572.910 7  94844092.918 6  23161885.520                    23161882.660
                                        45.900          41.150



 23  8 28 12  1  0.0000000  0  7G03G04G06G09G17G19G31
 110729252.868 8  86282542.339 7  21071069.000                    21071067.620
                                        49.250          47.100



 106985523.797 8  83365368.512 8  20358656.200                    20358653.300
                                        49.050          49.750



 114096320.115 8  88906244.332 7  21711802.720                    21711801.700
                                        49.150          47.050



 111736973.649 8  87067796.770 8  21262829.000                    21262827.820
                                        48.900          48.350



 117745604.281 7  91749816.497 7  22406241.660                    22406238.520
                                        46.150          44.150



 113661523.081 8  88567417.60447  21629063.920                    21629058.320
                                        48.150          43.750



 121740762.916 7  94862942.254 6  23166488.760                    23166485.860
                                        45.750          40.900



 23  8 28 12  1 30.0000000  0  7G03G04G06G09G17G19G31
 110786606.911 8  86327233.787 7  21081983.120                    21081981.760
                                        49.050          47.350



 106968517.895 8  83352117.170 8  20355420.060                    20355417.160
                                        48.900          49.700



 114021116.283 8  88847643.975 7  21697491.880                    21697490.860
                                        48.850          47.200



 111664136.813 8  87011040.843 8  21248968.540                    21248967.380
                                        48.800          48.200



 117814156.024 7  91803233.377 7  22419286.680                    22419283.560
                                        46.300          43.600



 113699134.098 7  88596724.85747  21636221.080                    21636215.500
                                        47.800          43.950



 121765568.591 7  94882271.331 6  23171209.160                    23171206.220
                                        45.700          41.000



 23  8 28 12  2  0.0000000  0  7G03G04G06G09G17G19G31
 110844245.890 8  86372147.255 7  21092951.480                    21092950.120
                                        49.250          47.950



 106952054.265 8  83339288.378 8  20352287.120                    20352284.220
                                        49.100          49.750



 113946244.802 8  88789302.578 7  21683244.300                    21683243.280
                                        48.850          47.200



 111591715.679 8  86954608.836 7  21235187.220                    21235186.040
                                        49.250          47.600



 117883094.425 7  91856951.542 7  22432405.260                    22432402.180
                                        47.100          42.950



 113737362.883 7  88626513.46647  21643495.840                    21643490.280
                                        47.750          43.550



 121790991.309 7  94902081.236 6  23176046.980                    23176043.980
                                        46.050          41.100



 23  8 28 12  2 30.0000000  0  7G03G04G06G09G17G19G31
 110902172.136 8  86417284.570 8  21103974.500                    21103973.180
                                        49.400          48.150



 106936136.054 8  83326884.601 8  20349257.960                    20349255.060
                                        49.200          49.700



 113871711.110 8  88731224.408 7  21669061.000                    21669059.960
                                        48.800          47.550



 111519714.925 8  86898504.386 7  21221485.900                    21221484.680
                                        49.550          47.900



 117952420.080 7  91910971.453 7  22445597.580                    22445594.500
                                        47.950          43.100



 113776211.290 7  88656784.93547  21650888.460                    21650882.900
                                        47.400          43.400



 121817033.896 7  94922374.138 6  23181002.760                    23180999.720
                                        46.150          41.000



 23  8 28 12  3  0.0000000  0  7G03G04G06G09G17G19G31
 110960386.170 8  86462646.135 8  21115052.280                    21115051.020
                                        49.350          48.450



 106920764.591 8  83314906.869 8  20346332.840                    20346329.940
                                        49.350          49.850



 113797518.959 8  88673412.380 7  21654942.660                    21654941.620
                                        48.650          47.400



 111448137.351 8  86842729.694 8  21207865.140                    21207863.840
                                        49.250          48.450



 118022132.117 7  91965292.448 7  22458863.420                    22458860.340
                                        47.550          43.750



 113815678.829 7  88687538.84147  21658398.880                    21658393.340
                                        47.550          44.200



 121843697.013 7  94943150.572 6  23186076.620                    23186073.540
                                        46.150          41.100



 23  8 28 12  3 30.0000000  0  7G03G04G06G09G17G19G31
 111018884.377 8  86508229.121 8  21126184.160                    21126182.960
                                        49.750          48.250



 106905936.994 8  83303352.918 8  20343511.220                    20343508.320
                                        49.650          49.850



 113723667.883 8  88615866.116 7  21640889.220                    21640888.200
                                        48.950          47.300



 111376981.609 8  86787283.711 8  21194324.660                    21194323.300
                                        49.650          48.450



 118092225.485 7  92019910.563 7  22472201.860                    22472198.780
                                        47.650          43.800



 113855761.158 7  88718771.78147  21666026.320                    21666020.820
                                        47.800          44.150



 121870976.796 7  94964407.527 6  23191267.820                    23191264.700
                                        46.400          41.550



 23  8 28 12  4  0.0000000  0  7G03G04G06G09G17G19G31
 111077667.337 8  86554034.005 7  21137370.220                    21137369.060
                                        49.400          47.600



 106891654.669 8  83292223.862 8  20340793.380                    20340790.460
                                        49.500          49.900



 113650161.674 8  88558588.581 7  21626901.420                    21626900.420
                                        48.650          47.350



 111306250.623 8  86732168.690 8  21180865.020                    21180863.600
                                        49.600          48.200



 118162699.050 7  92074824.931 7  22485612.660                    22485609.540
                                        47.300          43.400



 113896457.750 8  88750483.37947  21673770.620                    21673765.160
                                        48.250          43.900



 121898874.153 7  94986145.713 6  23196576.520                    23196573.400
                                        46.350          41.600



 23  8 28 12  4 30.0000000  0  7G03G04G06G09G17G19G31
 111136733.524 8  86600059.563 7  21148610.200                    21148609.060
                                        49.450          47.350



 106877916.777 8  83281519.023 8  20338179.160                    20338176.200
                                        49.150          50.000



 113577001.987 8  88501581.052 7  21612979.560                    21612978.580
                                        48.900          47.100



 111235945.028 8  86677385.131 8  21167486.340                    21167484.860
                                        48.900          48.350



 118233549.564 7  92130033.040 7  22499095.180                    22499092.020
                                        47.850          42.950



 113937766.010 7  88782671.59547  21681631.340                    21681625.900
                                        47.050          43.700



 121927387.452 7  95008363.842 7  23202002.440                    23201999.320
                                        46.800          42.300



 23  8 28 12  5  0.0000000  0  7G03G04G06G09G17G19G31
 111196080.899 8  86646304.240 7  21159903.680                    21159902.520
                                        49.550          46.900



 106864722.021 8  83271237.410 8  20335668.280                    20335665.320
                                        49.100          50.150



 113504189.944 8  88444844.409 7  21599123.880                    21599122.900
                                        49.200          46.900



 111166065.045 8  86622933.252 8  21154188.600                    21154187.080
                                        48.850          48.550



 118304773.669 7  92185532.267 7  22512648.780                    22512645.560
                                        47.900          42.600



 113979682.895 7  88815334.06347  21689607.860                    21689602.460
                                        47.100          43.550



 121956514.758 7  95031060.415 7  23207545.220                    23207542.100
                                        46.850          42.650



 23  8 28 12  5 30.0000000  0  7G03G04G06G09G17G19G31
 111255710.312 8  86692768.685 7  21171250.820                    21171249.640
                                        49.250          46.500



 106852071.950 8  83261380.216 8  20333261.060                    20333258.100
                                        49.400          50.000



 113431729.569 8  88388381.799 7  21585335.120                    21585334.140
                                        49.000          47.200



 111096613.808 8  86568815.450 8  21140972.420                    21140970.900
                                        49.000          48.400



 118376370.195 7  92241321.684 7  22526273.260                    22526270.000
                                        46.900          42.800



 114022208.618 7  88848470.95147  21697700.240                    21697694.880
                                        47.750          43.200



 121986256.945 7  95054236.135 7  23213204.980                    23213201.900
                                        46.500          42.650



 23  8 28 12  6  0.0000000  0  7G03G04G06G09G17G19G31
 111315619.505 8  86739451.153 7  21182651.180                    21182649.980
                                        49.150          46.250



 106839964.921 8  83251946.179 8  20330957.160                    20330954.220
                                        49.150          49.900



 113359621.735 8  88332193.922 7  21571613.420                    21571612.420
                                        48.550          47.050



 111027591.274 8  86515031.688 8  21127837.840                    21127836.320
                                        48.800          48.150



 118448335.757 7  92297398.704 7  22539967.900                    22539964.620
                                        45.950          42.450



 114065339.485 7  88882079.40247  21705907.760                    21705902.420
                                        47.100          44.050



 122016611.733 7  95077889.196 7  23218981.320                    23218978.280
                                        46.100          42.000



 23  8 28 12  6 30.0000000  0  7G03G04G06G09G17G19G31
 111375812.106 8  86786354.448 7  21194105.480                    21194104.240
                                        49.150          46.300



 106828405.280 8  83242938.667 8  20328757.440                    20328754.500
                                        49.200          49.850



 113287873.251 8  88276286.043 7  21557960.100                    21557959.120
                                        48.800          47.100



 110959003.224 8  86461586.462 8  21114785.920                    21114784.420
                                        48.700          48.350



 118520671.909 7  92353764.452 7  22553733.080                    22553729.800
                                        44.950          42.400



 114109078.364 8  88916161.62047  21714230.980                    21714225.680
                                        48.000          43.200



 122047582.410 7  95102022.155 6  23224874.860                    23224871.880
                                        46.700          41.650



 23  8 28 12  7  0.0000000  0  7G03G04G06G09G17G19G31
 111436280.756 8  86833472.846 7  21205612.320                    21205611.040
                                        49.300          46.400



 106817386.257 8  83234352.433 8  20326660.580                    20326657.640
                                        49.250          49.700



 113216479.919 8  88220654.912 7  21544374.360                    21544373.380
                                        48.650          47.500



 110890844.484 8  86408475.797 8  21101815.680                    21101814.180
                                        48.900          48.800



 118593369.872 7  92410412.136 7  22567567.060                    22567563.840
                                        44.750          42.850



 114153416.995 8  88950711.14947  21722668.380                    21722663.060
                                        48.300          42.750



 122079161.713 7  95126629.375 7  23230884.240                    23230881.280
                                        46.250          42.200



 23  8 28 12  7 30.0000000  0  7G03G04G06G09G17G19G31
 111497026.992 8  86880807.551 7  21217171.960                    21217170.640
                                        48.900          46.550



 106806910.054 8  83226189.175 8  20324667.000                    20324664.060
                                        49.400          49.750



 113145446.474 8  88165304.215 7  21530857.120                    21530856.140
                                        48.950          47.550



 110823118.821 8  86355702.611 8  21088927.840                    21088926.380
                                        49.150          48.950



 118666429.387 7  92467341.551 7  22581469.800                    22581466.680
                                        44.700          42.850



 114198355.449 7  88985728.11847  21731219.900                    21731214.540
                                        47.650          42.650



 122111350.923 7  95151711.848 7  23237009.660                    23237006.720
                                        46.400          42.400



 23  8 28 12  8  0.0000000  0  7G03G04G06G09G17G19G31
 111558047.713 8  86928356.123 7  21228783.840                    21228782.500
                                        49.050          46.050



 106796974.157 8  83218446.915 8  20322776.260                    20322773.320
                                        49.550          49.800



 113074772.945 8  88110233.957 7  21517408.360                    21517407.420
                                        49.150          47.550



 110755825.278 8  86303266.114 8  21076122.240                    21076120.820
                                        49.600          48.700



 118739845.798 7  92524549.070 7  22595440.460                    22595437.440
                                        45.250          42.950



 114243889.586 8  89021209.24147  21739884.780                    21739879.380
                                        48.300          42.550



 122144146.795 7  95177267.007 6  23243250.560                    23243247.660
                                        46.500          41.750



 23  8 28 12  8 30.0000000  0  7G03G04G06G09G17G19G31
 111619345.537 8  86976120.630 7  21240448.440                    21240447.080
                                        48.800          46.050



 106787581.732 8  83211128.163 8  20320988.940                    20320985.980
                                        49.350          49.850



 113004465.074 8  88055448.634 7  21504029.200                    21504028.260
                                        49.150          47.150



 110688968.583 8  86251170.029 8  21063399.800                    21063398.380
                                        49.350          48.650



 118813619.728 7  92582035.186 7  22609479.140                    22609476.220
                                        45.750          42.600



 114290020.754 7  89057155.58147  21748663.300                    21748657.860
                                        47.700          42.100



 122177551.792 7  95203296.848 6  23249607.340                    23249604.460
                                        46.200          41.850



 23  8 28 12  9  0.0000000  0  7G03G04G06G09G17G19G31
 111680918.101 8  87024099.218 7  21252165.300                    21252163.940
                                        48.550          46.450



 106778730.972 8  83204231.478 8  20319304.680                    20319301.720
                                        49.450          50.400



 112934523.697 8  88000948.892 7  21490719.780                    21490718.820
                                        49.000          47.700



 110622548.527 8  86199414.199 8  21050760.460                    21050759.040
                                        49.000          48.750



 118887747.392 7  92639796.933 7  22623585.160                    22623582.320
                                        45.800          42.300



 114336745.750 7  89093564.63647  21757554.800                    21757549.360
                                        46.700          44.400



 122211563.411 7  95229799.372 7  23256079.560                    23256076.700
                                        46.100          42.400



 23  8 28 12  9 30.0000000  0  7G03G04G06G09G17G19G31
 111742763.594 8  87072290.474 7  21263934.120                    21263932.740
                                        48.850          46.150



 106770420.657 8  83197755.915 8  20317723.280                    20317720.340
                                        49.950          50.300



 112864950.133 8  87946735.756 7  21477480.380                    21477479.400
                                        49.350          47.300



 110556565.427 8  86147998.837 8  21038204.260                    21038202.840
                                        49.400          48.250



 118962225.313 7  92697831.618 6  22637757.820                    22637755.060
                                        46.500          41.750



 114384061.327 7  89130433.87247  21766558.680                    21766553.260
                                        47.900          43.550



 122246179.678 7  95256773.055 7  23262666.840                    23262664.000
                                        46.750          42.700



 23  8 28 12 10  0.0000000  0  7G03G04G06G09G17G19G31
 111804881.674 8  87120694.154 7  21275754.780                    21275753.400
                                        48.900          46.000



 106762650.929 8  83191701.598 8  20316244.760                    20316241.800
                                        49.700          50.150



 112795747.180 8  87892811.412 7  21464311.480                    21464310.480
                                        49.050          47.900



 110491021.074 8  86096925.352 7  21025731.560                    21025730.120
                                        49.400          47.950



 119037051.350 7  92756137.554 6  22651996.740                    22651994.040
                                        46.550          41.700



 114431966.067 7  89167762.20847  21775674.660                    21775669.260
                                        47.650          43.650



 122281399.859 7  95284217.321 7  23269369.060                    23269366.200
                                        46.250          42.550



 23  8 28 12 10 30.0000000  0  7G03G04G06G09G17G19G31
 111867271.365 8  87169309.463 7  21287627.160                    21287625.780
                                        49.050          45.900



 106755421.356 8  83186068.173 8  20314869.020                    20314866.060
                                        49.700          50.150



 112726917.036 8  87839177.562 7  21451213.540                    21451212.520
                                        48.850          47.950



 110425916.598 8  86046194.614 8  21013342.580                    21013341.100
                                        49.500          48.350



 119112222.801 7  92814712.676 7  22666301.400                    22666298.700
                                        47.050          42.650



 114480457.648 7  89205547.83747  21784902.320                    21784896.940
                                        47.700          43.150



 122317222.637 7  95312131.162 6  23276185.940                    23276183.060
                                        45.950          41.350



 23  8 28 12 11  0.0000000  0  7G03G04G06G09G17G19G31
 111929932.140 8  87218136.014 7  21299551.140                    21299549.720
                                        49.050          46.000



 106748731.835 8  83180855.586 8  20313596.040                    20313593.080
                                        49.750          50.100



 112658462.322 8  87785836.251 7  21438187.060                    21438186.000
                                        49.100          47.950



 110361253.507 8  85995807.833 8  21001037.580                    21001036.080
                                        49.700          48.400



 119187737.477 7  92873555.202 7  22680671.420                    22680668.740
                                        47.500          43.150



 114529534.438 8  89243789.45747  21794241.340                    21794235.980
                                        48.250          43.350



 122353647.318 7  95340513.992 6  23283117.380                    23283114.460
                                        46.050          41.700



 23  8 28 12 11 30.0000000  0  7G03G04G06G09G17G19G31
 111992862.094 8  87267172.303 7  21311526.360                    21311524.880
                                        48.800          46.350



 106742581.008 8  83176062.754 8  20312425.580                    20312422.600
                                        49.600          50.300



 112590384.241 8  87732788.429 8  21425232.220                    21425231.160
                                        49.050          48.050



 110297032.026 8  85945765.149 8  20988816.640                    20988815.100
                                        49.600          48.850



 119263591.675 7  92932662.292 7  22695106.080                    22695103.400
                                        47.350          44.050



 114579193.041 7  89282484.42347  21803691.120                    21803685.760
                                        47.950          43.050



 122390671.610 7  95369364.063 6  23290162.900                    23290159.940
                                        45.400          41.950



 23  8 28 12 12  0.0000000  0  7G03G04G06G09G17G19G31
 112056065.525 8  87316421.695 7  21323553.620                    21323552.120
                                        48.550          46.200



 106736973.573 8  83171693.330 8  20311358.520                    20311355.540
                                        49.300          50.100



 112522690.296 8  87680039.912 7  21412350.480                    21412349.420
                                        48.950          47.700



 110233258.490 8  85896071.505 8  20976680.920                    20976679.400
                                        49.400          48.600



 119339787.903 7  92992035.900 7  22709605.820                    22709603.160
                                        47.300          44.000



 114629436.495 7  89321635.12047  21813252.180                    21813246.820
                                        47.300          43.700



 122428299.456 7  95398684.436 6  23297323.280                    23297320.280
                                        44.650          41.900



 23  8 28 12 12 30.0000000  0  7G03G04G06G09G17G19G31
 112119538.352 8  87365881.010 7  21335632.120                    21335630.600
                                        48.200          46.150



 106731905.869 8  83167744.492 8  20310394.140                    20310391.180
                                        49.600          49.900



 112455379.479 8  87627589.952 7  21399541.660                    21399540.600
                                        48.850          47.500



 110169930.858 8  85846725.323 8  20964630.060                    20964628.520
                                        49.650          48.450



 119416320.392 7  93051671.514 7  22724169.600                    22724166.940
                                        47.050          43.000



 114680259.360 7  89361237.29647  21822923.520                    21822918.160
                                        47.400          43.250



 122466526.379 7  95428471.622 7  23304597.620                    23304594.620
                                        45.250          42.050



 23  8 28 12 13  0.0000000  0  7G03G04G06G09G17G19G31
 112183278.314 8  87415548.480 7  21347761.460                    21347759.940
                                        48.200          46.250



 106727376.041 8  83164214.767 8  20309532.120                    20309529.160
                                        49.350          50.050



 112388452.690 8  87575439.225 7  21386805.900                    21386804.820
                                        48.650          47.400



 110107048.883 8  85797726.412 8  20952664.000                    20952662.460
                                        49.350          48.650



 119493185.089 7  93111566.003 7  22738796.560                    22738793.920
                                        46.800          42.800



 114731658.044 7  89401288.16247  21832704.400                    21832699.080
                                        47.050          43.550



 122505349.785 7  95458723.596 7  23311985.480                    23311982.480
                                        45.550          42.700



 23  8 28 12 13 30.0000000  0  7G03G04G06G09G17G19G31
 112247285.569 8  87465424.230 7  21359941.640                    21359940.140
                                        48.750          46.000



 106723384.660 8  83161104.606 8  20308772.580                    20308769.620
                                        49.700          49.800



 112321913.187 8  87523590.297 7  21374143.820                    21374142.740
                                        49.150          47.100



 110044614.729 8  85749076.453 8  20940783.140                    20940781.620
                                        49.400          48.400



 119570380.236 7  93171717.976 6  22753486.420                    22753483.760
                                        46.500          41.550



 114783631.296 8  89441786.74747  21842594.640                    21842589.320
                                        48.000          43.250



 122544769.212 7  95489440.005 7  23319486.760                    23319483.760
                                        45.550          42.250



 23  8 28 12 14  0.0000000  0  7G03G04G06G09G17G19G31
 112311559.377 8  87515507.686 7  21372172.560                    21372171.060
                                        48.900          45.650



 106719931.416 8  83158413.779 8  20308115.420                    20308112.480
                                        49.800          49.950



 112255763.394 8  87472045.038 7  21361555.900                    21361554.800
                                        49.250          47.250



 109982629.726 8  85700776.479 8  20928987.760                    20928986.240
                                        49.800          48.950



 119647903.399 7  93232125.552 7  22768238.700                    22768236.000
                                        46.700          42.650



 114836177.011 8  89482731.41047  21852593.800                    21852588.480
                                        48.400          42.550



 122584783.503 7  95520619.942 7  23327101.220                    23327098.240
                                        45.400          42.650



 23  8 28 12 14 30.0000000  0  7G03G04G06G09G17G19G31
 112376099.069 8  87565798.333 7  21384454.080                    21384452.560
                                        49.100          45.800



 106717015.902 8  83156141.962 8  20307560.620                    20307557.660
                                        49.950          49.900



 112190005.703 8  87420805.328 7  21349042.580                    21349041.460
                                        49.100          47.950



 109921095.118 8  85652827.473 8  20917278.080                    20917276.560
                                        49.750          49.200



 119725751.963 7  93292786.676 7  22783052.880                    22783050.180
                                        46.150          42.950



 114889293.007 8  89524120.43947  21862701.520                    21862696.160
                                        48.000          42.900



 122625391.724 7  95552262.679 7  23334828.720                    23334825.760
                                        45.100          42.950



 23  8 28 12 15  0.0000000  0  7G03G04G06G09G17G19G31
 112440902.697 8  87616294.634 7  21396785.840                    21396784.300
                                        48.450          45.600



 106714636.582 8  83154287.956 8  20307107.860                    20307104.860
                                        49.600          49.700



 112124641.315 8  87369872.086 7  21336604.120                    21336602.980
                                        48.650          47.850



 109860010.974 8  85605229.480 8  20905654.120                    20905652.600
                                        49.550          48.950



 119803922.520 7  93353698.706 7  22797928.340                    22797925.620
                                        46.000          43.000



 114942976.198 7  89565951.43147  21872917.180                    21872911.760
                                        47.850          42.600



 122666591.299 7  95584366.230 7  23342668.720                    23342665.800
                                        45.100          42.400



 23  8 28 12 15 30.0000000  0  7G03G04G06G09G17G19G31
 112505967.543 8  87666994.483 7  21409167.320                    21409165.760
                                        48.250          46.300



 106712791.045 8  83152849.880 8  20306756.680                    20306753.640
                                        49.350          49.900



 112059670.621 8  87319245.598 8  21324240.580                    21324239.460
                                        49.000          48.100



 109799376.507 8  85557981.884 8  20894115.740                    20894114.240
                                        49.650          48.950



 119882410.343 7  93414857.938 7  22812864.200                    22812861.480
                                        45.750          43.700



 114997221.995 7  89608220.79547  21883239.900                    21883234.480
                                        47.850          43.100



 122708378.824 7  95616927.925 7  23350620.620                    23350617.720
                                        45.450          43.050



 23  8 28 12 16  0.0000000  0  7G03G04G06G09G17G19G31
 112571296.278 8  87717899.969 7  21421598.980                    21421597.440
                                        48.350          46.500



 106711482.215 8  83151830.031 8  20306507.600                    20306504.540
                                        49.450          49.950



 111995099.357 8  87268930.370 7  21311953.040                    21311951.920
                                        49.050          47.850



 109739196.345 8  85511088.290 8  20882663.800                    20882662.300
                                        49.900          48.850



 119961216.208 7  93476265.015 7  22827860.540                    22827857.860
                                        45.750          43.150



 115052031.715 8  89650929.61947  21893669.900                    21893664.480
                                        48.250          42.600



 122750756.578 7  95649949.545 7  23358684.820                    23358681.980
                                        45.700          42.950



 23  8 28 12 16 30.0000000  0  7G03G04G06G09G17G19G31
 112636885.369 8  87769008.314 7  21434080.200                    21434078.680
                                        48.400          46.900



 106710706.864 8  83151225.871 8  20306360.040                    20306356.980
                                        49.600          49.950



 111930927.097 8  87218926.045 7  21299741.420                    21299740.320
                                        48.550          47.700



 109679468.871 8  85464547.444 8  20871298.020                    20871296.500
                                        49.950          48.800



 120040334.784 7  93537915.762 7  22842916.400                    22842913.740
                                        45.350          43.050



 115107400.319 7  89694073.92247  21904206.260                    21904200.820
                                        47.850          43.150



 122793720.392 7  95683427.828 7  23366860.580                    23366857.740
                                        45.600          42.900



 23  8 28 12 17  0.0000000  0  7G03G04G06G09G17G19G31
 112702742.238 8  87820325.304 7  21446612.380                    21446610.920
                                        48.250          46.850



 106710472.691 8  83151043.407 8  20306315.460                    20306312.400
                                        49.650          49.850



 111867164.357 8  87169240.821 7  21287607.720                    21287606.660
                                        48.800          47.600



 109620203.427 8  85418366.621 8  20860020.180                    20860018.620
                                        50.300          48.700



 120119771.690 7  93599814.567 7  22858032.800                    22858030.180
                                        46.600          42.650



 115163333.661 8  89737658.32447  21914850.060                    21914844.600
                                        48.200          42.200



 122837277.040 7  95717368.061 6  23375149.140                    23375146.320
                                        45.600          41.950



 23  8 28 12 17 30.0000000  0  7G03G04G06G09G17G19G31
 112768851.809 8  87871839.204 7  21459192.640                    21459191.240
                                        48.000          47.050



 106710764.864 8  83151271.084 8  20306371.040                    20306368.000
                                        49.650          49.900



 111803799.165 8  87119865.374 7  21275549.680                    21275548.640
                                        49.050          47.700



 109561386.865 8  85372535.563 8  20848827.760                    20848826.180
                                        50.250          48.800



 120199510.021 7  93661948.265 7  22873206.560                    22873203.960
                                        46.250          43.000



 115219815.321 7  89781669.95447  21925598.240                    21925592.760
                                        47.700          43.100



 122881410.854 7  95751758.043 7  23383547.540                    23383544.720
                                        45.000          42.800



 23  8 28 12 18  0.0000000  0  8G03G04G06G09G11G17G19G31
 112835227.708 7  87923560.648 7  21471823.560                    21471822.220
                                        47.900          47.500



 106711597.198 8  83151919.667 8  20306529.420                    20306526.360
                                        49.250          50.100



 111740848.207 8  87070812.704 7  21263570.460                    21263569.440
                                        48.900          47.850



 109503034.652 8  85327066.339 8  20837723.700                    20837722.080
                                        49.900          48.950



 130349734.275 6 101571218.395 7  24804730.100                    24804729.720
                                        39.400          44.700



 120279561.238 7  93724325.746 7  22888439.880                    22888437.320
                                        46.350          44.050



 115276856.941 7  89826117.92747  21936452.940                    21936447.480
                                        46.900          43.650



 122926134.611 7  95786607.714 7  23392058.200                    23392055.380
                                        44.400          43.350



 23  8 28 12 18 30.0000000  0  8G03G04G06G09G11G17G19G31
 112901858.793 7  87975480.958 7  21484503.040                    21484501.760
                                        47.950          47.250



 106712958.836 8  83152980.699 8  20306788.500                    20306785.460
                                        49.600          50.150



 111678303.443 8  87022076.544 7  21251668.540                    21251667.540
                                        48.800          47.750



 109445137.527 8  85281951.743 8  20826706.240                    20826704.580
                                        49.900          48.750



 130242884.414 6 101487958.857 7  24784397.220                    24784396.520
                                        40.650          44.950



 120359912.798 7  93786937.269 7  22903730.360                    22903727.840
                                        46.200          44.350



 115334446.105 7  89870992.54147  21947411.820                    21947406.420
                                        47.300          43.600



 122971436.819 7  95821908.135 7  23400678.920                    23400676.140
                                        44.600          43.300



 23  8 28 12 19  0.0000000  0  8G03G04G06G09G11G17G19G31
 112968745.736 7  88027600.617 7  21497231.220                    21497230.020
                                        47.800          46.900



 106714850.646 8  83154454.841 8  20307148.480                    20307145.460
                                        49.650          49.850



 111616168.581 8  86973659.794 7  21239844.640                    21239843.660
                                        48.700          47.850



 109387698.085 8  85237193.755 8  20815775.860                    20815774.220
                                        49.650          48.650



 130136117.270 6 101404763.743 7  24764080.000                    24764079.140
                                        41.300          44.850



 120440563.590 7  93849781.961 7  22919077.760                    22919075.300
                                        46.300          43.750



 115392581.908 7  89916293.09347  21958474.740                    21958469.380
                                        47.000          42.950



 123017317.482 7  95857659.286 7  23409409.740                    23409406.980
                                        44.600          43.100



 23  8 28 12 19 30.0000000  0  8G03G04G06G09G11G17G19G31
 113035889.369 7  88079920.274 7  21510008.260                    21510007.140
                                        47.350          46.850



 106717273.540 8  83156342.819 8  20307609.540                    20307606.500
                                        49.750          49.900



 111554447.520 8  86925565.478 8  21228099.480                    21228098.540
                                        48.950          48.000



 109330718.881 8  85192794.391 8  20804933.080                    20804931.400
                                        49.600          48.950



 130029436.532 6 101321635.963 7  24743779.260                    24743778.440
                                        41.000          44.600



 120521512.086 7  93912858.608 7  22934481.840                    22934479.420
                                        45.000          43.800



 115451263.610 7  89962019.05346  21969641.500                    21969636.160
                                        47.850          41.150



 123063776.657 7  95893861.219 7  23418250.620                    23418247.920
                                        44.500          42.900



 23  8 28 12 20  0.0000000  0  8G03G04G06G09G11G17G19G31
 113103292.056 7  88132441.793 7  21522834.560                    21522833.520
                                        47.600          46.350



 106720230.089 8  83158646.621 8  20308172.160                    20308169.120
                                        49.800          49.900



 111493145.726 8  86877797.853 8  21216434.120                    21216433.220
                                        49.100          48.100



 109274204.193 8  85148756.999 8  20794178.660                    20794177.000
                                        49.650          49.050



 129922847.523 6 101238579.668 7  24723495.960                    24723495.200
                                        40.700          43.900



 120602759.199 7  93976167.952 7  22949942.700                    22949940.360
                                        45.300          42.750



 115510491.425 7  90008170.54646  21980912.220                    21980906.860
                                        47.700          41.350



 123110815.772 7  95930515.032 7  23427201.880                    23427199.220
                                        44.050          42.500



 23  8 28 12 20 30.0000000  0  8G03G04G06G09G11G17G19G31
 113170950.000 7  88185162.222 7  21535709.440                    21535708.460
                                        47.700          45.800



 106723716.647 8  83161363.416 8  20308835.660                    20308832.580
                                        49.700          49.600



 111432262.425 8  86830356.346 7  21204848.380                    21204847.500
                                        49.200          47.400



 109218152.011 8  85105080.009 8  20783512.240                    20783510.600
                                        49.900          48.650



 129816349.418 6 101155594.199 7  24703229.940                    24703229.240
                                        41.100          43.100



 120684298.662 7  94039705.125 7  22965459.180                    22965456.900
                                        44.100          42.600



 115570259.857 7  90054743.30946  21992285.820                    21992280.400
                                        47.400          40.800



 123158430.248 7  95967617.181 7  23436262.620                    23436260.000
                                        43.600          42.600



 23  8 28 12 21  0.0000000  0  8G03G04G06G09G11G17G19G31
 113238860.382 7  88238079.376 7  21548632.340                    21548631.400
                                        47.650          46.250



 106727730.562 8  83164491.139 8  20309599.500                    20309596.380
                                        49.350          49.800



 111371797.873 8  86783241.140 7  21193342.340                    21193341.460
                                        49.450          47.300



 109162561.322 8  85061762.623 8  20772933.640                    20772932.020
                                        50.000          48.800



 129709942.393 6 101072679.686 7  24682981.300                    24682980.620
                                        41.350          43.050



 120766126.175 7  94103466.725 7  22981030.440                    22981028.260
                                        44.700          42.550



 115630564.889 7  90101734.17247  22003761.560                    22003756.080
                                        47.650          42.350



 123206616.813 7  96005165.129 7  23445432.200                    23445429.620
                                        42.850          42.800



 23  8 28 12 21 30.0000000  0  8G03G04G06G09G11G17G19G31
 113307023.352 8  88291193.352 7  21561603.320                    21561602.400
                                        48.000          46.900



 106732272.042 8  83168029.941 8  20310463.740                    20310460.580
                                        49.050          50.300



 111311755.228 8  86736454.682 7  21181916.580                    21181915.700
                                        49.400          47.550



 109107434.068 8  85018806.347 8  20762443.260                    20762441.620
                                        49.900          49.200



 129603629.502 6 100989838.534 7  24662750.540                    24662749.900
                                        41.800          43.500



 120848240.019 7  94167451.465 7  22996656.180                    22996654.100
                                        44.250          43.750



 115691405.104 7  90149142.08947  22015339.140                    22015333.600
                                        47.500          42.950



 123255374.767 7  96043158.311 7  23454710.480                    23454707.980
                                        43.100          42.100



 23  8 28 12 22  0.0000000  0  8G03G04G06G09G11G17G19G31
 113375437.810 8  88344503.285 7  21574622.180                    21574621.280
                                        48.200          46.650



 106737340.077 8  83171979.055 8  20311428.140                    20311425.000
                                        49.250          50.100



 111252136.478 8  86689998.545 7  21170571.500                    21170570.580
                                        49.500          47.600



 109052770.901 8  84976211.697 8  20752041.180                    20752039.540
                                        50.150          48.750



 129497412.644 7 100907072.218 7  24642538.040                    24642537.460
                                        42.550          42.550



 120930637.202 7  94231656.956 7  23012335.860                    23012333.920
                                        44.000          43.900



 115752777.274 7  90196964.50547  22027017.940                    22027012.380
                                        47.650          42.850



 123304701.796 7  96081594.940 7  23464097.060                    23464094.600
                                        44.000          42.300



 23  8 28 12 22 30.0000000  0  8G03G04G06G09G11G17G19G31
 113444104.092 8  88398009.435 7  21587689.000                    21587688.100
                                        48.050          46.600



 106742935.077 8  83176338.801 8  20312492.820                    20312489.680
                                        49.300          50.000



 111192944.920 8  86643875.284 7  21159307.720                    21159306.760
                                        49.500          47.250



 108998573.904 8  84933980.306 8  20741727.820                    20741726.160
                                        49.950          49.050



 129391295.038 6 100824383.218 7  24622344.460                    24622343.940
                                        41.400          42.150



 121013315.907 7  94296081.823 7  23028069.100                    23028067.300
                                        43.250          43.800



 115814679.828 7  90245200.20747  22038797.660                    22038792.100
                                        46.900          42.350



 123354597.577 7  96120474.739 6  23473591.880                    23473589.480
                                        43.950          41.500



 23  8 28 12 23  0.0000000  0  8G03G04G06G09G11G17G19G31
 113513020.729 8  88451710.662 7  21600803.460                    21600802.580
                                        48.150          46.900



 106749055.669 8  83181108.106 8  20313657.520                    20313654.380
                                        49.400          50.000



 111134182.133 8  86598086.136 7  21148125.500                    21148124.520
                                        49.550          47.000



 108944843.366 8  84892112.391 8  20731503.200                    20731501.540
                                        50.000          49.100



 129285278.269 6 100741772.815 7  24602170.040                    24602169.560
                                        40.900          42.550



 121096272.995 7  94360723.628 7  23043855.300                    23043853.620
                                        44.900          43.500



 115877109.518 7  90293846.66147  22050677.680                    22050672.120
                                        46.850          42.400



 123405059.948 7  96159796.029 6  23483194.540                    23483192.180
                                        44.300          41.150



 23  8 28 12 23 30.0000000  0  8G03G04G06G09G11G17G19G31
 113582187.320 7  88505606.671 7  21613965.460                    21613964.620
                                        47.900          46.900



 106755701.468 8  83186286.665 8  20314922.140                    20314919.020
                                        49.550          50.100



 111075850.745 8  86552633.148 7  21137025.400                    21137024.360
                                        49.600          47.200



 108891580.620 8  84850608.983 8  20721367.640                    20721365.960
                                        49.900          49.050



 129179364.900 6 100659242.981 6  24582015.300                    24582014.880
                                        40.850          41.500



 121179505.679 7  94425580.149 7  23059694.000                    23059692.420
                                        45.050          43.550



 115940064.126 7  90342902.14447  22062657.560                    22062652.040
                                        46.750          42.600



 123456087.575 7  96199557.779 6  23492904.780                    23492902.420
                                        44.600          41.950



 23  8 28 12 24  0.0000000  0  8G03G04G06G09G11G17G19G31
 113651601.582 7  88559695.689 7  21627174.580                    21627173.780
                                        47.950          46.800



 106762870.188 8  83191872.691 8  20316286.300                    20316283.180
                                        49.800          50.250



 111017951.458 8  86507516.857 7  21126007.520                    21126006.420
                                        49.750          47.600



 108838785.084 8  84809469.647 8  20711320.940                    20711319.280
                                        49.700          48.800



 129073555.599 6 100576794.236 6  24561880.360                    24561879.960
                                        40.550          41.950



 121263010.029 7  94490648.374 7  23075584.400                    23075582.860
                                        45.950          43.650



 116003539.818 7  90392363.66547  22074736.600                    22074731.120
                                        46.700          43.250



 123507677.097 7  96239757.334 6  23502721.980                    23502719.660
                                        44.950          41.900



 23  8 28 12 24 30.0000000  0  8G03G04G06G09G11G17G19G31
 113721265.133 8  88613978.949 7  21640431.140                    21640430.380
                                        48.000          47.000



 106770563.457 8  83197867.446 8  20317750.280                    20317747.160
                                        49.750          50.250



 110960488.841 8  86462740.810 7  21115072.740                    21115071.600
                                        49.950          47.850



 108786460.041 8  84768696.914 8  20701363.780                    20701362.140
                                        49.650          48.850



 128967854.995 6 100494430.197 7  24541766.080                    24541765.720
                                        39.200          42.900



 121346785.705 7  94555928.031 7  23091526.460                    23091524.920
                                        45.900          43.800



 116067536.423 7  90442231.07547  22086914.760                    22086909.360
                                        46.700          43.400



 123559829.214 7  96280395.293 6  23512646.240                    23512643.940
                                        44.800          41.600



 23  8 28 12 25  0.0000000  0  8G03G04G06G09G11G17G19G31
 113791175.243 7  88668454.334 7  21653734.620                    21653733.900
                                        47.950          46.800



 106778778.612 8  83204268.866 8  20319313.580                    20319310.460
                                        49.700          49.850



 110903463.232 8  86418305.308 7  21104221.120                    21104219.940
                                        49.800          47.300



 108734604.494 8  84728290.020 8  20691495.960                    20691494.320
                                        50.050          48.850



 128862263.400 6 100412151.151 7  24521672.500                    24521672.160
                                        37.750          42.850



 121430828.333 7  94621415.689 7  23107519.320                    23107517.780
                                        45.400          42.500



 116132049.340 7  90492500.81447  22099191.180                    22099185.840
                                        46.700          43.100



 123612539.968 7  96321468.560 6  23522676.800                    23522674.500
                                        45.450          41.150



 23  8 28 12 25 30.0000000  0  8G03G04G06G09G11G17G19G31
 113861332.029 7  88723121.933 7  21667085.040                    21667084.380
                                        47.900          46.750



 106787515.644 8  83211076.937 8  20320976.180                    20320973.080
                                        49.200          49.550



 110846877.688 8  86374212.713 7  21093453.240                    21093452.000
                                        49.750          47.650



 108683220.174 8  84688250.325 8  20681717.780                    20681716.180
                                        50.100          49.450



 128756783.937 6 100329959.474 7  24501600.240                    24501599.960
                                        39.750          43.700



 121515135.532 7  94687109.510 7  23123562.540                    23123560.980
                                        44.650          42.050



 116197076.859 7  90543171.53647  22111565.520                    22111560.240
                                        47.250          42.550



 123665808.983 7  96362976.824 6  23532813.640                    23532811.320
                                        45.250          40.900



 23  8 28 12 26  0.0000000  0  8G03G04G06G09G11G17G19G31
 113931733.663 8  88777980.304 7  21680482.060                    21680481.440
                                        48.650          46.800



 106796772.699 8  83218290.222 8  20322737.740                    20322734.620
                                        49.400          49.500



 110790733.336 8  86330463.896 8  21082769.300                    21082768.040
                                        49.800          48.300



 108632306.965 8  84648577.736 8  20672029.300                    20672027.700
                                        50.400          49.400



 128651417.814 6 100247856.079 7  24481549.600                    24481549.360
                                        40.850          44.300



 121599703.851 7  94753006.801 6  23139655.460                    23139653.860
                                        44.800          41.950



 116262614.853 7  90594240.03546  22124037.000                    22124031.760
                                        47.550          41.900



 123719633.511 7  96404917.957 6  23543056.180                    23543053.840
                                        45.650          40.250



 23  8 28 12 26 30.0000000  0  8G03G04G06G09G11G17G19G31
 114002380.100 8  88833029.437 7  21693925.680                    21693925.080
                                        48.750          46.750



 106806549.769 8  83225908.720 8  20324598.240                    20324595.120
                                        49.550          49.800



 110735033.184 8  86287061.206 8  21072169.900                    21072168.640
                                        49.700          48.450



 108581866.452 8  84609273.483 8  20662430.760                    20662429.200
                                        49.850          49.050



 128546167.966 6 100165843.285 7  24461521.140                    24461520.900
                                        41.650          45.100



 121684531.438 7  94819106.100 6  23155797.720                    23155796.100
                                        45.550          41.800



 116328661.621 7  90645704.98147  22136605.320                    22136600.100
                                        47.500          42.250



 123774012.013 7  96447290.747 6  23553404.160                    23553401.780
                                        45.350          40.300



 23  8 28 12 27  0.0000000  0  8G03G04G06G09G11G17G19G31
 114073271.364 8  88888269.342 7  21707415.920                    21707415.320
                                        48.650          47.400



 106816846.712 8  83233932.306 8  20326557.660                    20326554.560
                                        49.350          49.850



 110679780.128 8  86244006.901 8  21061655.580                    21061654.340
                                        49.800          48.350



 108531900.177 8  84570338.756 8  20652922.460                    20652920.900
                                        49.900          49.000



 128441037.466 6 100083923.495 7  24441515.380                    24441515.140
                                        40.100          45.550



 121769615.903 7  94885405.586 7  23171988.840                    23171987.220
                                        45.700          42.900



 116395215.053 7  90697564.71047  22149270.080                    22149264.880
                                        46.850          42.700



 123828943.735 7  96490094.620 6  23563857.400                    23563854.980
                                        45.250          40.950



 23  8 28 12 27 30.0000000  0  8G03G04G06G09G11G17G19G31
 114144405.963 8  88943698.863 7  21720952.440                    21720951.840
                                        48.650          47.650



 106827661.987 8  83242359.789 8  20328615.740                    20328612.620
                                        49.300          49.700



 110624975.686 8  86201302.168 8  21051226.620                    21051225.400
                                        49.800          48.400



 108482408.361 8  84531773.743 8  20643504.460                    20643502.880
                                        50.100          48.950



 128336027.832 6 100002097.918 7  24421532.620                    24421532.360
                                        38.500          44.800



 121854953.922 7  94951902.631 7  23188228.260                    23188226.600
                                        45.650          42.700



 116462271.980 7  90749816.81247  22162030.620                    22162025.420
                                        47.200          42.200



 123884426.128 7  96533327.599 6  23574415.420                    23574412.980
                                        45.700          40.350



 23  8 28 12 28  0.0000000  0  8G03G04G06G09G11G17G19G31
 114215782.976 8  88999317.282 7  21734535.100                    21734534.520
                                        48.200          47.400



 106838994.550 8  83251190.359 8  20330772.260                    20330769.140
                                        49.200          49.900



 110570621.816 8  86158948.526 8  21040883.420                    21040882.200
                                        49.550          48.400



 108433391.626 8  84493578.924 8  20634176.860                    20634175.260
                                        50.350          48.900



 128231141.181 6  99920368.181 7  24401573.220                    24401573.000
                                        38.300          43.850



 121940542.327 7  95018594.817 7  23204515.320                    23204513.620
                                        45.650          42.950



 116529829.100 7  90802458.67147  22174886.340                    22174881.140
                                        47.100          42.750



 123940456.959 7  96576987.921 6  23585077.800                    23585075.340
                                        45.500          40.850



 23  8 28 12 28 30.0000000  0  8G03G04G06G09G11G17G19G31
 114287401.526 7  89055123.916 7  21748163.720                    21748163.140
                                        47.900          46.750



 106850843.394 8  83260423.231 8  20333027.000                    20333023.880
                                        49.350          49.850



 110516720.605 8  86116947.596 8  21030626.340                    21030625.160
                                        49.650          48.100



 108384850.637 8  84455754.810 8  20624939.780                    20624938.160
                                        50.200          49.050



 128126379.726 6  99838735.977 7  24381637.660                    24381637.460
                                        41.200          44.300



 122026378.634 7  95085480.142 7  23220849.580                    23220847.840
                                        45.450          43.300



 116597884.224 7  90855488.59347  22187836.840                    22187831.640
                                        47.650          42.650



 123997034.347 7  96621074.138 6  23595844.180                    23595841.700
                                        46.050          41.100



 23  8 28 12 29  0.0000000  0  8G03G04G06G09G11G17G19G31
 114359259.459 7  89111117.065 7  21761837.900                    21761837.340
                                        47.700          46.350



 106863206.183 8  83270056.575 8  20335379.560                    20335376.460
                                        49.450          49.850



 110463272.824 8  86075299.971 8  21020455.580                    21020454.420
                                        49.900          48.000



 108336784.812 8  84418300.958 8  20615793.140                    20615791.480
                                        50.200          49.200



 128021744.358 7  99757201.983 7  24361726.120                    24361725.980
                                        42.050          44.300



 122112458.750 7  95152555.438 7  23237230.260                    23237228.500
                                        44.900          44.000



 116666433.035 7  90908903.16246  22200881.320                    22200876.140
                                        47.650          41.150



 124054155.398 7  96665583.976 6  23606714.020                    23606711.560
                                        45.950          40.750



 23  8 28 12 29 30.0000000  0  8G03G04G06G09G11G17G19G31
 114431358.811 7  89167298.342 7  21775557.980                    21775557.420
                                        47.700          46.100



 106876084.845 8  83280091.904 8  20337830.280                    20337827.200
                                        49.650          49.750



 110410283.427 8  86034009.554 7  21010372.000                    21010370.880
                                        50.000          47.950



 108289197.770 8  84381220.192 8  20606737.600                    20606735.920
                                        50.350          49.000



 127917240.130 6  99675770.219 7  24341839.520                    24341839.380
                                        41.450          44.550



 122198782.571 7  95219820.627 7  23253657.320                    23253655.560
                                        44.050          44.250



 116735475.330 7  90962702.29946  22214019.700                    22214014.520
                                        47.250          40.650



 124111820.709 7  96710517.946 6  23617687.420                    23617684.940
                                        45.900          40.850



 23  8 28 12 30  0.0000000  0  8G03G04G06G09G11G17G19G31
 114503697.698 7  89223666.269 7  21789323.640                    21789323.100
                                        47.950          46.550



 106889477.337 8  83290527.613 8  20340378.780                    20340375.720
                                        49.750          49.900



 110357753.449 8  85993077.118 7  21000375.880                    21000374.760
                                        50.250          47.900



 108242089.157 8  84344512.204 8  20597773.120                    20597771.420
                                        50.450          49.200



 127812868.323 6  99594441.624 7  24321978.160                    24321978.020
                                        41.500          44.100



 122285346.443 7  95287272.863 7  23270130.020                    23270128.320
                                        44.500          44.600



 116805007.269 7  91016882.97746  22227251.240                    22227246.060
                                        47.400          40.550



 124170027.485 7  96755873.793 6  23628763.900                    23628761.400
                                        45.600          41.000



 23  8 28 12 30 30.0000000  0  8G03G04G06G09G11G17G19G31
 114576275.466 7  89280220.337 7  21803134.760                    21803134.220
                                        47.900          46.600



 106903382.826 8  83301363.054 8  20343024.920                    20343021.860
                                        49.550          49.700



 110305685.101 8  85952504.405 7  20990467.600                    20990466.460
                                        50.150          47.700



 108195459.758 8  84308177.640 8  20588899.820                    20588898.100
                                        50.200          49.100



 127708631.223 7  99513217.999 7  24302142.420                    24302142.280
                                        42.600          43.500



 122372147.337 7  95354909.786 7  23286647.780                    23286646.200
                                        44.550          44.600



 116875026.274 7  91071443.17446  22240575.500                    22240570.300
                                        47.200          41.300



 124228773.334 7  96801649.718 6  23639942.920                    23639940.440
                                        45.400          40.900



 23  8 28 12 31  0.0000000  0  8G03G04G06G09G11G17G19G31
 114649090.888 8  89336959.579 7  21816991.100                    21816990.580
                                        48.000          46.850



 106917799.869 8  83312597.103 8  20345768.420                    20345765.340
                                        49.350          49.700



 110254080.080 8  85912292.722 7  20980647.480                    20980646.320
                                        50.150          47.850



 108149309.887 8  84272216.726 8  20580117.780                    20580116.060
                                        50.100          49.150



 127604530.820 7  99432100.867 7  24282332.720                    24282332.600
                                        42.900          43.150



 122459181.931 7  95422728.817 7  23303210.000                    23303208.540
                                        45.100          44.650



 116945528.807 7  91126380.16646  22253991.780                    22253986.540
                                        46.600          41.500



 124288056.254 7  96847844.119 6  23651224.160                    23651221.700
                                        45.000          41.500



 23  8 28 12 31 30.0000000  0  8G03G04G06G09G11G17G19G31
 114722140.878 7  89393881.607 7  21830892.100                    21830891.580
                                        47.950          47.350



 106932725.178 8  83324227.219 8  20348608.600                    20348605.540
                                        49.450          49.400



 110202938.188 8  85872441.936 8  20970915.500                    20970914.300
                                        50.150          48.350



 108103638.003 8  84236628.276 8  20571426.660                    20571424.940
                                        50.150          49.100



 127500567.082 7  99351090.220 7  24262549.040                    24262548.920
                                        42.650          42.800



 122546445.555 7  95490726.321 7  23319815.800                    23319814.460
                                        44.800          44.350



 117016509.963 7  91181690.08546  22267499.120                    22267493.920
                                        45.850          41.500



 124347872.052 7  96894453.756 6  23662606.800                    23662604.340
                                        45.100          41.200



 23  8 28 12 32  0.0000000  0  8G03G04G06G09G11G17G19G31
 114795425.262 7  89450986.270 7  21844837.700                    21844837.200
                                        47.950          47.250



 106948158.324 8  83336253.051 8  20351545.440                    20351542.360
                                        49.750          49.300



 110152262.024 8  85832954.042 8  20961272.140                    20961270.940
                                        50.100          48.350



 108058445.318 8  84201413.230 8  20562826.740                    20562825.020
                                        50.600          48.950



 127396742.879 7  99270188.319 7  24242791.900                    24242791.740
                                        42.350          43.050



 122633935.847 7  95558900.436 7  23336464.720                    23336463.520
                                        43.800          43.800



 117087967.358 7  91237371.08946  22281097.080                    22281091.940
                                        45.900          40.850



 124408218.983 7  96941477.289 6  23674090.480                    23674088.020
                                        45.200          41.550



 23  8 28 12 32 30.0000000  0  8G03G04G06G09G11G17G19G31
 114868943.006 8  89508272.772 7  21858827.720                    21858827.240
                                        48.300          47.050



 106964098.071 8  83348673.635 8  20354578.680                    20354575.560
                                        49.900          49.200



 110102053.510 8  85793830.552 8  20951717.780                    20951716.580
                                        50.100          48.300



 108013732.268 8  84166571.909 8  20554318.120                    20554316.380
                                        50.600          48.450



 127293060.294 7  99189396.745 7  24223061.720                    24223061.540
                                        42.750          43.200



 122721649.672 7  95627248.738 7  23353156.200                    23353155.080
                                        44.400          43.250



 117159897.779 7  91293420.70246  22294785.020                    22294779.940
                                        45.400          41.700



 124469094.943 7  96988913.033 6  23685674.860                    23685672.400
                                        45.600          41.550



 23  8 28 12 33  0.0000000  0  8G03G04G06G09G11G17G19G31
 114942695.187 8  89565741.964 7  21872862.340                    21872861.880
                                        48.000          47.500



 106980545.197 8  83361489.571 8  20357708.460                    20357705.340
                                        49.550          49.800



 110052316.520 8  85755074.482 8  20942253.120                    20942251.960
                                        49.900          48.450



 107969501.360 8  84132106.286 8  20545901.240                    20545899.480
                                        50.400          48.700



 127189523.543 7  99108718.835 7  24203359.260                    24203359.080
                                        42.800          43.950



 122809586.098 7  95695770.502 7  23369890.040                    23369888.980
                                        44.550          43.550



 117232300.470 7  91349838.32647  22308562.800                    22308557.800
                                        45.000          42.900



 124530499.654 7  97036760.798 6  23697359.880                    23697357.380
                                        44.600          41.700



 23  8 28 12 33 30.0000000  0  8G03G04G06G09G11G17G19G31
 115016679.920 7  89623392.360 7  21886941.220                    21886940.760
                                        47.750          47.550



 106997497.558 8  83374699.207 8  20360934.400                    20360931.260
                                        49.550          50.100



 110003052.007 8  85716686.585 8  20932878.360                    20932877.220
                                        49.850          48.400



 107925752.118 8  84098016.006 8  20537576.020                    20537574.200
                                        50.350          48.950



 127086133.813 7  99028155.491 7  24183684.780                    24183684.560
                                        43.050          44.550



 122897741.095 7  95764462.577 7  23386665.480                    23386664.460
                                        45.000          42.700



 117305171.159 7  91406620.61247  22322429.620                    22322424.740
                                        44.350          42.850



 124592430.194 7  97085018.288 6  23709144.940                    23709142.440
                                        44.650          41.250



 23  8 28 12 34  0.0000000  0  8G03G04G06G09G11G17G19G31
 115090898.945 7  89681225.326 7  21901064.660                    21901064.240
                                        47.800          47.100



 107014956.646 8  83388303.685 8  20364256.760                    20364253.620
                                        49.750          49.750



 109954264.558 8  85678670.411 8  20923594.400                    20923593.280
                                        50.050          48.100



 107882487.768 8  84064303.561 8  20529343.080                    20529341.200
                                        50.550          48.700



 126982896.016 7  98947710.526 7  24164039.220                    24164038.980
                                        42.900          44.700



 122986114.824 7  95833325.109 7  23403482.580                    23403481.560
                                        45.400          42.200



 117378509.777 7  91463767.51947  22336385.480                    22336380.740
                                        45.250          42.550



 124654886.874 7  97133685.778 6  23721030.120                    23721027.580
                                        44.100          40.650



 23  8 28 12 34 30.0000000  0  8G03G04G06G09G11G17G19G31
 115165349.695 7  89739238.843 7  21915232.200                    21915231.840
                                        47.950          47.300



 107032919.484 8  83402300.694 8  20367674.980                    20367671.840
                                        49.750          49.800



 109905954.381 8  85641026.134 7  20914401.240                    20914400.140
                                        50.150          47.750



 107839707.037 8  84030967.951 8  20521202.180                    20521200.240
                                        50.350          48.750



 126879810.658 7  98867384.367 7  24144422.640                    24144422.380
                                        43.200          45.350



 123074702.251 7  95902354.146 7  23420340.360                    23420339.300
                                        45.750          42.600



 117452311.266 7  91521275.10447  22350429.400                    22350424.820
                                        46.100          42.300



 124717865.741 7  97182760.156 6  23733014.660                    23733012.100
                                        43.700          40.950



 23  8 28 12 35  0.0000000  0  8G03G04G06G09G11G17G19G31
 115240029.035 7  89797430.505 7  21929443.220                    21929442.900
                                        47.850          47.150



 107051382.762 8  83416687.664 8  20371188.440                    20371185.300
                                        49.650          49.550



 109858121.193 8  85603753.526 7  20905298.880                    20905297.780
                                        50.350          47.550



 107797408.205 8  83998007.859 8  20513152.960                    20513150.980
                                        50.400          48.750



 126776877.800 7  98787177.044 7  24124835.100                    24124834.800
                                        43.550          45.550



 123163498.404 7  95971545.835 7  23437237.860                    23437236.780
                                        46.050          42.250



 117526570.283 7  91579139.20946  22364560.420                    22364555.960
                                        46.400          41.800



 124781362.290 7  97232237.936 6  23745097.660                    23745095.120
                                        43.650          41.000



 23  8 28 12 35 30.0000000  0  8G03G04G06G09G11G17G19G31
 115314938.510 7  89855801.483 7  21943698.040                    21943697.780
                                        47.200          47.250



 107070347.610 8  83431465.471 8  20374797.320                    20374794.200
                                        49.350          49.750



 109810769.285 8  85566855.962 7  20896288.100                    20896286.960
                                        50.000          47.550



 107755594.159 8  83965425.514 8  20505195.980                    20505193.980
                                        50.350          48.650



 126674102.081 7  98707092.179 7  24105277.440                    24105277.120
                                        42.700          45.800



 123252502.580 7  96040899.611 7  23454174.960                    23454173.840
                                        44.900          42.800



 117601286.248 7  91637359.39347  22378778.400                    22378774.000
                                        46.650          42.250



 124845376.657 7  97282119.222 6  23757279.200                    23757276.680
                                        43.550          40.700



 23  8 28 12 36  0.0000000  0  8G03G04G06G09G11G17G19G31
 115390075.981 7  89914350.125 7  21957996.260                    21957996.020
                                        47.200          47.600



 107089811.557 8  83446632.189 8  20378501.200                    20378498.080
                                        49.500          50.000



 109763899.340 8  85530333.931 7  20887369.040                    20887367.860
                                        49.950          47.900



 107714264.106 8  83933220.309 8  20497331.120                    20497329.080
                                        50.550          48.850



 126571484.473 7  98627130.525 7  24085749.860                    24085749.520
                                        42.900          45.400



 123341710.654 7  96110412.277 7  23471150.820                    23471149.700
                                        44.600          43.200



 117676455.001 7  91695932.36746  22393082.600                    22393078.220
                                        47.000          41.700



 124909905.313 7  97332401.257 6  23769558.620                    23769556.100
                                        43.650          41.150



 23  8 28 12 36 30.0000000  0  8G03G04G06G09G11G17G19G31
 115465442.773 7  89973077.444 7  21972338.100                    21972337.940
                                        47.000          47.500



 107109775.524 8  83462188.525 8  20382300.220                    20382297.100
                                        49.450          49.850



 109717515.417 8  85494190.623 7  20878542.460                    20878541.280
                                        50.150          47.850



 107673420.709 8  83901394.291 8  20489558.880                    20489556.800
                                        50.700          48.750



 126469029.451 7  98547295.523 7  24066253.260                    24066252.900
                                        43.400          44.600



 123431121.940 7  96180083.266 7  23488165.360                    23488164.260
                                        44.350          42.250



 117752075.463 7  91754857.32347  22407472.760                    22407468.380
                                        47.000          42.200



 124974948.393 7  97383084.143 6  23781935.940                    23781933.400
                                        43.350          40.950



 23  8 28 12 37  0.0000000  0  8G03G04G06G09G11G17G19G31
 115541037.117 7  90031982.079 7  21986723.240                    21986723.140
                                        46.700          47.200



 107130237.457 8  83478132.882 8  20386194.000                    20386190.920
                                        49.350          49.600



 109671618.563 8  85458426.848 7  20869808.580                    20869807.360
                                        50.100          47.800



 107633063.542 8  83869947.173 8  20481879.160                    20481877.040
                                        50.750          48.750



 126366738.444 7  98467588.326 7  24046787.860                    24046787.480
                                        42.950          44.250



 123520732.507 7  96249909.524 6  23505217.820                    23505216.740
                                        44.000          41.650



 117828143.449 7  91814131.00446  22421948.100                    22421943.680
                                        47.100          40.900



 125040502.656 7  97434165.340 6  23794410.560                    23794408.020
                                        42.950          40.600



 23  8 28 12 37 30.0000000  0  8G03G04G06G09G11G17G19G31
 115616856.722 7  90091062.243 7  22001151.240                    22001151.200
                                        46.950          47.050



 107151194.633 8  83494463.147 8  20390182.020                    20390178.960
                                        49.400          49.550



 109626209.176 8  85423042.918 7  20861167.460                    20861166.220
                                        50.150          47.700



 107593191.544 8  83838878.114 8  20474291.780                    20474289.620
                                        50.750          48.950



 126264612.289 7  98388009.597 7  24027353.840                    24027353.420
                                        43.150          44.750



 123610537.997 7  96319887.697 6  23522307.320                    23522306.260
                                        44.000          41.850



 117904654.840 7  91873750.19446  22436507.820                    22436503.340
                                        47.300          41.000



 125106564.296 7  97485641.899 6  23806981.720                    23806979.180
                                        43.550          40.500



 23  8 28 12 38  0.0000000  0  8G03G04G06G09G11G17G19G31
 115692902.043 7  90150318.288 7  22015622.200                    22015622.200
                                        47.050          46.900



 107172647.133 8  83511179.387 8  20394264.300                    20394261.240
                                        49.600          49.450



 109581290.494 8  85388041.360 7  20852619.720                    20852618.460
                                        50.150          47.600



 107553806.538 8  83808188.529 8  20466797.060                    20466794.860
                                        50.600          49.100



 126162654.653 7  98308562.162 7  24007951.920                    24007951.440
                                        43.900          44.650



 123700537.348 7  96390016.936 6  23539433.700                    23539432.660
                                        43.600          41.650



 117981607.769 7  91933713.45246  22451151.560                    22451147.000
                                        47.200          39.450



 125173132.502 7  97537513.190 6  23819649.300                    23819646.720
                                        42.800          40.800



 23  8 28 12 38 30.0000000  0  8G03G04G06G09G11G17G19G31
 115769172.438 7  90209749.716 7  22030136.000                    22030136.020
                                        47.250          46.550



 107194593.830 8  83528280.711 8  20398440.600                    20398437.560
                                        49.700          49.300



 109536864.552 8  85353423.766 7  20844165.720                    20844164.440
                                        50.150          47.550



 107514909.033 8  83777878.810 8  20459395.100                    20459392.880
                                        50.500          49.150



 126060867.956 7  98229247.944 7  23988582.500                    23988581.980
                                        43.650          44.350



 123790727.474 7  96460294.816 6  23556596.380                    23556595.380
                                        43.600          41.450



 118058999.415 7  91994018.57546  22465878.780                    22465874.160
                                        46.900          40.400



 125240205.223 7  97589777.581 6  23832412.880                    23832410.320
                                        42.600          40.950



 23  8 28 12 39  0.0000000  0  8G03G04G06G09G11G17G19G31
 115845668.032 7  90269356.641 7  22044692.640                    22044692.640
                                        47.300          45.750



 107217034.523 8  83545766.978 8  20402710.920                    20402707.860
                                        49.550          49.200



 109492934.245 8  85319192.372 7  20835806.060                    20835804.740
                                        50.150          47.600



 107476500.489 8  83747950.099 8  20452086.160                    20452083.940
                                        50.350          49.350



 125959255.589 7  98150069.569 7  23969246.260                    23969245.680
                                        44.200          43.750



 123881106.207 7  96530719.669 6  23573794.960                    23573793.980
                                        43.100          41.650



 118136827.152 7  92054663.50246  22480689.000                    22480684.320
                                        47.000          40.750



 125307781.141 7  97642434.109 6  23845272.160                    23845269.620
                                        42.350          41.250



 23  8 28 12 39 30.0000000  0  8G03G04G06G09G11G17G19G31
 115922385.117 7  90329136.166 7  22059291.460                    22059291.380
                                        47.150          45.000



 107239965.028 8  83563634.902 8  20407074.460                    20407071.380
                                        49.700          49.350



 109449498.526 8  85285346.368 7  20827540.520                    20827539.160
                                        50.150          47.850



 107438578.429 8  83718400.473 8  20444869.800                    20444867.600
                                        50.550          49.600



 125857816.972 7  98071026.572 7  23949943.080                    23949942.460
                                        44.050          43.300



 123971667.947 7  96601287.072 7  23591028.400                    23591027.480
                                        43.800          42.550



 118215085.626 7  92115644.08446  22495581.160                    22495576.440
                                        47.100          39.600



 125375854.799 7  97695478.467 6  23858226.160                    23858223.660
                                        42.250          41.750



 23  8 28 12 40  0.0000000  0  8G03G04G06G09G11G17G19G31
 115999323.726 7  90389088.290 7  22073932.440                    22073932.280
                                        47.300          44.600



 107263384.985 8  83581884.221 8  20411531.140                    20411528.020
                                        49.350          49.300



 109406560.157 8  85251887.894 7  20819369.620                    20819368.240
                                        50.100          47.750



 107401144.100 8  83689230.898 8  20437746.260                    20437744.060
                                        50.200          49.400



 125756555.387 7  97992121.502 7  23930673.620                    23930672.920
                                        44.650          43.050



 124062411.050 7  96671995.857 7  23608296.300                    23608295.440
                                        44.350          42.850



 118293772.262 7  92176958.28046  22510554.800                    22510550.040
                                        46.500          40.750



 125444425.043 7  97748909.746 6  23871274.660                    23871272.240
                                        42.050          41.350



 23  8 28 12 40 30.0000000  0  8G03G04G06G09G11G17G19G31
 116076482.479 7  90449211.955 7  22088615.320                    22088615.060
                                        47.200          44.900



 107287292.406 8  83600513.384 8  20416080.580                    20416077.420
                                        49.600          49.350



 109364120.314 8  85218817.903 7  20811293.580                    20811292.160
                                        50.150          47.550



 107364197.246 8  83660441.175 8  20430715.460                    20430713.300
                                        50.200          49.100



 125655472.593 7  97913355.763 7  23911438.160                    23911437.400
                                        44.350          44.150



 124153331.816 7  96742843.046 7  23625598.040                    23625597.260
                                        44.150          42.650



 118372883.427 7  92238603.26646  22525609.240                    22525604.460
                                        46.000          40.400



 125513488.800 7  97802725.607 6  23884417.060                    23884414.720
                                        42.300          41.250



 23  8 28 12 41  0.0000000  0  8G03G04G06G09G11G17G19G31
 116153861.069 7  90509506.927 7  22103340.040                    22103339.660
                                        47.500          45.400



 107311686.622 8  83619521.862 8  20420722.660                    20420719.480
                                        49.500          49.400



 109322181.456 8  85186138.279 7  20803312.860                    20803311.440
                                        50.050          47.850



 107327738.832 8  83632032.046 8  20423777.620                    20423775.480
                                        50.150          49.250



 125554571.511 7  97834731.613 7  23892237.300                    23892236.460
                                        44.250          44.800



 124244427.591 7  96813826.629 7  23642933.100                    23642932.360
                                        44.200          42.500



 118452416.421 7  92300576.93746  22540743.940                    22540739.160
                                        46.100          41.300



 125583044.129 6  97856924.507 6  23897653.000                    23897650.740
                                        41.850          41.200



 23  8 28 12 41 30.0000000  0  9G03G04G06G07G09G11G17G19G31
 116231460.128 7  90569973.695 7  22118106.720                    22118106.240
                                        47.350          45.700



 107336567.749 8  83638909.743 8  20425457.380                    20425454.220
                                        49.350          49.750



 109280746.854 8  85153851.593 7  20795428.100                    20795426.660
                                        50.250          47.900



 130120571.679 6 101392666.831 6  24761121.580                    24761124.260
                                        41.200          39.000



 107291770.671 8  83604004.925 8  20416933.060                    20416930.960
                                        50.150          49.450



 125453855.969 7  97756252.055 7  23873071.720                    23873070.820
                                        45.000          44.750



 124335697.015 7  96884945.487 7  23660301.240                    23660300.520
                                        44.850          42.300



 118532369.444 7  92362877.89447  22555958.580                    22555953.800
                                        46.150          42.200



 125653090.672 7  97911506.162 6  23910982.460                    23910980.220
                                        42.050          41.150



 23  8 28 12 42  0.0000000  0  9G03G04G06G07G09G11G17G19G31
 116309274.936 7  90630608.582 7  22132914.460                    22132913.860
                                        47.150          45.450



 107361930.557 8  83658672.987 8  20430283.760                    20430280.580
                                        49.150          49.750



 109239814.392 8  85121956.185 7  20787638.900                    20787637.420
                                        50.400          47.500



 130019941.392 6 101314253.858 6  24741972.280                    24741974.540
                                        41.550          39.000



 107256289.176 8  83576357.026 8  20410181.100                    20410179.060
                                        50.200          49.450



 125353324.429 7  97677915.882 7  23853941.140                    23853940.180
                                        44.200          43.900



 124427133.306 7  96956194.403 7  23677701.120                    23677700.420
                                        44.350          42.650



 118612735.400 7  92425500.64847  22571251.760                    22571247.000
                                        46.000          42.400



 125723620.900 6  97966464.715 6  23924403.960                    23924401.740
                                        41.650          41.250



 23  8 28 12 42 30.0000000  0  9G03G04G06G07G09G11G17G19G31
 116387312.930 7  90691417.373 7  22147764.660                    22147763.980
                                        47.150          46.150



 107387782.013 8  83678816.985 8  20435203.140                    20435199.960
                                        48.850          49.750



 109199394.136 8  85090459.898 7  20779947.180                    20779945.660
                                        50.300          47.950



 129919323.858 6 101235850.843 6  24722825.320                    24722827.580
                                        41.400          37.750



 107221302.929 8  83549095.031 8  20403523.400                    20403521.420
                                        50.450          49.700



 125252987.556 7  97599731.370 7  23834847.640                    23834846.620
                                        44.150          44.200



 124518741.864 7  97027577.523 7  23695133.820                    23695133.120
                                        44.200          42.350



 118693519.287 7  92488449.02846  22586624.500                    22586619.780
                                        45.750          41.950



 125794641.690 6  98021805.547 6  23937918.820                    23937916.600
                                        40.650          41.500



 23  8 28 12 43  0.0000000  0  9G03G04G06G07G09G11G17G19G31
 116465568.847 7  90752395.969 7  22162656.320                    22162655.580
                                        47.250          46.700



 107414116.362 8  83699337.265 8  20440214.380                    20440211.240
                                        49.000          49.750



 109159483.513 8  85059360.717 8  20772352.440                    20772350.900
                                        50.600          48.450



 129818717.019 6 101157456.144 6  24703680.340                    24703682.540
                                        40.250          39.300



 107186807.848 8  83522215.779 8  20396959.160                    20396957.240
                                        50.800          49.750



 125152843.428 7  97521697.066 7  23815790.780                    23815789.680
                                        44.250          44.400



 124610515.622 7  97099089.397 6  23712597.940                    23712597.220
                                        44.050          41.900



 118774713.973 7  92551717.53946  22602075.380                    22602070.720
                                        46.050          41.600



 125866146.282 6  98077523.348 6  23951525.740                    23951523.520
                                        40.300          41.400



 23  8 28 12 43 30.0000000  0  9G03G04G06G07G09G11G17G19G31
 116544040.571 7  90813542.704 7  22177589.040                    22177588.300
                                        47.150          46.700



 107440930.854 8  83720231.666 8  20445317.000                    20445313.900
                                        49.100          49.600



 109120082.915 8  85028658.955 8  20764854.780                    20764853.220
                                        50.450          48.650



 129718121.888 6 101079070.557 6  24684537.540                    24684539.740
                                        40.000          39.250



 107152802.855 8  83495718.402 8  20390488.220                    20390486.320
                                        50.650          49.350



 125052892.995 7  97443813.694 7  23796770.800                    23796769.620
                                        44.650          44.950



 124702449.701 7  97170726.166 6  23730092.600                    23730091.840
                                        44.350          41.600



 118856314.684 7  92615302.41246  22617603.560                    22617598.960
                                        45.550          41.500



 125938130.664 6  98133614.991 6  23965223.960                    23965221.780
                                        41.050          41.600



 23  8 28 12 44  0.0000000  0  9G03G04G06G07G09G11G17G19G31
 116622729.561 7  90874858.747 7  22192563.100                    22192562.360
                                        46.850          46.650



 107468226.396 8  83741500.919 8  20450511.160                    20450508.080
                                        49.200          49.550



 109081196.373 8  84998357.742 8  20757454.940                    20757453.380
                                        50.450          48.450



 129617543.194 6 101000697.819 6  24665397.760                    24665400.020
                                        40.800          39.400



 107119290.498 8  83469604.904 8  20384111.040                    20384109.140
                                        50.550          49.400



 124953140.881 7  97366084.854 7  23777788.560                    23777787.320
                                        44.000          44.650



 124794543.919 7  97242487.736 6  23747617.720                    23747616.920
                                        44.050          40.550



 118938320.437 7  92679202.92846  22633208.760                    22633204.240
                                        45.800          40.900



 126010594.653 6  98190080.369 6  23979013.420                    23979011.280
                                        40.950          41.000



 23  8 28 12 44 30.0000000  0  9G03G04G06G07G09G11G17G19G31
 116701631.123 7  90936340.414 7  22207577.620                    22207576.900
                                        46.400          46.750



 107495997.795 8  83763140.975 8  20455795.880                    20455792.820
                                        49.100          49.600



 109042821.828 8  84968455.502 8  20750152.540                    20750150.960
                                        50.350          48.150



 129516979.858 6 100922337.022 6  24646260.860                    24646263.280
                                        40.850          38.850



 107086267.212 8  83443872.491 8  20377826.900                    20377825.020
                                        50.350          49.300



 124853585.766 7  97288509.517 7  23758843.800                    23758842.480
                                        44.500          44.650



 124886791.886 7  97314369.138 6  23765172.080                    23765171.220
                                        43.500          40.700



 119020724.233 7  92743413.58846  22648889.720                    22648885.260
                                        46.000          41.250



 126083532.073 6  98246914.654 6  23992892.960                    23992890.880
                                        41.750          41.250



 23  8 28 12 45  0.0000000  0  9G03G04G06G07G09G11G17G19G31
 116780747.280 7  90997989.308 7  22222632.940                    22222632.260
                                        45.650          46.750



 107524246.469 8  83785152.937 8  20461171.400                    20461168.340
                                        48.700          49.300



 109004963.780 8  84938955.733 8  20742948.400                    20742946.820
                                        50.250          48.150



 129416436.655 6 100843991.923 6  24627127.800                    24627130.320
                                        40.850          39.600



 107053736.057 8  83418523.557 8  20371636.420                    20371634.540
                                        50.350          49.100



 124754232.902 7  97211091.783 7  23739937.540                    23739936.160
                                        43.600          44.250



 124979193.182 7  97386370.011 6  23782755.600                    23782754.680
                                        43.200          39.850



 119103525.597 7  92807934.05947  22664646.320                    22664641.900
                                        46.300          42.200



 126156943.223 7  98304118.091 6  24006862.640                    24006860.620
                                        42.200          40.350



 23  8 28 12 45 30.0000000  0  9G03G04G06G07G09G11G17G19G31
 116860075.167 7  91059803.184 7  22237728.560                    22237727.920
                                        46.100          46.700



 107552969.009 8  83807534.136 8  20466637.100                    20466634.060
                                        48.900          49.100



 108967621.990 8  84909858.244 8  20735842.500                    20735840.900
                                        50.350          48.350



 129315914.069 6 100765662.889 6  24607998.660                    24608001.260
                                        41.150          39.900



 107021695.267 8  83393556.731 8  20365539.240                    20365537.340
                                        50.500          48.900



 124655082.640 7  97133831.926 7  23721069.820                    23721068.360
                                        44.350          43.900



 125071742.967 7  97458486.554 6  23800367.380                    23800366.420
                                        43.000          38.850



 119186719.301 7  92872760.23246  22680477.600                    22680473.240
                                        46.300          40.950



 126230823.544 7  98361687.110 6  24020921.600                    24020919.620
                                        43.050          40.850



 23  8 28 12 46  0.0000000  0  9G03G04G06G07G09G11G17G19G31
 116939616.064 7  91121783.049 7  22252864.700                    22252864.100
                                        46.500          46.200



 107582166.007 8  83830285.040 8  20472193.080                    20472190.040
                                        49.200          48.900



 108930800.179 8  84881165.932 8  20728835.540                    20728833.920
                                        50.350          48.250



 129215416.511 6 100687353.361 6  24588874.340                    24588876.940
                                        40.950          38.500



 106990147.108 8  83368973.766 8  20359535.800                    20359533.880
                                        50.700          48.400



 124556139.474 7  97056733.407 7  23702241.540                    23702240.020
                                        44.400          43.850



 125164440.521 7  97530718.280 6  23818007.240                    23818006.200
                                        43.400          38.900



 119270304.318 7  92937891.35346  22696383.340                    22696379.000
                                        46.000          40.500



 126305172.647 7  98419621.397 6  24035069.820                    24035067.860
                                        43.750          39.950



 23  8 28 12 46 30.0000000  0  9G03G04G06G07G09G11G17G19G31
 117019366.241 7  91183925.984 7  22268040.660                    22268040.120
                                        46.600          45.400



 107611833.252 8  83853402.359 8  20477838.560                    20477835.520
                                        49.100          49.050



 108894497.167 8  84852877.873 8  20721927.300                    20721925.680
                                        50.150          48.050



 129114943.874 6 100609063.274 6  24569754.800                    24569757.340
                                        40.350          38.300



 106959088.892 8  83344772.588 8  20353625.600                    20353623.620
                                        50.700          48.300



 124457402.948 7  96979795.949 7  23683452.560                    23683450.960
                                        44.100          44.600



 125257279.651 7  97603060.307 6  23835674.020                    23835672.920
                                        44.250          39.650



 119354274.522 7  93003322.56046  22712362.420                    22712358.100
                                        46.500          40.800



 126379985.353 7  98477916.938 6  24049306.280                    24049304.320
                                        43.400          40.100



 23  8 28 12 47  0.0000000  0  9G03G04G06G07G09G11G17G19G31
 117099328.663 7  91246234.322 7  22283257.000                    22283256.480
                                        47.150          44.900



 107641973.029 8  83876887.896 8  20483573.960                    20483570.900
                                        49.300          49.000



 108858718.413 8  84824998.330 8  20715118.820                    20715117.180
                                        50.250          48.050



 129014502.222 6 100530797.354 6  24550641.140                    24550643.620
                                        41.300          39.950



 106928524.573 8  83320956.252 8  20347809.400                    20347807.340
                                        50.750          48.400



 124358879.294 7  96903024.342 7  23664704.080                    23664702.440
                                        44.200          44.200



 125350261.245 7  97675513.344 6  23853367.940                    23853366.760
                                        44.700          39.250



 119438630.159 7  93069054.14946  22728414.820                    22728410.520
                                        45.600          40.950



 126455262.840 7  98536574.636 6  24063631.200                    24063629.240
                                        43.150          40.400



 23  8 28 12 47 30.0000000  0  9G03G04G06G07G09G11G17G19G31
 117179499.765 7  91308705.270 7  22298513.080                    22298512.560
                                        47.600          45.200



 107672581.117 8  83900738.346 8  20489398.500                    20489395.420
                                        49.450          49.350



 108823462.819 8  84797526.441 7  20708409.920                    20708408.260
                                        50.250          47.950



 128914091.185 6 100452555.253 6  24531533.380                    24531535.780
                                        40.750          38.250



 106898451.569 8  83297522.760 8  20342086.700                    20342084.560
                                        50.800          48.350



 124260568.185 7  96826418.350 7  23645996.080                    23645994.360
                                        43.900          44.800



 125443379.879 7  97748073.161 6  23871087.940                    23871086.700
                                        44.650          40.750



 119523365.344 7  93135081.50646  22744539.440                    22744535.160
                                        45.250          39.900



 126530999.733 7  98595590.317 6  24078043.540                    24078041.580
                                        43.900          40.650



 23  8 28 12 48  0.0000000  0  9G03G04G06G07G09G11G17G19G31
 117259880.570 7  91371339.612 7  22313809.080                    22313808.580
                                        47.250          45.550



 107703657.970 8  83924954.072 8  20495312.240                    20495309.140
                                        49.350          49.450



 108788733.937 8  84770464.995 8  20701801.220                    20701799.520
                                        50.200          48.300



 128813714.897 6 100374340.279 6  24512432.200                    24512434.500
                                        40.850          38.300



 106868871.962 8  83274473.739 8  20336457.880                    20336455.680
                                        50.650          48.800



 124162473.949 7  96749981.357 7  23627329.320                    23627327.560
                                        43.600          44.850



 125536634.648 7  97820739.061 6  23888833.840                    23888832.560
                                        45.050          40.500



 119608479.049 7  93201403.78646  22760736.120                    22760731.840
                                        44.600          41.350



 126607195.648 7  98654963.681 6  24092543.220                    24092541.280
                                        43.800          40.700



 23  8 28 12 48 30.0000000  0  9G03G04G06G07G09G11G17G19G31
 117340472.548 7  91434138.503 7  22329145.280                    22329144.780
                                        46.850          45.800



 107735204.390 8  83949535.685 8  20501315.340                    20501312.240
                                        49.050          49.300



 108754535.606 8  84743816.967 8  20695293.460                    20695291.760
                                        50.050          48.650



 128713378.226 6 100296156.168 6  24493338.560                    24493340.760
                                        41.500          38.050



 106839788.105 8  83251811.013 8  20330923.400                    20330921.140
                                        50.600          49.300



 124064601.270 7  96673717.034 7  23608704.700                    23608702.920
                                        43.700          44.550



 125630024.685 7  97893510.373 6  23906605.480                    23906604.180
                                        45.300          40.800



 119693969.813 7  93268019.86546  22777004.540                    22777000.300
                                        44.700          40.800



 126683849.704 7  98714694.041 6  24107130.100                    24107128.160
                                        43.650          39.950



 23  8 28 12 49  0.0000000  0  9G03G04G06G07G09G11G17G19G31
 117421269.632 7  91497097.215 7  22344520.520                    22344520.020
                                        46.550          45.500



 107767213.604 8  83974477.912 8  20507406.520                    20507403.420
                                        48.900          49.450



 108720864.216 8  84717579.535 8  20688886.000                    20688884.300
                                        50.000          48.650



 128613078.460 7 100218000.760 6  24474251.980                    24474254.100
                                        42.200          39.200



 106811194.889 8  83229530.618 8  20325482.280                    20325480.000
                                        50.650          49.450



 123966947.375 7  96597623.165 7  23590121.720                    23590119.920
                                        44.600          45.200



 125723541.756 7  97966380.650 6  23924401.300                    23924400.000
                                        45.050          41.950



 119779829.015 7  93334923.00546  22793343.120                    22793338.920
                                        45.300          40.800



 126760954.349 7  98774775.499 6  24121802.700                    24121800.780
                                        43.850          40.800



 23  8 28 12 49 30.0000000  0  9G03G04G06G07G09G11G17G19G31
 117502272.294 7  91560216.112 7  22359934.860                    22359934.380
                                        45.900          45.450



 107799685.483 8  83999780.653 8  20513585.720                    20513582.660
                                        48.950          49.650



 108687722.696 8  84691754.974 8  20682579.380                    20682577.680
                                        50.250          48.800



 128512819.243 6 100139876.951 6  24455173.120                    24455175.140
                                        41.850          39.900



 106783093.737 8  83207633.620 8  20320134.800                    20320132.560
                                        50.500          49.450



 123869516.061 7  96521702.700 7  23571581.160                    23571579.320
                                        44.200          45.550



 125817184.510 7  98039348.837 6  23942221.080                    23942219.800
                                        44.350          41.650



 119866054.854 7  93402111.87446  22809751.420                    22809747.260
                                        44.750          41.900



 126838508.664 7  98835207.363 6  24136560.880                    24136558.960
                                        43.850          40.500



 23  8 28 12 50  0.0000000  0  9G03G04G06G07G09G11G17G19G31
 117583482.551 7  91623496.779 7  22375388.700                    22375388.220
                                        45.300          45.800



 107832621.323 8  84025444.940 8  20519853.200                    20519850.180
                                        49.350          49.650



 108655115.406 8  84666346.716 8  20676374.400                    20676372.700
                                        50.400          48.800



 128412605.814 7 100061788.870 6  24436102.920                    24436104.840
                                        42.050          41.050



 106755487.554 8  83186122.313 8  20314881.520                    20314879.300
                                        50.600          49.600



 123772312.535 7  96445959.793 7  23553083.880                    23553082.000
                                        44.600          45.700



 125910952.809 7  98112414.876 6  23960064.720                    23960063.480
                                        43.950          41.750



 119952646.939 7  93469586.13246  22826229.420                    22826225.280
                                        45.900          41.500



 126916512.698 7  98895989.641 6  24151404.640                    24151402.740
                                        43.950          40.650



 23  8 28 12 50 30.0000000  0  9G03G04G06G07G09G11G17G19G31
 117664898.069 7  91686937.379 7  22390881.580                    22390881.120
                                        44.700          45.450



 107866018.074 8  84051468.379 8  20526208.400                    20526205.400
                                        49.350          49.100



 108623042.438 8  84641354.793 8  20670271.100                    20670269.420
                                        50.200          48.700



 128312439.092 6  99983737.173 6  24417041.600                    24417043.460
                                        41.900          40.050



 106728374.847 8  83164995.529 8  20309722.120                    20309719.960
                                        50.650          49.200



 123675337.760 7  96370395.114 7  23534630.140                    23534628.260
                                        44.350          44.850



 126004842.478 7  98185575.483 6  23977931.440                    23977930.300
                                        43.150          41.900



 120039600.325 7  93537341.91246  22842776.200                    22842772.040
                                        46.600          40.850



 126994962.240 7  98957119.084 6  24166333.160                    24166331.260
                                        43.500          40.050



 23  8 28 12 51  0.0000000  0  9G03G04G06G07G09G11G17G19G31
 117746517.562 7  91750536.899 7  22406413.300                    22406412.840
                                        45.600          45.450



 107899873.845 8  84077849.473 8  20532650.960                    20532647.980
                                        49.100          49.000



 108591504.899 8  84616780.090 8  20664269.700                    20664268.040
                                        50.250          48.350



 128212321.131 6  99905723.495 6  24397989.540                    24397991.340
                                        41.500          41.800



 106701755.313 8  83144253.042 8  20304656.580                    20304654.460
                                        50.550          49.350



 123578593.782 7  96295010.259 7  23516220.340                    23516218.440
                                        44.250          44.650



 126098849.655 7  98258827.631 6  23995820.540                    23995819.500
                                        42.950          41.100



 120126911.388 7  93605376.39046  22859391.040                    22859386.880
                                        45.650          41.300



 127073854.973 7  99018593.856 6  24181346.040                    24181344.140
                                        43.850          40.050



 23  8 28 12 51 30.0000000  0  9G03G04G06G07G09G11G17G19G31
 117828339.812 7  91814294.452 7  22421983.560                    22421983.120
                                        46.200          45.350



 107934186.694 8  84104586.733 8  20539180.500                    20539177.520
                                        49.100          49.050



 108560503.926 8  84592623.496 8  20658370.400                    20658368.720
                                        50.000          48.250



 128112254.023 6  99827749.450 7  24378947.140                    24378948.920
                                        41.400          42.250



 106675628.614 8  83123894.592 8  20299684.820                    20299682.740
                                        50.400          49.450



 123482082.699 7  96219806.893 7  23497854.860                    23497852.920
                                        44.150          44.350



 126192971.132 6  98332168.855 6  24013731.360                    24013730.440
                                        41.800          40.950



 120214576.368 7  93673686.66846  22876073.220                    22876069.040
                                        45.400          41.550



 127153187.209 7  99080411.088 6  24196442.540                    24196440.660
                                        43.500          39.650



 23  8 28 12 52  0.0000000  0  9G03G04G06G07G09G11G17G19G31
 117910363.729 7  91878209.146 7  22437592.220                    22437591.760
                                        46.650          45.100



 107968954.765 8  84131678.724 8  20545796.660                    20545793.680
                                        49.200          49.200



 108530040.754 8  84568885.961 8  20652573.440                    20652571.760
                                        50.050          48.300



 128012239.880 6  99749816.713 6  24359914.800                    24359916.540
                                        41.100          41.950



 106649994.475 8  83103919.959 8  20294806.760                    20294804.760
                                        50.850          49.200



 123385806.642 7  96144786.667 7  23479534.080                    23479532.120
                                        44.200          44.750



 126287204.018 6  98405596.881 6  24031663.400                    24031662.580
                                        41.250          39.400



 120302591.625 7  93742269.89546  22892822.040                    22892817.900
                                        46.100          40.650



 127232955.928 7  99142568.441 6  24211622.100                    24211620.220
                                        43.600          40.200



 23  8 28 12 52 30.0000000  0  9G03G04G06G07G09G11G17G19G31
 117992589.461 7  91942281.099 7  22453239.300                    22453238.800
                                        47.300          45.050



 108004177.513 8  84159125.009 8  20552499.340                    20552496.360
                                        49.350          49.400



 108500117.838 8  84545569.401 8  20646879.300                    20646877.600
                                        50.200          48.350



 127912281.946 6  99671927.716 6  24340893.200                    24340894.920
                                        41.900          40.950



 106624853.870 8  83084329.875 8  20290022.660                    20290020.660
                                        51.050          48.900



 123289769.116 7  96069952.298 7  23461258.720                    23461256.720
                                        44.250          45.400



 126381546.282 6  98479110.152 6  24049616.240                    24049615.520
                                        41.750          40.100



 120390954.755 7  93811124.19246  22909637.040                    22909632.920
                                        44.700          39.550



 127313159.648 7  99205064.755 6  24226884.420                    24226882.560
                                        43.800          40.000



 23  8 28 12 53  0.0000000  0  9G03G04G06G07G09G11G17G19G31
 118075016.219 7  92006509.684 7  22468924.660                    22468924.120
                                        47.500          45.650



 108039853.418 8  84186924.399 8  20559288.240                    20559285.280
                                        49.050          49.500



 108470736.706 8  84522675.017 8  20641288.240                    20641286.520
                                        49.900          48.450



 127812382.894 6  99594084.680 6  24321882.760                    24321884.440
                                        41.300          41.250



 106600206.818 8  83065124.394 8  20285332.480                    20285330.460
                                        50.850          48.650



 123193972.560 7  95995305.701 7  23443029.200                    23443027.200
                                        43.600          45.700



 126475995.137 6  98552706.474 6  24067589.360                    24067588.740
                                        41.350          39.600



 120479662.397 7  93880246.93846  22926517.600                    22926513.480
                                        44.100          39.850



 127393795.676 7  99267897.931 6  24242229.040                    24242227.180
                                        43.600          40.100



 23  8 28 12 53 30.0000000  0  9G03G04G06G07G09G11G17G19G31
 118157642.240 7  92070893.548 7  22484647.940                    22484647.360
                                        47.100          45.400



 108075979.966 8  84215074.948 8  20566162.900                    20566159.980
                                        49.000          49.200



 108441897.910 8  84500203.237 8  20635800.360                    20635798.660
                                        49.900          48.450



 127712544.020 7  99516288.482 6  24302883.800                    24302885.460
                                        42.050          40.500



 106576052.460 8  83046302.847 8  20280736.060                    20280734.000
                                        50.800          48.450



 123098418.573 7  95920848.123 7  23424845.820                    23424843.820
                                        44.500          45.700



 126570547.167 6  98626383.216 6  24085582.100                    24085581.580
                                        41.750          39.500



 120568710.526 7  93949634.98646  22943462.940                    22943458.860
                                        42.700          38.500



 127474860.684 7  99331065.373 6  24257655.280                    24257653.440
                                        43.400          39.850



 23  8 28 12 54  0.0000000  0  9G03G04G06G07G09G11G17G19G31
 118240467.742 7  92135432.867 7  22500409.180                    22500408.540
                                        46.600          45.600



 108112556.623 8  84243576.229 8  20573123.220                    20573120.320
                                        48.900          49.150



 108413603.950 8  84478156.006 8  20630416.180                    20630414.460
                                        49.950          48.600



 127612768.958 7  99438542.008 6  24283897.000                    24283898.600
                                        42.500          40.150



 106552391.742 8  83027865.959 8  20276233.580                    20276231.460
                                        50.800          48.650



 123003110.704 7  95846582.306 7  23406709.300                    23406707.300
                                        44.700          45.900



 126665199.397 6  98700138.025 6  24103593.920                    24103593.480
                                        41.750          39.400



 120658096.335 7  94019286.18846  22960472.500                    22960468.460
                                        42.200          40.100



 127556352.984 7  99394565.760 6  24273162.860                    24273161.020
                                        43.500          40.750



 23  8 28 12 54 30.0000000  0  9G03G04G06G07G09G11G17G19G31
 118323493.716 7  92200128.395 7  22516208.540                    22516207.900
                                        45.950          45.000



 108149583.603 8  84272428.423 8  20580169.220                    20580166.340
                                        49.050          49.150



 108385858.025 8  84456535.817 8  20625136.280                    20625134.560
                                        50.100          48.800



 127513061.880 7  99360848.466 6  24264923.200                    24264924.700
                                        42.200          40.850



 106529226.426 8  83009815.088 8  20271825.360                    20271823.180
                                        50.850          49.400



 122908053.193 7  95772511.600 7  23388620.400                    23388618.400
                                        44.650          46.300



 126759951.194 7  98773970.416 6  24121624.700                    24121624.320
                                        42.200          39.400



 120747818.475 7  94089199.45446  22977546.060                    22977542.100
                                        43.200          39.800



 127638271.543 7  99458398.318 6  24288751.540                    24288749.700
                                        43.250          40.500



 23  8 28 12 55  0.0000000  0  9G03G04G06G07G09G11G17G19G31
 118406717.284 7  92264977.877 7  22532045.500                    22532044.860
                                        45.300          45.200



 108187057.272 8  84301628.672 8  20587300.220                    20587297.360
                                        48.950          49.200



 108358659.520 8  84435342.191 8  20619960.540                    20619958.840
                                        50.000          48.750



 127413423.300 6  99283208.311 6  24245962.400                    24245963.840
                                        41.900          40.100



 106506554.458 8  82992148.622 8  20267511.040                    20267508.820
                                        50.650          49.650



 122813246.520 7  95698636.358 7  23370579.220                    23370577.220
                                        44.950          45.800



 126854797.950 7  98847876.792 6  24139673.560                    24139673.220
                                        42.150          39.900



 120837871.645 7  94159370.65346  22994682.600                    22994678.760
                                        44.000          41.100



 127720611.732 7  99522559.399 6  24304420.440                    24304418.640
                                        43.000          40.650



 23  8 28 12 55 30.0000000  0  9G03G04G06G07G09G11G17G19G31
 118490135.998 7  92329979.413 7  22547919.580                    22547918.960
                                        44.850          45.050



 108224974.439 8  84331174.502 8  20594515.640                    20594512.780
                                        49.000          49.050



 108332008.263 8  84414574.982 8  20614888.960                    20614887.240
                                        49.900          48.400



 127313853.901 6  99205622.067 6  24227014.740                    24227016.120
                                        41.300          40.550



 106484374.107 8  82974865.229 8  20263290.240                    20263288.020
                                        50.850          50.000



 122718691.558 7  95624957.204 7  23352585.980                    23352583.980
                                        45.200          45.550



 126949735.195 7  98921853.698 6  24157739.620                    24157739.300
                                        42.550          38.950



 120928250.769 7  94229795.84646  23011881.200                    23011877.460
                                        44.100          40.750



 127803369.436 7  99587045.808 6  24320168.800                    24320167.060
                                        43.950          40.300



 23  8 28 12 56  0.0000000  0  9G03G04G06G07G09G11G17G19G31
 118573751.792 7  92395134.526 7  22563831.140                    22563830.560
                                        44.100          45.050



 108263336.208 8  84361066.772 8  20601815.660                    20601812.820
                                        48.950          48.950



 108305908.289 8  84394237.350 8  20609922.280                    20609920.560
                                        49.950          48.600



 127214359.151 6  99128093.950 6  24208081.300                    24208082.640
                                        40.950          39.550



 106462688.021 8  82957966.974 8  20259163.520                    20259161.320
                                        50.950          50.000



 122624393.569 7  95551478.324 7  23334641.640                    23334639.600
                                        45.300          45.100



 127044762.871 7  98995901.039 6  24175822.940                    24175822.640
                                        43.300          38.900



 121018955.291 7  94300474.58546  23029141.720                    23029138.100
                                        44.850          41.150



 127886544.495 7  99651857.462 6  24335996.540                    24335994.860
                                        43.400          39.600



 23  8 28 12 56 30.0000000  0  9G03G04G06G07G09G11G17G19G31
 118657561.013 7  92460440.341 7  22579779.500                    22579778.980
                                        43.850          44.650



 108302138.161 8  84391302.049 8  20609199.420                    20609196.600
                                        49.000          48.750



 108280358.233 8  84374328.230 8  20605060.240                    20605058.540
                                        49.800          49.000



 127114938.312 6  99050623.476 6  24189161.880                    24189163.160
                                        41.300          40.050



 106441493.333 8  82941451.657 8  20255130.280                    20255128.120
                                        50.900          49.900



 122530352.229 7  95478199.419 7  23316746.120                    23316744.060
                                        44.700          45.550



 127139874.423 7  99070013.798 6  24193922.160                    24193921.860
                                        42.850          39.300



 121109978.914 7  94371401.99846  23046462.960                    23046459.460
                                        44.900          41.400



 127970131.673 7  99716990.219 6  24351902.720                    24351901.080
                                        43.300          39.800



 23  8 28 12 57  0.0000000  0  9G03G04G06G07G09G11G17G19G31
 118741566.591 7  92525899.143 7  22595765.220                    22595764.760
                                        44.400          44.800



 108341382.385 8  84421881.953 8  20616667.360                    20616664.520
                                        48.850          48.650



 108255363.129 8  84354851.524 8  20600303.800                    20600302.140
                                        49.800          49.000



 127015597.771 7  98973215.510 6  24170257.800                    24170259.020
                                        42.400          40.300



 106420793.625 8  82925322.017 8  20251191.260                    20251189.140
                                        50.650          49.400



 122436573.707 7  95405125.331 7  23298900.620                    23298898.520
                                        44.850          45.350



 127235071.182 7  99144192.906 6  24212037.660                    24212037.360
                                        42.800          39.050



 121201321.930 7  94442578.23947  23063845.040                    23063841.620
                                        44.500          42.000



 128054131.738 7  99782444.730 6  24367887.440                    24367885.840
                                        42.800          39.050



 23  8 28 12 57 30.0000000  0  9G03G04G06G07G09G11G17G19G31
 118825764.414 7  92591507.777 7  22611787.500                    22611787.120
                                        45.400          45.250



 108381064.011 8  84452802.691 8  20624218.520                    20624215.680
                                        49.050          48.800



 108230921.077 8  84335805.768 8  20595652.620                    20595650.980
                                        50.100          49.100



 126916336.570 7  98895869.376 6  24151368.820                    24151369.960
                                        43.150          39.850



 106400585.552 8  82909575.478 8  20247345.780                    20247343.680
                                        50.650          49.000



 122343057.326 7  95332255.486 7  23281105.000                    23281102.860
                                        44.300          45.500



 127330347.114 7  99218433.737 6  24230168.180                    24230167.880
                                        42.600          39.650



 121292977.833 7  94513998.35846  23081286.640                    23081283.260
                                        44.500          41.750



 128138538.746 7  99848216.348 6  24383949.600                    24383948.000
                                        42.600          39.050



