     2.11           OBSERVATION DATA    M: Mixed            RINEX VERSION / TYPE
RTKCONV demo5 b34f.1                    20231105 175416 UTC PGM / RUN BY / DATE 
format: u-blox UBX                                          COMMENT             
log: C:\Users\oo\Desktop\divers\verniquet\Reseau\verniquet\mCOMMENT             
                                                            MARKER NAME         
                                                            MARKER NUMBER       
                                                            OBSERVER / AGENCY   
                                                            REC # / TYPE / VERS 
                                                            ANT # / TYPE        
  4205706.3692   177792.9207  4775797.2902                  APPROX POSITION XYZ 
        0.0000        0.0000        0.0000                  ANTENNA: DELTA H/E/N
     1     1                                                WAVELENGTH FACT L1/2
     4    C1    L1    D1    S1                              # / TYPES OF OBSERV 
  2023    11    05    15    36   56.9960000     GPS         TIME OF FIRST OBS   
  2023    11    05    17    00   29.9960000     GPS         TIME OF LAST OBS    
                                                            END OF HEADER       
 23 11 05 15 36 56.9960000  0 10G12G13G14G17G22G15G23G19G24G10
  21312655.997   111998867.3971       3300.678          43.000  
  21192319.638   111366395.2591      -3342.966          43.000  
  23071291.526   121240442.9873      -3498.676          33.000  
  21573174.292   113367839.2321       -324.869          41.000  
  21830986.236   114722604.5961      -2993.549          39.000  
  19465219.595   102290374.6741      -2146.648          43.000  
  21400184.496   112458729.9201      -1391.315          43.000  
  21365983.018   112278999.1611       1815.201          42.000  
  18959094.804    99630716.7483        737.663          45.000  
  22333673.887   117364298.7531       1056.561          43.000  
 23 11 05 15 36 57.9960000  0 10G12G13G14G17G22G15G23G19G24G10
  21312028.335   111995567.406        3302.374          44.000  
  21192955.744   111369738.520       -3341.154          41.000  
  23071955.315   121243943.0672      -3511.041          32.000  
  21573236.443   113368165.208        -323.933          41.000  
  21831555.990   114725598.662       -2991.780          40.000  
  19465628.147   102292521.882       -2145.401          43.000  
  21400449.292   112460121.743       -1389.850          43.000  
  21365637.532   112277184.571        1816.700          43.000  
  18958954.666    99629979.6952        739.385          45.000  
  22333472.419   117363242.714        1058.026          44.000  
 23 11 05 15 36 58.9960000  0 10G12G13G14G17G22G15G23G19G24G10
  21311400.463   111992267.205        3300.348          43.000  
  21193592.237   111373081.512       -3342.764          42.000  
  23072618.179   121247425.9833      -3498.684          31.000  
  21573298.570   113368491.261        -326.130          40.000  
  21832125.803   114728592.424       -2993.661          40.000  
  19466036.495   102294669.146       -2147.375          43.000  
  21400714.383   112461513.647       -1391.936          43.000  
  21365292.228   112275370.018        1814.279          43.000  
  18958814.248    99629242.5972        736.889          45.000  
  22333271.430   117362186.777        1055.768          43.000  
 23 11 05 15 36 59.9960000  0 10G12G13G14G17G22G15G23G19G24G10
  21310772.397   111988967.030        3300.671          43.000  
  21194228.426   111376424.540       -3342.431          42.000  
  23073281.789   121250924.6192      -3497.650          31.000  
  21573360.813   113368817.667        -325.920          40.000  
  21832695.636   114731586.141       -2993.330          40.000  
  19466444.976   102296816.682       -2147.198          43.000  
  21400979.223   112462905.884       -1391.838          43.000  
  21364947.088   112273555.675        1814.713          43.000  
  18958673.698    99628505.6502        737.350          44.000  
  22333070.310   117361131.193        1055.872          43.000  
 23 11 05 15 37 00.9960000  0 10G12G13G14G17G22G15G23G19G24G10
  21310144.219   111985665.602        3302.793          43.000  
  21194864.091   111379766.237       -3340.267          42.000  
  23073949.608   121254421.8152      -3495.587          31.000  
  21573422.643   113369143.076        -324.405          40.000  
  21833264.927   114734578.470       -2990.700          40.000  
  19466853.060   102298963.203       -2145.316          43.000  
  21401244.200   112464297.148       -1390.073          43.000  
  21364601.718   112271740.304        1816.816          43.000  
  18958533.376    99627767.573         739.264          45.000  
  22332869.436   117360074.605        1058.156          42.000  
 23 11 05 15 37 01.9960000  0 10G12G13G14G17G22G15G23G19G24G10
  21309515.543   111982362.514        3303.958          43.000  
  21195499.626   111383106.358       -3339.632          42.000  
  23074623.150   121257917.3082      -3495.688          30.000  
  21573484.663   113369467.096        -323.231          38.000  
  21833834.166   114737569.168       -2989.804          36.000  
  19467261.487   102301108.340       -2144.524          43.000  
  21401508.662   112465687.141       -1389.388          43.000  
  21364256.212   112269923.584        1816.799          44.000  
  18958392.769    99627028.024         740.413          45.000  
  22332667.677   117359016.717        1058.498          42.000  
 23 11 05 15 37 02.9960000  0 10G12G13G14G17G22G15G23G19G24G10
  21308887.136   111979058.629        3303.790          42.000  
  21196135.039   111386445.552       -3338.774          42.000  
  23075290.197                       -3501.925          21.000  
  21573546.435   113369790.716        -323.603          41.000  
  21834403.275   114740559.084       -2988.863          33.000  
  19467669.510   102303252.947       -2144.131          44.000  
  21401772.998   112467076.555       -1389.226          43.000  
  21363910.419   112268106.179        1817.659          43.000  
  18958251.847    99626287.784         740.645          46.000  
  22332466.329   117357958.322        1059.033          42.000  
 23 11 05 16 16 40.9960000  0 10G24G12G13G19G17G23G15G25G32G10
  18881653.857    99223753.868        -423.144          47.000  
  20018918.401   105200121.1901       2330.522          46.000  
  22840176.183   120025934.0013      -3870.907          36.000  
  20871043.627   109678068.6851        293.375          43.000  
  22049062.984   115868614.3483      -1759.265          35.000  
  22331178.263   117351143.5781      -2638.295          40.000  
  20718857.824   108878332.0261      -3316.763          44.000  
  22708359.825   119333262.5381       3615.839          37.000  
  23837636.230   125267606.127        3367.409          37.000  
  22206164.679   116694156.2591       -518.350          43.000  
 23 11 05 16 16 41.9960000  0 10G24G12G13G19G17G23G15G25G32G10
  18881735.014    99224178.017        -423.346          47.000  
  20018475.248   105197791.715        2330.407          46.000  
  22840912.122   120029806.0702      -3871.083          36.000  
  20870987.906   109677776.456         293.146          43.000  
  22049399.426   115870374.0612      -1758.526          35.000  
  22331680.766   117353782.525       -2638.009          41.000  
  20719489.271   108881649.366       -3316.421          45.000  
  22707672.033   119329647.034        3616.589          38.000  
  23836995.325   125264239.016        3368.603          36.000  
  22206263.438   116694675.229        -518.094          43.000  
 23 11 05 16 16 42.9960000  0 10G24G12G13G19G17G23G15G25G32G10
  18881815.492    99224600.889        -416.356          47.000  
  20018031.480   105195460.901        2337.699          46.000  
  22841648.137   120033676.465       -3863.211          35.000  
  20870932.096   109677483.136         299.798          44.000  
  22049734.268   115872132.0631      -1752.090          35.000  
  22332182.650   117356420.110       -2630.940          41.000  
  20720120.507   108884965.330       -3309.100          45.000  
  22706983.904   119326029.937        3624.170          38.000  
  23836354.154   125260870.315        3374.657          37.000  
  22206362.095   116695193.098        -511.582          43.000  
 23 11 05 16 16 43.9960000  0 10G24G12G13G19G17G23G15G25G32G10
  18881895.447    99225020.741        -417.370          47.000  
  20017587.381   105193127.104        2336.088          46.000  
  22842383.803   120037543.508       -3864.063          35.000  
  20870875.549   109677187.014         298.460          44.000  
  22050068.437   115873887.585       -1753.082          34.000  
  22332683.838   117359054.572       -2631.876          41.000  
  20720750.843   108888278.171       -3310.302          44.000  
  22706295.163   119322409.506        3622.943          38.000  
  23835712.385   125257498.247        3374.580          37.000  
  22206460.017   116695708.103        -512.639          43.000  
 23 11 05 16 16 44.9960000  0 10G24G12G13G19G17G23G15G25G32G10
  18881975.196    99225439.277        -418.619          47.000  
  20017143.205   105190791.902        2335.110          46.000  
  22843118.946   120041408.762       -3865.610          35.000  
  20870819.093   109676889.775         296.658          45.000  
  22050402.323   115875641.914       -1754.365          35.000  
  22333184.770   117361687.686       -2633.036          40.000  
  20721381.062   108891589.595       -3311.666          43.000  
  22705606.019   119318787.449        3622.583          36.000  
  23835069.962   125254124.562        3373.135          38.000  
  22206557.902   116696221.956        -514.127          44.000  
 23 11 05 16 16 45.9960000  0 10G24G12G13G19G17G23G15G25G32G10
  18882054.769    99225857.488        -418.680          46.000  
  20016699.134   105188456.434        2335.010          44.000  
  22843850.603   120045273.441       -3864.853          31.000  
  20870762.683   109676592.420         296.614          44.000  
  22050736.460   115877395.884       -1754.556          33.000  
  22333685.622   117364320.326       -2633.371          39.000  
  20722011.020   108894900.536       -3311.497          42.000  
  22704916.912   119315164.767        3621.924          36.000  
  23834427.820   125250750.192        3373.522          36.000  
  22206655.658   116696735.603        -513.903          42.000  
 23 11 05 16 16 46.9960000  0 10G24G12G13G19G17G23G15G25G32G10
  18882134.693    99226275.596        -418.276          46.000  
  20016254.719   105186120.790        2335.541          43.000  
  22844582.808   120049137.661       -3862.976          31.000  
  20870706.384   109676295.145         297.344          44.000  
  22051070.143   115879149.866       -1753.848          35.000  
  22334186.280   117366952.750       -2632.218          38.000  
  20722640.916   108898211.297       -3310.549          40.000  
  22704227.701   119311541.555        3623.694          36.000  
  23833785.068   125247375.300        3374.663          36.000  
  22206752.913   116697249.351        -513.667          42.000  
 23 11 05 16 16 47.9960000  0 10G24G12G13G19G17G23G15G25G32G10
  18882214.112    99226693.657        -418.104          46.000  
  20015810.192   105183785.099        2335.545          43.000  
  22845320.123   120053001.512       -3863.375          31.000  
  20870650.077   109675998.047         296.792          44.000  
  22051403.994   115880903.831       -1754.542          34.000  
  22334687.149   117369585.080       -2632.524          38.000  
  20723270.456   108901521.916       -3310.614          41.000  
  22703538.282   119307918.060        3623.285          36.000  
  23833142.708   125244000.081        3375.501          36.000  
  22206850.383   116697763.199        -514.008          42.000  
 23 11 05 16 16 48.9960000  0 11G24G12G13G19G17G22G23G15G25G32G10
  18882293.508    99227112.199        -418.523          46.000  
  20015366.106   105181449.851        2335.426          43.000  
  22846056.361   120056865.533       -3864.925          31.000  
  20870593.695   109675701.595         296.235          43.000  
  22051738.054   115882658.330       -1754.493          34.000  
  23289777.548                       -3363.137          21.000  
  22335188.234   117372217.764       -2632.802          38.000  
  20723900.108   108904832.920       -3310.889          41.000  
  22702848.771   119304294.619        3623.999          36.000  
  23832500.603   125240624.990        3375.073          37.000  
  22206948.226   116698277.669        -514.477          42.000  
 23 11 05 16 16 49.9960000  0 11G24G12G13G19G17G22G23G15G25G32G10
  18882372.948    99227530.881        -418.446          46.000  
  20014921.502   105179114.769        2334.536          43.000  
  22846794.485   120060729.280       -3863.373          32.000  
  20870537.560   109675405.494         295.969          44.000  
  22052072.193   115884412.995       -1754.717          34.000  
  23290416.558                       -3363.137          21.000  
  22335689.138   117374850.490       -2632.526          38.000  
  20724529.847   108908143.891       -3310.347          41.000  
  22702159.595   119300671.078        3623.981          36.000  
  23831858.088   125237249.696        3375.474          36.000  
  22207046.329   116698792.427        -514.683          42.000  
 23 11 05 16 16 50.9960000  0 11G24G12G13G19G17G22G23G15G25G32G10
  18882452.436    99227949.767        -419.051          44.000  
  20014477.124   105176779.828        2334.448          43.000  
  22847529.750   120064592.879       -3863.973          28.000  
  20870481.296   109675109.834         294.927          43.000  
  22052406.038   115886167.956       -1754.781          34.000  
  23291058.687                       -3363.137          21.000  
  22336190.352   117377483.359       -2633.440          39.000  
  20725159.791   108911455.054       -3311.480          42.000  
  22701469.988   119297047.407        3623.657          34.000  
  23831215.863   125233874.246        3375.510          35.000  
  22207144.807   116699307.560        -515.672          43.000  
 23 11 05 16 16 51.9960000  0 11G24G12G13G19G17G22G23G15G25G32G10
  18882531.773    99228369.039        -419.120          45.000  
  20014032.368   105174445.225        2334.939          43.000  
  22848273.304   120068456.408       -3863.798          27.000  
  20870425.047   109674814.728         295.084          43.000  
  22052740.401   115887923.329       -1755.256          34.000  
  23291697.858                       -3363.137          21.000  
  22336691.511   117380116.473       -2633.075          39.000  
  20725789.792   108914766.410       -3311.278          42.000  
  22700780.133   119293423.768        3623.608          35.000  
  23830573.652   125230498.871        3375.400          35.000  
  22207242.777   116699823.236        -515.557          43.000  
 23 11 05 16 16 52.9960000  0 11G24G12G13G19G17G22G23G15G25G32G10
  18882611.466    99228788.600        -419.851          45.000  
  20013587.850   105172110.945        2333.923          43.000  
  22849005.417   120072319.951       -3863.830          32.000  
  20870368.842   109674520.143         294.300          44.000  
  22053074.673   115889679.075       -1755.234          34.000  
  23292338.401                       -3363.137          21.000  
  22337192.714   117382749.806       -2633.451          39.000  
  20726419.944   108918078.040       -3311.677          42.000  
  22700090.389   119289800.091        3624.329          35.000  
  23829931.396   125227123.443        3375.340          35.000  
  22207340.734   116700339.383        -516.616          42.000  
 23 11 05 16 16 53.9960000  0 11G24G12G13G19G17G22G23G15G25G32G10
  18882691.303    99229208.761        -420.491          45.000  
  20013143.925   105169777.265        2333.448          43.000  
  22849737.842   120076183.811       -3863.823          33.000  
  20870312.644   109674226.348         293.545          44.000  
  22053409.000   115891435.492       -1756.727          34.000  
  23292982.975                       -3363.137          20.000  
  22337693.813   117385383.611       -2634.032          38.000  
  20727050.370   108921390.074       -3312.450          43.000  
  22699400.827   119286176.705        3623.126          35.000  
  23829288.917   125223748.317        3374.710          35.000  
  22207439.413   116700856.240        -517.165          43.000  
 23 11 05 16 16 54.9960000  0 11G24G12G13G19G17G22G23G15G25G32G10
  18882771.323    99229629.370        -420.968          44.000  
  20012699.749   105167443.959        2332.933          44.000  
  22850472.241   120080041.7003      -3864.635          32.000  
  20870256.851   109673933.206         292.490          43.000  
  22053743.390   115893192.430       -1758.065          32.000  
  23293622.170                       -3363.137          17.000  
  22338195.077   117388017.805       -2634.561          38.000  
  20727680.833   108924702.458       -3312.566          41.000  
  22698711.423   119282553.397        3623.529          35.000  
  23828646.786   125220373.174        3374.972          35.000  
  22207537.697   116701373.716        -518.008          42.000  
 23 11 05 16 16 55.9960000  0 11G24G12G13G19G17G22G23G15G25G32G10
  18882851.350    99230050.289        -421.546          44.000  
  20012256.003   105165110.955        2332.446          43.000  
  22851204.537   120083905.5202      -3864.173          31.000  
  20870201.320   109673640.554         291.674          43.000  
  22054077.821   115894949.601       -1757.576          33.000  
  23294262.396                       -3363.137          17.000  
  22338696.554   117390652.217       -2635.022          38.000  
  20728311.255   108928015.062       -3313.216          41.000  
  22698022.083   119278930.093        3622.736          34.000  
  23828004.312   125216997.980        3375.631          35.000  
  22207636.509   116701891.626        -518.639          42.000  
 23 11 05 16 16 56.9960000  0 10G24G12G13G19G17G23G15G25G32G10
  18882931.723    99230471.758        -421.573          44.000  
  20011812.251   105162778.521        2332.456          42.000  
  22851940.275   120087769.6012      -3863.919          33.000  
  20870145.482   109673348.641         291.836          43.000  
  22054412.256   115896707.409       -1757.999          34.000  
  22339197.679   117393287.057       -2634.689          38.000  
  20728941.600   108931328.113       -3312.988          43.000  
  22697332.808   119275307.020        3623.547          35.000  
  23827362.133   125213623.143        3375.618          33.000  
  22207735.541   116702410.258        -518.749          42.000  
 23 11 05 16 16 57.9960000  0 10G24G12G13G19G17G23G15G25G32G10
  18883011.936    99230893.265        -421.542          44.000  
  20011368.080   105160446.055        2332.343          41.000  
  22852679.148   120091633.3382      -3863.321          32.000  
  20870090.204   109673056.990         291.517          43.000  
  22054746.474   115898465.429       -1759.339          32.000  
  22339699.200   117395921.827       -2634.576          38.000  
  20729572.319   108934641.073       -3312.794          41.000  
  22696643.594   119271683.671        3623.877          35.000  
  23826720.268   125210247.967        3375.743          36.000  
  22207834.673   116702929.047        -518.948          42.000  
 23 11 05 16 16 58.9960000  0 10G24G12G13G19G17G23G15G25G32G10
  18883092.002    99231315.224        -422.276          45.000  
  20010924.085   105158114.034        2331.515          42.000  
  22853413.552   120095497.1202      -3863.887          32.000  
  20870034.867   109672766.021         290.329          43.000  
  22055080.838   115900223.806       -1758.892          33.000  
  22340200.728   117398556.972       -2635.173          38.000  
  20730203.203   108937954.393       -3313.782          41.000  
  22695954.040   119268060.425        3622.687          35.000  
  23826078.231   125206872.841        3374.506          35.000  
  22207933.856   116703448.480        -520.048          43.000  
 23 11 05 16 16 59.9960000  0 10G24G12G13G19G17G23G15G25G32G10
  18883172.440    99231737.679        -423.075          45.000  
  20010480.306   105155782.489        2331.134          42.000  
  22854147.863   120099361.0552      -3864.632          32.000  
  20869979.807   109672475.711         289.623          43.000  
  22055415.260   115901982.800       -1759.576          34.000  
  22340702.368   117401192.502       -2635.559          38.000  
  20730833.900   108941268.089       -3313.998          40.000  
  22695264.495   119264437.382        3622.797          35.000  
  23825436.290   125203497.834        3374.637          35.000  
  22208032.805   116703968.543        -520.888          43.000  
 23 11 05 16 17 00.9960000  0 10G24G12G13G19G17G23G15G25G32G10
  18883252.871    99232160.505        -422.942          45.000  
  20010036.510   105153451.319        2331.057          42.000  
  22854884.393   120103224.9502      -3863.660          33.000  
  20869924.457   109672185.988         289.532          43.000  
  22055749.942   115903742.264       -1759.819          34.000  
  22341203.902   117403828.332       -2635.893          38.000  
  20731464.917   108944582.033       -3314.294          40.000  
  22694574.550   119260814.335        3623.297          34.000  
  23824794.528   125200122.997        3374.674          36.000  
  22208131.957   116704489.166        -520.808          42.000  
 23 11 05 16 17 01.9960000  0 10G24G12G13G19G17G23G15G25G32G10
  18883333.584    99232583.914        -423.738          45.000  
  20009593.028   105151120.719        2330.039          42.000  
  22855619.807   120107089.1712      -3864.415          35.000  
  20869869.356   109671897.053         288.521          43.000  
  22056084.895   115905502.335       -1760.166          35.000  
  22341705.445   117406464.631       -2636.754          38.000  
  20732095.638   108947896.430       -3314.776          41.000  
  22693885.068   119257191.580        3622.400          34.000  
  23824152.382   125196748.337        3374.402          35.000  
  22208230.599   116705010.527        -522.026          42.000  
 23 11 05 16 17 02.9960000  0 10G24G12G13G19G17G23G15G25G32G10
  18883414.449    99233007.835        -424.098          44.000  
  20009149.653   105148790.581        2330.363          42.000  
  22856355.357   120110953.4252      -3864.575          35.000  
  20869814.538   109671608.786         287.874          42.000  
  22056420.242   115907262.961       -1760.902          34.000  
  22342206.736   117409101.334       -2637.016          38.000  
  20732726.581   108951211.290       -3315.171          40.000  
  22693195.392   119253569.024        3621.967          34.000  
  23823510.129   125193373.827        3374.089          35.000  
  22208329.538   116705532.517        -522.084          42.000  
 23 11 05 16 17 03.9960000  0 10G24G12G13G19G17G23G15G25G32G10
  18883495.459    99233431.976        -424.220          44.000  
  20008706.295   105146460.628        2329.961          43.000  
  22857090.834   120114817.6132      -3864.614          35.000  
  20869759.561   109671321.005         287.525          44.000  
  22056755.522   115909023.704       -1759.960          35.000  
  22342708.375   117411738.194       -2636.444          38.000  
  20733357.236   108954526.229       -3314.959          42.000  
  22692506.570   119249946.341        3622.888          37.000  
  23822868.316   125189999.192        3374.760          36.000  
  22208428.546   116706054.940        -522.434          42.000  
 23 11 05 16 17 04.9960000  0 10G24G12G13G19G17G23G15G25G32G10
  18883576.171    99233856.724        -425.287          44.000  
  20008263.130   105144131.297        2328.986          43.000  
  22857826.733   120118682.0912      -3865.302          34.000  
  20869704.630   109671034.037         285.999          43.000  
  22057094.340   115910785.348       -1761.568          30.000  
  22343210.245   117414375.565       -2638.193          37.000  
  20733987.872   108957841.672       -3315.765          41.000  
  22691817.555   119246323.959        3621.991          36.000  
  23822226.214   125186624.772        3374.104          36.000  
  22208528.036   116706578.101        -523.885          41.000  
 23 11 05 16 17 05.9960000  0 10G24G12G13G19G17G23G15G25G32G10
  18883656.732    99234281.795        -425.355          44.000  
  20007819.890   105141802.300        2328.635          43.000  
  22858562.129   120122546.4792      -3864.828          34.000  
  20869649.895   109670747.578         285.763          43.000  
  22057426.908   115912547.370       -1763.027          34.000  
  22343711.930   117417013.106       -2637.875          38.000  
  20734618.859   108961157.371       -3316.344          41.000  
  22691128.612   119242701.592        3621.539          36.000  
  23821583.974   125183250.433        3373.820          35.000  
  22208627.347   116707101.750        -524.291          42.000  
 23 11 05 16 17 06.9960000  0 10G24G12G13G19G17G23G15G25G32G10
  18883737.629    99234707.261        -425.669          44.000  
  20007376.766   105139473.661        2328.186          43.000  
  22859297.534   120126410.915       -3864.357          34.000  
  20869595.416   109670461.712         285.292          43.000  
  22057762.476   115914309.710       -1762.382          34.000  
  22344213.541   117419650.979       -2637.934          38.000  
  20735249.786   108964473.289       -3316.030          41.000  
  22690439.315   119239079.235        3622.076          35.000  
  23820942.059   125179876.108        3373.715          35.000  
  22208726.883   116707625.916        -524.352          42.000  
 23 11 05 16 17 07.9960000  0 10G24G12G13G19G17G23G15G25G32G10
  18883818.561    99235133.129        -425.945          44.000  
  20006933.480   105137145.399        2328.017          43.000  
  22860033.139   120130275.443       -3864.974          34.000  
  20869541.261   109670176.454         285.033          43.000  
  22058096.218   115916072.531       -1763.121          34.000  
  22344715.785   117422289.143       -2638.091          38.000  
  20735880.741   108967789.530       -3316.423          42.000  
  22689750.104   119235456.963        3622.589          35.000  
  23820300.198   125176501.799        3374.402          36.000  
  22208826.747   116708150.660        -524.649          42.000  
 23 11 05 16 17 08.9960000  0 10G24G12G13G19G17G23G15G25G32G10
  18883899.604    99235559.164        -426.072          44.000  
  20006490.746   105134817.286        2328.026          43.000  
  22860768.589   120134139.748       -3863.899          35.000  
  20869486.974   109669891.573         284.724          42.000  
  22058433.602   115917835.594       -1762.494          34.000  
  22345217.991   117424927.425       -2638.534          38.000  
  20736511.834   108971105.815       -3316.388          40.000  
  22689061.125   119231834.517        3622.729          35.000  
  23819657.991   125173127.365        3374.624          35.000  
  22208926.276   116708675.759        -525.387          41.000  
 23 11 05 16 17 09.9960000  0 10G24G12G13G19G17G23G15G25G32G10
  18883980.458    99235985.704        -426.788          44.000  
  20006047.973   105132489.681        2327.597          43.000  
  22861503.826   120138004.256       -3864.384          35.000  
  20869432.943   109669607.393         283.914          43.000  
  22058768.193   115919599.199       -1763.946          34.000  
  22345720.361   117427566.026       -2638.715          38.000  
  20737142.701   108974422.471       -3316.877          41.000  
  22688371.846   119228212.256        3622.827          35.000  
  23819016.610   125169753.084        3374.098          36.000  
  22209025.891   116709201.498        -526.074          41.000  
 23 11 05 16 17 10.9960000  0 10G24G12G13G19G17G23G15G25G32G10
  18884061.786    99236412.686        -427.114          44.000  
  20005604.735   105130162.463        2327.219          43.000  
  22862238.563   120141868.774       -3864.341          35.000  
  20869378.918   109669323.850         283.325          43.000  
  22059103.763   115921363.290       -1763.922          35.000  
  22346222.720   117430205.054       -2639.039          38.000  
  20737774.281   108977739.477       -3316.695          41.000  
  22687682.543   119224590.191        3622.260          35.000  
  23818374.239   125166378.912        3374.234          36.000  
  22209126.109   116709727.819        -526.455          41.000  
 23 11 05 16 17 11.9960000  0 10G24G12G13G19G17G23G15G25G32G10
  18884143.100    99236839.999        -427.586          44.000  
  20005161.901   105127835.582        2326.729          43.000  
  22862974.007   120145733.296       -3864.731          36.000  
  20869324.759   109669040.848         282.819          43.000  
  22059439.568   115923127.793       -1764.889          34.000  
  22346725.081   117432844.275       -2639.191          38.000  
  20738405.911   108981056.726       -3317.266          41.000  
  22686993.285   119220968.097        3621.735          35.000  
  23817732.187   125163004.715        3374.065          36.000  
  22209226.339   116710254.640        -527.250          42.000  
 23 11 05 16 17 12.9960000  0 10G24G12G13G19G17G23G15G25G32G10
  18884224.595    99237267.814        -428.002          45.000  
  20004718.864   105125509.157        2326.512          42.000  
  22863709.485   120149597.930       -3864.486          36.000  
  20869271.344   109668758.541         281.800          43.000  
  22059775.422   115924892.821       -1765.016          34.000  
  22347227.597   117435483.895       -2639.687          38.000  
  20739037.487   108984374.369       -3317.869          40.000  
  22686304.056   119217346.165        3621.386          35.000  
  23817090.089   125159630.682        3374.549          36.000  
  22209326.678   116710782.136        -527.797          41.000  
 23 11 05 16 17 13.9960000  0 10G24G12G13G19G17G23G15G25G32G10
  18884306.305    99237696.108        -428.672          45.000  
  20004276.034   105123183.268        2325.245          42.000  
  22864444.920   120153462.656       -3865.228          36.000  
  20869218.029   109668476.897         281.506          43.000  
  22060111.306   115926658.381       -1765.827          34.000  
  22347729.928   117438123.897       -2639.955          38.000  
  20739669.218   108987692.340       -3317.918          41.000  
  22685614.762   119213724.330        3622.394          35.000  
  23816448.394   125156256.805        3373.489          36.000  
  22209427.137   116711310.242        -528.426          41.000  
 23 11 05 16 17 14.9960000  0 10G24G12G13G19G17G23G15G25G32G10
  18884388.005    99238124.664        -428.524          45.000  
  20003833.185   105120857.538        2325.760          42.000  
  22865180.312   120157327.345       -3864.031          35.000  
  20869164.710   109668195.736         280.921          42.000  
  22060447.517   115928424.317       -1767.000          32.000  
  22348232.381   117440764.087       -2640.055          38.000  
  20740300.872   108991010.514       -3318.346          42.000  
  22684925.648   119210102.503        3621.716          35.000  
  23815806.342   125152882.793        3374.343          36.000  
  22209528.056   116711838.806        -529.134          42.000  
 23 11 05 16 17 15.9960000  0 10G24G12G13G19G17G23G15G25G32G10
  18884469.855    99238553.892        -429.453          44.000  
  20003391.027   105118532.477        2324.712          42.000  
  22865915.625   120161192.354       -3865.066          35.000  
  20869111.343   109667915.440         280.255          42.000  
  22060783.593   115930190.876       -1766.829          33.000  
  22348734.980   117443404.855       -2641.156          38.000  
  20740932.430   108994329.181       -3318.833          42.000  
  22684236.273   119206481.017        3621.674          35.000  
  23815164.147   125149509.152        3373.943          36.000  
  22209628.811   116712368.127        -529.645          42.000  
 23 11 05 16 17 16.9960000  0 10G24G12G13G19G17G23G15G25G32G10
  18884551.727    99238983.409        -429.414          44.000  
  20002948.864   105116207.690        2324.943          43.000  
  22866650.850   120165057.233       -3864.525          34.000  
  20869057.701   109667635.651         279.970          43.000  
  22061119.991   115931957.814       -1767.222          33.000  
  22349237.736   117446045.780       -2640.942          38.000  
  20741564.202   108997648.083       -3318.898          42.000  
  22683546.955   119202859.478        3621.423          35.000  
  23814522.263   125146135.453        3374.333          36.000  
  22209729.634   116712897.915        -529.797          42.000  
 23 11 05 16 17 17.9960000  0 10G24G12G13G19G17G23G15G25G32G10
  18884633.405    99239413.291        -429.920          44.000  
  20002506.630   105113883.274        2324.240          43.000  
  22867386.000   120168922.220       -3865.222          34.000  
  20869004.521   109667356.439         278.628          43.000  
  22061456.375   115933725.177       -1767.224          34.000  
  22349740.337   117448687.008       -2641.782          38.000  
  20742195.769   109000967.230       -3319.349          42.000  
  22682858.024   119199237.961        3621.228          35.000  
  23813880.368   125142761.813        3373.745          36.000  
  22209830.723   116713428.239        -530.603          42.000  
 23 11 05 16 17 18.9960000  0 10G24G12G13G19G17G23G15G25G32G10
  18884715.229    99239843.563        -430.133          44.000  
  20002064.625   105111559.226        2324.083          43.000  
  22868121.273   120172787.146       -3864.146          33.000  
  20868951.512   109667077.773         278.758          43.000  
  22061792.828   115935492.969       -1767.028          34.000  
  22350243.364   117451328.471       -2641.493          39.000  
  20742827.210   109004286.656       -3319.280          42.000  
  22682169.275   119195616.500        3622.137          35.000  
  23813238.856   125139388.195        3374.349          36.000  
  22209931.939   116713959.089        -530.784          42.000  
 23 11 05 16 17 19.9960000  0 10G24G12G13G19G17G23G15G25G32G10
  18884797.163    99240274.292        -431.025          44.000  
  20001622.340   105109235.624        2323.114          43.000  
  22868856.482   120176652.213       -3865.195          32.000  
  20868898.808   109666799.816         277.436          42.000  
  22062129.186   115937261.312       -1768.500          34.000  
  22350746.658   117453970.325       -2641.980          39.000  
  20743458.707   109007606.425       -3320.258          42.000  
  22681480.563   119191995.215        3621.777          36.000  
  23812596.529   125136014.686        3373.499          36.000  
  22210032.520   116714490.562        -531.722          41.000  
 23 11 05 16 17 20.9960000  0 10G24G12G13G19G17G23G15G25G32G10
  18884878.891    99240705.291        -430.728          44.000  
  20001180.387   105106912.256        2323.396          41.000  
  22869591.816   120180517.213       -3865.158          34.000  
  20868846.385   109666522.310         277.433          43.000  
  22062465.643   115939029.962       -1768.952          34.000  
  22351249.872   117456612.345       -2642.024          39.000  
  20744089.999   109010926.342       -3319.846          41.000  
  22680791.877   119188373.837        3621.307          37.000  
  23811954.671   125132641.106        3373.865          36.000  
  22210133.447   116715022.476        -532.175          41.000  
 23 11 05 16 17 21.9960000  0 10G24G12G13G19G17G23G15G25G32G10
  18884961.022    99241136.949        -431.913          44.000  
  20000737.885   105104589.521        2322.441          43.000  
  22870327.430   120184382.423       -3865.857          35.000  
  20868793.650   109666245.640         276.288          44.000  
  22062802.328   115940799.292       -1769.771          34.000  
  22351752.594   117459254.910       -2642.996          37.000  
  20744721.736   109014246.824       -3320.565          41.000  
  22680103.307   119184752.751        3621.881          35.000  
  23811312.590   125129267.796        3373.424          36.000  
  22210234.713   116715555.161        -532.991          41.000  
 23 11 05 16 17 22.9960000  0 10G24G12G13G19G17G23G15G25G32G10
  18885042.676    99241568.926        -432.390          44.000  
  20000295.821   105102267.093        2322.001          43.000  
  22871063.049   120188247.618       -3865.538          34.000  
  20868741.167   109665969.519         275.657          43.000  
  22063138.938   115942569.042       -1770.569          34.000  
  22352255.520   117461897.740       -2643.337          37.000  
  20745354.121   109017567.497       -3321.080          42.000  
  22679414.067   119181131.771        3620.819          36.000  
  23810670.895   125125894.549        3373.333          37.000  
  22210336.009   116716088.342        -533.379          41.000  
 23 11 05 16 17 23.9960000  0 10G24G12G13G19G17G23G15G25G32G10
  18885125.181    99242001.352        -432.622          44.000  
  19999853.883   105099945.094        2321.984          43.000  
  22871798.577   120192112.936       -3864.982          34.000  
  20868688.615   109665694.053         275.112          43.000  
  22063475.767   115944339.257       -1770.506          33.000  
  22352758.555   117464540.880       -2643.310          38.000  
  20745986.580   109020888.515       -3321.228          42.000  
  22678724.953   119177510.855        3620.978          37.000  
  23810028.943   125122521.381        3373.148          37.000  
  22210437.452   116716622.129        -534.130          41.000  
 23 11 05 16 17 24.9960000  0 10G24G12G13G19G17G23G15G25G32G10
  18885207.474    99242434.240        -433.110          44.000  
  19999412.456   105097623.541        2321.455          43.000  
  22872534.571   120195978.375       -3865.593          34.000  
  20868636.330   109665419.246         274.517          43.000  
  22063812.434   115946110.014       -1771.463          33.000  
  22353261.376   117467184.413       -2644.090          38.000  
  20746618.721   109024209.860       -3321.246          42.000  
  22678035.668   119173890.120        3620.410          36.000  
  23809387.484   125119148.347        3372.625          37.000  
  22210538.890   116717156.536        -534.799          42.000  
 23 11 05 16 17 25.9960000  0 10G24G12G13G19G17G23G15G25G32G10
  18885290.164    99242867.553        -433.711          44.000  
  19998970.531   105095302.405        2320.705          43.000  
  22873270.013   120199843.857       -3865.611          34.000  
  20868584.237   109665145.065         273.690          43.000  
  22064149.260   115947881.202       -1771.844          33.000  
  22353764.396   117469828.254       -2644.632          38.000  
  20747250.737   109027531.553       -3322.101          42.000  
  22677346.847   119170269.445        3620.160          37.000  
  23808745.803   125115775.347        3372.848          37.000  
  22210641.242   116717691.546        -535.459          42.000  
 23 11 05 16 17 26.9960000  0 10G24G12G13G19G17G23G15G25G32G10
  18885372.913    99243301.283        -434.208          44.000  
  19998528.940   105092981.672        2320.195          43.000  
  22874005.698   120203709.437       -3866.167          34.000  
  20868532.168   109664871.525         272.949          43.000  
  22064486.481   115949652.895       -1772.401          33.000  
  22354266.952   117472472.400       -2644.248          37.000  
  20747882.688   109030853.524       -3322.142          42.000  
  22676658.045   119166648.839        3620.318          36.000  
  23808103.844   125112402.447        3372.682          36.000  
  22210743.167   116718227.143        -536.153          42.000  
 23 11 05 16 17 27.9960000  0 10G24G12G13G19G17G23G15G25G32G10
  18885455.651    99243735.323        -434.465          44.000  
  19998087.733   105090661.234        2319.914          43.000  
  22874741.164   120207574.931       -3865.469          34.000  
  20868480.354   109664598.442         272.798          43.000  
  22064823.469   115951424.865       -1771.873          33.000  
  22354769.954   117475116.728       -2644.438          37.000  
  20748514.733   109034175.718       -3322.627          42.000  
  22675968.855   119163028.243        3620.727          36.000  
  23807461.582   125109029.530        3372.905          36.000  
  22210845.000   116718763.150        -536.451          41.000  
 23 11 05 16 17 28.9960000  0 10G24G12G13G19G17G23G15G25G32G10
  18885538.727    99244169.726        -434.643          44.000  
  19997646.206   105088341.129        2319.657          43.000  
  22875476.708   120211440.483       -3865.673          34.000  
  20868428.686   109664325.961         272.216          43.000  
  22065160.559   115953197.329       -1772.515          33.000  
  22355272.977   117477761.366       -2644.764          37.000  
  20749146.719   109037498.133       -3322.491          41.000  
  22675280.099   119159407.735        3620.184          36.000  
  23806819.872   125105656.597        3373.263          36.000  
  22210947.020   116719299.680        -536.837          42.000  
 23 11 05 16 17 29.9960000  0 10G24G12G13G19G17G23G15G25G32G10
  18885621.607    99244604.821        -435.666          45.000  
  19997204.927   105086021.688        2319.166          43.000  
  22876212.662   120215306.323       -3865.796          35.000  
  20868376.874   109664054.357         271.142          42.000  
  22065497.810   115954970.485       -1773.299          32.000  
  22355776.356   117480406.569       -2645.637          37.000  
  20749779.121   109040821.153       -3323.463          42.000  
  22674591.342   119155787.513        3619.873          35.000  
  23806178.044   125102284.053        3372.343          36.000  
  22211049.280   116719837.062        -537.786          41.000  
 23 11 05 16 17 30.9960000  0 10G24G12G13G19G17G23G15G25G32G10
  18885704.956    99245040.162        -435.036          45.000  
  19996764.008   105083702.500        2319.435          44.000  
  22876948.080   120219172.119       -3866.463          34.000  
  20868325.001   109663783.215         271.436          43.000  
  22065835.272   115956744.027       -1774.495          32.000  
  22356279.974   117483051.926       -2644.934          37.000  
  20750411.011   109044144.307       -3322.896          41.000  
  22673902.446   119152167.224        3621.283          34.000  
  23805536.199   125098911.405        3372.714          36.000  
  22211151.971   116720374.847        -537.856          42.000  
 23 11 05 16 17 31.9960000  0 10G24G12G13G19G17G23G15G25G32G10
  18885788.163    99245475.772        -435.931          45.000  
  19996323.108   105081383.528        2318.843          43.000  
  22877683.655   120223037.762       -3866.194          33.000  
  20868273.400   109663512.546         270.404          42.000  
  22066172.586   115958517.792       -1774.291          32.000  
  22356783.404   117485697.481       -2645.585          38.000  
  20751043.549   109047467.567       -3323.092          42.000  
  22673213.283   119148546.932        3620.306          37.000  
  23804894.448   125095538.697        3372.686          36.000  
  22211254.484   116720913.042        -538.404          42.000  
 23 11 05 16 17 32.9960000  0 10G24G12G13G19G17G23G15G25G32G10
  18885871.298    99245911.913        -435.989          45.000  
  19995881.766   105079065.116        2318.256          42.000  
  22878419.360   120226903.586       -3865.824          32.000  
  20868222.197   109663242.618         269.879          42.000  
  22066510.209   115960292.159       -1774.229          31.000  
  22357287.028   117488343.451       -2645.883          38.000  
  20751676.062   109050791.286       -3323.541          42.000  
  22672523.890   119144926.826        3620.526          36.000  
  23804252.954   125092166.131        3372.460          36.000  
  22211357.072   116721451.931        -538.939          42.000  
 23 11 05 16 17 33.9960000  0 10G24G12G13G19G17G23G15G25G32G10
  18885954.463    99246348.511        -436.809          45.000  
  19995440.664   105076747.134        2317.808          42.000  
  22879154.987   120230769.493       -3866.037          34.000  
  20868171.088   109662973.327         268.951          41.000  
  22066847.853   115962067.090       -1775.632          30.000  
  22357791.163   117490989.748       -2646.534          39.000  
  20752308.768   109054115.330       -3323.960          41.000  
  22671835.032   119141306.825        3619.891          36.000  
  23803611.148   125088793.710        3371.563          36.000  
  22211459.830   116721991.439        -539.741          42.000  
 23 11 05 16 17 34.9960000  0 10G24G12G13G19G17G23G15G25G32G10
  18886037.611    99246785.597        -437.295          45.000  
  19994999.520   105074429.589        2317.382          43.000  
  22879890.549   120234635.486       -3865.866          33.000  
  20868119.897   109662704.777         267.961          42.000  
  22067185.663   115963842.531       -1775.126          33.000  
  22358295.254   117493636.445       -2646.505          39.000  
  20752941.445   109057439.806       -3324.417          41.000  
  22671146.056   119137687.010        3619.617          36.000  
  23802969.325   125085421.429        3372.280          35.000  
  22211563.307   116722531.570        -540.201          43.000  
 23 11 05 16 17 35.9960000  0 10G24G12G13G19G17G23G15G25G32G10
  18886120.707    99247223.009        -437.412          45.000  
  19994558.468   105072112.376        2317.095          42.000  
  22880626.893   120238501.409       -3866.592          28.000  
  20868068.747   109662436.726         268.142          42.000  
  22067523.848   115965618.328       -1775.781          32.000  
  22358799.105   117496283.402       -2647.219          39.000  
  20753574.081   109060764.443       -3324.443          43.000  
  22670457.293   119134067.203        3619.794          37.000  
  23802327.473   125082049.158        3372.411          36.000  
  22211666.026   116723072.204        -540.592          42.000  
 23 11 05 16 17 36.9960000  0 10G24G12G13G19G17G23G15G25G32G10
  18886203.803    99247660.676        -437.973          45.000  
  19994117.582   105069795.408        2316.781          43.000  
  22881360.952   120242367.357       -3865.432          32.000  
  20868017.807   109662169.111         267.163          43.000  
  22067861.901   115967394.482       -1776.415          31.000  
  22359303.185   117498930.437       -2647.015          39.000  
  20754207.169   109064089.241       -3324.524          42.000  
  22669768.518   119130447.312        3619.025          36.000  
  23801685.767   125078676.764        3372.555          36.000  
  22211769.359   116723613.243        -541.278          42.000  
 23 11 05 16 17 37.9960000  0 10G24G12G13G19G17G23G15G25G32G10
  18886287.163    99248098.926        -438.579          45.000  
  19993676.833   105067479.008        2315.904          43.000  
  22882097.543   120246233.503       -3865.988          33.000  
  20867966.959   109661902.296         266.490          43.000  
  22068200.352   115969171.254       -1777.470          32.000  
  22359807.485   117501578.031       -2647.531          39.000  
  20754839.876   109067414.498       -3325.655          42.000  
  22669079.843   119126827.689        3618.939          36.000  
  23801044.343   125075304.633        3372.069          35.000  
  22211872.774   116724155.033        -542.138          43.000  
 23 11 05 16 17 38.9960000  0 10G24G12G13G19G17G23G15G25G32G10
  18886370.494    99248537.415        -438.289          45.000  
  19993236.346   105065162.816        2316.195          43.000  
  22882829.680   120250099.529       -3865.794          34.000  
  20867916.587   109661635.931         266.267          43.000  
  22068538.284   115970948.241       -1776.668          32.000  
  22360311.718   117504225.749       -2647.796          39.000  
  20755472.853   109070739.875       -3325.053          42.000  
  22668390.956   119123207.962        3619.806          36.000  
  23800402.526   125071932.460        3372.237          36.000  
  22211976.411   116724697.212        -542.167          43.000  
 23 11 05 16 17 39.9960000  0 10G24G12G13G19G17G23G15G25G32G10
  18886454.231    99248976.325        -439.311          45.000  
  19992795.915   105062847.031        2315.389          43.000  
  22883570.981   120253965.611       -3866.562          34.000  
  20867865.770   109661370.178         265.360          43.000  
  22068878.803   115972725.741       -1777.894          32.000  
  22360815.872   117506873.737       -2647.994          39.000  
  20756105.567   109074065.576       -3326.013          42.000  
  22667701.943   119119588.339        3618.860          36.000  
  23799760.810   125068560.303        3372.102          36.000  
  22212080.176   116725239.930        -543.250          43.000  
 23 11 05 16 17 40.9960000  0 10G24G12G13G19G17G23G15G25G32G10
  18886537.711    99249415.686        -439.925          44.000  
  19992355.145   105060531.696        2314.860          43.000  
  22884307.373   120257831.740       -3866.071          34.000  
  20867815.112   109661105.084         264.818          43.000  
  22069214.768   115974503.746       -1778.363          33.000  
  22361320.005   117509522.104       -2648.763          39.000  
  20756738.497   109077391.622       -3326.384          42.000  
  22667012.932   119115968.810        3619.757          36.000  
  23799119.239   125065188.275        3371.625          36.000  
  22212183.527   116725783.256        -543.765          43.000  
 23 11 05 16 17 41.9960000  0 10G24G12G13G19G17G23G15G25G32G10
  18886620.935    99249855.385        -439.935          44.000  
  19991914.363   105058216.679        2315.056          43.000  
  22885043.077   120261697.877       -3865.356          34.000  
  20867764.705   109660840.563         264.152          43.000  
  22069554.412   115976282.103       -1777.802          33.000  
  22361824.107   117512170.741       -2648.823          40.000  
  20757371.722   109080717.877       -3326.387          42.000  
  22666324.024   119112349.373        3619.861          36.000  
  23798477.508   125061816.255        3371.974          35.000  
  22212286.887   116726327.102        -544.049          43.000  
 23 11 05 16 17 42.9960000  0 10G24G12G13G19G17G23G15G25G32G10
  18886704.742    99250295.469        -440.458          44.000  
  19991473.697   105055902.019        2314.524          43.000  
  22885778.765   120265564.080       -3866.390          34.000  
  20867714.697   109660576.595         263.546          44.000  
  22069892.377   115978060.923       -1778.460          33.000  
  22362327.953   117514819.619       -2649.339          39.000  
  20758004.977   109084044.425       -3326.994          42.000  
  22665635.111   119108729.949        3619.494          36.000  
  23797835.691   125058444.282        3371.813          35.000  
  22212390.594   116726871.492        -544.851          43.000  
 23 11 05 16 17 43.9960000  0 10G24G12G13G19G17G23G15G25G32G10
  18886788.760    99250736.112        -440.854          44.000  
  19991033.483   105053587.913        2313.990          43.000  
  22886513.735   120269430.464       -3866.279          34.000  
  20867664.578   109660313.419         262.623          43.000  
  22070232.233   115979840.451       -1779.110          32.000  
  22362832.286   117517468.967       -2649.255          39.000  
  20758638.209   109087371.388       -3326.935          42.000  
  22664946.358   119105110.766        3619.122          36.000  
  23797194.328   125055072.521        3371.582          36.000  
  22212494.505   116727416.588        -545.248          43.000  
 23 11 05 16 17 44.9960000  0 10G24G12G13G19G17G23G15G25G32G10
  18886872.790    99251177.201        -440.968          44.000  
  19990592.958   105051274.232        2313.721          43.000  
  22887249.692   120273296.950       -3866.135          34.000  
  20867614.836   109660050.872         262.436          43.000  
  22070570.382   115981620.351       -1779.241          32.000  
  22363336.306   117520118.663       -2649.751          39.000  
  20759271.582   109090698.709       -3327.507          42.000  
  22664257.691   119101491.713        3619.220          36.000  
  23796552.626   125051700.865        3371.601          35.000  
  22212598.284   116727962.308        -545.640          43.000  
 23 11 05 16 17 45.9960000  0 10G24G12G13G19G17G23G15G25G32G10
  18886957.004    99251618.827        -442.304          45.000  
  19990152.293   105048961.060        2312.868          43.000  
  22887985.635   120277163.583       -3866.954          34.000  
  20867565.229   109659789.046         261.158          44.000  
  22070909.769   115983400.863       -1780.994          32.000  
  22363840.281   117522768.772       -2650.219          39.000  
  20759904.839   109094026.437       -3328.204          42.000  
  22663568.837   119097872.864        3618.945          36.000  
  23795911.263   125048329.422        3371.123          36.000  
  22212702.248   116728508.677        -546.895          43.000  
 23 11 05 16 17 46.9960000  0 10G24G12G13G19G17G23G15G25G32G10
  18887041.125    99252060.839        -441.945          45.000  
  19989712.181   105046648.290        2312.727          43.000  
  22888721.504   120281030.254       -3866.294          34.000  
  20867515.695   109659527.839         260.975          43.000  
  22071248.859   115985181.849       -1781.293          33.000  
  22364344.570   117525419.194       -2650.100          39.000  
  20760537.898   109097354.435       -3327.932          42.000  
  22662880.117   119094254.114        3618.701          36.000  
  23795269.370   125044958.018        3371.452          36.000  
  22212806.223   116729055.610        -547.119          43.000  
 23 11 05 16 17 47.9960000  0 10G24G12G13G19G17G23G15G25G32G10
  18887125.198    99252502.976        -442.454          45.000  
  19989272.095   105044335.608        2312.218          43.000  
  22889457.057   120284896.685       -3866.437          34.000  
  20867466.345   109659266.959         260.280          44.000  
  22071587.705   115986962.951       -1781.113          33.000  
  22364849.161   117528069.637       -2650.821          39.000  
  20761170.972   109100682.464       -3328.329          41.000  
  22662191.544   119090635.151        3618.176          37.000  
  23794627.843   125041586.429        3370.960          35.000  
  22212910.222   116729602.808        -547.573          43.000  
 23 11 05 16 17 48.9960000  0 10G24G12G13G19G17G23G15G25G32G10
  18887209.389    99252945.608        -442.695          45.000  
  19988832.050   105042023.391        2312.281          43.000  
  22890192.839   120288763.252       -3866.874          35.000  
  20867416.990   109659006.752         259.877          44.000  
  22071926.983   115988744.626       -1781.981          33.000  
  22365353.876   117530720.442       -2650.491          39.000  
  20761804.332   109104010.844       -3328.128          42.000  
  22661502.865   119087016.324        3618.927          37.000  
  23793986.443   125038214.960        3371.580          36.000  
  22213014.343   116730150.653        -547.913          43.000  
 23 11 05 16 17 49.9960000  0 10G24G12G13G19G17G23G15G25G32G10
  18887293.643    99253388.629        -443.111          45.000  
  19988392.150   105039711.541        2311.760          43.000  
  22890928.771   120292629.851       -3866.948          34.000  
  20867367.486   109658747.144         259.296          44.000  
  22072266.261   115990526.739       -1782.456          33.000  
  22365858.477   117533371.546       -2651.199          39.000  
  20762437.509   109107339.496       -3328.516          41.000  
  22660814.619   119083397.547        3619.079          37.000  
  23793344.404   125034843.550        3371.573          36.000  
  22213118.968   116730699.036        -548.580          43.000  
 23 11 05 16 17 50.9960000  0 10G24G12G13G19G17G23G15G25G32G10
  18887378.074    99253832.041        -443.821          45.000  
  19987952.723   105037400.095        2311.151          43.000  
  22891664.514   120296496.465       -3867.032          35.000  
  20867318.477   109658488.146         258.487          44.000  
  22072605.419   115992309.308       -1783.248          33.000  
  22366363.135   117536022.956       -2651.760          39.000  
  20763070.889   109110668.459       -3329.483          41.000  
  22660126.056   119079778.880        3618.518          37.000  
  23792702.921   125031472.177        3371.491          36.000  
  22213223.497   116731247.991        -549.416          43.000  
 23 11 05 16 17 51.9960000  0 10G24G12G13G19G17G23G15G25G32G10
  18887462.640    99254276.103        -444.141          45.000  
  19987512.875   105035089.258        2310.807          43.000  
  22892400.313   120300363.296       -3866.685          35.000  
  20867269.086   109658229.993         258.073          44.000  
  22072944.492   115994092.550       -1783.419          33.000  
  22366867.556   117538674.897       -2652.063          39.000  
  20763704.454   109113997.910       -3329.297          42.000  
  22659437.817   119076160.498        3618.652          37.000  
  23792061.584   125028101.107        3371.189          36.000  
  22213328.030   116731797.706        -549.656          43.000  
 23 11 05 16 17 52.9960000  0 10G24G12G13G19G17G23G15G25G32G10
  18887547.260    99254720.310        -444.192          45.000  
  19987073.031   105032778.565        2310.714          43.000  
  22893136.285   120304230.024       -3866.249          35.000  
  20867219.726   109657972.181         257.636          44.000  
  22073283.936   115995875.977       -1783.359          33.000  
  22367372.425   117541326.868       -2651.864          39.000  
  20764338.239   109117327.414       -3329.414          42.000  
  22658749.818   119072541.981        3618.726          38.000  
  23791419.680   125024729.881        3371.043          36.000  
  22213432.655   116732347.737        -549.934          43.000  
 23 11 05 16 17 53.9960000  0 10G24G12G13G19G17G23G15G25G32G10
  18887631.536    99255164.771        -444.888          45.000  
  19986633.412   105030468.117        2309.771          43.000  
  22893872.187   120308096.632       -3867.185          35.000  
  20867170.806   109657714.824         256.828          44.000  
  22073623.635   115997659.740       -1784.312          34.000  
  22367877.278   117543979.007       -2652.392          39.000  
  20764971.684   109120657.089       -3330.260          42.000  
  22658061.501   119068923.424        3617.896          38.000  
  23790778.208   125021358.604        3370.276          36.000  
  22213537.411   116732898.172        -550.880          43.000  
 23 11 05 16 17 54.9960000  0 10G24G12G13G19G17G23G15G25G32G10
  18887715.980    99255609.787        -445.029          45.000  
  19986194.047   105028158.191        2310.026          42.000  
  22894608.305   120311963.315       -3866.576          35.000  
  20867122.290   109657458.249         256.430          43.000  
  22073963.160   115999444.119       -1784.575          34.000  
  22368381.981   117546631.598       -2652.573          40.000  
  20765605.106   109123987.169       -3330.150          42.000  
  22657373.244   119065305.034        3618.475          37.000  
  23790136.509   125017987.477        3371.368          36.000  
  22213642.053   116733449.327        -551.196          43.000  
 23 11 05 16 17 55.9960000  0 10G24G12G13G19G17G23G15G25G32G10
  18887800.701    99256055.154        -445.498          45.000  
  19985754.593   105025848.614        2309.339          43.000  
  22895344.377   120315830.092       -3866.450          35.000  
  20867073.428   109657202.219         255.745          43.000  
  22074302.937   116001228.892       -1785.262          33.000  
  22368886.775   117549284.436       -2652.814          40.000  
  20766238.943   109127317.505       -3330.395          43.000  
  22656685.113   119061686.706        3618.561          38.000  
  23789494.903   125014616.413        3371.519          36.000  
  22213746.905   116734000.969        -551.660          43.000  
 23 11 05 16 17 56.9960000  0 10G24G12G13G19G17G23G15G25G32G10
  18887885.369    99256501.026        -446.256          45.000  
  19985315.463   105023539.529        2308.754          43.000  
  22896080.296   120319696.984       -3867.013          35.000  
  20867024.687   109656946.883         254.772          43.000  
  22074642.682   116003014.200       -1786.031          33.000  
  22369391.655   117551937.691       -2653.694          40.000  
  20766872.894   109130648.211       -3331.196          43.000  
  22655996.525   119058068.548        3617.828          37.000  
  23788853.298   125011245.520        3370.888          35.000  
  22213851.829   116734553.277        -552.557          43.000  
 23 11 05 16 17 57.9960000  0 10G24G12G13G19G17G23G15G25G32G10
  18887970.459    99256947.265        -446.359          45.000  
  19984876.173   105021230.780        2308.649          43.000  
  22896816.014   120323563.898       -3866.583          34.000  
  20866976.075   109656692.117         254.700          43.000  
  22074982.209   116004799.950       -1786.221          33.000  
  22369897.145   117554591.174       -2653.208          40.000  
  20767506.339   109133979.160       -3330.710          42.000  
  22655307.861   119054450.446        3617.938          37.000  
  23788211.874   125007874.558        3372.250          35.000  
  22213956.999   116735106.091        -552.777          43.000  
 23 11 05 16 17 58.9960000  0 10G24G12G13G19G17G23G15G25G32G10
  18888055.408    99257393.808        -447.035          44.000  
  19984436.589   105018922.324        2308.087          43.000  
  22897551.722   120327430.711       -3866.363          34.000  
  20866927.587   109656437.866         253.893          43.000  
  22075321.921   116006586.014       -1786.179          33.000  
  22370402.178   117557244.899       -2654.277          40.000  
  20768140.007   109137310.340       -3331.504          42.000  
  22654619.301   119050832.292        3617.657          37.000  
  23787570.262   125004503.659        3371.042          35.000  
  22214062.320   116735659.383        -553.894          43.000  
 23 11 05 16 17 59.9960000  0 10G24G12G13G19G17G23G15G25G32G10
  18888140.541    99257840.895        -447.179          45.000  
  19983997.326   105016614.407        2307.648          43.000  
  22898287.792   120331297.812       -3867.488          35.000  
  20866879.436   109656184.399         253.146          43.000  
  22075661.760   116008372.734       -1786.615          32.000  
  22370907.488   117559899.054       -2654.537          40.000  
  20768774.098   109140641.935       -3331.803          42.000  
  22653930.672   119047214.388        3618.121          37.000  
  23786929.056   125001132.920        3371.144          35.000  
  22214167.726   116736213.371        -554.168          42.000  
 23 11 05 16 18 00.9960000  0 10G24G12G13G19G17G23G15G25G32G10
  18888225.832    99258288.200        -447.690          45.000  
  19983557.960   105014306.670        2307.598          43.000  
  22899023.744   120335164.676       -3866.598          35.000  
  20866831.099   109655931.306         252.859          43.000  
  22076001.969   116010159.668       -1787.282          32.000  
  22371412.358   117562553.281       -2654.243          40.000  
  20769408.322   109143973.614       -3331.782          42.000  
  22653242.222   119043596.362        3617.950          37.000  
  23786287.767   124997762.094        3370.644          34.000  
  22214273.169   116736767.714        -554.716          43.000  
 23 11 05 16 18 01.9960000  0 10G24G12G13G19G17G23G15G25G32G10
  18888310.869    99258736.021        -448.498          45.000  
  19983118.950   105011999.472        2306.335          43.000  
  22899759.351   120339031.723       -3866.991          34.000  
  20866782.910   109655678.967         251.695          43.000  
  22076342.194   116011947.193       -1788.278          32.000  
  22371917.915   117565207.962       -2655.369          40.000  
  20770042.541   109147305.705       -3332.625          42.000  
  22652553.955   119039978.544        3616.949          37.000  
  23785646.568   124994391.443        3369.522          35.000  
  22214379.079   116737322.717        -555.827          43.000  
 23 11 05 16 18 02.9960000  0 10G24G12G13G19G17G23G15G25G32G10
  18888396.233    99259184.283        -448.525          45.000  
  19982680.098   105009692.651        2306.784          42.000  
  22900495.194   120342898.923       -3868.043          33.000  
  20866734.900   109655427.266         251.264          42.000  
  22076682.089   116013735.253       -1789.821          32.000  
  22372423.362   117567862.958       -2655.071          39.000  
  20770676.632   109150638.131       -3332.506          42.000  
  22651865.297   119036360.850        3617.511          37.000  
  23785005.283   124991020.859        3370.089          36.000  
  22214484.973   116737878.321        -555.810          42.000  
 23 11 05 16 18 03.9960000  0 10G24G12G13G19G17G23G15G25G32G10
  18888481.462    99259633.027        -449.116          45.000  
  19982241.164   105007386.325        2305.841          42.000  
  22901230.987   120346766.149       -3867.400          33.000  
  20866687.115   109655176.234         250.590          42.000  
  22077022.198   116015523.728       -1788.713          32.000  
  22372928.572   117570518.331       -2655.483          39.000  
  20771310.548   109153970.918       -3333.152          41.000  
  22651177.015   119032743.295        3617.578          37.000  
  23784363.863   124987650.401        3370.302          36.000  
  22214590.909   116738434.572        -556.687          42.000  
 23 11 05 16 18 04.9960000  0 10G24G12G13G19G17G23G15G25G32G10
  18888566.826    99260082.086        -449.274          45.000  
  19981801.715   105005080.300        2305.526          42.000  
  22901966.782   120350633.374       -3867.412          32.000  
  20866639.456   109654925.709         250.158          42.000  
  22077362.347   116017312.623       -1789.319          32.000  
  22373433.752   117573173.951       -2655.976          39.000  
  20771944.560   109157303.906       -3333.468          41.000  
  22650488.514   119029125.745        3617.566          37.000  
  23783722.696   124984279.984        3369.523          36.000  
  22214697.022   116738991.315        -557.327          42.000  
 23 11 05 16 18 05.9960000  0 10G24G12G13G19G17G23G15G25G32G10
  18888652.219    99260531.493        -449.563          44.000  
  19981362.790   105002774.592        2305.803          42.000  
  22902702.376   120354500.542       -3867.158          32.000  
  20866591.767   109654675.730         249.567          42.000  
  22077702.717   116019101.902       -1788.951          33.000  
  22373939.099   117575829.765       -2655.944          39.000  
  20772578.756   109160637.103       -3333.311          41.000  
  22649799.776   119025508.201        3617.627          36.000  
  23783081.745   124980909.543        3370.153          35.000  
  22214803.104   116739548.518        -557.446          42.000  
 23 11 05 16 18 06.9960000  0 10G24G12G13G19G17G23G15G25G32G10
  18888737.640    99260981.341        -449.737          44.000  
  19980924.177   105000469.328        2305.348          42.000  
  22903438.204   120358367.850       -3867.624          34.000  
  20866544.514   109654426.394         249.250          43.000  
  22078043.579   116020891.700       -1789.954          33.000  
  22374444.769   117578485.940       -2656.229          40.000  
  20773212.988   109163970.647       -3333.362          42.000  
  22649111.003   119021890.800        3617.566          36.000  
  23782440.404   124977539.214        3370.876          35.000  
  22214909.166   116740106.333        -557.732          42.000  
 23 11 05 16 18 07.9960000  0 10G24G12G13G19G17G23G15G25G32G10
  18888823.460    99261431.476        -450.481          44.000  
  19980485.884   104998164.331        2304.843          43.000  
  22904174.130   120362235.007       -3867.314          34.000  
  20866497.062   109654177.555         248.697          43.000  
  22078384.103   116022681.862       -1790.854          33.000  
  22374950.298   117581142.302       -2656.897          40.000  
  20773847.297   109167304.346       -3333.813          42.000  
  22648422.181   119018273.339        3617.255          36.000  
  23781798.912   124974168.850        3370.495          35.000  
  22215015.486   116740664.600        -558.410          42.000  
 23 11 05 16 18 08.9960000  0 10G24G12G13G19G17G23G15G25G32G10
  18888909.119    99261882.091        -450.891          44.000  
  19980047.111   104995859.808        2304.301          43.000  
  22904910.008   120366102.309       -3867.523          34.000  
  20866449.861   109653929.398         247.998          43.000  
  22078724.683   116024472.444       -1790.880          32.000  
  22375455.628   117583799.031       -2656.961          40.000  
  20774482.167   109170638.415       -3334.220          42.000  
  22647733.369   119014656.032        3617.022          35.000  
  23781157.346   124970798.626        3370.059          35.000  
  22215121.719   116741223.493        -559.387          42.000  
 23 11 05 16 18 09.9960000  0 10G24G12G13G19G17G23G15G25G32G10
  18888995.177    99262333.177        -451.427          44.000  
  19979608.681   104993555.746        2303.748          43.000  
  22905646.191   120369969.709       -3867.177          34.000  
  20866402.796   109653681.935         247.176          43.000  
  22079065.274   116026263.620       -1791.470          32.000  
  22375961.043   117586456.129       -2657.096          39.000  
  20775116.920   109173972.849       -3334.546          42.000  
  22647044.855   119011038.910        3617.102          36.000  
  23780515.929   124967428.518        3370.359          34.000  
  22215228.008   116741782.995        -559.785          42.000  
 23 11 05 16 18 10.9960000  0 10G24G12G13G19G17G23G15G25G32G10
  18889081.200    99262784.697        -451.744          44.000  
  19979170.227   104991252.103        2303.274          43.000  
  22906382.390   120373837.196       -3867.192          34.000  
  20866355.846   109653435.115         246.277          43.000  
  22079406.230   116028055.288       -1792.787          32.000  
  22376467.003   117589113.557       -2657.527          39.000  
  20775751.585   109177307.623       -3334.886          42.000  
  22646356.047   119007421.913        3616.748          36.000  
  23779874.404   124964058.524        3370.275          34.000  
  22215334.171   116742343.094        -560.304          42.000  
 23 11 05 16 18 11.9960000  0 10G24G12G13G19G17G23G15G25G32G10
  18889166.992    99263236.494        -451.904          44.000  
  19978731.812   104988948.691        2303.520          43.000  
  22907118.636   120377704.605       -3867.523          34.000  
  20866309.191   109653188.731         246.209          43.000  
  22079747.242   116029847.236       -1792.206          33.000  
  22376972.379   117591771.132       -2657.126          39.000  
  20776385.652   109180642.544       -3334.922          42.000  
  22645667.150   119003804.805        3617.193          36.000  
  23779233.107   124960688.464        3370.022          35.000  
  22215440.763   116742903.612        -560.756          42.000  
 23 11 05 16 18 12.9960000  0 10G24G12G13G19G17G23G15G25G32G10
  18889253.023    99263688.564        -452.266          44.000  
  19978293.384   104986645.535        2303.286          43.000  
  22907854.359   120381571.878       -3866.951          34.000  
  20866262.248   109652942.851         245.653          43.000  
  22080088.293   116031639.508       -1792.285          33.000  
  22377477.600   117594428.929       -2658.009          38.000  
  20777020.165   109183977.617       -3335.122          42.000  
  22644978.719   119000187.720        3616.962          36.000  
  23778592.184   124957318.332        3369.953          35.000  
  22215547.776   116743464.560        -560.960          41.000  
 23 11 05 16 18 13.9960000  0 10G24G12G13G19G17G23G15G25G32G10
  18889339.123    99264141.076        -452.716          44.000  
  19977855.126   104984342.837        2302.230          43.000  
  22908590.481   120385439.281       -3867.716          34.000  
  20866215.533   109652697.603         245.170          43.000  
  22080429.386   116033432.292       -1793.084          33.000  
  22377982.851   117597087.033       -2658.337          38.000  
  20777654.682   109187313.028       -3335.649          42.000  
  22644290.240   118996570.689        3616.919          36.000  
  23777951.048   124953948.327        3369.749          35.000  
  22215654.661   116744026.112        -561.687          41.000  
 23 11 05 16 18 14.9960000  0 10G24G12G13G19G17G23G15G25G32G10
  18889425.327    99264593.921        -453.181          44.000  
  19977416.905   104982040.406        2302.353          43.000  
  22909326.590   120389306.598       -3867.469          35.000  
  20866169.221   109652452.921         244.146          43.000  
  22080770.594   116035225.395       -1792.765          33.000  
  22378487.845   117599745.354       -2658.639          37.000  
  20778289.616   109190648.649       -3336.092          42.000  
  22643601.807   118992953.744        3616.302          36.000  
  23777310.271   124950578.271        3370.180          35.000  
  22215761.472   116744588.148        -562.357          42.000  
 23 11 05 16 18 15.9960000  0 10G24G12G13G19G17G23G15G25G32G10
  18889511.518    99265047.026        -453.350          44.000  
  19976978.619   104979738.253        2302.175          43.000  
  22910062.455   120393173.851       -3867.381          34.000  
  20866122.860   109652208.672         244.003          43.000  
  22081112.176   116037018.951       -1794.473          33.000  
  22378993.044   117602403.812       -2658.264          37.000  
  20778924.621   109193984.411       -3335.798          42.000  
  22642913.331   118989336.640        3617.425          36.000  
  23776668.736   124947208.163        3370.646          35.000  
  22215868.640   116745150.617        -562.903          41.000  
 23 11 05 16 18 16.9960000  0 10G24G12G13G19G17G23G15G25G32G10
  18889597.905    99265500.823        -453.981          44.000  
  19976540.532   104977436.790        2301.129          43.000  
  22910798.494   120397041.436       -3867.898          34.000  
  20866076.553   109651965.346         243.071          43.000  
  22081453.681   116038813.144       -1794.592          33.000  
  22379498.510   117605062.913       -2659.273          38.000  
  20779559.587   109197320.760       -3336.511          42.000  
  22642224.974   118985719.984        3616.559          36.000  
  23776027.377   124943838.479        3369.437          35.000  
  22215975.643   116745713.918        -563.740          41.000  
 23 11 05 16 18 17.9960000  0 10G24G12G13G19G17G23G15G25G32G10
  18889684.260    99265954.902        -454.527          44.000  
  19976102.756   104975135.585        2300.418          43.000  
  22911534.477   120400908.946       -3867.738          35.000  
  20866030.282   109651722.491         242.418          43.000  
  22081795.151   116040607.655       -1794.731          34.000  
  22380004.902   117607722.165       -2659.601          38.000  
  20780194.757   109200657.289       -3337.242          42.000  
  22641536.736   118982103.271        3616.333          36.000  
  23775386.101   124940468.707        3369.681          34.000  
  22216082.765   116746277.642        -564.358          42.000  
 23 11 05 16 18 18.9960000  0 10G24G12G13G19G17G23G15G25G32G10
  18889770.601    99266409.450        -454.777          44.000  
  19975665.124   104972834.818        2300.712          43.000  
  22912270.612   120404776.518       -3867.340          35.000  
  20865984.421   109651480.302         241.920          43.000  
  22082136.850   116042402.716       -1795.153          33.000  
  22380510.928   117610381.773       -2659.908          38.000  
  20780829.742   109203994.112       -3336.770          42.000  
  22640848.215   118978486.680        3616.559          36.000  
  23774744.965   124937099.057        3369.900          34.000  
  22216189.925   116746842.000        -564.717          41.000  
 23 11 05 16 18 19.9960000  0 10G24G12G13G19G17G23G15G25G32G10
  18889857.058    99266864.397        -454.971          44.000  
  19975227.839   104970534.430        2300.339          43.000  
  22913006.678   120408644.157       -3867.675          34.000  
  20865938.099   109651238.719         241.499          42.000  
  22082478.720   116044198.231       -1796.082          34.000  
  22381017.440   117613041.642       -2659.861          39.000  
  20781464.204   109207331.244       -3336.975          41.000  
  22640159.632   118974870.183        3616.736          36.000  
  23774103.840   124933729.446        3370.263          34.000  
  22216297.416   116747406.883        -564.937          41.000  
 23 11 05 16 18 20.9960000  0 10G24G12G13G19G17G23G15G25G32G10
  18889943.821    99267319.715        -455.516          44.000  
  19974790.486   104968234.435        2299.691          43.000  
  22913742.368   120412511.782       -3867.385          34.000  
  20865892.240   109650997.728         240.757          42.000  
  22082820.456   116045994.149       -1796.462          34.000  
  22381523.753   117615701.841       -2660.888          39.000  
  20782099.383   109210668.642       -3337.299          41.000  
  22639471.179   118971253.780        3615.796          36.000  
  23773462.511   124930359.918        3369.261          34.000  
  22216404.648   116747972.318        -565.778          41.000  
 23 11 05 16 18 21.9960000  0 10G24G12G13G19G17G23G15G25G32G10
  18890030.289    99267775.640        -456.291          44.000  
  19974352.863   104965935.007        2298.875          43.000  
  22914478.289   120416379.686       -3867.947          34.000  
  20865846.106   109650757.538         239.640          42.000  
  22083162.496   116047790.710       -1796.810          34.000  
  22382030.359   117618362.480       -2660.834          39.000  
  20782734.710   109214006.514       -3338.317          42.000  
  22638782.967   118967637.573        3616.101          36.000  
  23772821.384   124926990.628        3368.737          34.000  
  22216512.573   116748538.500        -566.703          41.000  
 23 11 05 16 18 22.9960000  0 10G24G12G13G19G17G23G15G25G32G10
  18890117.101    99268232.101        -456.591          44.000  
  19973915.604   104963636.103        2298.743          43.000  
  22915214.220   120420247.771       -3868.307          34.000  
  20865800.657   109650518.082         239.100          43.000  
  22083504.572   116049587.870       -1796.991          34.000  
  22382537.090   117621023.571       -2660.991          39.000  
  20783369.685   109217344.802       -3338.567          42.000  
  22638094.815   118964021.642        3615.997          36.000  
  23772180.409   124923621.534        3369.317          34.000  
  22216620.705   116749105.382        -566.974          41.000  
 23 11 05 16 18 23.9960000  0 10G24G12G13G19G17G23G15G25G32G10
  18890203.999    99268688.790        -457.099          44.000  
  19973478.147   104961337.418        2298.130          43.000  
  22915950.488   120424115.674       -3868.222          35.000  
  20865754.961   109650279.070         238.373          42.000  
  22083846.793   116051385.320       -1798.097          33.000  
  22383043.626   117623684.781       -2661.419          39.000  
  20784004.729   109220683.191       -3338.762          41.000  
  22637407.174   118960405.600        3615.552          37.000  
  23771539.225   124920252.310        3369.574          34.000  
  22216728.327   116749672.641        -567.540          41.000  
 23 11 05 16 18 24.9960000  0 10G24G12G13G19G17G23G15G25G32G10
  18890291.180    99269145.887        -457.103          44.000  
  19973040.768   104959039.112        2298.397          43.000  
  22916686.154   120427983.630       -3867.915          35.000  
  20865709.551   109650040.640         238.537          42.000  
  22084189.277   116053183.185       -1797.776          33.000  
  22383550.029   117626346.291       -2661.425          39.000  
  20784640.150   109224021.876       -3338.505          41.000  
  22636719.708   118956789.645        3615.997          37.000  
  23770897.860   124916883.227        3368.918          34.000  
  22216836.427   116750240.450        -567.612          41.000  
 23 11 05 16 18 25.9960000  0 10G24G12G13G19G17G23G15G25G32G10
  18890378.109    99269603.357        -457.333          44.000  
  19972603.435   104956741.173        2298.133          43.000  
  22917422.423   120431851.597       -3867.487          34.000  
  20865664.309   109649802.812         237.763          42.000  
  22084531.618   116054981.495       -1797.667          34.000  
  22384056.552   117629008.064       -2661.491          39.000  
  20785275.333   109227360.814       -3338.727          41.000  
  22636031.608   118953173.738        3616.150          37.000  
  23770256.660   124913514.149        3369.152          35.000  
  22216944.337   116750808.811        -568.327          41.000  
 23 11 05 16 18 26.9960000  0 10G24G12G13G19G17G23G15G25G32G10
  18890465.183    99270061.239        -458.173          44.000  
  19972166.052   104954443.615        2297.247          43.000  
  22918158.335   120435719.639       -3868.480          35.000  
  20865619.078   109649565.586         236.875          42.000  
  22084874.462   116056780.281       -1798.914          34.000  
  22384563.259   117631670.155       -2662.291          39.000  
  20785910.556   109230700.054       -3339.515          41.000  
  22635343.834   118949557.920        3615.863          37.000  
  23769615.517   124910145.126        3368.849          35.000  
  22217052.493   116751377.732        -569.400          41.000  
 23 11 05 16 18 27.9960000  0 10G24G12G13G19G17G23G15G25G32G10
  18890552.607    99270519.732        -458.563          44.000  
  19971728.758   104952146.663        2297.129          43.000  
  22918894.560   120439587.892       -3867.693          34.000  
  20865574.251   109649329.181         236.451          42.000  
  22085217.183   116058579.741       -1799.921          33.000  
  22385070.168   117634332.753       -2662.524          39.000  
  20786546.008   109234039.763       -3339.665          41.000  
  22634655.439   118945942.427        3615.338          37.000  
  23768974.403   124906776.397        3369.114          35.000  
  22217160.816   116751947.396        -569.608          41.000  
 23 11 05 16 18 28.9960000  0 10G24G12G13G19G17G23G15G25G32G10
  18890640.305    99270978.568        -458.725          44.000  
  19971291.896   104949850.056        2296.701          43.000  
  22919630.562   120443456.127       -3867.882          34.000  
  20865529.406   109649093.330         235.883          42.000  
  22085559.757   116060379.528       -1799.903          33.000  
  22385577.036   117636995.557       -2662.516          39.000  
  20787181.610   109237379.708       -3339.729          41.000  
  22633967.304   118942326.902        3615.424          37.000  
  23768333.354   124903407.685        3368.858          35.000  
  22217269.114   116752517.566        -570.042          41.000  
 23 11 05 16 18 29.9960000  0 10G24G12G13G19G17G23G15G25G32G10
  18890727.776    99271437.881        -459.659          44.000  
  19970855.050   104947553.901        2296.013          43.000  
  22920366.632   120447324.509       -3868.494          34.000  
  20865484.904   109648858.165         234.791          42.000  
  22085902.147   116062179.907       -1800.813          33.000  
  22386084.056   117639658.769       -2663.683          39.000  
  20787817.246   109240720.024       -3340.456          41.000  
  22633279.528   118938711.548        3615.228          37.000  
  23767692.204   124900039.074        3368.754          34.000  
  22217377.539   116753088.364        -571.200          41.000  
 23 11 05 16 18 30.9960000  0 10G24G12G13G19G17G23G15G25G32G10
  18890815.402    99271897.650        -460.233          45.000  
  19970418.227   104945258.210        2295.247          43.000  
  22921102.558   120451192.969       -3869.287          34.000  
  20865440.164   109648623.650         234.127          42.000  
  22086245.031   116063980.731       -1801.750          33.000  
  22386590.695   117642322.293       -2663.639          39.000  
  20788452.959   109244060.663       -3340.996          41.000  
  22632591.446   118935096.348        3614.771          37.000  
  23767050.970   124896670.598        3368.325          34.000  
  22217486.188   116753659.763        -571.789          41.000  
 23 11 05 16 18 31.9960000  0 10G24G12G13G19G17G23G15G25G32G10
  18890903.271    99272357.699        -460.326          45.000  
  19969981.649   104942962.776        2295.017          43.000  
  22921839.005                       -3875.093          20.000  
  20865395.812   109648389.624         233.544          41.000  
  22086587.840   116065781.880       -1801.743          33.000  
  22387097.272   117644986.012       -2663.994          38.000  
  20789088.884   109247401.466       -3341.103          42.000  
  22631903.550   118931481.059        3615.381          37.000  
  23766409.836   124893302.057        3368.664          34.000  
  22217595.182   116754231.577        -572.295          41.000  
 23 11 05 16 18 32.9960000  0 10G24G12G13G19G17G23G15G25G32G10
  18890990.557    99272818.331        -460.928          45.000  
  19969545.176   104940667.936        2294.325          43.000  
  22922573.803                       -3868.108          22.000  
  20865351.252   109648156.389         232.693          41.000  
  22086930.626   116067583.675       -1802.213          33.000  
  22387603.952   117647650.199       -2664.392          39.000  
  20789724.570   109250742.738       -3341.600          41.000  
  22631215.894   118927866.071        3614.734          37.000  
  23765768.791   124889933.782        3368.075          34.000  
  22217704.237   116754804.164        -572.955          41.000  
 23 11 05 16 18 33.9960000  0 10G24G12G13G19G17G23G15G25G32G10
  18891078.480    99273279.427        -461.458          45.000  
  19969108.449   104938373.507        2293.919          43.000  
  22923310.436   120462808.5013      -3869.126          27.000  
  20865307.058   109647923.815         231.834          41.000  
  22087273.675   116069386.003       -1802.863          33.000  
  22388110.271   117650314.738       -2664.831          38.000  
  20790360.364   109254084.349       -3341.968          41.000  
  22630528.255   118924251.206        3614.911          37.000  
  23765127.596   124886565.686        3367.531          34.000  
  22217812.721   116755377.348        -573.573          41.000  
 23 11 05 16 18 34.9960000  0 10G24G12G13G19G17G23G15G25G32G10
  18891166.137    99273740.824        -461.312          45.000  
  19968671.812   104936079.402        2294.219          42.000  
  22924045.035                       -3870.254          26.000  
  20865262.817   109647691.757         232.324          41.000  
  22087616.742   116071188.687       -1802.323          33.000  
  22388617.062   117652979.497       -2664.427          38.000  
  20790996.134   109257426.176       -3341.683          40.000  
  22629840.219   118920636.365        3615.076          37.000  
  23764486.874   124883197.523        3367.956          35.000  
  22217922.031   116755951.025        -573.547          41.000  
 23 11 05 16 18 35.9960000  0 10G24G12G13G19G17G23G15G25G32G10
  18891254.245    99274202.716        -461.964          45.000  
  19968235.327   104933785.795        2293.225          43.000  
  22924784.050   120470553.0593      -3869.104          33.000  
  20865218.746   109647460.379         231.162          43.000  
  22087959.377   116072991.937       -1804.196          32.000  
  22389124.139   117655644.653       -2665.840          38.000  
  20791631.673   109260768.368       -3342.495          40.000  
  22629152.246   118917021.668        3614.569          36.000  
  23763846.074   124879829.459        3368.138          36.000  
  22218031.459   116756525.332        -574.728          42.000  
 23 11 05 16 18 36.9960000  0 10G24G12G13G19G17G23G15G25G32G10
  18891342.262    99274664.973        -462.420          45.000  
  19967799.022   104931492.502        2293.235          43.000  
  22925519.422   120474421.7652      -3868.715          34.000  
  20865174.761   109647229.567         230.600          43.000  
  22088302.385   116074795.528       -1803.962          32.000  
  22389631.476   117658310.046       -2665.810          38.000  
  20792267.623   109264110.796       -3342.892          41.000  
  22628464.391   118913407.014        3614.368          37.000  
  23763205.254   124876461.465        3368.134          36.000  
  22218140.975   116757100.125        -575.302          42.000  
 23 11 05 16 18 37.9960000  0 10G24G12G13G19G17G23G15G25G32G10
  18891430.396    99275127.602        -462.921          45.000  
  19967362.552   104929199.589        2292.465          43.000  
  22926258.910   120478290.5322      -3869.020          34.000  
  20865131.244   109646999.353         229.793          43.000  
  22088645.513   116076599.623       -1804.530          32.000  
  22390138.963   117660975.681       -2665.881          38.000  
  20792903.772   109267453.447       -3342.917          41.000  
  22627776.755   118909792.414        3614.026          37.000  
  23762564.523   124873093.508        3368.518          35.000  
  22218250.787   116757675.455        -575.801          42.000  
 23 11 05 16 18 38.9960000  0 10G24G12G13G19G17G23G15G25G32G10
  18891518.448    99275590.690        -463.192          45.000  
  19966926.334   104926907.104        2292.467          43.000  
  22926991.308   120482159.4092      -3868.924          34.000  
  20865087.545   109646769.821         229.420          43.000  
  22088988.720   116078404.181       -1805.069          31.000  
  22390646.171   117663641.677       -2665.880          38.000  
  20793540.003   109270796.467       -3343.130          40.000  
  22627088.911   118906177.954        3614.441          37.000  
  23761923.330   124869725.724        3367.793          35.000  
  22218360.468   116758251.391        -576.229          42.000  
 23 11 05 16 18 39.9960000  0 10G24G12G13G19G17G23G15G25G32G10
  18891606.624    99276054.186        -463.917          45.000  
  19966489.703   104924615.002        2291.845          43.000  
  22927727.062   120486028.2552      -3868.383          34.000  
  20865044.004   109646540.887         228.627          43.000  
  22089332.206   116080209.126       -1805.836          31.000  
  22391153.447   117666307.971       -2666.390          38.000  
  20794176.066   109274139.760       -3343.583          40.000  
  22626401.309   118902563.570        3614.459          37.000  
  23761282.403   124866357.960        3367.850          34.000  
  22218470.062   116758827.884        -577.008          42.000  
 23 11 05 16 18 40.9960000  0 10G24G12G13G19G17G23G15G25G32G10
  18891694.773    99276518.109        -464.440          45.000  
  19966053.319   104922323.344        2291.183          43.000  
  22928462.918   120489897.2842      -3868.732          33.000  
  20865000.819   109646312.605         227.872          43.000  
  22089675.510   116082014.652       -1806.452          31.000  
  22391660.869   117668974.620       -2667.351          38.000  
  20794812.698   109277483.373       -3343.913          41.000  
  22625713.755   118898949.305        3614.099          37.000  
  23760641.420   124862990.299        3367.760          34.000  
  22218579.798   116759404.957        -577.467          42.000  
 23 11 05 16 18 41.9960000  0 10G24G12G13G19G17G23G15G25G32G10
  18891783.547    99276982.408        -464.431          45.000  
  19965617.402   104920032.038        2291.222          43.000  
  22929198.560   120493766.3182      -3869.033          32.000  
  20864957.445   109646084.894         227.592          43.000  
  22090015.063   116083820.544       -1806.263          31.000  
  22392168.190   117671641.494       -2666.875          38.000  
  20795449.199   109280827.269       -3343.994          41.000  
  22625026.293   118895335.107        3613.940          37.000  
  23760000.726   124859622.691        3367.563          35.000  
  22218689.791   116759982.589        -577.672          42.000  
 23 11 05 16 18 42.9960000  0 10G24G12G13G19G17G23G15G25G32G10
  18891871.961    99277447.161        -465.201          45.000  
  19965181.657   104917741.149        2290.547          43.000  
  22929933.485   120497635.417       -3870.133          33.000  
  20864914.428   109645857.818         226.673          43.000  
  22090357.984   116085626.961       -1807.647          30.000  
  22392675.738   117674308.729       -2667.950          38.000  
  20796085.318   109284171.464       -3344.841          40.000  
  22624338.787   118891721.013        3613.763          38.000  
  23759360.013   124856255.212        3366.944          35.000  
  22218799.697   116760560.817        -579.009          42.000  
 23 11 05 16 18 43.9960000  0 10G24G12G13G19G17G23G15G25G32G10
  18891960.588    99277912.608        -465.500          45.000  
  19964746.361   104915450.957        2289.905          43.000  
  22930670.272   120501504.743       -3867.871          33.000  
  20864871.075   109645631.669         225.811          42.000  
  22090704.816   116087434.050       -1807.085          30.000  
  22393183.551   117676976.552       -2668.316          38.000  
  20796721.708   109287516.241       -3344.991          40.000  
  22623651.680   118888107.318        3613.623          38.000  
  23758719.283   124852888.069        3366.811          35.000  
  22218909.993   116761139.882        -579.473          41.000  
 23 11 05 16 18 44.9960000  0 10G24G12G13G19G17G23G15G25G32G10
  18892049.157    99278378.409        -466.041          45.000  
  19964310.821   104913161.096        2289.465          43.000  
  22931406.471   120505374.238       -3870.290          33.000  
  20864827.966   109645406.049         225.361          42.000  
  22091049.492   116089241.611       -1808.177          30.000  
  22393691.092   117679644.567       -2668.010          38.000  
  20797358.318   109290861.235       -3345.151          40.000  
  22622964.648   118884493.615        3613.953          38.000  
  23758078.644   124849520.940        3366.870          35.000  
  22219020.272   116761719.435        -579.680          42.000  
 23 11 05 16 18 45.9960000  0 10G24G12G13G19G17G23G15G25G32G10
  18892138.151    99278844.565        -466.716          45.000  
  19963875.421   104910871.574        2288.982          44.000  
  22932142.554   120509243.560       -3868.913          33.000  
  20864785.076   109645181.014         224.351          42.000  
  22091393.641   116091049.518       -1808.248          30.000  
  22394198.370   117682312.885       -2668.837          37.000  
  20797994.830   109294206.450       -3345.406          40.000  
  22622277.432   118880880.004        3613.061          38.000  
  23757437.737   124846153.857        3366.345          35.000  
  22219130.533   116762299.513        -580.604          42.000  
 23 11 05 16 18 46.9960000  0 11G24G12G13G19G17G22G23G15G25G32G10
  18892226.916    99279311.053        -466.574          45.000  
  19963439.805   104908582.365        2289.098          44.000  
  22932879.010   120513112.935       -3869.485          33.000  
  20864742.092   109644956.491         224.280          42.000  
  22091736.030   116092857.808       -1808.322          30.000  
  23365168.208                       -3364.579          21.000  
  22394706.030   117684981.412       -2668.588          38.000  
  20798631.305   109297551.919       -3345.356          40.000  
  22621590.365   118877266.365        3613.916          38.000  
  23756797.320   124842786.759        3367.115          35.000  
  22219241.037   116762880.101        -581.037          41.000  
 23 11 05 16 18 47.9960000  0 11G24G12G13G19G17G22G23G15G25G32G10
  18892315.899    99279777.927        -467.066          45.000  
  19963004.439   104906293.524        2288.524          44.000  
  22933615.516   120516982.342       -3869.475          33.000  
  20864699.487   109644732.558         223.640          42.000  
  22092078.948   116094666.538       -1807.906          31.000  
  23365801.946                       -3364.579          21.000  
  22395213.711   117687650.224       -2669.230          37.000  
  20799268.078   109300897.644       -3345.567          40.000  
  22620902.887   118873652.808        3613.611          38.000  
  23756156.494   124839419.743        3367.240          34.000  
  22219351.610   116763461.178        -581.305          41.000  
 23 11 05 16 18 48.9960000  0 11G24G12G13G19G17G22G23G15G25G32G10
  18892404.792    99280245.161        -467.433          45.000  
  19962568.690   104904005.042        2288.305          44.000  
  22934351.887   120520851.681       -3869.036          33.000  
  20864657.107   109644509.184         223.090          42.000  
  22092424.956   116096475.706       -1809.522          31.000  
  23366432.171                       -3364.579          21.000  
  22395721.423   117690319.246       -2669.142          37.000  
  20799905.083   109304243.610       -3346.355          41.000  
  22620215.475   118870039.279        3613.678          38.000  
  23755516.020   124836052.709        3367.061          35.000  
  22219462.471   116764042.785        -581.670          42.000  
 23 11 05 16 18 49.9960000  0 11G24G12G13G19G17G22G23G15G25G32G10
  18892494.089    99280712.829        -467.850          45.000  
  19962133.422   104901716.968        2288.098          44.000  
  22935088.460   120524721.083       -3868.892          33.000  
  20864614.607   109644286.460         222.530          42.000  
  22092767.497   116098285.350       -1810.024          31.000  
  23367066.692                       -3364.579          21.000  
  22396229.521   117692988.652       -2669.706          37.000  
  20800542.256   109307589.864       -3346.492          40.000  
  22619528.052   118866425.877        3613.654          38.000  
  23754875.211   124832685.790        3367.020          35.000  
  22219573.749   116764624.970        -582.313          42.000  
 23 11 05 16 18 50.9960000  0 11G24G12G13G19G17G22G23G15G25G32G10
  18892583.066    99281180.743        -467.681          45.000  
  19961698.063   104899429.139        2288.004          44.000  
  22935824.720   120528590.431       -3869.021          34.000  
  20864572.417   109644064.177         222.584          42.000  
  22093115.171   116100095.244       -1809.031          31.000  
  23367708.164                       -3364.579          20.000  
  22396737.499   117695658.196       -2669.706          37.000  
  20801179.104   109310936.264       -3346.238          40.000  
  22618840.295   118862812.413        3614.056          38.000  
  23754234.845   124829318.786        3367.495          35.000  
  22219684.390   116765207.567        -582.442          42.000  
 23 11 05 16 18 51.9960000  0 10G24G12G13G19G17G23G15G25G32G10
  18892672.119    99281649.126        -468.457          45.000  
  19961262.731   104897141.763        2287.224          44.000  
  22936560.984   120532459.760       -3867.997          34.000  
  20864530.281   109643842.593         221.324          42.000  
  22093460.369   116101905.648       -1809.996          30.000  
  22397245.697   117698328.027       -2669.807          37.000  
  20801816.240   109314282.981       -3346.646          40.000  
  22618152.881   118859199.078        3613.623          38.000  
  23753594.143   124825951.921        3367.179          35.000  
  22219795.714   116765790.768        -583.344          42.000  
 23 11 05 16 18 52.9960000  0 10G24G12G13G19G17G23G15G25G32G10
  18892761.350    99282117.990        -468.931          45.000  
  19960827.836   104894854.831        2286.791          43.000  
  22937297.488   120536329.359       -3869.036          30.000  
  20864488.298   109643621.670         220.816          42.000  
  22093809.463   116103716.630       -1810.942          31.000  
  22397753.848   117700998.259       -2670.109          37.000  
  20802453.243   109317630.079       -3347.091          40.000  
  22617465.421   118855585.906        3613.391          38.000  
  23752953.613   124822585.214        3366.469          35.000  
  22219907.142   116766374.583        -583.840          42.000  
 23 11 05 16 18 53.9960000  0 10G24G12G13G19G17G23G15G25G32G10
  18892850.554    99282587.384        -469.521          45.000  
  19960392.822   104892568.449        2286.285          44.000  
  22938033.852   120540199.106       -3869.820          32.000  
  20864446.175   109643401.490         219.920          42.000  
  22094149.340   116105528.207       -1812.003          31.000  
  22398262.179   117703668.934       -2670.548          37.000  
  20803090.219   109320977.598       -3347.395          40.000  
  22616777.758   118851972.936        3613.257          37.000  
  23752312.957   124819218.701        3366.426          35.000  
  22220018.426   116766959.108        -584.539          42.000  
 23 11 05 16 18 54.9960000  0 10G24G12G13G19G17G23G15G25G32G10
  18892939.903    99283057.022        -469.675          45.000  
  19959957.965   104890282.279        2286.198          44.000  
  22938770.286   120544068.705       -3869.979          33.000  
  20864404.395   109643181.748         219.692          42.000  
  22094495.710   116107340.032       -1812.258          31.000  
  22398769.919   117706339.734       -2670.769          37.000  
  20803727.359   109324325.242       -3347.507          40.000  
  22616090.586   118848359.899        3613.482          37.000  
  23751672.470   124815852.045        3367.088          35.000  
  22220129.900   116767544.048        -585.346          42.000  
 23 11 05 16 18 55.9960000  0 10G24G12G13G19G17G23G15G25G32G10
  18893029.113    99283527.211        -470.610          44.000  
  19959523.620   104887996.658        2284.937          44.000  
  22939506.360   120547938.428       -3869.425          33.000  
  20864362.632   109642962.783         218.195          42.000  
  22094841.314   116109152.482       -1813.438          31.000  
  22399278.430   117709010.991       -2672.097          38.000  
  20804364.364   109327673.314       -3348.759          40.000  
  22615402.945   118844747.099        3612.463          37.000  
  23751031.995   124812485.638        3365.943          36.000  
  22220241.372   116768129.675        -586.419          42.000  
 23 11 05 16 18 56.9960000  0 10G24G12G13G19G17G23G15G25G32G10
  18893118.519    99283997.808        -470.559          45.000  
  19959088.772   104885711.408        2285.325          44.000  
  22940242.559   120551808.320       -3870.149          33.000  
  20864321.214   109642744.422         218.173          42.000  
  22095183.903   116110965.351       -1813.386          32.000  
  22399786.678   117711682.532       -2671.934          37.000  
  20805001.374   109331021.671       -3348.120          40.000  
  22614715.162   118841134.386        3612.762          37.000  
  23750391.596   124809119.312        3366.281          36.000  
  22220352.906   116768715.856        -586.321          42.000  
 23 11 05 16 18 57.9960000  0 10G24G12G13G19G17G23G15G25G32G10
  18893208.035    99284468.798        -470.863          44.000  
  19958653.967   104883426.558        2284.928          44.000  
  22940978.415   120555678.120       -3869.309          33.000  
  20864279.949   109642526.662         217.925          42.000  
  22095529.832   116112778.648       -1813.344          32.000  
  22400295.038   117714354.350       -2671.753          37.000  
  20805638.461   109334370.295       -3348.310          40.000  
  22614027.693   118837521.731        3613.043          37.000  
  23749751.055   124805753.018        3366.676          36.000  
  22220464.231   116769302.582        -586.821          42.000  
 23 11 05 16 18 58.9960000  0 10G24G12G13G19G17G23G15G25G32G10
  18893297.661    99284940.181        -471.584          44.000  
  19958219.332   104881142.078        2284.224          44.000  
  22941714.871   120559548.005       -3869.892          33.000  
  20864238.563   109642309.475         217.035          42.000  
  22095875.256   116114592.473       -1815.296          32.000  
  22400803.363   117717026.450       -2672.174          38.000  
  20806275.765   109337719.213       -3349.109          40.000  
  22613340.316   118833909.172        3612.500          38.000  
  23749110.362   124802386.848        3365.892          36.000  
  22220575.891   116769889.825        -587.397          42.000  
 23 11 05 16 18 59.9960000  0 10G24G12G13G19G17G23G15G25G32G10
  18893387.702    99285412.009        -472.132          45.000  
  19957784.815   104878858.019        2283.755          44.000  
  22942451.130   120563417.976       -3870.473          33.000  
  20864197.171   109642092.968         215.992          42.000  
  22096218.620   116116406.631       -1814.144          32.000  
  22401312.132   117719698.892       -2672.699          38.000  
  20806912.868   109341068.435       -3349.710          40.000  
  22612653.146   118830296.729        3612.628          37.000  
  23748470.163   124799020.731        3365.848          36.000  
  22220687.860   116770477.685        -588.381          42.000  
 23 11 05 16 19 00.9960000  0 10G24G12G13G19G17G23G15G25G32G10
  18893477.743    99285884.440        -472.377          45.000  
  19957350.346   104876574.574        2283.224          44.000  
  22943187.732   120567288.130       -3869.683          34.000  
  20864156.091   109641877.246         215.465          42.000  
  22096566.909   116118221.556       -1815.233          32.000  
  22401820.922   117722371.822       -2672.829          37.000  
  20807550.244   109344418.162       -3349.740          40.000  
  22611965.433   118826684.597        3612.061          37.000  
  23747829.743   124795654.904        3365.719          36.000  
  22220800.004   116771066.288        -588.722          42.000  
 23 11 05 16 19 01.9960000  0 10G24G12G13G19G17G23G15G25G32G10
  18893567.679    99286357.148        -473.210          45.000  
  19956915.840   104874291.350        2282.871          44.000  
  22943924.271   120571158.219       -3869.587          34.000  
  20864115.035   109641661.994         214.810          42.000  
  22096911.291   116120036.728       -1815.634          32.000  
  22402329.910   117725044.916       -2673.601          38.000  
  20808188.176   109347767.996       -3350.092          40.000  
  22611277.796   118823072.390        3611.877          37.000  
  23747189.389   124792289.034        3365.444          36.000  
  22220912.425   116771655.331        -589.577          42.000  
 23 11 05 16 19 02.9960000  0 10G24G12G13G19G17G23G15G25G32G10
  18893657.685    99286830.326        -473.243          45.000  
  19956481.439   104872008.620        2282.428          44.000  
  22944660.758   120575028.407       -3870.070          33.000  
  20864074.195   109641447.436         214.261          42.000  
  22097256.731   116121852.470       -1815.830          32.000  
  22402838.931   117727718.384       -2673.515          38.000  
  20808825.923   109351118.225       -3350.248          41.000  
  22610590.441   118819460.356        3611.792          37.000  
  23746548.713   124788923.249        3365.712          36.000  
  22221024.473   116772245.001        -589.855          42.000  
 23 11 05 16 19 03.9960000  0 10G24G12G13G19G17G23G15G25G32G10
  18893748.042    99287304.087        -473.474          45.000  
  19956046.943   104869726.444        2282.138          44.000  
  22945397.693   120578898.828       -3870.141          33.000  
  20864033.580   109641233.650         213.948          42.000  
  22097602.348   116123668.833       -1816.237          31.000  
  22403347.921   117730392.307       -2673.707          38.000  
  20809463.619   109354468.904       -3350.476          41.000  
  22609903.171   118815848.556        3612.079          37.000  
  23745908.509   124785557.775        3366.249          36.000  
  22221136.861   116772835.414        -590.323          42.000  
 23 11 05 16 19 04.9960000  0 10G24G12G13G19G17G23G15G25G32G10
  18893838.086    99287778.111        -474.311          45.000  
  19955613.055   104867444.505        2281.972          44.000  
  22946133.907   120582769.121       -3869.334          33.000  
  20863992.770   109641020.340         213.152          42.000  
  22097947.915   116125485.451       -1815.616          31.000  
  22403856.861   117733066.366       -2673.986          38.000  
  20810101.156   109357819.705       -3350.663          41.000  
  22609215.743   118812236.716        3612.091          37.000  
  23745268.171   124782192.164        3365.724          36.000  
  22221249.107   116773426.218        -590.832          42.000  
 23 11 05 16 19 05.9960000  0 10G24G12G13G19G17G23G15G25G32G10
  18893928.338    99288252.723        -475.063          45.000  
  19955178.824   104865163.133        2281.390          44.000  
  22946872.101   120586639.676       -3870.756          33.000  
  20863952.395   109640807.821         211.975          42.000  
  22098294.661   116127302.762       -1817.314          30.000  
  22404365.744   117735740.926       -2675.077          38.000  
  20810739.114   109361171.009       -3351.688          40.000  
  22608528.750   118808625.124        3611.267          38.000  
  23744627.610   124778826.846        3364.832          35.000  
  22221361.986   116774017.784        -592.056          42.000  
 23 11 05 16 19 06.9960000  0 10G24G12G13G19G17G23G15G25G32G10
  18894018.695    99288727.543        -475.066          45.000  
  19954744.560   104862881.978        2281.103          44.000  
  22947606.566   120590510.040       -3870.404          34.000  
  20863912.083   109640595.712         211.764          42.000  
  22098640.507   116129120.319       -1817.740          30.000  
  22404875.052   117738415.557       -2674.727          38.000  
  20811376.979   109364522.352       -3351.473          40.000  
  22607841.885   118805013.421        3611.804          38.000  
  23743987.159   124775461.401        3365.642          35.000  
  22221474.505   116774609.723        -592.332          42.000  
 23 11 05 16 19 07.9960000  0 10G24G12G13G19G17G23G15G25G32G10
  18894109.120    99289202.618        -475.363          45.000  
  19954310.204   104860601.082        2280.701          44.000  
  22948343.050   120594380.273       -3869.980          33.000  
  20863871.653   109640384.077         211.162          42.000  
  22098986.711   116130938.160       -1818.088          30.000  
  22405383.966   117741090.343       -2675.188          38.000  
  20812014.592   109367873.857       -3351.599          40.000  
  22607154.364   118801401.686        3611.493          38.000  
  23743346.782   124772095.937        3364.389          35.000  
  22221587.301   116775202.075        -592.912          42.000  
 23 11 05 16 19 08.9960000  0 10G24G12G13G19G17G23G15G25G32G10
  18894199.957    99289678.156        -476.004          45.000  
  19953876.093   104858320.619        2280.026          44.000  
  22949081.231   120598250.615       -3870.255          34.000  
  20863831.282   109640173.104         210.319          42.000  
  22099332.614   116132756.520       -1818.390          30.000  
  22405893.013   117743765.484       -2675.572          38.000  
  20812652.042   109371225.675       -3352.157          40.000  
  22606467.273   118797790.074        3611.389          38.000  
  23742706.540   124768730.522        3365.464          36.000  
  22221700.189   116775794.996        -593.253          42.000  
 23 11 05 16 19 09.9960000  0 10G24G12G13G19G17G23G15G25G32G10
  18894290.581    99290154.081        -476.104          45.000  
  19953442.021   104856040.544        2279.757          43.000  
  22949819.949   120602121.063       -3870.477          34.000  
  20863791.037   109639962.723         209.855          42.000  
  22099678.084   116134575.344       -1819.203          29.000  
  22406401.881   117746440.913       -2675.542          37.000  
  20813289.961   109374577.807       -3352.352          41.000  
  22605779.778   118794178.529        3611.499          38.000  
  23742066.213   124765365.237        3365.229          36.000  
  22221813.066   116776388.497        -593.984          42.000  
 23 11 05 16 19 10.9960000  0 10G24G12G13G19G17G23G15G25G32G10
  18894381.200    99290630.394        -476.490          45.000  
  19953007.776   104853760.825        2279.600          43.000  
  22950556.975   120605991.520       -3871.027          34.000  
  20863751.161   109639752.917         209.649          42.000  
  22100025.714   116136394.553       -1819.367          29.000  
  22406910.987   117749116.592       -2675.639          37.000  
  20813928.113   109377930.163       -3352.429          41.000  
  22605092.837   118790567.042        3611.987          38.000  
  23741426.158   124761999.961        3365.278          36.000  
  22221925.785   116776982.508        -594.017          42.000  
 23 11 05 16 19 11.9960000  0 10G24G12G13G19G17G23G15G25G32G10
  18894471.840    99291107.255        -476.981          45.000  
  19952573.846   104851481.677        2278.700          43.000  
  22951293.607   120609862.120       -3871.062          34.000  
  20863711.421   109639543.896         208.775          42.000  
  22100372.367   116138214.388       -1820.106          29.000  
  22407419.903   117751792.754       -2677.015          37.000  
  20814566.793   109381282.975       -3353.022          41.000  
  22604405.680   118786955.837        3611.096          38.000  
  23740785.834   124758634.961        3364.893          36.000  
  22222038.738   116777577.276        -595.315          42.000  
 23 11 05 16 19 12.9960000  0 10G24G12G13G19G17G23G15G25G32G10
  18894562.749    99291584.515        -477.530          45.000  
  19952139.606   104849202.880        2278.602          43.000  
  22952030.405   120613732.735       -3870.618          34.000  
  20863671.556   109639335.465         207.894          42.000  
  22100719.603   116140034.650       -1820.431          29.000  
  22407928.906   117754469.158       -2676.701          37.000  
  20815205.005   109384636.041       -3353.165          41.000  
  22603718.362   118783344.684        3610.864          38.000  
  23740145.587   124755269.949        3365.108          36.000  
  22222151.896   116778172.552        -595.696          42.000  
 23 11 05 16 19 13.9960000  0 10G24G12G13G19G17G23G15G25G32G10
  18894653.547    99292062.235        -478.014          45.000  
  19951706.123   104846924.548        2277.893          43.000  
  22952766.765   120617603.435       -3870.076          34.000  
  20863632.345   109639127.689         207.480          42.000  
  22101065.950   116141855.436       -1821.473          28.000  
  22408438.407   117757145.917       -2677.070          37.000  
  20815843.209   109387989.450       -3353.569          41.000  
  22603031.166   118779733.659        3610.968          38.000  
  23739505.173   124751905.107        3364.659          36.000  
  22222265.412   116778768.450        -596.283          42.000  
 23 11 05 16 19 14.9960000  0 10G24G12G13G19G17G23G15G25G32G10
  18894744.672    99292540.557        -478.548          45.000  
  19951272.723   104844646.787        2277.392          43.000  
  22953503.108   120621474.414       -3870.708          33.000  
  20863592.873   109638920.728         206.557          42.000  
  22101412.876   116143676.854       -1821.926          28.000  
  22408947.805   117759823.181       -2677.518          37.000  
  20816481.416   109391343.359       -3354.366          41.000  
  22602344.107   118776122.930        3610.791          38.000  
  23738864.715   124748540.490        3365.083          36.000  
  22222378.933   116779365.085        -596.851          42.000  
 23 11 05 16 19 15.9960000  0 10G24G12G13G19G17G23G15G25G32G10
  18894835.749    99293019.095        -478.844          45.000  
  19950839.668   104842369.253        2277.352          44.000  
  22954239.398   120625345.268       -3870.907          33.000  
  20863553.588   109638714.186         206.176          42.000  
  22101757.594   116145498.467       -1822.009          28.000  
  22409457.002   117762500.561       -2678.034          37.000  
  20817119.666   109394697.345       -3354.127          41.000  
  22601657.118   118772512.102        3610.620          38.000  
  23738224.251   124745175.847        3364.417          36.000  
  22222492.686   116779962.080        -597.323          42.000  
 23 11 05 16 19 16.9960000  0 10G24G12G13G19G17G23G15G25G32G10
  18894926.610    99293497.947        -479.139          45.000  
  19950406.379   104840092.030        2276.687          43.000  
  22954976.131   120629216.042       -3870.991          34.000  
  20863514.549   109638508.164         205.442          42.000  
  22102101.261   116147320.530       -1822.525          28.000  
  22409966.446   117765178.085       -2677.396          37.000  
  20817758.179   109398051.539       -3354.518          41.000  
  22600970.134   118768901.285        3610.498          38.000  
  23737583.959   124741811.136        3364.666          36.000  
  22222606.339   116780559.548        -597.993          42.000  
 23 11 05 16 19 17.9960000  0 10G24G12G13G19G17G23G15G25G32G10
  18895017.648    99293977.457        -479.731          44.000  
  19949973.288   104837815.424        2276.281          44.000  
  22955712.781   120633087.063       -3870.738          34.000  
  20863475.712   109638302.995         204.768          42.000  
  22102446.614   116149143.261       -1822.733          27.000  
  22410476.012   117767856.201       -2678.210          36.000  
  20818396.571   109401406.256       -3355.145          41.000  
  22600283.343   118765290.764        3610.589          38.000  
  23736943.895   124738446.752        3363.876          36.000  
  22222719.969   116781157.809        -598.374          42.000  
 23 11 05 16 19 18.9960000  0 10G24G12G13G19G17G23G15G25G32G10
  18895108.865    99294457.269        -480.295          45.000  
  19949539.951   104835539.101        2275.800          43.000  
  22956449.257   120636958.078       -3871.365          33.000  
  20863436.802   109638098.335         203.977          42.000  
  22102794.582   116150966.345       -1823.620          27.000  
  22410985.508   117770534.510       -2679.016          37.000  
  20819035.428   109404761.153       -3355.366          41.000  
  22599596.442   118761680.265        3609.882          38.000  
  23736303.808   124735082.313        3363.936          36.000  
  22222833.836   116781756.563        -599.277          42.000  
 23 11 05 16 19 19.9960000  0 10G24G12G13G19G17G23G15G25G32G10
  18895200.007    99294937.574        -480.290          45.000  
  19949107.210   104833263.265        2276.029          44.000  
  22957185.645   120640829.211       -3871.179          33.000  
  20863398.488   109637894.373         203.738          42.000  
  22103142.629   116152789.928       -1824.046          27.000  
  22411494.803   117773213.177       -2679.201          37.000  
  20819673.885   109408116.380       -3355.016          41.000  
  22598909.477   118758069.892        3610.357          38.000  
  23735663.861   124731718.095        3364.231          36.000  
  22222947.860   116782355.927        -599.623          41.000  
 23 11 05 16 19 20.9960000  0 10G24G12G13G19G17G23G15G25G32G10
  18895291.444    99295418.351        -481.240          44.000  
  19948674.202   104830987.919        2274.980          43.000  
  22957921.824   120644700.436       -3872.025          33.000  
  20863359.842   109637691.092         202.873          42.000  
  22103491.123   116154614.060       -1824.597          28.000  
  22412004.732   117775892.212       -2679.756          37.000  
  20820312.073   109411472.027       -3355.842          41.000  
  22598222.536   118754459.712        3610.071          38.000  
  23735023.650   124728353.991        3363.830          35.000  
  22223061.633   116782955.957        -600.452          41.000  
 23 11 05 16 19 21.9960000  0 10G24G12G13G19G17G23G15G25G32G10
  18895382.903    99295899.488        -481.180          44.000  
  19948240.990   104828712.907        2274.770          43.000  
  22958658.735   120648571.671       -3871.320          32.000  
  20863321.378   109637488.392         202.344          42.000  
  22103840.011   116156438.623       -1824.663          27.000  
  22412514.588   117778571.505       -2679.764          37.000  
  20820950.580   109414827.890       -3356.106          41.000  
  22597535.582   118750849.564        3610.632          38.000  
  23734383.272   124724989.944        3363.819          35.000  
  22223175.692   116783556.445        -600.708          41.000  
 23 11 05 16 19 22.9960000  0 10G24G12G13G19G17G23G15G25G32G10
  18895474.257    99296381.163        -481.600          44.000  
  19947808.033   104826438.410        2274.380          43.000  
  22959395.163   120652443.027       -3871.223          33.000  
  20863282.754   109637286.418         201.774          42.000  
  22104184.123   116158263.708       -1825.594          27.000  
  22413024.638   117781251.203       -2679.790          37.000  
  20821589.191   109418184.144       -3356.342          41.000  
  22596848.436   118747239.633        3610.376          38.000  
  23733742.701   124721626.070        3363.624          35.000  
  22223290.181   116784157.647        -601.512          41.000  
 23 11 05 16 19 23.9960000  0 10G24G12G13G19G17G23G15G25G32G10
  18895565.856    99296863.285        -482.202          45.000  
  19947375.455   104824164.351        2274.364          43.000  
  22960131.732   120656314.476       -3871.021          33.000  
  20863244.298   109637085.104         201.193          42.000  
  22104532.552   116160089.352       -1825.604          27.000  
  22413534.466   117783931.216       -2679.655          37.000  
  20822228.041   109421540.741       -3356.460          41.000  
  22596161.617   118743629.842        3610.357          38.000  
  23733102.655   124718262.273        3364.335          35.000  
  22223404.973   116784759.428        -602.148          42.000  
 23 11 05 16 19 24.9960000  0 10G24G12G13G19G17G23G15G25G32G10
  18895657.613    99297345.845        -482.962          44.000  
  19946942.687   104821890.733        2273.332          43.000  
  22960868.363   120660185.974       -3871.252          33.000  
  20863206.298   109636884.407         200.537          42.000  
  22104879.737   116161915.440       -1826.756          27.000  
  22414044.819   117786611.570       -2680.276          37.000  
  20822866.333   109424897.631       -3356.899          40.000  
  22595474.552   118740020.148        3609.955          37.000  
  23732462.536   124714898.614        3363.679          36.000  
  22223519.808   116785361.785        -602.699          42.000  
 23 11 05 16 19 25.9960000  0 10G24G12G13G19G17G23G15G25G32G10
  18895749.451    99297828.811        -483.482          44.000  
  19946510.136   104819617.495        2272.805          43.000  
  22961604.867   120664057.564       -3871.853          33.000  
  20863168.365   109636684.367         199.405          42.000  
  22105226.049   116163741.907       -1826.444          27.000  
  22414554.878   117789292.221       -2680.670          37.000  
  20823504.913   109428254.836       -3357.640          40.000  
  22594787.238   118736410.578        3609.344          37.000  
  23731822.394   124711535.036        3363.388          35.000  
  22223634.923   116785964.716        -603.530          42.000  
 23 11 05 16 19 26.9960000  0 10G24G12G13G19G17G23G15G25G32G10
  18895841.765    99298312.180        -483.512          44.000  
  19946077.676   104817344.640        2272.754          43.000  
  22962341.584   120667929.128       -3871.341          33.000  
  20863130.431   109636484.896         199.332          42.000  
  22105574.212   116165568.882       -1827.041          27.000  
  22415065.212   117791973.170       -2680.708          37.000  
  20824143.266   109431612.282       -3357.501          40.000  
  22594100.238   118732801.053        3609.833          38.000  
  23731182.263   124708171.523        3364.177          35.000  
  22223750.766   116786568.194        -603.596          42.000  
 23 11 05 16 19 27.9960000  0 10G24G12G13G19G17G23G15G25G32G10
  18895933.972    99298795.796        -484.002          44.000  
  19945645.237   104815072.039        2272.321          43.000  
  22963078.178   120671800.639       -3871.742          34.000  
  20863092.594   109636285.897         198.511          42.000  
  22105923.242   116167396.174       -1827.581          28.000  
  22415575.334   117794654.249       -2681.279          37.000  
  20824781.972   109434969.893       -3358.123          40.000  
  22593413.308   118729191.484        3609.692          37.000  
  23730542.161   124704807.986        3363.687          35.000  
  22223866.389   116787172.101        -604.507          42.000  
 23 11 05 16 19 28.9960000  0 10G24G12G13G19G17G23G15G25G32G10
  18896026.020    99299280.035        -484.525          44.000  
  19945213.070   104812800.058        2271.759          43.000  
  22963814.623   120675672.367       -3872.351          34.000  
  20863054.767   109636087.721         197.680          42.000  
  22106273.514   116169224.103       -1828.100          28.000  
  22416085.888   117797335.841       -2681.751          38.000  
  20825421.317   109438327.987       -3358.530          40.000  
  22592726.531   118725582.225        3608.722          38.000  
  23729901.670   124701444.732        3362.821          35.000  
  22223981.281   116787776.774        -605.247          42.000  
 23 11 05 16 19 29.9960000  0 10G24G12G13G19G17G23G15G25G32G10
  18896117.976    99299764.646        -484.864          44.000  
  19944780.710   104810528.428        2271.656          43.000  
  22964551.153   120679544.100       -3871.490          33.000  
  20863017.142   109635890.123         197.376          42.000  
  22106618.123   116171052.472       -1828.971          29.000  
  22416596.732   117800017.693       -2682.151          38.000  
  20826060.580   109441686.300       -3358.198          40.000  
  22592039.839   118721973.002        3609.064          38.000  
  23729261.780   124698081.502        3363.411          35.000  
  22224096.248   116788381.936        -605.181          42.000  
 23 11 05 16 19 30.9960000  0 10G24G12G13G19G17G23G15G25G32G10
  18896210.419    99300249.858        -485.576          44.000  
  19944348.560   104808257.405        2270.742          43.000  
  22965287.842   120683416.104       -3872.261          33.000  
  20862979.676   109635693.326         196.286          42.000  
  22106962.846   116172881.450       -1828.965          29.000  
  22417107.330   117802700.024       -2682.484          37.000  
  20826700.253   109445045.134       -3359.089          41.000  
  22591353.249   118718364.063        3609.186          38.000  
  23728621.788   124694718.543        3362.979          35.000  
  22224211.240   116788987.880        -606.423          42.000  
 23 11 05 16 19 31.9960000  0 10G24G12G13G19G17G23G15G25G32G10
  18896302.756    99300735.326        -485.313          44.000  
  19943915.895   104805986.615        2270.740          43.000  
  22966024.699   120687287.937       -3871.546          33.000  
  20862942.488   109635496.992         196.271          42.000  
  22107312.729   116174710.810       -1829.599          29.000  
  22417618.187   117805382.492       -2682.063          37.000  
  20827339.367   109448404.085       -3359.132          41.000  
  22590666.583   118714755.078        3609.454          38.000  
  23727981.717   124691355.486        3363.612          35.000  
  22224326.697   116789594.206        -606.366          42.000  
 23 11 05 16 19 32.9960000  0 10G24G12G13G19G17G23G15G25G32G10
  18896395.236    99301221.101        -486.032          44.000  
  19943483.666   104803716.107        2270.220          43.000  
  22966761.532   120691159.735       -3871.858          33.000  
  20862905.445   109635301.165         195.426          42.000  
  22107658.335   116176540.451       -1829.805          29.000  
  22418129.282   117808065.162       -2683.036          38.000  
  20827978.649   109451763.212       -3359.608          40.000  
  22589979.590   118711146.094        3608.356          38.000  
  23727341.752   124687992.410        3363.040          35.000  
  22224442.720   116790200.979        -607.064          43.000  
 23 11 05 16 19 33.9960000  0 10G24G12G13G19G17G23G15G25G32G10
  18896487.580    99301707.430        -486.043          44.000  
  19943051.816   104801446.145        2270.325          43.000  
  22967498.091   120695031.681       -3871.168          34.000  
  20862868.459   109635106.101         195.163          42.000  
  22108010.406   116178370.757       -1830.633          29.000  
  22418639.850   117810748.265       -2682.958          38.000  
  20828617.870   109455122.770       -3359.226          40.000  
  22589292.958   118707537.300        3609.521          38.000  
  23726701.828   124684629.564        3362.764          35.000  
  22224558.844   116790808.472        -607.198          43.000  
 23 11 05 16 19 34.9960000  0 10G24G12G13G19G17G23G15G25G32G10
  18896579.929    99302194.141        -486.811          44.000  
  19942619.599   104799176.574        2269.230          43.000  
  22968234.721   120698903.709       -3872.327          33.000  
  20862831.336   109634911.637         193.952          42.000  
  22108357.362   116180201.331       -1830.845          29.000  
  22419150.698   117813431.621       -2683.361          38.000  
  20829257.264   109458482.587       -3359.838          40.000  
  22588606.316   118703928.633        3608.636          38.000  
  23726061.990   124681266.757        3363.052          35.000  
  22224675.071   116791416.517        -608.345          43.000  
 23 11 05 16 19 35.9960000  0 10G24G12G13G19G17G23G15G25G32G10
  18896672.500    99302681.253        -487.208          44.000  
  19942187.597   104796907.380        2268.948          43.000  
  22968971.103   120702775.700       -3871.296          33.000  
  20862794.597   109634717.762         193.594          42.000  
  22108705.053   116182032.528       -1831.460          29.000  
  22419661.226   117816115.273       -2683.501          38.000  
  20829896.766   109461842.693       -3360.308          40.000  
  22587919.561   118700320.017        3608.374          38.000  
  23725421.990   124677904.056        3362.590          35.000  
  22224790.616   116792025.097        -609.056          43.000  
 23 11 05 16 19 36.9960000  0 10G24G12G13G19G17G23G15G25G32G10
  18896765.172    99303168.960        -488.009          44.000  
  19941756.035   104794638.774        2267.992          43.000  
  22969707.766   120706648.000       -3873.209          33.000  
  20862757.740   109634524.694         192.394          42.000  
  22109053.726   116183864.239       -1831.629          30.000  
  22420171.872   117818799.394       -2684.231          38.000  
  20830536.275   109465203.238       -3360.937          40.000  
  22587232.794   118696711.686        3608.356          37.000  
  23724782.239   124674541.558        3362.519          34.000  
  22224906.819   116792634.392        -609.898          43.000  
 23 11 05 16 19 37.9960000  0 10G24G12G13G19G17G23G15G25G32G10
  18896857.963    99303657.029        -487.988          44.000  
  19941324.293   104792370.492        2268.397          43.000  
  22970444.091   120710520.182       -3871.989          33.000  
  20862720.900   109634332.205         192.309          42.000  
  22109404.253   116185696.422       -1832.734          30.000  
  22420682.934   117821483.829       -2684.732          38.000  
  20831175.994   109468564.056       -3360.749          40.000  
  22586546.240   118693103.396        3608.350          38.000  
  23724142.328   124671179.142        3362.679          34.000  
  22225022.802   116793244.224        -609.758          43.000  
 23 11 05 16 19 38.9960000  0 10G24G12G13G19G17G23G15G25G32G10
  18896951.100    99304145.617        -488.772          44.000  
  19940892.740   104790102.728        2267.820          43.000  
  22971180.185   120714392.550       -3871.991          32.000  
  20862684.172   109634140.413         191.809          42.000  
  22109757.566   116187529.140       -1833.088          31.000  
  22421193.844   117824168.572       -2684.779          37.000  
  20831815.601   109471925.247       -3361.540          41.000  
  22585859.589   118689495.296        3608.075          38.000  
  23723502.431   124667816.913        3362.543          34.000  
  22225139.132   116793854.733        -610.818          42.000  
 23 11 05 16 19 39.9960000  0 10G24G12G13G19G17G23G15G25G32G10
  18897044.120    99304634.625        -489.037          44.000  
  19940461.332   104787835.399        2267.546          43.000  
  22971917.097   120718265.018       -3872.007          33.000  
  20862647.695   109633949.284         191.059          42.000  
  22110102.292   116189362.274       -1832.369          31.000  
  22421704.804   117826853.705       -2685.168          37.000  
  20832455.367   109475286.738       -3361.471          41.000  
  22585173.030   118685887.293        3608.453          38.000  
  23722862.761   124664454.776        3362.883          34.000  
  22225255.258   116794465.819        -611.299          42.000  
 23 11 05 16 19 40.9960000  0 10G24G12G13G19G17G23G15G25G32G10
  18897137.440    99305123.886        -489.626          45.000  
  19940030.004   104785568.306        2266.587          43.000  
  22972658.659   120722137.348       -3872.538          34.000  
  20862611.016   109633758.603         190.066          42.000  
  22110453.365   116191195.801       -1833.891          31.000  
  22422215.949   117829538.924       -2685.419          38.000  
  20833095.332   109478648.373       -3362.167          41.000  
  22584486.084   118682279.233        3607.367          38.000  
  23722222.863   124661092.602        3361.574          34.000  
  22225371.067   116795077.303        -612.199          42.000  
 23 11 05 16 19 41.9960000  0 10G24G12G13G19G17G23G15G25G32G10
  18897230.735    99305613.617        -490.023          45.000  
  19939598.386   104783301.660        2266.182          43.000  
  22973393.167   120726009.791       -3873.000          34.000  
  20862574.567   109633568.573         189.635          42.000  
  22110801.372   116193029.755       -1834.426          31.000  
  22422726.959   117832224.531       -2685.753          37.000  
  20833735.476   109482010.342       -3362.402          41.000  
  22583799.296   118678671.340        3607.574          38.000  
  23721583.060   124657730.541        3361.851          34.000  
  22225487.222   116795689.414        -612.687          42.000  
 23 11 05 16 19 42.9960000  0 10G24G12G13G19G17G23G15G25G32G10
  18897324.231    99306103.835        -490.242          45.000  
  19939167.180   104781035.488        2266.359          43.000  
  22974131.379   120729882.295       -3872.255          35.000  
  20862538.609   109633379.251         189.314          42.000  
  22111149.938   116194864.332       -1835.627          29.000  
  22423237.659   117834910.470       -2685.698          37.000  
  20834375.480   109485372.667       -3362.024          41.000  
  22583112.968   118675063.600        3607.703          38.000  
  23720943.481   124654368.608        3362.531          35.000  
  22225603.622   116796302.147        -612.868          42.000  
 23 11 05 16 19 43.9960000  0 10G24G12G13G19G17G23G15G25G32G10
  18897417.644    99306594.225        -490.872          45.000  
  19938735.902   104778769.474        2265.622          43.000  
  22974870.291   120733754.654       -3873.112          34.000  
  20862502.511   109633190.313         188.506          42.000  
  22111498.979   116196699.031       -1834.677          30.000  
  22423748.366   117837596.488       -2686.298          37.000  
  20835015.270   109488735.050       -3362.606          41.000  
  22582426.243   118671455.709        3607.239          38.000  
  23720303.774   124651006.544        3361.536          35.000  
  22225719.995   116796915.200        -613.825          42.000  
 23 11 05 16 19 44.9960000  0 10G24G12G13G19G17G23G15G25G32G10
  18897511.411    99307085.248        -491.237          45.000  
  19938304.642   104776504.087        2265.244          43.000  
  22975604.328   120737627.210       -3871.882          34.000  
  20862466.978   109633002.209         187.822          42.000  
  22111851.097   116198534.497       -1836.167          30.000  
  22424259.745   117840282.994       -2686.431          37.000  
  20835654.902   109492097.955       -3362.935          41.000  
  22581739.994   118667848.149        3607.489          38.000  
  23719664.317   124647644.733        3362.164          35.000  
  22225836.922   116797529.024        -614.174          42.000  
 23 11 05 16 19 45.9960000  0 10G24G12G13G19G17G23G15G25G32G10
  18897605.110    99307576.404        -491.164          45.000  
  19937873.364   104774238.839        2264.856          43.000  
  22976339.924   120741499.616       -3872.490          33.000  
  20862431.133   109632814.460         187.289          42.000  
  22112199.043   116200370.053       -1835.708          30.000  
  22424770.984   117842969.535       -2686.312          37.000  
  20836294.677   109495460.866       -3363.141          41.000  
  22581053.712   118664240.385        3607.873          37.000  
  23719024.328   124644282.785        3361.610          35.000  
  22225953.721   116798143.159        -614.305          42.000  
 23 11 05 16 19 46.9960000  0 10G24G12G13G19G17G23G15G25G32G10
  18897698.560    99308068.018        -491.862          45.000  
  19937442.324   104771974.010        2264.696          43.000  
  22977076.223   120745372.074       -3872.691          32.000  
  20862395.471   109632627.326         186.978          43.000  
  22112547.308   116202206.177       -1836.834          31.000  
  22425282.053   117845656.421       -2686.932          37.000  
  20836934.755   109498824.092       -3363.370          41.000  
  22580367.168   118660632.796        3607.562          38.000  
  23718384.823   124640920.954        3361.932          35.000  
  22226070.711   116798757.894        -615.224          42.000  
 23 11 05 16 19 47.9960000  0 10G24G12G13G19G17G23G15G25G32G10
  18897792.331    99308560.273        -492.597          45.000  
  19937011.526   104769709.845        2263.586          43.000  
  22977813.074   120749244.845       -3872.866          32.000  
  20862360.019   109632441.101         185.624          43.000  
  22112894.236   116204042.919       -1837.318          31.000  
  22425793.224   117848343.849       -2687.611          37.000  
  20837574.833   109502187.838       -3364.086          41.000  
  22579680.892   118657025.520        3607.043          38.000  
  23717744.989   124637559.474        3361.592          35.000  
  22226188.215   116799373.424        -615.936          42.000  
 23 11 05 16 19 48.9960000  0 10G24G12G13G19G17G23G15G25G32G10
  18897886.239    99309052.827        -492.932          45.000  
  19936580.678   104767445.920        2263.443          43.000  
  22978549.569   120753117.481       -3872.529          32.000  
  20862324.643   109632255.318         185.448          43.000  
  22113246.292   116205879.993       -1837.469          31.000  
  22426304.912   117851031.435       -2687.825          37.000  
  20838214.731   109505551.747       -3363.816          41.000  
  22578994.424   118653418.194        3607.495          38.000  
  23717105.465   124634197.913        3361.603          35.000  
  22226305.548   116799989.367        -616.076          42.000  
 23 11 05 16 19 49.9960000  0 10G24G12G13G19G17G23G15G25G32G10
  18897979.810    99309545.858        -492.956          45.000  
  19936149.876   104765182.490        2263.324          43.000  
  22979286.367   120756990.314       -3873.532          33.000  
  20862289.712   109632070.273         184.990          43.000  
  22113591.845   116207717.630       -1836.253          31.000  
  22426816.575   117853719.406       -2687.948          38.000  
  20838854.835   109508916.039       -3364.454          41.000  
  22578307.750   118649811.073        3607.306          38.000  
  23716465.816   124630836.527        3361.470          35.000  
  22226422.619   116800605.987        -616.765          42.000  
 23 11 05 16 19 50.9960000  0 10G24G12G13G19G17G23G15G25G32G10
  18898073.637    99310039.560        -494.034          45.000  
  19935719.451   104762919.703        2262.443          43.000  
  22980023.469   120760863.322       -3872.971          33.000  
  20862254.847   109631886.079         183.607          43.000  
  22113944.778   116209555.973       -1838.923          31.000  
  22427328.221   117856407.901       -2688.635          38.000  
  20839495.511   109512280.840       -3365.337          41.000  
  22577621.291   118646204.314        3606.427          38.000  
  23715826.432   124627475.470        3361.113          36.000  
  22226540.343   116801223.410        -618.150          42.000  
 23 11 05 16 19 51.9960000  0 10G24G12G13G19G17G23G15G25G32G10
  18898167.389    99310533.588        -494.668          45.000  
  19935289.126   104760657.238        2262.052          43.000  
  22980760.597   120764736.459       -3874.276          32.000  
  20862219.896   109631702.406         183.035          43.000  
  22114290.729   116211394.694       -1839.375          31.000  
  22427840.169   117859096.631       -2689.465          38.000  
  20840135.555   109515645.812       -3365.206          41.000  
  22576934.880   118642597.534        3606.299          38.000  
  23715187.121   124624114.410        3360.522          36.000  
  22226657.756   116801841.296        -618.564          42.000  
 23 11 05 16 19 52.9960000  0  9G24G12G13G19G23G15G25G32G10
  18898261.519    99311028.106        -494.919          45.000  
  19934858.959   104758395.287        2261.525          43.000  
  22981495.809   120768609.514       -3872.801          32.000  
  20862185.059   109631519.474         182.201          43.000  
  22428351.727   117861785.731       -2690.172          37.000  
  20840775.954   109519011.223       -3365.767          40.000  
  22576248.493   118638990.964        3606.207          38.000  
  23714547.446   124620753.558        3359.801          34.000  
  22226775.155   116802459.822        -618.928          41.000  
 23 11 05 16 19 53.9960000  0  9G24G12G13G19G23G15G25G32G10
  18898355.626    99311523.308        -495.765          44.000  
  19934428.325   104756133.966        2261.021          43.000  
  22982231.929   120772483.006       -3873.476          32.000  
  20862150.398   109631337.389         181.814          44.000  
  22428863.402   117864475.377       -2689.736          37.000  
  20841416.224   109522377.155       -3366.502          40.000  
  22575561.908   118635384.723        3606.000          37.000  
  23713907.569   124617392.970        3360.367          34.000  
  22226892.833   116803079.174        -619.743          41.000  
 23 11 05 16 19 54.9960000  0  9G24G12G13G19G23G15G25G32G10
  18898450.348    99312018.681        -495.602          45.000  
  19933998.188   104753872.833        2260.833          43.000  
  22982971.511   120776356.288       -3873.596          32.000  
  20862116.394   109631155.694         181.082          43.000  
  22429375.069   117867165.119       -2689.892          38.000  
  20842056.623   109525743.139       -3366.086          40.000  
  22574875.447   118631778.355        3606.390          37.000  
  23713268.014   124614032.293        3360.543          34.000  
  22227010.471   116803698.874        -620.453          41.000  
 23 11 05 16 19 55.9960000  0 10G24G12G13G19G17G23G15G25G32G10
  18898544.885    99312514.395        -495.908          45.000  
  19933568.147   104751611.997        2260.697          43.000  
  22983706.686   120780229.548       -3873.240          32.000  
  20862081.985   109630974.544         180.938          43.000  
  22115694.867   116218760.1333      -1839.265          31.000  
  22429886.853   117869855.019       -2689.740          37.000  
  20842697.118   109529109.355       -3366.347          40.000  
  22574188.486   118628172.013        3606.305          37.000  
  23712628.481   124610671.603        3360.600          34.000  
  22227128.334   116804319.033        -620.541          41.000  
 23 11 05 16 19 56.9960000  0 10G24G12G13G19G17G23G15G25G32G10
  18898639.236    99313010.525        -496.429          45.000  
  19933137.946   104749351.570        2260.219          43.000  
  22984443.801   120784102.853       -3873.552          31.000  
  20862047.252   109630794.008         180.195          43.000  
  22116044.068   116220601.1852      -1841.437          30.000  
  22430398.921   117872545.267       -2690.265          38.000  
  20843337.888   109532475.810       -3366.333          40.000  
  22573502.049   118624565.745        3606.610          37.000  
  23711988.858   124607311.017        3360.306          34.000  
  22227246.363   116804939.751        -620.919          41.000  
 23 11 05 16 19 57.9960000  0 10G24G12G13G19G17G23G15G25G32G10
  18898733.991    99313506.956        -496.868          45.000  
  19932707.862   104747091.444        2259.690          43.000  
  22985181.817   120787976.096       -3874.036          32.000  
  20862012.853   109630613.994         179.218          43.000  
  22116392.758   116222442.5542      -1841.759          30.000  
  22430910.969   117875235.686       -2690.848          38.000  
  20843978.313   109535842.480       -3366.782          41.000  
  22572815.832   118620959.498        3606.030          37.000  
  23711349.755   124603950.406        3360.422          35.000  
  22227364.564   116805560.954        -621.929          41.000  
 23 11 05 16 19 58.9960000  0 10G24G12G13G19G17G23G15G25G32G10
  18898828.558    99314004.016        -497.246          45.000  
  19932278.076   104744831.909        2259.553          43.000  
  22985920.216   120791849.491       -3872.918          32.000  
  20861978.629   109630434.780         179.074          43.000  
  22116745.056   116224284.5502      -1841.981          30.000  
  22431422.839   117877926.592       -2690.882          38.000  
  20844619.148   109539209.637       -3367.344          41.000  
  22572129.788   118617353.531        3605.841          37.000  
  23710709.901   124600590.104        3360.150          35.000  
  22227482.801   116806182.900        -621.970          41.000  
 23 11 05 16 19 59.9960000  0 10G24G12G13G19G17G23G15G25G32G10
  18898923.247    99314501.318        -497.413          45.000  
  19931848.343   104742572.665        2259.105          43.000  
  22986657.030   120795722.876       -3873.429          31.000  
  20861944.403   109630256.057         178.446          43.000  
  22117096.868   116226126.9172      -1842.480          31.000  
  22431934.848   117880617.671       -2691.319          38.000  
  20845260.071   109542576.917       -3367.297          41.000  
  22571443.510   118613747.503        3605.804          37.000  
  23710070.357   124597229.700        3359.978          35.000  
  22227601.205   116806805.278        -622.560          41.000  
 23 11 05 16 20 00.9960000  0 10G24G12G13G19G17G23G15G25G32G10
  18899018.111    99314998.930        -497.887          45.000  
  19931418.487   104740313.684        2258.762          43.000  
  22987387.232   120799596.146       -3873.290          31.000  
  20861910.504   109630077.829         177.792          43.000  
  22117444.465   116227969.5912      -1843.398          30.000  
  22432447.149   117883308.898       -2691.418          38.000  
  20845901.170   109545944.397       -3367.666          40.000  
  22570757.082   118610141.461        3605.896          37.000  
  23709431.066   124593869.265        3360.809          35.000  
  22227719.679   116807428.107        -623.397          41.000  
 23 11 05 16 20 01.9960000  0 10G24G12G13G19G17G23G15G25G32G10
  18899112.961    99315497.204        -498.136          45.000  
  19930988.559   104738055.364        2258.198          43.000  
  22988124.401   120803469.705       -3872.385          31.000  
  20861876.866   109629900.468         177.225          43.000  
  22117797.086   116229812.9722      -1842.904          30.000  
  22432959.662   117886000.713       -2691.864          38.000  
  20846541.905   109549312.391       -3367.958          40.000  
  22570070.952   118606535.791        3605.346          37.000  
  23708791.926   124590509.184        3360.742          35.000  
  22227838.567   116808051.721        -623.603          42.000  
 23 11 05 16 20 02.9960000  0 10G24G12G13G19G17G23G15G25G32G10
  18899208.172    99315995.814        -498.944          45.000  
  19930558.739   104735797.344        2257.939          44.000  
  22988862.659   120807343.266       -3872.615          31.000  
  20861842.930   109629723.641         176.689          43.000  
  22118143.364   116231656.7352      -1844.940          30.000  
  22433472.059   117888692.690       -2692.195          38.000  
  20847182.402   109552680.604       -3368.131          40.000  
  22569384.600   118602930.099        3605.640          37.000  
  23708152.591   124587149.152        3359.980          35.000  
  22227957.479   116808675.829        -624.472          41.000  
 23 11 05 16 20 03.9960000  0 10G24G12G13G19G17G23G15G25G32G10
  18899303.108    99316495.052        -499.479          45.000  
  19930129.503   104733539.979        2257.212          44.000  
  22989602.744   120811217.085       -3873.155          32.000  
  20861809.530   109629547.668         175.802          43.000  
  22118498.284   116233501.2112      -1845.416          30.000  
  22433984.679   117891385.213       -2692.572          37.000  
  20847823.357   109556049.316       -3368.679          40.000  
  22568698.495   118599324.771        3605.054          37.000  
  23707513.711   124583789.430        3359.662          35.000  
  22228076.568   116809300.746        -625.345          41.000  
 23 11 05 16 20 04.9960000  0 10G24G12G13G19G17G23G15G25G32G10
  18899398.229    99316994.729        -499.905          45.000  
  19929700.114   104731283.030        2256.718          44.000  
  22990343.414   120815090.977       -3873.924          32.000  
  20861776.135   109629372.342         174.931          43.000  
  22118851.214   116235346.0302      -1844.205          31.000  
  22434497.129   117894078.052       -2692.867          37.000  
  20848464.341   109559418.323       -3368.971          39.000  
  22568012.357   118595719.542        3605.237          37.000  
  23706874.308   124580429.779        3359.690          35.000  
  22228195.664   116809926.223        -625.770          41.000  
 23 11 05 16 20 05.9960000  0 10G24G12G13G19G17G23G15G25G32G10
  18899493.088    99317494.705        -499.957          45.000  
  19929270.719   104729026.378        2256.646          44.000  
  22991081.382   120818964.756       -3873.447          32.000  
  20861743.317   109629197.499         174.841          43.000  
  22119202.029   116237191.3022      -1844.974          31.000  
  22435009.927   117896771.086       -2693.047          38.000  
  20849105.386   109562787.523       -3369.208          39.000  
  22567326.382   118592114.277        3605.780          37.000  
  23706234.575   124577070.100        3360.117          35.000  
  22228315.021   116810552.149        -625.968          41.000  
 23 11 05 16 20 06.9960000  0 10G24G12G13G19G17G23G15G25G32G10
  18899588.310    99317995.272        -500.941          45.000  
  19928841.432   104726770.296        2256.052          44.000  
  22991819.474   120822838.776       -3873.844          32.000  
  20861710.160   109629023.466         173.670          43.000  
  22119551.954   116239036.6931      -1845.529          31.000  
  22435522.200   117899464.582       -2693.746          37.000  
  20849746.517   109566157.158       -3369.935          39.000  
  22566639.934   118588509.326        3604.956          37.000  
  23705595.245   124573710.704        3359.372          35.000  
  22228434.088   116811178.839        -627.250          41.000  
 23 11 05 16 20 07.9960000  0 10G24G12G13G19G17G23G15G25G32G10
  18899683.546    99318496.261        -501.047          45.000  
  19928412.327   104724514.632        2255.624          44.000  
  22992556.032   120826712.872       -3873.717          32.000  
  20861676.819   109628850.053         173.229          43.000  
  22119905.011   116240883.063       -1846.071          32.000  
  22436034.619   117902158.394       -2693.973          37.000  
  20850387.525   109569527.088       -3369.898          39.000  
  22565954.034   118584904.461        3605.371          37.000  
  23704956.023   124570351.386        3359.094          35.000  
  22228553.786   116811806.072        -627.320          41.000  
 23 11 05 16 20 08.9960000  0 10G24G12G13G19G17G23G15G25G32G10
  18899779.104    99318997.678        -501.663          45.000  
  19927983.451   104722259.386        2254.978          44.000  
  22993294.059   120830587.003       -3874.292          32.000  
  20861644.181   109628677.294         172.498          43.000  
  22120255.802   116242729.889       -1847.161          32.000  
  22436547.169   117904852.478       -2694.357          37.000  
  20851028.810   109572897.340       -3370.489          40.000  
  22565267.850   118581299.713        3604.785          37.000  
  23704317.254   124566992.167        3358.839          34.000  
  22228673.824   116812433.910        -628.256          41.000  
 23 11 05 16 20 09.9960000  0 10G24G12G13G19G17G23G15G25G32G10
  18899874.772    99319499.537        -502.251          45.000  
  19927554.522   104720004.571        2254.301          44.000  
  22994031.633   120834461.161       -3873.405          33.000  
  20861611.446   109628505.166         171.738          43.000  
  22120607.413   116244577.176       -1847.138          32.000  
  22437060.197   117907546.908       -2694.573          37.000  
  20851670.147   109576267.894       -3370.977          40.000  
  22564581.707   118577695.076        3604.663          37.000  
  23703678.048   124563633.067        3358.650          34.000  
  22228793.443   116813062.289        -628.688          41.000  
 23 11 05 16 20 10.9960000  0 10G24G12G13G19G17G23G15G25G32G10
  18899970.227    99320001.675        -502.113          45.000  
  19927125.733   104717750.018        2254.793          44.000  
  22994769.086   120838335.316       -3874.436          33.000  
  20861578.864   109628333.534         171.682          43.000  
  22120959.794   116246424.818       -1847.567          32.000  
  22437573.377   117910241.497       -2694.519          38.000  
  20852311.667   109579638.610       -3370.734          40.000  
  22563895.700   118574090.417        3605.121          36.000  
  23703038.910   124560273.883        3360.664          34.000  
  22228913.311   116813691.116        -628.884          41.000  
 23 11 05 16 20 11.9960000  0 10G24G12G13G19G17G23G15G25G32G10
  18900065.776    99320504.155        -502.671          45.000  
  19926696.528   104715495.820        2253.866          44.000  
  22995506.240   120842209.427       -3874.980          33.000  
  20861546.206   109628162.448         170.717          43.000  
  22121311.931   116248272.843       -1848.593          32.000  
  22438086.374   117912936.311       -2695.011          38.000  
  20852952.790   109583009.543       -3371.690          40.000  
  22563209.893   118570485.791        3604.401          36.000  
  23702399.486   124556914.801        3358.623          34.000  
  22229032.834   116814320.433        -629.606          41.000  
 23 11 05 16 20 12.9960000  0 10G24G12G13G19G17G23G15G25G32G10
  18900161.750    99321007.242        -503.037          45.000  
  19926267.569   104713242.201        2253.663          44.000  
  22996243.547   120846083.738       -3874.230          33.000  
  20861513.810   109627992.163         170.073          43.000  
  22121663.904   116250121.486       -1848.437          32.000  
  22438600.000   117915631.595       -2695.023          38.000  
  20853594.528   109586380.907       -3371.418          40.000  
  22562524.028   118566881.450        3604.468          37.000  
  23701760.147   124553555.921        3359.159          34.000  
  22229152.924   116814950.513        -630.164          41.000  
 23 11 05 16 20 13.9960000  0 10G24G12G13G19G17G23G15G25G32G10
  18900257.443    99321510.649        -503.682          45.000  
  19925839.011   104710988.895        2253.073          44.000  
  22996980.773   120849958.040       -3874.475          32.000  
  20861481.464   109627822.427         169.357          43.000  
  22122015.979   116251970.514       -1849.293          33.000  
  22439113.086   117918327.130       -2695.531          37.000  
  20854235.924   109589752.515       -3371.673          39.000  
  22561838.009   118563277.104        3604.443          37.000  
  23701120.946   124550197.077        3358.691          34.000  
  22229272.711   116815581.041        -630.819          41.000  
 23 11 05 16 20 14.9960000  0 10G24G12G13G19G17G23G15G25G32G10
  18900353.022    99322014.556        -504.002          45.000  
  19925410.645   104708736.090        2252.800          44.000  
  22997718.005   120853832.513       -3874.777          32.000  
  20861449.174   109627653.379         168.920          43.000  
  22122368.275   116253820.088       -1849.803          34.000  
  22439626.566   117921023.018       -2696.214          38.000  
  20854877.918   109593124.475       -3372.020          40.000  
  22561152.510   118559672.985        3604.138          37.000  
  23700481.785   124546838.397        3358.675          35.000  
  22229393.045   116816212.259        -631.260          41.000  
 23 11 05 16 20 15.9960000  0 10G24G12G13G19G17G23G15G25G32G10
  18900449.018    99322518.969        -505.080          45.000  
  19924981.859   104706483.757        2251.884          44.000  
  22998455.148   120857707.009       -3874.839          33.000  
  20861417.177   109627485.052         167.757          43.000  
  22122720.551   116255670.184       -1850.912          33.000  
  22440139.742   117923719.260       -2696.741          38.000  
  20855519.763   109596496.821       -3372.390          40.000  
  22560466.606   118556068.982        3603.924          36.000  
  23699842.874   124543479.910        3358.047          35.000  
  22229513.334   116816844.084        -632.452          41.000  
 23 11 05 16 20 16.9960000  0 10G24G12G13G19G17G23G15G25G32G10
  18900545.109    99323023.810        -504.941          45.000  
  19924553.602   104704231.856        2251.826          44.000  
  22999192.206   120861581.632       -3874.320          32.000  
  20861385.169   109627317.353         167.656          43.000  
  22123072.804   116257520.798       -1850.862          33.000  
  22440653.297   117926415.844       -2696.211          38.000  
  20856161.702   109599869.493       -3373.031          39.000  
  22559780.365   118552465.148        3604.083          37.000  
  23699203.540   124540121.513        3358.410          34.000  
  22229633.703   116817476.519        -632.636          41.000  
 23 11 05 16 20 17.9960000  0 10G24G12G13G19G17G23G15G25G32G10
  18900641.332    99323529.115        -505.481          45.000  
  19924125.227   104701980.425        2251.116          44.000  
  22999929.595   120865456.307       -3874.848          32.000  
  20861353.436   109627150.339         166.627          43.000  
  22123425.215   116259371.839       -1851.208          33.000  
  22441166.392   117929112.786       -2697.125          37.000  
  20856803.547   109603242.463       -3373.096          39.000  
  22559094.757   118548861.461        3603.772          37.000  
  23698564.436   124536763.270        3357.445          33.000  
  22229753.885   116818109.553        -633.232          41.000  
 23 11 05 16 20 18.9960000  0 10G24G12G13G19G17G23G15G25G32G10
  18900737.415    99324034.907        -505.870          45.000  
  19923696.868   104699729.443        2250.952          44.000  
  23000663.990   120869331.101       -3874.470          33.000  
  20861321.862   109626983.982         166.176          43.000  
  22123777.343   116261223.478       -1851.930          33.000  
  22441679.750   117931810.060       -2697.250          37.000  
  20857445.676   109606615.789       -3373.442          39.000  
  22558408.950   118545257.922        3603.564          37.000  
  23697925.298   124533405.155        3358.223          33.000  
  22229874.270   116818743.234        -634.143          40.000  
 23 11 05 16 20 19.9960000  0 10G24G12G13G19G17G23G15G25G32G10
  18900833.823    99324541.038        -506.313          45.000  
  19923268.341   104697478.816        2250.389          44.000  
  23001403.611   120873205.898       -3874.921          33.000  
  20861290.580   109626818.207         165.498          43.000  
  22124129.665   116263075.443       -1852.237          34.000  
  22442192.888   117934507.563       -2697.465          37.000  
  20858087.708   109609989.308       -3373.470          40.000  
  22557723.207   118541654.426        3603.418          37.000  
  23697286.055   124530047.075        3358.266          33.000  
  22229994.766   116819377.379        -634.356          40.000  
 23 11 05 16 20 20.9960000  0 10G24G12G13G19G17G23G15G25G32G10
  18900930.295    99325047.733        -506.799          45.000  
  19922840.374   104695228.734        2249.905          44.000  
  23002144.604   120877080.828       -3875.344          34.000  
  20861259.275   109626653.192         164.677          43.000  
  22124482.190   116264927.999       -1852.501          34.000  
  22442706.115   117937205.548       -2698.262          36.000  
  20858729.835   109613363.262       -3373.722          40.000  
  22557037.609   118538051.174        3603.180          37.000  
  23696647.301   124526689.238        3357.951          33.000  
  22230115.700   116820012.245        -635.010          40.000  
 23 11 05 16 20 21.9960000  0 10G24G12G13G19G17G23G15G25G32G10
  18901026.515    99325554.740        -506.725          45.000  
  19922412.146   104692978.949        2249.871          44.000  
  23002880.831   120880955.752       -3875.044          34.000  
  20861228.093   109626488.704         164.422          43.000  
  22124834.835   116266780.930       -1853.109          34.000  
  22443219.570   117939903.675       -2697.616          37.000  
  20859371.874   109616737.438       -3373.978          40.000  
  22556351.600   118534447.887        3603.973          37.000  
  23696008.241   124523331.380        3358.157          33.000  
  22230236.469   116820647.606        -635.448          40.000  
 23 11 05 16 20 22.9960000  0 10G24G12G13G19G17G23G15G25G32G10
  18901122.893    99326062.121        -507.920          45.000  
  19921983.931   104690729.542        2248.975          43.000  
  23003619.409   120884830.657       -3875.533          34.000  
  20861196.648   109626324.770         163.424          43.000  
  22125187.644   116268634.297       -1853.785          34.000  
  22443733.193   117942602.079       -2698.672          37.000  
  20860014.178   109620111.840       -3374.879          40.000  
  22555666.304   118530844.705        3603.400          37.000  
  23695368.856   124519973.567        3357.816          33.000  
  22230356.915   116821283.463        -636.527          40.000  
 23 11 05 16 20 23.9960000  0 10G24G12G13G19G17G23G15G25G32G10
  18901219.785    99326570.198        -507.890          45.000  
  19921555.853   104688480.813        2248.774          43.000  
  23004355.708   120888705.933       -3875.853          33.000  
  20861165.593   109626161.747         162.823          43.000  
  22125540.502   116270488.370       -1853.878          34.000  
  22444246.513   117945301.077       -2698.971          37.000  
  20860656.636   109623486.815       -3374.716          41.000  
  22554980.724   118527241.889        3602.759          37.000  
  23694729.709   124516616.133        3357.594          33.000  
  22230477.609   116821920.201        -637.054          40.000  
 23 11 05 16 20 24.9960000  0 10G24G12G13G19G17G23G15G25G32G10
  18901316.603    99327078.628        -508.302          45.000  
  19921127.836   104686232.437        2248.629          43.000  
  23005092.007   120892581.103       -3874.955          33.000  
  20861134.652   109625999.282         162.514          43.000  
  22125893.350   116272342.850       -1854.539          34.000  
  22444759.641   117948000.269       -2698.875          37.000  
  20861299.137   109626862.018       -3375.108          41.000  
  22554295.360   118523639.118        3602.997          37.000  
  23694090.672   124513258.712        3357.632          34.000  
  22230598.827   116822557.415        -637.374          40.000  
 23 11 05 16 20 25.9960000  0 10G24G12G13G19G17G23G15G25G32G10
  18901413.354    99327587.346        -509.140          45.000  
  19920699.974   104683984.330        2247.665          43.000  
  23005829.357   120896456.250       -3875.562          32.000  
  20861104.053   109625837.319         161.405          43.000  
  22126246.331   116274197.669       -1855.144          34.000  
  22445273.050   117950699.642       -2699.319          37.000  
  20861941.349   109630237.365       -3375.645          40.000  
  22553609.758   118520036.321        3602.582          37.000  
  23693451.880   124509901.260        3357.350          33.000  
  22230720.141   116823195.046        -637.982          40.000  
 23 11 05 16 20 26.9960000  0 10G24G12G13G19G17G23G15G25G32G10
  18901510.141    99328096.384        -509.079          45.000  
  19920272.025   104681736.544        2247.598          43.000  
  23006566.712   120900331.306       -3874.823          32.000  
  20861073.124   109625675.882         161.186          43.000  
  22126599.360   116276052.815       -1854.934          34.000  
  22445786.879   117953399.214       -2699.585          37.000  
  20862583.853   109633612.910       -3375.350          40.000  
  22552924.296   118516433.515        3602.576          36.000  
  23692812.903   124506543.816        3357.688          34.000  
  22230841.509   116823833.140        -638.077          40.000  
 23 11 05 16 20 27.9960000  0 10G24G12G13G19G17G23G15G25G32G10
  18901606.883    99328605.969        -509.763          45.000  
  19919844.715   104679489.302        2246.896          44.000  
  23007304.295   120904206.590       -3875.604          33.000  
  20861042.539   109625515.197         160.281          43.000  
  22126952.364   116277908.596       -1856.312          34.000  
  22446300.253   117956099.217       -2700.246          37.000  
  20863226.348   109636988.881       -3376.152          40.000  
  22552238.483   118512830.942        3602.356          37.000  
  23692173.957   124503186.626        3357.181          34.000  
  22230962.873   116824471.927        -639.126          40.000  
 23 11 05 16 20 28.9960000  0 10G24G12G13G19G17G23G15G25G32G10
  18901703.773    99329116.043        -510.566          44.000  
  19919416.969   104677242.520        2246.384          43.000  
  23008041.545   120908081.966       -3876.048          32.000  
  20861012.280   109625355.194         159.641          43.000  
  22127305.688   116279764.866       -1856.158          34.000  
  22446813.979   117958799.562       -2700.438          37.000  
  20863869.035   109640365.201       -3376.643          41.000  
  22551552.980   118509228.552        3602.014          37.000  
  23691535.116   124499829.539        3357.156          34.000  
  22231084.576   116825111.343        -640.056          40.000  
 23 11 05 16 20 29.9960000  0 10G24G12G13G19G17G23G15G25G32G10
  18901800.941    99329626.464        -510.450          44.000  
  19918989.358   104674996.086        2246.574          43.000  
  23008779.192   120911957.293       -3874.552          32.000  
  20860981.694   109625195.775         159.337          43.000  
  22127658.586   116281621.542       -1856.928          34.000  
  22447327.670   117961500.154       -2700.190          37.000  
  20864511.681   109643741.754       -3376.524          41.000  
  22550867.721   118505626.189        3602.856          37.000  
  23690896.416   124496472.525        3357.712          33.000  
  22231206.472   116825751.272        -640.132          40.000  
 23 11 05 16 20 30.9960000  0 10G24G12G13G19G17G23G15G25G32G10
  18901897.809    99330137.266        -511.305          44.000  
  19918561.762   104672750.033        2245.501          43.000  
  23009516.516   120915832.664       -3875.925          32.000  
  20860951.682   109625036.909         158.579          43.000  
  22128011.985   116283478.611       -1857.504          34.000  
  22447841.845   117964201.016       -2701.205          37.000  
  20865154.626   109647118.547       -3376.853          41.000  
  22550182.383   118502023.920        3601.965          37.000  
  23690257.389   124493115.602        3355.950          33.000  
  22231328.589   116826391.736        -640.975          40.000  
 23 11 05 16 20 31.9960000  0 10G24G12G13G19G17G23G15G25G32G10
  18901995.033    99330648.724        -511.842          44.000  
  19918134.308   104670504.606        2245.209          43.000  
  23010254.052   120919708.316       -3875.874          32.000  
  20860921.569   109624878.930         157.391          43.000  
  22128365.210   116285336.402       -1858.303          34.000  
  22448356.144   117966902.396       -2702.024          37.000  
  20865797.452   109650495.874       -3377.702          41.000  
  22549497.058   118498421.981        3601.746          37.000  
  23689618.460   124489758.918        3356.197          33.000  
  22231450.908   116827033.007        -641.664          40.000  
 23 11 05 16 20 32.9960000  0 10G24G12G13G19G17G23G15G25G32G10
  18902092.067    99331160.388        -511.205          44.000  
  19917707.016   104668259.398        2245.443          43.000  
  23010990.686   120923583.804       -3874.689          32.000  
  20860891.297   109624721.345         157.851          43.000  
  22128718.778   116287194.416       -1856.914          33.000  
  22448870.722   117969603.845       -2700.683          37.000  
  20866439.753   109653873.266       -3377.174          40.000  
  22548811.703   118494819.917        3602.747          37.000  
  23688979.627   124486402.198        3356.451          33.000  
  22231572.850   116827674.625        -641.367          40.000  
 23 11 05 16 20 33.9960000  0 10G24G12G13G19G17G23G15G25G32G10
  18902189.531    99331672.402        -512.233          44.000  
  19917279.852   104666014.525        2244.628          43.000  
  23011728.789   120927459.295       -3875.607          32.000  
  20860861.523   109624564.340         156.494          43.000  
  22129072.450   116289052.848       -1858.880          33.000  
  22449385.087   117972305.555       -2701.958          38.000  
  20867082.482   109657250.880       -3377.862          40.000  
  22548126.337   118491217.881        3602.307          37.000  
  23688340.788   124483045.408        3356.983          33.000  
  22231695.301   116828316.720        -642.382          40.000  
 23 11 05 16 20 34.9960000  0 10G24G12G13G19G17G23G15G25G32G10
  18902287.149    99332185.060        -513.096          45.000  
  19916852.773   104663770.287        2243.633          43.000  
  23012468.059   120931335.038       -3875.915          32.000  
  20860831.624   109624408.171         155.436          43.000  
  22129426.064   116290911.973       -1859.627          33.000  
  22449899.522   117975007.793       -2702.712          37.000  
  20867725.084   109660629.008       -3378.583          40.000  
  22547441.019   118487616.193        3601.392          37.000  
  23687702.081   124479689.036        3356.083          33.000  
  22231817.897   116828959.650        -643.677          40.000  
 23 11 05 16 20 35.9960000  0 10G24G12G13G19G17G23G15G25G32G10
  18902384.790    99332698.135        -513.347          45.000  
  19916425.768   104661526.448        2243.676          43.000  
  23013205.315   120935210.816       -3875.594          33.000  
  20860801.664   109624252.619         155.307          43.000  
  22129780.126   116292771.537       -1859.702          34.000  
  22450413.760   117977710.287       -2702.205          37.000  
  20868367.778   109664007.384       -3378.386          40.000  
  22546755.812   118484014.616        3601.599          37.000  
  23687063.752   124476332.677        3357.027          33.000  
  22231940.413   116829603.108        -643.455          40.000  
 23 11 05 16 20 36.9960000  0 10G24G12G13G19G17G23G15G25G32G10
  18902482.400    99333211.535        -513.581          44.000  
  19915998.792   104659282.930        2243.462          43.000  
  23013943.119   120939086.557       -3875.894          32.000  
  20860771.979   109624097.619         154.566          43.000  
  22130134.237   116294631.434       -1860.180          34.000  
  22450928.280   117980413.058       -2702.992          37.000  
  20869010.725   109667385.991       -3378.821          40.000  
  22546070.401   118480413.036        3601.587          37.000  
  23686424.883   124472976.414        3356.495          34.000  
  22232062.929   116830247.061        -644.135          40.000  
 23 11 05 16 20 37.9960000  0 10G24G12G13G19G17G23G15G25G32G10
  18902580.333    99333725.286        -513.892          44.000  
  19915571.962   104657039.765        2243.176          43.000  
  23014679.614   120942962.353       -3876.123          32.000  
  20860742.377   109623943.155         154.118          43.000  
  22130488.134   116296491.758       -1860.864          34.000  
  22451442.147   117983115.954       -2702.881          36.000  
  20869653.730   109670764.813       -3378.841          40.000  
  22545384.978   118476811.493        3601.392          37.000  
  23685786.530   124469620.111        3356.452          34.000  
  22232185.257   116830891.483        -644.556          40.000  
 23 11 05 16 20 38.9960000  0 10G24G12G13G19G17G23G15G25G32G10
  18902678.274    99334239.289        -514.245          44.000  
  19915145.182   104654796.838        2242.812          43.000  
  23015416.232   120946837.917       -3875.407          32.000  
  20860713.262   109623789.189         153.454          43.000  
  22130842.463   116298352.350       -1861.064          34.000  
  22451956.285   117985819.087       -2703.331          36.000  
  20870296.518   109674143.780       -3379.334          40.000  
  22544699.431   118473209.888        3601.782          37.000  
  23685147.939   124466263.752        3356.535          34.000  
  22232307.459   116831536.345        -645.512          39.000  
 23 11 05 16 20 39.9960000  0 10G24G12G13G19G17G23G15G25G32G10
  18902776.486    99334753.863        -514.846          45.000  
  19914718.664   104652554.476        2242.546          43.000  
  23016152.843   120950713.792       -3875.716          32.000  
  20860684.057   109623635.953         152.826          43.000  
  22131196.530   116300213.568       -1861.844          33.000  
  22452471.154   117988522.574       -2703.723          37.000  
  20870939.593   109677523.158       -3379.599          40.000  
  22544014.372   118469608.548        3601.446          37.000  
  23684509.627   124462907.653        3356.052          34.000  
  22232429.835   116832181.904        -645.934          39.000  
 23 11 05 16 20 40.9960000  0 10G24G12G13G19G17G23G15G25G32G10
  18902874.491    99335268.895        -515.281          44.000  
  19914291.943   104650312.600        2241.575          43.000  
  23016891.344   120954589.707       -3875.719          32.000  
  20860655.246   109623483.417         151.956          43.000  
  22131550.717   116302075.279       -1862.534          33.000  
  22452986.064   117991226.460       -2704.251          37.000  
  20871582.736   109680902.910       -3379.819          40.000  
  22543328.736   118466007.378        3600.763          37.000  
  23683870.845   124459551.689        3355.480          33.000  
  22232552.929   116832828.097        -646.665          40.000  
 23 11 05 16 20 41.9960000  0 10G24G12G13G19G17G23G15G25G32G10
  18902972.389    99335784.342        -515.729          45.000  
  19913865.123   104648071.074        2240.929          43.000  
  23017627.486   120958465.633       -3876.609          31.000  
  20860626.102   109623331.466         151.605          43.000  
  22131905.061   116303937.419       -1862.563          34.000  
  22453500.815   117993930.613       -2704.116          37.000  
  20872226.082   109684282.865       -3380.183          41.000  
  22542643.435   118462406.270        3600.964          37.000  
  23683232.167   124456195.774        3356.195          33.000  
  22232675.887   116833474.816        -646.947          39.000  
 23 11 05 16 20 42.9960000  0 10G24G12G13G19G17G23G15G25G32G10
  18903070.422    99336300.288        -516.217          45.000  
  19913438.823   104645830.051        2240.903          43.000  
  23018362.040   120962341.694       -3877.690          31.000  
  20860597.327   109623180.248         150.819          43.000  
  22132259.360   116305800.093       -1863.153          34.000  
  22454015.472   117996635.141       -2704.686          37.000  
  20872869.520   109687663.250       -3380.362          41.000  
  22541958.257   118458805.341        3600.885          38.000  
  23682593.412   124452840.085        3355.474          32.000  
  22232798.909   116834122.210        -647.579          39.000  
 23 11 05 16 20 43.9960000  0 10G24G12G13G19G17G23G15G25G32G10
  18903168.894    99336816.532        -516.326          44.000  
  19913012.355   104643589.342        2240.387          43.000  
  23019097.909   120966217.615       -3875.804          30.000  
  20860568.992   109623029.532         150.647          43.000  
  22132613.872   116307663.108       -1863.073          33.000  
  22454530.210   117999339.860       -2704.621          37.000  
  20873512.961   109691043.800       -3380.615          42.000  
  22541273.305   118455204.424        3601.044          38.000  
  23681954.870   124449484.341        3355.751          33.000  
  22232921.905   116834770.047        -647.760          39.000  
 23 11 05 16 20 44.9960000  0 10G24G12G13G19G17G23G15G25G32G10
  18903267.158    99337333.149        -517.066          44.000  
  19912585.963   104641348.971        2240.120          43.000  
  23019837.672   120970093.593       -3876.646          30.000  
  20860540.535   109622879.394         149.460          43.000  
  22132968.338   116309526.530       -1863.583          34.000  
  22455045.233   118002044.823       -2705.418          37.000  
  20874156.150   109694424.582       -3381.247          41.000  
  22540588.129   118451603.580        3600.165          38.000  
  23681316.416   124446128.654        3355.559          32.000  
  22233045.494   116835418.392        -649.034          39.000  
 23 11 05 16 20 45.9960000  0 10G24G12G13G19G17G23G15G25G32G10
  18903365.784    99337850.451        -517.289          44.000  
  19912160.073   104639109.273        2239.853          43.000  
  23020575.009   120973969.839       -3875.779          30.000  
  20860512.255   109622730.129         149.199          43.000  
  22133323.483   116311390.703       -1863.774          34.000  
  22455560.346   118004750.319       -2705.396          37.000  
  20874799.649   109697805.917       -3381.328          41.000  
  22539902.876   118448003.061        3600.677          38.000  
  23680677.686   124442773.345        3356.241          32.000  
  22233169.013   116836067.525        -648.830          39.000  
 23 11 05 16 20 46.9960000  0 10G24G12G13G19G17G23G15G25G32G10
  18903464.276    99338367.961        -517.607          44.000  
  19911733.789   104636869.807        2239.293          43.000  
  23021315.551   120977845.986       -3875.830          30.000  
  20860484.025   109622581.299         148.495          43.000  
  22133678.213   116313255.145       -1864.323          34.000  
  22456075.544   118007455.931       -2705.348          37.000  
  20875442.761   109701187.348       -3381.419          41.000  
  22539217.537   118444402.469        3600.629          37.000  
  23680039.281   124439417.943        3355.625          32.000  
  22233292.890   116836717.079        -649.756          39.000  
 23 11 05 16 20 47.9960000  0 10G24G12G13G19G17G23G15G25G32G10
  18903562.909    99338885.942        -518.455          44.000  
  19911307.768   104634630.787        2238.583          43.000  
  23022042.287   120981722.208       -3876.140          29.000  
  20860455.788   109622433.143         147.542          42.000  
  22134033.294   116315120.080       -1865.081          34.000  
  22456590.332   118010161.881       -2706.414          37.000  
  20876085.822   109704569.105       -3382.028          41.000  
  22538532.297   118440802.043        3599.847          37.000  
  23679401.065   124436062.665        3355.425          33.000  
  22233416.459   116837367.233        -650.849          38.000  
 23 11 05 16 20 48.9960000  0 10G24G12G13G19G17G23G15G25G32G10
  18903661.243    99339404.419        -518.631          44.000  
  19910882.240   104632392.250        2238.733          43.000  
  23022774.552   120985598.563       -3876.215          29.000  
  20860427.748   109622285.675         147.643          42.000  
  22134388.267   116316985.563       -1865.790          34.000  
  22457105.160   118012868.226       -2706.342          37.000  
  20876729.407   109707951.222       -3381.843          41.000  
  22537846.591   118437201.789        3600.446          36.000  
  23678762.322   124432707.541        3355.781          33.000  
  22233540.583   116838018.039        -650.699          39.000  
 23 11 05 16 20 49.9960000  0 10G24G12G13G19G17G23G15G25G32G10
  18903759.952    99339923.186        -518.797          44.000  
  19910456.452   104630154.013        2238.276          43.000  
  23023511.039   120989474.811       -3876.340          29.000  
  20860399.945   109622138.734         146.560          42.000  
  22134743.245   116318851.349       -1865.905          33.000  
  22457620.303   118015574.728       -2706.363          37.000  
  20877373.334   109711333.513       -3382.611          42.000  
  22537161.155   118433601.503        3600.507          36.000  
  23678123.908   124429352.420        3355.090          33.000  
  22233664.285   116838669.270        -650.830          38.000  
 23 11 05 16 20 50.9960000  0 10G24G12G13G19G17G23G15G25G32G10
  18903858.766    99340442.505        -520.114          44.000  
  19910030.610   104627916.301        2237.010          43.000  
  23024253.618   120993351.248       -3877.172          29.000  
  20860371.905   109621992.532         145.225          42.000  
  22135098.514   116320717.684       -1867.009          33.000  
  22458135.460   118018281.620       -2707.548          37.000  
  20878017.074   109714716.206       -3383.562          41.000  
  22536475.819   118430001.487        3598.846          37.000  
  23677485.287   124425997.506        3354.214          33.000  
  22233788.027   116839321.208        -652.801          38.000  
 23 11 05 16 20 51.9960000  0 10G24G12G13G19G17G23G15G25G32G10
  18903957.796    99340962.209        -519.536          44.000  
  19909604.465   104625678.983        2237.695          43.000  
  23024991.007   120997227.663       -3876.315          29.000  
  20860344.056   109621846.915         145.859          42.000  
  22135454.089   116322584.522       -1866.573          33.000  
  22458650.523   118020988.810       -2706.776          37.000  
  20878660.992   109718099.141       -3382.768          41.000  
  22535790.584   118426401.477        3600.616          36.000  
  23676847.171   124422642.660        3355.263          32.000  
  22233912.058   116839973.658        -652.039          38.000  
 23 11 05 16 20 52.9960000  0 10G24G12G13G19G17G23G15G25G32G10
  18904056.846    99341482.157        -520.147          44.000  
  19909178.996   104623441.924        2236.729          43.000  
  23025732.009   121001104.005       -3877.162          29.000  
  20860316.300   109621701.774         144.591          42.000  
  22135809.257   116324451.620       -1867.617          33.000  
  22459165.690   118023696.150       -2707.705          37.000  
  20879304.946   109721482.212       -3382.986          41.000  
  22535105.377   118422801.470        3599.792          37.000  
  23676208.585   124419287.797        3354.290          33.000  
  22234036.446   116840626.543        -653.272          38.000  
 23 11 05 16 20 53.9960000  0 10G24G12G13G19G17G23G15G25G32G10
  18904156.022    99342002.663        -521.029          44.000  
  19908753.420   104621205.374        2235.994          43.000  
  23026469.136   121004980.458       -3876.209          30.000  
  20860288.829   109621557.365         143.721          42.000  
  22136164.701   116326319.253       -1867.640          33.000  
  22459680.118   118026403.860       -2707.951          36.000  
  20879948.955   109724865.712       -3383.922          41.000  
  22534420.219   118419201.656        3599.872          36.000  
  23675570.112   124415933.101        3353.869          34.000  
  22234160.774   116841280.080        -653.824          38.000  
 23 11 05 16 20 54.9960000  0 10G24G12G13G19G17G23G15G25G32G10
  18904255.351    99342523.675        -520.771          45.000  
  19908327.794   104618969.338        2236.291          43.000  
  23027205.856   121008857.069       -3875.612          29.000  
  20860261.805   109621413.663         143.879          42.000  
  22136520.452   116328187.475       -1867.270          33.000  
  22460195.259   118029111.973       -2707.774          36.000  
  20880592.744   109728249.574       -3383.295          41.000  
  22533735.108   118415602.063        3600.110          36.000  
  23674931.763   124412578.602        3354.721          34.000  
  22234284.638   116841934.297        -654.125          38.000  
 23 11 05 16 20 55.9960000  0 10G24G12G13G19G17G23G15G25G32G10
  18904354.568    99343044.969        -521.517          45.000  
  19907902.491   104616733.571        2235.519          43.000  
  23027951.827   121012733.621       -3876.749          31.000  
  20860234.726   109621270.481         143.040          42.000  
  22136875.828   116330056.051       -1868.234          33.000  
  22460710.333   118031820.250       -2708.578          37.000  
  20881236.628   109731633.614       -3384.247          41.000  
  22533049.681   118412002.444        3599.817          36.000  
  23674293.709   124409224.081        3354.202          34.000  
  22234409.206   116842588.940        -655.248          38.000  
 23 11 05 16 20 56.9960000  0 10G24G12G13G19G17G23G15G25G32G10
  18904453.928    99343566.821        -521.926          45.000  
  19907476.993   104614498.360        2234.906          43.000  
  23028685.312   121016610.293       -3876.005          30.000  
  20860207.871   109621128.075         141.928          43.000  
  22137231.612   116331925.201       -1869.382          33.000  
  22461225.610   118034528.965       -2708.979          36.000  
  20881880.703   109735018.060       -3384.581          41.000  
  22532364.398   118408403.060        3599.371          36.000  
  23673655.516   124405869.712        3355.113          34.000  
  22234534.181   116843244.298        -656.027          39.000  
 23 11 05 16 20 57.9960000  0 10G24G12G13G19G17G23G15G25G32G10
  18904553.254    99344089.116        -522.303          45.000  
  19907051.788   104612263.581        2234.604          43.000  
  23029423.053   121020487.130       -3876.590          30.000  
  20860180.620   109620986.287         141.613          43.000  
  22137587.413   116333794.823       -1869.638          34.000  
  22461740.744   118037237.984       -2708.930          36.000  
  20882524.852   109738402.836       -3384.885          41.000  
  22531679.592   118404803.822        3598.919          36.000  
  23673017.317   124402515.526        3354.462          34.000  
  22234658.902   116843900.235        -656.350          38.000  
 23 11 05 16 20 58.9960000  0 10G24G12G13G19G17G23G15G25G32G10
  18904652.893    99344611.751        -522.762          45.000  
  19906626.684   104610029.132        2234.312          43.000  
  23030158.051   121024363.949       -3877.280          29.000  
  20860153.511   109620845.076         140.888          43.000  
  22137943.463   116335664.842       -1870.266          34.000  
  22462256.110   118039947.240       -2709.508          36.000  
  20883168.847   109741787.817       -3385.296          41.000  
  22530994.717   118401204.577        3598.999          36.000  
  23672379.159   124399161.352        3354.553          34.000  
  22234783.653   116844556.665        -656.599          38.000  
 23 11 05 16 20 59.9960000  0 10G24G12G13G19G17G23G15G25G32G10
  18904752.553    99345134.963        -523.212          45.000  
  19906201.378   104607795.243        2233.884          43.000  
  23030902.742   121028240.856       -3877.023          31.000  
  20860126.808   109620704.603         140.299          43.000  
  22138299.041   116337535.449       -1871.111          33.000  
  22462771.466   118042656.945       -2709.977          37.000  
  20883813.075   109745173.235       -3385.694          39.000  
  22530309.890   118397605.569        3599.304          36.000  
  23671741.227   124395807.431        3354.160          35.000  
  22234908.760   116845213.856        -657.739          39.000  
 23 11 05 16 21 00.9960000  0 10G24G12G13G19G17G23G15G25G32G10
  18904852.220    99345658.347        -523.552          45.000  
  19905776.635   104605561.539        2233.539          43.000  
  23031638.615   121032117.533       -3877.018          30.000  
  20860100.061   109620564.562         139.813          43.000  
  22138654.869   116339406.258       -1870.539          34.000  
  22463287.296   118045366.687       -2709.834          37.000  
  20884457.105   109748558.697       -3385.744          40.000  
  22529624.951   118394006.472        3599.030          36.000  
  23671103.146   124392453.356        3354.029          35.000  
  22235034.086   116845871.332        -658.024          39.000  
 23 11 05 16 21 01.9960000  0 10G24G12G13G19G17G23G15G25G32G10
  18904951.998    99346182.246        -524.131          45.000  
  19905351.976   104603328.313        2232.680          44.000  
  23032373.490   121035994.296       -3877.036          28.000  
  20860073.502   109620425.197         138.892          42.000  
  22139010.772   116341277.618       -1872.067          33.000  
  22463803.042   118048076.828       -2710.375          37.000  
  20885101.483   109751944.510       -3385.963          40.000  
  22528939.766   118390407.558        3598.981          37.000  
  23670464.697   124389099.494        3353.808          35.000  
  22235159.127   116846529.449        -658.354          39.000  
 23 11 05 16 21 02.9960000  0 10G24G12G13G19G17G23G15G25G32G10
  18905051.558    99346706.686        -524.822          45.000  
  19904927.124   104601095.647        2232.211          43.000  
  23033123.498                       -3874.860          26.000  
  20860047.252   109620286.557         138.204          42.000  
  22139366.862   116343149.588       -1872.307          34.000  
  22464319.145   118050787.361       -2711.071          37.000  
  20885745.828   109755330.736       -3386.585          41.000  
  22528255.273   118386808.902        3598.566          37.000  
  23669826.663   124385745.839        3353.369          35.000  
  22235284.372   116847188.277        -659.414          39.000  
 23 11 05 16 21 03.9960000  0 10G24G12G13G19G17G23G15G25G32G10
  18905151.382    99347231.512        -525.663          45.000  
  19904502.469   104598863.331        2231.497          43.000  
  23033855.968   121043730.0643      -3877.338          34.000  
  20860020.931   109620148.556         137.122          43.000  
  22139723.352   116345021.919       -1873.280          30.000  
  22464835.333   118053498.152       -2710.860          37.000  
  20886390.358   109758717.227       -3386.988          42.000  
  22527570.624   118383210.266        3598.291          37.000  
  23669188.493   124382392.248        3353.707          35.000  
  22235409.915   116847847.597        -659.677          39.000  
 23 11 05 16 21 04.9960000  0 10G24G12G13G19G17G23G15G25G32G10
  18905251.141    99347756.778        -525.776          45.000  
  19904077.697   104596631.470        2230.978          43.000  
  23034593.899   121047607.3702      -3877.644          28.000  
  20859995.039   109620011.221         136.852          42.000  
  22140079.758   116346894.808       -1872.744          31.000  
  22465351.725   118056209.323       -2711.446          37.000  
  20887034.546   109762104.044       -3386.954          42.000  
  22526886.240   118379611.816        3598.041          37.000  
  23668550.683   124379038.810        3353.188          35.000  
  22235535.701   116848507.563        -660.966          39.000  
 23 11 05 16 21 05.9960000  0 10G24G12G13G19G17G23G15G25G32G10
  18905351.211    99348282.515        -525.864          45.000  
  19903653.182   104594400.081        2231.198          44.000  
  23035330.684   121051484.7132      -3877.821          28.000  
  20859969.341   109619874.517         136.649          42.000  
  22140436.342   116348768.221       -1874.068          32.000  
  22465867.998   118058920.786       -2711.418          37.000  
  20887679.168   109765491.201       -3387.232          41.000  
  22526201.722   118376013.510        3598.456          37.000  
  23667912.867   124375685.496        3353.497          35.000  
  22235661.571   116849168.142        -660.996          38.000  
 23 11 05 16 21 06.9960000  0 10G24G12G13G19G17G23G15G25G32G10
  18905451.090    99348808.562        -526.776          45.000  
  19903228.880   104592168.978        2230.537          44.000  
  23036068.689   121055361.7552      -3877.491          28.000  
  20859943.526   109619738.354         135.591          42.000  
  22140792.688   116350641.958       -1874.755          32.000  
  22466383.853   118061632.454       -2712.277          36.000  
  20888323.668   109768878.524       -3387.890          41.000  
  22525517.170   118372415.180        3598.486          37.000  
  23667274.654   124372332.122        3353.114          34.000  
  22235787.080   116849829.184        -661.981          38.000  
 23 11 05 16 21 07.9960000  0 10G24G12G13G19G17G23G15G25G32G10
  18905551.280    99349335.247        -527.194          45.000  
  19902804.349   104589938.509        2230.272          43.000  
  23036800.959   121059239.2892      -3875.848          26.000  
  20859917.772   109619603.021         134.927          41.000  
  22141149.650   116352516.267       -1874.671          32.000  
  22466899.720   118064344.625       -2712.720          36.000  
  20888968.410   109772266.304       -3388.022          41.000  
  22524832.441   118368817.210        3597.559          36.000  
  23666636.722   124368979.138        3352.252          34.000  
  22235913.099   116850490.981        -662.056          38.000  
 23 11 05 16 21 08.9960000  0 10G24G12G13G19G17G23G15G25G32G10
  18905651.403    99349862.155        -526.978          44.000  
  19902380.166   104587708.297        2229.886          44.000  
  23037534.627   121063116.5402      -3877.046          27.000  
  20859892.126   109619468.179         134.411          42.000  
  22141506.653   116354390.958       -1874.775          33.000  
  22467415.721   118067056.902       -2712.566          36.000  
  20889612.949   109775654.245       -3387.983          41.000  
  22524147.435   118365219.143        3598.218          36.000  
  23665998.310   124365626.101        3352.628          34.000  
  22236039.563   116851153.170        -662.367          39.000  
 23 11 05 16 21 09.9960000  0 10G24G12G13G19G17G23G15G25G32G10
  18905751.707    99350389.493        -528.028          45.000  
  19901955.707   104585478.485        2229.141          44.000  
  23038269.421   121066993.9812      -3878.657          27.000  
  20859866.684   109619333.929         133.263          42.000  
  22141863.360   116356266.071       -1875.384          33.000  
  22467931.545   118069769.506       -2713.451          35.000  
  20890257.682   109779042.458       -3388.743          41.000  
  22523462.457   118361621.168        3597.687          35.000  
  23665360.208   124362273.082        3352.512          34.000  
  22236166.140   116851815.917        -663.622          39.000  
 23 11 05 16 21 10.9960000  0 10G24G12G13G19G17G23G15G25G32G10
  18905852.231    99350917.196        -527.846          45.000  
  19901531.397   104583249.013        2229.291          44.000  
  23039006.985   121070871.1532      -3877.450          26.000  
  20859840.967   109619200.249         133.097          41.000  
  22142220.518   116358141.587       -1875.302          32.000  
  22468447.282   118072482.278       -2713.058          36.000  
  20890902.511   109782430.916       -3388.617          41.000  
  22522777.754   118358023.296        3597.986          35.000  
  23664722.361   124358920.117        3352.599          34.000  
  22236292.693   116852479.151        -663.534          39.000  
 23 11 05 16 21 11.9960000  0 10G24G12G13G19G17G23G15G25G32G10
  18905952.751    99351445.178        -528.238          45.000  
  19901107.031   104581019.838        2228.994          44.000  
  23039745.914                       -3878.075          25.000  
  20859815.716   109619067.051         132.825          42.000  
  22142577.566   116360017.437       -1876.214          33.000  
  22468963.431   118075195.262       -2713.092          36.000  
  20891547.487   109785819.478       -3388.534          41.000  
  22522093.060   118354425.363        3597.620          35.000  
  23664084.318   124355567.121        3352.641          34.000  
  22236418.996   116853142.852        -664.015          39.000  
 23 11 05 16 21 12.9960000  0  9G24G12G19G17G23G15G25G32G10
  18906053.373    99351973.612        -528.780          45.000  
  19900682.878   104578791.094        2228.237          44.000  
  20859790.656   109618934.519         131.761          42.000  
  22142934.537   116361893.749       -1876.810          33.000  
  22469479.776   118077908.561       -2713.255          36.000  
  20892192.521   109789208.393       -3389.235          42.000  
  22521408.228   118350827.563        3597.662          35.000  
  23663446.218   124352214.267        3352.335          34.000  
  22236545.903   116853807.127        -664.835          40.000  
 23 11 05 16 21 13.9960000  0  9G24G12G19G17G23G15G25G32G10
  18906153.965    99352502.677        -529.492          45.000  
  19900259.295   104576562.961        2227.850          44.000  
  20859765.331   109618802.819         131.064          41.000  
  22143291.520   116363770.751       -1877.317          32.000  
  22469996.196   118080622.337       -2713.517          36.000  
  20892837.978   109792597.772       -3389.634          42.000  
  22520723.536   118347230.090        3597.314          36.000  
  23662808.190   124348861.737        3352.290          34.000  
  22236672.960   116854472.165        -665.538          40.000  
 23 11 05 16 21 14.9960000  0  9G24G12G19G17G23G15G25G32G10
  18906255.065    99353032.142        -529.592          45.000  
  19899835.558   104574335.240        2227.624          44.000  
  20859740.211   109618671.730         130.770          42.000  
  22143648.923   116365648.174       -1877.687          33.000  
  22470512.727   118083336.426       -2713.819          36.000  
  20893483.276   109795987.457       -3389.721          42.000  
  22520038.910   118343632.706        3597.424          36.000  
  23662170.317   124345509.254        3352.585          34.000  
  22236799.932   116855137.737        -665.501          39.000  
 23 11 05 16 21 15.9960000  0  9G24G12G19G17G23G15G25G32G10
  18906356.191    99353562.290        -530.118          45.000  
  19899411.815   104572108.188        2226.997          44.000  
  20859715.299   109618541.550         129.420          41.000  
  22144006.318   116367526.353       -1879.642          28.000  
  22471029.284   118086051.054       -2714.796          36.000  
  20894128.718   109799377.689       -3390.415          42.000  
  22519354.763   118340035.654        3597.064          36.000  
  23661532.413   124342157.163        3352.268          34.000  
  22236926.381   116855804.152        -666.545          39.000  
 23 11 05 16 21 16.9960000  0  9G24G12G19G17G23G15G25G32G10
  18906456.905    99354092.940        -530.787          45.000  
  19898988.104   104569881.637        2226.424          44.000  
  20859690.648   109618412.032         129.195          42.000  
  22144363.642   116369404.965       -1878.901          32.000  
  22471545.806   118088766.038       -2714.795          36.000  
  20894774.089   109802768.282       -3390.635          42.000  
  22518670.845   118336438.862        3596.832          36.000  
  23660894.786   124338805.259        3351.877          34.000  
  22237053.582   116856471.211        -667.477          39.000  
 23 11 05 16 21 17.9960000  0 10G24G12G13G19G17G23G15G25G32G10
  18906558.134    99354624.166        -531.762          45.000  
  19898564.325   104567655.638        2225.522          43.000  
  23044187.804   121098023.4613      -3879.923          28.000  
  20859666.161   109618283.319         128.304          41.000  
  22144721.029   116371284.273       -1880.051          32.000  
  22472062.540   118091481.500       -2716.117          36.000  
  20895419.245   109806159.311       -3391.387          42.000  
  22517986.380   118332842.262        3596.417          35.000  
  23660257.108   124335453.598        3351.295          34.000  
  22237180.609   116857138.995        -668.398          39.000  
 23 11 05 16 21 18.9960000  0 10G24G12G13G19G17G23G15G25G32G10
  18906659.463    99355156.028        -532.218          45.000  
  19898140.758   104565430.295        2224.939          43.000  
  23044929.445   121101901.8062      -3878.362          29.000  
  20859641.908   109618155.468         127.238          41.000  
  22145079.579   116373164.204       -1879.538          32.000  
  22472579.251   118094197.441       -2715.916          36.000  
  20896064.831   109809550.853       -3391.713          42.000  
  22517301.915   118329246.080        3595.526          35.000  
  23659619.250   124332102.247        3351.124          33.000  
  22237308.024   116857807.594        -668.822          40.000  
 23 11 05 16 21 19.9960000  0 10G24G12G13G19G17G23G15G25G32G10
  18906760.641    99355688.287        -532.553          45.000  
  19897717.573   104563205.323        2224.726          44.000  
  23045661.966   121105780.3572      -3878.323          28.000  
  20859617.405   109618028.224         126.605          41.000  
  22145438.689   116375044.651       -1881.312          32.000  
  22473096.349   118096913.681       -2716.457          36.000  
  20896710.352   109812942.651       -3392.108          42.000  
  22516617.472   118325649.889        3596.393          35.000  
  23658981.342   124328750.984        3350.712          33.000  
  22237435.314   116858476.722        -669.410          39.000  
 23 11 05 16 21 20.9960000  0 10G24G12G13G19G17G23G15G25G32G10
  18906861.674    99356221.022        -533.232          45.000  
  19897294.115   104560980.827        2223.839          44.000  
  23046397.169   121109658.9682      -3878.503          27.000  
  20859593.366   109617901.644         125.934          42.000  
  22145798.944   116376925.551       -1881.073          31.000  
  22473613.541   118099630.254       -2716.754          36.000  
  20897355.739   109816334.770       -3392.428          41.000  
  22515933.150   118322053.958        3595.428          35.000  
  23658343.438   124325399.843        3351.032          33.000  
  22237562.925   116859146.463        -670.037          39.000  
 23 11 05 16 21 21.9960000  0 10G24G12G13G19G17G23G15G25G32G10
  18906962.955    99356754.389        -533.815          44.000  
  19896870.592   104558756.932        2223.388          44.000  
  23047126.126   121113537.7872      -3878.309          27.000  
  20859569.426   109617775.897         125.357          41.000  
  22146151.434   116378807.157       -1882.621          32.000  
  22474130.639   118102347.324       -2717.078          36.000  
  20898001.476   109819727.405       -3392.849          42.000  
  22515248.882   118318458.297        3595.123          36.000  
  23657705.692   124322049.016        3350.262          33.000  
  22237690.576   116859816.972        -670.847          39.000  
 23 11 05 16 21 22.9960000  0 10G24G12G13G19G17G23G15G25G32G10
  18907064.105    99357288.024        -533.903          44.000  
  19896447.437   104556533.323        2223.215          44.000  
  23047874.315   121117416.6062      -3878.466          27.000  
  20859545.674   109617650.651         124.606          41.000  
  22146510.462   116380689.019       -1882.510          31.000  
  22474647.650   118105064.582       -2717.870          36.000  
  20898647.212   109823120.176       -3393.087          42.000  
  22514564.556   118314862.560        3595.599          36.000  
  23657068.148   124318698.137        3351.063          33.000  
  22237817.908   116860487.916        -671.279          39.000  
 23 11 05 16 21 23.9960000  0 10G24G12G13G19G17G23G15G25G32G10
  18907165.877    99357821.856        -534.318          44.000  
  19896024.407   104554309.911        2222.896          44.000  
  23048612.573   121121295.1872      -3879.504          27.000  
  20859522.217   109617525.786         124.597          41.000  
  22146866.732   116382571.108       -1881.690          31.000  
  22475164.660   118107781.886       -2717.608          35.000  
  20899292.860   109826512.996       -3392.900          42.000  
  22513879.993   118311266.754        3595.648          36.000  
  23656430.118   124315347.173        3350.396          33.000  
  22237945.803   116861159.213        -671.919          39.000  
 23 11 05 16 21 24.9960000  0 10G24G12G13G19G17G23G15G25G32G10
  18907267.599    99358356.566        -535.499          44.000  
  19895600.975   104552087.348        2222.114          43.000  
  23049352.802                       -3878.251          26.000  
  20859498.281   109617402.025         123.219          41.000  
  22147225.000   116384454.174       -1883.559          32.000  
  22475681.614   118110499.931       -2718.812          35.000  
  20899938.515   109829906.565       -3393.935          42.000  
  22513195.931   118307671.529        3594.342          36.000  
  23655792.356   124311996.737        3349.583          32.000  
  22238073.765   116861831.501        -673.008          39.000  
 23 11 05 16 21 25.9960000  0 10G24G12G13G19G17G23G15G25G32G10
  18907369.785    99358891.854        -535.454          44.000  
  19895178.025   104549865.348        2221.935          43.000  
  23050089.836                       -3878.439          26.000  
  20859475.036   109617279.069         122.398          41.000  
  22147584.416   116386337.772       -1883.259          32.000  
  22476198.632   118113218.418       -2718.702          36.000  
  20900583.864   109833300.601       -3394.224          42.000  
  22512511.765   118304076.509        3594.952          36.000  
  23655154.596   124308646.542        3350.284          32.000  
  22238201.660   116862504.529        -673.234          39.000  
 23 11 05 16 21 26.9960000  0 10G24G12G13G19G17G23G15G25G32G10
  18907471.487    99359427.679        -535.483          44.000  
  19894755.215   104547643.925        2221.505          43.000  
  23050826.382                       -3878.977          26.000  
  20859451.508   109617156.820         122.259          41.000  
  22147942.926   116388222.085       -1884.855          31.000  
  22476715.662   118115937.338       -2718.885          35.000  
  20901229.317   109836695.047       -3394.468          42.000  
  22511827.686   118300481.755        3595.166          36.000  
  23654516.647   124305296.603        3350.023          32.000  
  22238329.740   116863178.262        -673.945          39.000  
 23 11 05 16 21 27.9960000  0 10G24G12G13G19G17G23G15G25G32G10
  18907573.555    99359963.816        -536.302          44.000  
  19894332.471   104545422.768        2220.784          43.000  
  23051565.403                       -3879.689          26.000  
  20859428.361   109617035.082         121.527          41.000  
  22148302.693   116390106.627       -1885.136          31.000  
  22477233.292   118118656.407       -2719.269          35.000  
  20901875.651   109840089.664       -3394.979          42.000  
  22511143.284   118296886.996        3594.507          36.000  
  23653878.946   124301946.680        3348.772          31.000  
  22238458.071   116863852.392        -674.408          39.000  
 23 11 05 16 21 28.9960000  0 10G24G12G13G19G17G23G15G25G32G10
  18907675.548    99360500.544        -537.025          44.000  
  19893909.765   104543202.200        2220.531          43.000  
  23052303.327   121140671.4343      -3879.634          28.000  
  20859405.329   109616914.152         120.861          42.000  
  22148661.526   116391991.806       -1885.910          31.000  
  22477750.833   118121375.975       -2719.201          35.000  
  20902521.724   109843484.720       -3394.719          42.000  
  22510459.211   118293292.474        3594.891          36.000  
  23653240.792   124298596.949        3350.015          32.000  
  22238586.512   116864527.273        -675.073          39.000  
 23 11 05 16 21 29.9960000  0 10G24G12G13G19G17G23G15G25G32G10
  18907777.511    99361037.767        -537.836          44.000  
  19893487.634   104540982.162        2219.324          43.000  
  23053043.822   121144551.1142      -3879.903          27.000  
  20859382.619   109616793.951         119.572          41.000  
  22149020.455   116393877.575       -1887.176          32.000  
  22478268.430   118124095.924       -2720.438          36.000  
  20903167.598   109846880.151       -3395.936          42.000  
  22509775.603   118289698.246        3593.762          36.000  
  23652603.510   124295247.464        3349.225          33.000  
  22238714.980   116865202.845        -676.353          39.000  
 23 11 05 16 21 30.9960000  0 10G24G12G13G19G17G23G15G25G32G10
  18907879.949    99361575.358        -537.778          44.000  
  19893065.330   104538762.463        2219.380          43.000  
  23053781.214   121148430.7952      -3879.654          26.000  
  20859359.989   109616674.274         119.612          42.000  
  22149379.264   116395763.668       -1885.996          31.000  
  22478786.135   118126816.107       -2720.591          35.000  
  20903813.548   109850275.798       -3395.389          42.000  
  22509091.834   118286103.990        3594.257          36.000  
  23651966.387   124291897.982        3350.211          33.000  
  22238843.219   116865878.886        -676.389          39.000  
 23 11 05 16 21 31.9960000  0 10G24G12G13G19G17G23G15G25G32G10
  18907982.340    99362113.230        -538.145          44.000  
  19892643.253   104536543.040        2219.151          43.000  
  23054516.980                       -3879.281          26.000  
  20859337.249   109616555.138         118.796          42.000  
  22149737.729   116397650.114       -1886.537          31.000  
  22479303.394   118129536.417       -2720.683          35.000  
  20904459.524   109853671.612       -3396.047          42.000  
  22508407.929   118282509.757        3593.604          36.000  
  23651329.367   124288548.529        3349.166          33.000  
  22238971.769   116866555.376        -676.643          39.000  
 23 11 05 16 21 32.9960000  0 10G24G12G13G19G17G23G15G25G32G10
  18908085.028    99362651.615        -538.853          44.000  
  19892221.073   104534324.096        2218.617          43.000  
  23055256.994                       -3880.226          25.000  
  20859314.864   109616436.693         117.783          42.000  
  22150098.783   116399537.125       -1887.225          31.000  
  22479821.186   118132257.103       -2721.387          35.000  
  20905105.952   109857067.780       -3396.516          42.000  
  22507723.996   118278915.675        3594.342          36.000  
  23650691.984   124285199.233        3348.928          33.000  
  22239100.588   116867232.541        -677.848          38.000  
 23 11 05 16 21 33.9960000  0 10G24G12G13G19G17G23G15G25G32G10
  18908187.609    99363190.757        -539.389          44.000  
  19891799.244   104532105.932        2218.042          43.000  
  23055991.735                       -3879.119          25.000  
  20859292.764   109616319.208         117.189          42.000  
  22150457.991   116401424.907       -1887.798          31.000  
  22480339.115   118134978.423       -2721.565          36.000  
  20905752.612   109860464.577       -3397.001          43.000  
  22507040.031   118275322.065        3593.567          36.000  
  23650054.323   124281850.382        3348.443          32.000  
  22239229.644   116867910.573        -678.229          39.000  
 23 11 05 16 21 34.9960000  0 10G24G12G13G19G17G23G15G25G32G10
  18908290.245    99363730.475        -540.028          44.000  
  19891377.348   104529888.333        2217.300          43.000  
  23056727.260                       -3880.240          25.000  
  20859270.558   109616202.506         116.419          42.000  
  22150817.112   116403313.307       -1888.997          30.000  
  22480857.532   118137700.195       -2722.207          36.000  
  20906399.504   109863861.792       -3397.322          43.000  
  22506356.216   118271728.721        3593.219          36.000  
  23649417.104   124278501.762        3348.992          32.000  
  22239358.775   116868589.350        -679.113          39.000  
 23 11 05 16 21 35.9960000  0 10G24G12G13G19G17G23G15G25G32G10
  18908392.926    99364270.539        -539.910          44.000  
  19890955.195   104527671.067        2217.355          43.000  
  23057467.239                       -3880.107          26.000  
  20859248.580   109616086.356         116.270          42.000  
  22151179.730   116405202.065       -1889.231          31.000  
  22481375.655   118140422.191       -2721.948          36.000  
  20907046.070   109867259.232       -3397.196          42.000  
  22505672.662   118268135.406        3593.176          36.000  
  23648779.999   124275153.202        3348.821          32.000  
  22239487.669   116869268.631        -679.380          38.000  
 23 11 05 16 21 36.9960000  0 10G24G12G13G19G17G23G15G25G32G10
  18908495.721    99364810.768        -540.919          44.000  
  19890532.871   104525453.970        2216.398          43.000  
  23058210.051   121171711.4273      -3880.319          27.000  
  20859226.784   109615970.595         115.049          42.000  
  22151535.876   116407090.997       -1888.679          31.000  
  22481893.920   118143144.211       -2722.574          36.000  
  20907692.714   109870656.726       -3398.149          42.000  
  22504988.417   118264541.953        3592.816          35.000  
  23648142.702   124271804.506        3348.129          32.000  
  22239616.785   116869948.189        -679.978          38.000  
 23 11 05 16 21 37.9960000  0 10G24G12G13G19G17G23G15G25G32G10
  18908598.365    99365351.737        -541.216          44.000  
  19890111.241   104523237.571        2216.288          43.000  
  23058949.294   121175591.9112      -3880.969          28.000  
  20859204.387   109615855.785         114.143          42.000  
  22151890.519   116408980.737       -1889.891          30.000  
  22482412.355   118145866.847       -2722.357          36.000  
  20908339.807   109874054.776       -3398.175          42.000  
  22504304.530   118260948.889        3592.773          35.000  
  23647505.520   124268456.179        3348.075          33.000  
  22239746.004   116870628.669        -680.929          38.000  
 23 11 05 16 21 38.9960000  0 10G24G12G13G19G17G23G15G25G32G10
  18908701.614    99365893.020        -541.456          44.000  
  19889689.797   104521021.538        2215.895          44.000  
  23059685.556   121179472.2842      -3880.317          28.000  
  20859182.681   109615741.476         114.246          42.000  
  22152250.826   116410870.942       -1890.333          29.000  
  22482930.585   118148589.711       -2722.889          36.000  
  20908986.519   109877453.035       -3398.344          42.000  
  22503620.744   118257355.898        3592.584          35.000  
  23646868.219   124265107.864        3348.126          32.000  
  22239875.411   116871309.600        -681.240          38.000  
 23 11 05 16 21 39.9960000  0  9G24G12G19G17G23G15G25G32G10
  18908804.662    99366434.607        -541.717          44.000  
  19889268.188   104518805.782        2215.738          44.000  
  20859161.065   109615627.726         113.305          42.000  
  22152610.543   116412761.327       -1890.566          29.000  
  22483448.682   118151312.700       -2723.015          36.000  
  20909633.209   109880851.443       -3398.347          42.000  
  22502936.817   118253762.822        3593.359          36.000  
  23646230.710   124261759.553        3348.331          33.000  
  22240005.155   116871990.956        -681.556          38.000  
 23 11 05 16 21 40.9960000  0 10G24G12G19G17G13G23G15G25G32G10
  18908907.489    99366976.843        -542.373          44.000  
  19888846.264   104516590.667        2215.287          43.000  
  20859139.230   109615514.793         112.655          42.000  
  22152968.951   116414652.438       -1890.788          29.000  
  23061157.504                       -3881.762          26.000  
  22483966.771   118154036.249       -2723.368          36.000  
  20910280.260   109884250.380       -3399.011          42.000  
  22502253.327   118250170.142        3592.566          36.000  
  23645593.467   124258411.523        3348.481          33.000  
  22240134.771   116872673.149        -682.545          38.000  
 23 11 05 16 21 41.9960000  0 10G24G12G19G17G13G23G15G25G32G10
  18909011.032    99367519.232        -542.538          44.000  
  19888424.717   104514375.737        2214.526          43.000  
  20859117.714   109615402.248         112.103          42.000  
  22153326.442   116416543.708       -1890.970          28.000  
  23061892.891                       -3881.762          26.000  
  22484484.800   118156759.797       -2723.303          35.000  
  20910926.715   109887649.366       -3399.103          41.000  
  22501569.852   118246577.311        3592.725          36.000  
  23644956.309   124255063.419        3347.738          34.000  
  22240264.252   116873355.632        -682.961          37.000  
 23 11 05 16 21 42.9960000  0 10G24G12G19G17G13G23G15G25G32G10
  18909114.403    99368061.941        -542.614          44.000  
  19888003.371   104512161.079        2214.493          44.000  
  20859096.095   109615290.204         111.894          42.000  
  22153693.194   116418435.356       -1890.973          28.000  
  23062635.339   121194965.8953      -3880.570          27.000  
  22485003.246   118159483.534       -2723.346          35.000  
  20911573.965   109891048.501       -3399.122          41.000  
  22500886.212   118242984.493        3592.718          36.000  
  23644319.252   124251715.301        3347.863          33.000  
  22240393.826   116874038.543        -682.904          38.000  
 23 11 05 16 21 43.9960000  0 10G24G12G19G17G13G23G15G25G32G10
  18909217.841    99368605.311        -543.632          44.000  
  19887581.599   104509947.069        2213.861          43.000  
  20859075.007   109615179.025         110.774          42.000  
  22154050.360   116420327.790       -1893.156          28.000  
  23063371.142   121198846.3432      -3880.751          28.000  
  22485521.282   118162207.817       -2724.243          35.000  
  20912220.685   109894448.130       -3399.843          41.000  
  22500202.872   118239391.966        3592.254          36.000  
  23643682.457   124248367.488        3348.024          34.000  
  22240523.944   116874722.259        -683.859          38.000  
 23 11 05 16 21 44.9960000  0 10G24G12G19G17G13G23G15G25G32G10
  18909321.341    99369149.006        -543.639          45.000  
  19887160.381   104507733.387        2213.724          43.000  
  20859054.204   109615068.401         110.567          42.000  
  22154409.220   116422220.451       -1892.389          28.000  
  23064109.042   121202726.8562      -3879.803          30.000  
  22486039.880   118164932.245       -2723.596          35.000  
  20912867.702   109897847.974       -3399.621          42.000  
  22499519.175   118235799.517        3592.560          36.000  
  23643045.881   124245019.723        3347.689          34.000  
  22240654.050   116875406.430        -684.171          37.000  
 23 11 05 16 21 45.9960000  0 10G24G12G19G17G13G23G15G25G32G10
  18909425.124    99369693.307        -544.603          44.000  
  19886739.133   104505520.319        2212.703          44.000  
  20859033.628   109614958.584         109.489          42.000  
  22154771.225   116424113.864       -1893.481          28.000  
  23064851.141   121206607.6582      -3882.288          30.000  
  22486558.283   118167657.203       -2724.432          35.000  
  20913515.018   109901248.288       -3400.366          42.000  
  22498835.826   118232207.364        3592.065          37.000  
  23642409.234   124241672.178        3347.585          33.000  
  22240784.423   116876091.369        -685.422          37.000  
 23 11 05 16 21 46.9960000  0 11G24G12G22G19G17G13G23G15G25G32G10
  18909528.857    99370238.099        -545.275          44.000  
  19886318.142   104503307.721        2212.144          43.000  
  23480075.416                       -3356.391          22.000  
  20859012.930   109614849.458         108.644          42.000  
  22155130.217   116426007.829       -1894.728          28.000  
  23065591.297   121210488.4792      -3880.908          30.000  
  22487076.986   118170382.535       -2725.934          36.000  
  20914161.841   109904648.956       -3400.994          42.000  
  22498152.785   118228615.325        3591.772          37.000  
  23641771.930   124238324.896        3346.348          33.000  
  22240915.376   116876776.942        -685.872          38.000  
 23 11 05 16 21 47.9960000  0 10G24G12G19G17G13G23G15G25G32G10
  18909632.452    99370783.031        -545.239          44.000  
  19885897.059   104501095.262        2212.324          43.000  
  20858991.918   109614740.674         108.515          42.000  
  22155490.562   116427901.866       -1894.863          28.000  
  23066329.942   121214369.1582      -3881.620          30.000  
  22487595.325   118173107.830       -2725.494          36.000  
  20914808.775   109908049.620       -3400.635          42.000  
  22497469.446   118225023.177        3591.864          37.000  
  23641134.969   124234977.310        3347.338          33.000  
  22241045.734   116877462.800        -686.056          38.000  
 23 11 05 16 21 48.9960000  0 10G24G12G19G17G13G23G15G25G32G10
  18909736.338    99371328.345        -545.310          44.000  
  19885476.199   104498883.180        2212.316          44.000  
  20858971.211   109614632.492         108.175          42.000  
  22155849.711   116429796.299       -1894.903          28.000  
  23067072.013   121218249.6762      -3880.006          30.000  
  22488114.343   118175833.387       -2725.238          36.000  
  20915456.130   109911450.543       -3400.750          42.000  
  22496785.722   118221431.073        3592.792          37.000  
  23640498.147   124231629.910        3347.763          33.000  
  22241176.399   116878149.226        -686.553          38.000  
 23 11 05 16 21 49.9960000  0 10G24G12G19G17G13G23G15G25G32G10
  18909840.533    99371874.181        -546.034          44.000  
  19885055.531   104496671.620        2211.348          43.000  
  20858950.493   109614525.035         107.257          42.000  
  22156210.403   116431691.298       -1894.851          27.000  
  23067804.902   121222130.3832      -3879.694          29.000  
  22488633.175   118178559.334       -2725.952          36.000  
  20916103.197   109914851.858       -3401.260          42.000  
  22496102.010   118217839.197        3592.615          36.000  
  23639861.337   124228282.628        3348.266          34.000  
  22241306.961   116878836.270        -687.306          38.000  
 23 11 05 16 21 50.9960000  0  9G24G12G19G17G23G15G25G32G10
  18909944.264    99372420.469        -546.594          44.000  
  19884634.397   104494460.513        2210.695          43.000  
  20858930.035   109614418.250         106.272          42.000  
  22156570.593   116433586.870       -1895.730          27.000  
  22489152.487   118181285.613       -2726.141          36.000  
  20916750.496   109918253.484       -3401.782          42.000  
  22495418.701   118214247.472        3591.571          36.000  
  23639224.412   124224935.562        3346.760          33.000  
  22241437.668   116879523.947        -687.883          38.000  
 23 11 05 16 21 51.9960000  0 10G24G12G19G17G13G23G15G25G32G10
  18910048.341    99372967.318        -546.780          44.000  
  19884213.652   104492249.955        2210.108          43.000  
  20858909.858   109614312.244         105.616          42.000  
  22156933.752   116435482.986       -1896.253          28.000  
  23069264.216                       -3879.785          28.000  
  22489671.720   118184012.328       -2726.715          37.000  
  20917397.657   109921655.535       -3402.417          42.000  
  22494735.064   118210656.027        3591.589          36.000  
  23638587.695   124221588.716        3347.249          34.000  
  22241568.381   116880212.326        -688.390          37.000  
 23 11 05 16 21 52.9960000  0 10G24G12G19G17G13G23G15G25G32G10
  18910152.580    99373514.343        -546.880          44.000  
  19883792.768   104490039.559        2210.231          43.000  
  20858889.629   109614206.563         105.723          42.000  
  22157296.323   116437379.364       -1896.654          28.000  
  23070013.214   121233737.2253      -3880.468          30.000  
  22490190.949   118186739.064       -2726.440          36.000  
  20918044.918   109925057.592       -3401.925          42.000  
  22494051.365   118207064.395        3591.662          35.000  
  23637950.978   124218241.723        3346.886          34.000  
  22241699.262   116880901.005        -688.820          38.000  
 23 11 05 16 21 53.9960000  0 10G24G12G19G17G13G23G15G25G32G10
  18910256.731    99374061.752        -547.765          44.000  
  19883372.081   104487829.531        2209.718          43.000  
  20858869.555   109614101.533         104.527          42.000  
  22157657.696   116439275.981       -1895.818          33.000  
  23070752.107   121237618.0642      -3880.760          30.000  
  22490709.812   118189466.070       -2726.801          36.000  
  20918692.459   109928459.908       -3402.555          42.000  
  22493367.447   118203472.860        3591.553          35.000  
  23637313.932   124214894.791        3346.227          34.000  
  22241830.793   116881590.221        -689.526          38.000  
 23 11 05 16 21 54.9960000  0 10G24G12G19G17G13G23G15G25G32G10
  18910360.949    99374609.739        -547.807          44.000  
  19882951.851   104485620.110        2209.605          43.000  
  20858849.790   109613997.291         104.326          42.000  
  22158023.367                       -1895.135          26.000  
  23071503.568   121241499.1522      -3881.436          31.000  
  22491229.028   118192193.512       -2726.984          36.000  
  20919339.862   109931862.682       -3402.611          42.000  
  22492683.682   118199881.558        3591.827          36.000  
  23636677.073   124211548.110        3347.219          34.000  
  22241962.160   116882280.194        -690.087          38.000  
 23 11 05 16 21 55.9960000  0 10G24G12G19G17G13G23G15G25G32G10
  18910465.325    99375158.177        -548.514          44.000  
  19882531.624   104483411.107        2208.912          43.000  
  20858830.073   109613893.676         103.577          42.000  
  22158381.267                       -1899.181          26.000  
  23072241.516   121245380.2222      -3881.553          31.000  
  22491748.180   118194921.302       -2727.747          35.000  
  20919987.535   109935265.748       -3403.111          42.000  
  22492000.188   118196290.444        3591.315          35.000  
  23636040.162   124208201.561        3346.408          34.000  
  22242093.456   116882970.736        -690.996          38.000  
 23 11 05 16 21 56.9960000  0 10G24G12G19G17G13G23G15G25G32G10
  18910569.723    99375707.076        -549.158          44.000  
  19882111.424   104481202.558        2208.378          43.000  
  20858810.778   109613790.745         102.562          42.000  
  22158739.544                       -1898.508          26.000  
  23072983.324   121249261.4362      -3881.658          31.000  
  22492267.787   118197649.408       -2728.338          35.000  
  20920635.292   109938669.150       -3403.760          42.000  
  22491316.619   118192699.467        3590.625          35.000  
  23635403.340   124204855.133        3346.396          34.000  
  22242225.235   116883661.885        -691.346          39.000  
 23 11 05 16 21 57.9960000  0 10G24G12G19G17G13G23G15G25G32G10
  18910674.125    99376256.292        -549.609          44.000  
  19881691.321   104478994.335        2207.748          43.000  
  20858791.227   109613688.314         101.963          42.000  
  22159108.869                       -1899.029          26.000  
  23073711.760   121253142.6102      -3881.853          29.000  
  22492786.708   118200377.686       -2728.229          35.000  
  20921283.445   109942072.701       -3404.165          43.000  
  22490633.131   118189108.466        3591.071          35.000  
  23634766.503   124201508.708        3345.981          34.000  
  22242357.157   116884353.464        -692.162          39.000  
 23 11 05 16 21 58.9960000  0 10G24G12G19G17G13G23G15G25G32G10
  18910778.779    99376805.822        -550.003          45.000  
  19881271.081   104476786.420        2207.566          43.000  
  20858771.652   109613586.435         101.603          42.000  
  22159471.997                       -1898.994          26.000  
  23074449.337   121257023.6592      -3880.788          29.000  
  22493305.787   118203106.144       -2728.607          35.000  
  20921931.071   109945476.471       -3403.909          42.000  
  22489949.807   118185517.522        3590.643          35.000  
  23634129.507   124198162.313        3346.063          34.000  
  22242489.316   116885045.553        -692.435          39.000  
 23 11 05 16 21 59.9960000  0 10G24G12G19G17G13G23G15G25G32G10
  18910883.456    99377355.853        -550.526          45.000  
  19880850.808   104474579.000        2206.904          43.000  
  20858752.562   109613485.279         100.414          42.000  
  22159826.869   116450675.7873      -1899.881          26.000  
  23075181.559   121260904.9382      -3881.548          29.000  
  22493824.820   118205835.023       -2729.419          36.000  
  20922578.967   109948880.583       -3404.346          41.000  
  22489266.393   118181926.743        3590.259          35.000  
  23633492.888   124194816.077        3345.990          34.000  
  22242621.436   116885738.278        -693.387          38.000  
 23 11 05 16 22 00.9960000  0 10G24G12G19G17G13G23G15G25G32G10
  18910988.199    99377906.488        -550.987          45.000  
  19880430.947   104472372.167        2206.733          43.000  
  20858733.563   109613384.915          99.914          41.000  
  22160191.426   116452575.9602      -1899.573          26.000  
  23075929.366   121264786.3632      -3881.390          30.000  
  22494343.981   118208564.322       -2729.333          36.000  
  20923226.313   109952285.185       -3404.946          41.000  
  22488583.023   118178336.225        3590.790          35.000  
  23632856.736   124191470.135        3345.983          34.000  
  22242753.833   116886431.730        -693.651          39.000  
 23 11 05 16 22 01.9960000  0 10G24G12G19G17G13G23G15G25G32G10
  18911093.109    99378457.357        -550.963          45.000  
  19880011.070   104470165.575        2206.572          43.000  
  20858714.579   109613284.987          99.472          44.000  
  22160553.928   116454476.4862      -1901.816          27.000  
  23076669.679   121268667.6302      -3881.525          31.000  
  22494862.898   118211293.758       -2729.913          35.000  
  20923874.179   109955689.852       -3404.679          41.000  
  22487899.557   118174745.717        3590.222          35.000  
  23632220.174   124188124.130        3346.335          34.000  
  22242885.918   116887125.571        -694.240          39.000  
 23 11 05 16 22 02.9960000  0 10G24G12G19G17G13G23G15G25G32G10
  18911198.360    99379008.727        -551.555          45.000  
  19879591.100   104467959.501        2205.698          43.000  
  20858695.750   109613185.757          98.538          42.000  
  22160911.555   116456375.4333      -1901.422          26.000  
  23077412.384   121272549.0732      -3881.544          32.000  
  22495382.352   118214023.564       -2730.353          36.000  
  20924522.382   109959094.926       -3405.466          42.000  
  22487216.527   118171155.323        3590.619          35.000  
  23631583.680   124184778.319        3346.054          35.000  
  22243018.186   116887820.076        -695.069          39.000  
 23 11 05 16 22 03.9960000  0 10G24G12G19G17G13G23G15G25G32G10
  18911303.282    99379560.448        -551.532          45.000  
  19879171.641   104465753.763        2205.855          43.000  
  20858677.105   109613087.091          98.757          43.000  
  22161270.168                       -1895.043          26.000  
  23078148.840   121276430.3872      -3879.620          31.000  
  22495901.670   118216753.578       -2729.559          35.000  
  20925170.241   109962500.160       -3404.840          42.000  
  22486533.693   118167565.040        3590.021          36.000  
  23630946.716   124181432.575        3346.126          34.000  
  22243150.592   116888515.033        -694.803          39.000  
 23 11 05 16 22 04.9960000  0 10G24G12G22G19G13G23G15G25G32G10
  18911408.481    99380112.635        -552.685          45.000  
  19878752.070   104463548.457        2204.878          44.000  
  23491565.964                       -3350.017          20.000  
  20858658.634   109612989.107          97.455          43.000  
  23078890.097   121280311.9292      -3882.517          31.000  
  22496421.224   118219483.947       -2731.091          36.000  
  20925818.290   109965905.753       -3406.002          42.000  
  22485850.781   118163974.869        3589.624          36.000  
  23630310.032   124178086.908        3345.761          35.000  
  22243283.142   116889210.607        -696.381          39.000  
 23 11 05 16 22 05.9960000  0 10G24G12G22G19G13G23G15G25G32G10
  18911513.847    99380665.424        -553.228          45.000  
  19878332.248   104461343.771        2204.265          43.000  
  23492203.178                       -3350.017          20.000  
  20858640.239   109612891.939          96.544          43.000  
  23079628.173   121284193.6042      -3882.161          31.000  
  22496941.219   118222214.738       -2731.354          36.000  
  20926466.707   109969311.784       -3406.246          42.000  
  22485167.880   118160385.017        3589.441          36.000  
  23629673.195   124174741.548        3345.345          34.000  
  22243416.280   116889906.929        -696.830          39.000  
 23 11 05 16 22 06.9960000  0 10G24G12G22G19G13G23G15G25G32G10
  18911619.295    99381218.453        -553.449          45.000  
  19877913.114   104459139.325        2204.149          43.000  
  23492841.498                       -3350.017          20.000  
  20858621.973   109612795.218          96.024          43.000  
  23080367.120   121288075.1862      -3882.133          31.000  
  22497460.895   118224945.677       -2731.500          36.000  
  20927114.640   109972717.969       -3406.414          42.000  
  22484485.225   118156795.120        3589.502          37.000  
  23629036.495   124171396.122        3345.551          34.000  
  22243549.061   116890603.651        -696.869          39.000  
 23 11 05 16 22 07.9960000  0 11G24G12G22G19G17G13G23G15G25G32G10
  18911724.474    99381771.755        -553.239          45.000  
  19877493.600   104456935.154        2204.104          43.000  
  23493480.888                       -3350.017          19.000  
  20858603.594   109612698.977          96.185          43.000  
  22162722.514                       -1901.805          25.000  
  23081104.804   121291956.6472      -3881.974          31.000  
  22497981.006   118227676.757       -2731.000          36.000  
  20927762.822   109976124.260       -3406.311          42.000  
  22483802.217   118153205.137        3590.182          36.000  
  23628400.178   124168050.675        3345.943          34.000  
  22243682.152   116891300.822        -697.321          39.000  
 23 11 05 16 22 08.9960000  0 11G24G12G22G19G17G13G23G15G25G32G10
  18911829.836    99382325.669        -554.301          45.000  
  19877074.321   104454731.567        2203.072          43.000  
  23494118.549                       -3350.017          18.000  
  20858585.526   109612603.556          94.796          43.000  
  22163086.639                       -1901.805          25.000  
  23081840.926   121295838.3132      -3881.861          30.000  
  22498501.024   118230408.273       -2731.958          36.000  
  20928411.198   109979531.030       -3407.223          42.000  
  22483119.632   118149615.481        3589.138          37.000  
  23627763.890   124164705.531        3344.239          34.000  
  22243815.375   116891998.715        -698.379          39.000  
 23 11 05 16 22 09.9960000  0 11G24G12G22G19G17G13G23G15G25G32G10
  18911935.397    99382880.036        -554.201          45.000  
  19876655.101   104452528.460        2202.912          43.000  
  23494756.217                       -3350.017          18.000  
  20858567.498   109612508.797          94.594          43.000  
  22163444.679                       -1901.805          26.000  
  23082574.348   121299720.1022      -3881.666          30.000  
  22499021.158   118233140.159       -2732.111          36.000  
  20929059.659   109982938.113       -3407.003          42.000  
  22482436.858   118146025.945        3589.981          37.000  
  23627127.381   124161360.438        3345.634          34.000  
  22243948.532   116892697.220        -698.502          39.000  
 23 11 05 16 22 10.9960000  0 11G24G12G22G19G17G13G23G15G25G32G10
  18912040.986    99383435.011        -554.984          45.000  
  19876236.477   104450325.929        2202.236          44.000  
  23495393.667                       -3350.017          19.000  
  20858549.661   109612414.844          93.607          43.000  
  22163808.005                       -1904.465          27.000  
  23083318.628   121303602.0742      -3881.939          30.000  
  22499540.571   118235872.483       -2732.287          35.000  
  20929708.277   109986345.649       -3407.529          42.000  
  22481754.081   118142436.734        3589.326          37.000  
  23626490.845   124158015.725        3344.268          35.000  
  22244082.124   116893396.471        -699.537          39.000  
 23 11 05 16 22 11.9960000  0 11G24G12G22G19G17G13G23G15G25G32G10
  18912146.498    99383990.504        -555.852          45.000  
  19875817.031   104448123.901        2201.955          44.000  
  23496032.831                       -3350.017          20.000  
  20858531.888   109612321.588          93.164          42.000  
  22164177.175   116473536.5123      -1904.975          27.000  
  23084063.519   121307484.2272      -3882.527          31.000  
  22500060.149   118238605.197       -2732.727          36.000  
  20930356.747   109989753.574       -3408.029          42.000  
  22481071.625   118138847.720        3589.086          37.000  
  23625854.542   124154671.132        3344.767          34.000  
  22244215.413   116894096.378        -700.085          39.000  
 23 11 05 16 22 12.9960000  0 11G24G12G22G19G17G13G23G15G25G32G10
  18912252.112    99384546.100        -555.804          45.000  
  19875398.354   104445922.018        2201.532          44.000  
  23496671.357                       -3350.017          20.000  
  20858514.240   109612228.699          92.375          43.000  
  22164539.435   116475442.1222      -1905.588          27.000  
  23084802.974   121311366.078       -3881.897          32.000  
  22500579.376   118241337.933       -2733.520          35.000  
  20931004.970   109993161.474       -3408.133          42.000  
  22480388.808   118135258.507        3589.619          37.000  
  23625217.980   124151326.401        3344.612          34.000  
  22244348.787   116894796.548        -700.756          39.000  
 23 11 05 16 22 13.9960000  0 11G24G12G22G19G17G13G23G15G25G32G10
  18912358.508    99385102.421        -556.627          45.000  
  19874979.193   104443720.811        2200.988          44.000  
  23497310.802                       -3350.017          20.000  
  20858496.364   109612136.689          91.692          42.000  
  22164901.774   116477348.4562      -1906.470          27.000  
  23085542.128   121315248.324       -3882.459          32.000  
  22501099.414   118244071.187       -2733.185          35.000  
  20931653.656   109996569.944       -3408.362          42.000  
  22479705.925   118131669.724        3588.768          37.000  
  23624581.291   124147982.067        3344.745          33.000  
  22244482.033   116895497.578        -701.300          39.000  
 23 11 05 16 22 14.9960000  0 11G24G12G22G19G17G13G23G15G25G32G10
  18912464.330    99385659.195        -557.046          45.000  
  19874560.475   104441520.053        2200.856          44.000  
  23497949.925                       -3352.079          21.000  
  20858478.958   109612045.350          91.171          42.000  
  22165261.451   116479255.3112      -1906.931          28.000  
  23086278.336   121319130.621       -3882.166          33.000  
  22501619.779   118246804.791       -2733.765          35.000  
  20932302.228   109999978.718       -3408.877          42.000  
  22479023.091   118128081.058        3588.820          37.000  
  23623944.875   124144637.856        3344.194          33.000  
  22244615.106   116896199.203        -701.750          39.000  
 23 11 05 16 22 15.9960000  0 11G24G12G22G19G17G13G23G15G25G32G10
  18912570.425    99386216.248        -557.017          45.000  
  19874141.814   104439319.627        2200.042          44.000  
  23498589.367                       -3354.931          20.000  
  20858461.627   109611954.554          90.438          42.000  
  22165620.839   116481162.4472      -1906.982          27.000  
  23087019.582   121323012.813       -3882.340          33.000  
  22502139.846   118249538.573       -2734.491          35.000  
  20932951.051   110003387.688       -3409.159          42.000  
  22478340.292   118124492.412        3588.841          37.000  
  23623308.136   124141293.689        3344.017          34.000  
  22244748.737   116896901.269        -702.345          39.000  
 23 11 05 16 22 16.9960000  0 11G24G12G22G19G17G13G23G15G25G32G10
  18912676.673    99386773.795        -557.817          45.000  
  19873722.926   104437119.631        2199.799          43.000  
  23499229.227                       -3355.459          21.000  
  20858444.162   109611864.400          90.205          42.000  
  22165984.036                       -1908.420          27.000  
  23087758.600   121326895.076       -3882.352          34.000  
  22502660.366   118252272.647       -2734.344          35.000  
  20933599.778   110006796.988       -3409.626          42.000  
  22477657.978   118120903.895        3588.462          37.000  
  23622671.559   124137949.603        3343.469          34.000  
  22244882.476   116897603.942        -702.782          39.000  
 23 11 05 16 22 17.9960000  0 11G24G12G22G19G17G13G23G15G25G32G10
  18912782.847    99387331.768        -558.331          45.000  
  19873304.485   104434920.090        2199.155          43.000  
  23499866.197                       -3358.721          21.000  
  20858427.259   109611774.912          89.096          42.000  
  22166347.215                       -1907.718          26.000  
  23088497.235   121330777.417       -3882.745          33.000  
  22503180.560   118255007.012       -2734.583          35.000  
  20934248.891   110010206.556       -3409.793          42.000  
  22476974.985   118117315.498        3588.481          37.000  
  23622035.003   124134605.662        3343.023          34.000  
  22245016.153   116898307.218        -703.905          39.000  
 23 11 05 16 22 18.9960000  0 11G24G12G22G19G17G13G23G15G25G32G10
  18912888.818    99387890.117        -558.612          45.000  
  19872885.811   104432720.895        2199.183          43.000  
  23500503.640                       -3356.649          21.000  
  20858410.566   109611686.017          88.264          42.000  
  22166709.084   116486841.7153      -1908.069          27.000  
  23089236.573   121334659.650       -3883.022          29.000  
  22503701.102   118257741.653       -2735.101          35.000  
  20934897.564   110013616.361       -3410.058          42.000  
  22476292.204   118113727.172        3588.374          37.000  
  23621398.760   124131261.700        3343.907          34.000  
  22245149.453   116899011.011        -704.319          38.000  
 23 11 05 16 22 19.9960000  0 11G24G12G22G19G17G13G23G15G25G32G10
  18912994.921    99388448.997        -559.498          45.000  
  19872467.237   104430522.246        2197.959          43.000  
  23501139.380                       -3357.725          21.000  
  20858393.554   109611597.822          87.551          42.000  
  22167071.434   116488750.8572      -1909.395          26.000  
  23089970.287   121338542.078       -3882.513          30.000  
  22504221.705   118260476.707       -2735.669          36.000  
  20935546.586   110017026.539       -3410.690          41.000  
  22475609.473   118110139.109        3587.606          36.000  
  23620762.309   124127918.048        3343.528          34.000  
  22245283.135   116899715.460        -705.181          38.000  
 23 11 05 16 22 20.9960000  0 11G24G12G22G19G17G13G23G15G25G32G10
  18913101.466    99389008.325        -559.974          45.000  
  19872048.885   104428324.036        2197.508          43.000  
  23501776.472                       -3358.582          20.000  
  20858376.974   109611510.314          86.752          42.000  
  22167436.704   116490660.4852      -1910.046          26.000  
  23090708.147   121342424.637       -3882.980          31.000  
  22504742.033   118263212.082       -2736.310          36.000  
  20936195.374   110020437.061       -3411.097          41.000  
  22474927.178   118106551.182        3587.276          36.000  
  23620125.851   124124574.494        3343.025          34.000  
  22245416.778   116900420.517        -705.962          38.000  
 23 11 05 16 22 21.9960000  0 11G24G12G22G19G17G13G23G15G25G32G10
  18913208.065    99389568.270        -560.779          45.000  
  19871630.732   104426126.428        2196.969          44.000  
  23502413.966                       -3353.634          20.000  
  20858360.560   109611423.625          85.763          42.000  
  22167799.202   116492570.7152      -1911.237          26.000  
  23091454.249   121346307.612       -3882.675          29.000  
  22505262.460   118265947.921       -2736.456          35.000  
  20936844.775   110023848.053       -3411.684          42.000  
  22474244.545   118102963.514        3587.129          37.000  
  23619489.542   124121231.276        3342.506          34.000  
  22245550.614   116901126.304        -706.403          38.000  
 23 11 05 16 22 22.9960000  0 11G24G12G22G19G17G13G23G15G25G32G10
  18913314.681    99390128.670        -560.455          45.000  
  19871212.658   104423929.315        2196.922          44.000  
  23503053.551                       -3361.724          19.000  
  20858344.187   109611337.608          85.763          42.000  
  22168160.253   116494481.3952      -1910.443          26.000  
  23092194.260   121350190.475       -3882.956          32.000  
  22505782.908   118268684.084       -2736.090          35.000  
  20937494.215   110027259.339       -3411.429          42.000  
  22473561.762   118099376.051        3587.530          37.000  
  23618853.209   124117888.183        3342.868          34.000  
  22245684.575   116901832.694        -706.401          38.000  
 23 11 05 16 22 23.9960000  0 11G24G12G22G19G17G13G23G15G25G32G10
  18913421.409    99390689.427        -561.056          45.000  
  19870794.779   104421732.550        2196.575          43.000  
  23503690.150                       -3350.125          18.000  
  20858328.096   109611252.152          85.058          42.000  
  22168524.701   116496392.5262      -1911.602          26.000  
  23092935.369   121354073.306       -3883.170          33.000  
  22506303.867   118271420.475       -2736.700          36.000  
  20938143.525   110030670.855       -3411.768          42.000  
  22472879.317   118095788.603        3587.364          37.000  
  23618217.059   124114545.149        3343.101          33.000  
  22245818.872   116902539.585        -707.259          38.000  
 23 11 05 16 22 24.9960000  0 11G24G12G22G19G17G13G23G15G25G32G10
  18913528.159    99391250.709        -561.731          45.000  
  19870376.733   104419536.318        2195.800          43.000  
  23504329.193                       -3363.480          18.000  
  20858311.979   109611167.405          84.346          42.000  
  22168889.997   116498304.1742      -1911.897          27.000  
  23093671.626   121357956.262       -3883.008          33.000  
  22506824.752   118274157.249       -2736.914          36.000  
  20938792.682   110034082.762       -3412.563          42.000  
  22472197.065   118092201.369        3587.337          37.000  
  23617580.691   124111202.314        3342.495          34.000  
  22245953.079   116903247.155        -708.034          38.000  
 23 11 05 16 22 25.9960000  0 11G24G12G22G19G17G13G23G15G25G32G10
  18913634.843    99391812.379        -561.999          45.000  
  19869958.962   104417340.463        2195.271          43.000  
  23504968.639                       -3349.901          18.000  
  20858295.874   109611083.285          83.605          42.000  
  22169254.506   116500216.2312      -1912.376          28.000  
  23094408.431   121361839.263       -3883.540          33.000  
  22507345.887   118276894.305       -2737.842          37.000  
  20939442.397   110037494.883       -3412.641          42.000  
  22471514.651   118088614.254        3586.943          37.000  
  23616944.583   124107859.595        3341.271          34.000  
  22246087.466   116903955.263        -708.838          38.000  
 23 11 05 16 22 26.9960000  0 11G24G12G22G19G17G13G23G15G25G32G10
  18913741.743    99392374.430        -562.600          45.000  
  19869541.151   104415144.971        2195.001          43.000  
  23505604.309                       -3350.519          19.000  
  20858279.866   109610999.734          83.008          42.000  
  22169621.877   116502128.7652      -1912.865          28.000  
  23095145.149   121365722.256       -3883.859          33.000  
  22507867.213   118279631.547       -2737.469          37.000  
  20940091.538   110040907.257       -3412.604          42.000  
  22470832.419   118085027.175        3586.826          37.000  
  23616308.739   124104516.850        3342.726          34.000  
  22246222.229   116904663.892        -709.146          38.000  
 23 11 05 16 22 27.9960000  0 11G24G12G22G19G17G13G23G15G25G32G10
  18913848.767    99392936.886        -563.048          45.000  
  19869123.550   104412949.907        2194.308          43.000  
  23506238.500                       -3348.465          19.000  
  20858264.023   109610916.838          81.895          42.000  
  22169986.791                       -1894.994          19.000  
  23095886.694   121369605.296       -3884.063          32.000  
  22508388.584   118282369.085       -2738.171          37.000  
  20940741.249   110044319.914       -3412.784          42.000  
  22470150.100   118081440.220        3586.414          37.000  
  23615672.580   124101174.263        3342.679          34.000  
  22246357.229   116905373.056        -709.893          38.000  
 23 11 05 16 22 28.9960000  0 10G24G12G22G19G13G23G15G25G32G10
  18913956.090    99393499.814        -562.952          45.000  
  19868705.644   104410755.286        2194.570          43.000  
  23506873.818                       -3352.129          18.000  
  20858248.353   109610834.583          81.964          42.000  
  23096622.502   121373488.362       -3881.776          30.000  
  22508910.443   118285106.975       -2738.135          37.000  
  20941390.382   110047732.917       -3412.790          42.000  
  22469467.430   118077853.418        3586.724          37.000  
  23615036.851   124097831.833        3342.460          34.000  
  22246492.326   116906082.843        -710.030          38.000  
 23 11 05 16 22 29.9960000  0 11G24G12G22G19G17G13G23G15G25G32G10
  18914063.501    99394063.305        -563.781          45.000  
  19868288.210   104408561.236        2193.986          43.000  
  23507512.970                       -3352.691          18.000  
  20858232.855   109610753.094          81.298          42.000  
  22170713.879                       -1920.920          29.000  
  23097362.411   121377371.691       -3883.448          32.000  
  22509431.697   118287845.284       -2738.538          37.000  
  20942039.731   110051146.312       -3413.377          42.000  
  22468784.968   118074266.849        3586.385          37.000  
  23614400.849   124094489.653        3342.132          34.000  
  22246627.469   116906793.338        -710.860          38.000  
 23 11 05 16 22 30.9960000  0 11G24G12G22G19G17G13G23G15G25G32G10
  18914170.948    99394627.119        -563.720          45.000  
  19867870.644   104406367.511        2193.792          43.000  
  23508149.935                       -3352.989          18.000  
  20858217.169   109610672.167          80.441          42.000  
  22171073.384                       -1918.115          30.000  
  23098101.115   121381254.953       -3883.966          32.000  
  22509953.271   118290583.763       -2738.312          37.000  
  20942689.477   110054559.906       -3413.598          42.000  
  22468102.180   118070680.328        3586.683          37.000  
  23613764.728   124091147.492        3342.207          34.000  
  22246763.020   116907504.308        -710.819          38.000  
 23 11 05 16 22 31.9960000  0 11G24G12G22G19G17G13G23G15G25G32G10
  18914278.186    99395191.375        -564.183          45.000  
  19867453.194   104404174.210        2192.971          43.000  
  23508785.278                       -3359.032          18.000  
  20858202.003   109610591.860          80.300          42.000  
  22171447.462   116511742.4663      -1915.811          30.000  
  23098839.975   121385138.246       -3882.961          33.000  
  22510475.132   118293322.575       -2738.708          37.000  
  20943339.371   110057973.780       -3414.003          42.000  
  22467419.868   118067093.935        3586.382          37.000  
  23613128.598   124087805.410        3342.126          34.000  
  22246898.796   116908215.862        -711.634          38.000  
 23 11 05 16 22 32.9960000  0 11G24G12G22G19G17G13G23G15G25G32G10
  18914385.728    99395756.142        -565.021          45.000  
  19867035.933   104401981.403        2192.698          43.000  
  23509421.467                       -3348.267          19.000  
  20858186.392   109610512.279          79.331          42.000  
  22171810.906   116513657.8872      -1916.844          30.000  
  23099578.990   121389021.682       -3883.435          32.000  
  22510996.495   118296061.775       -2739.923          37.000  
  20943989.147   110061388.043       -3414.383          42.000  
  22466737.774   118063507.736        3585.952          38.000  
  23612492.697   124084463.550        3341.514          34.000  
  22247034.432   116908928.084        -712.722          38.000  
 23 11 05 16 22 33.9960000  0 11G24G12G22G19G17G13G23G15G25G32G10
  18914493.132    99396321.441        -565.615          45.000  
  19866618.683   104399789.152        2191.826          43.000  
  23510058.525                       -3355.625          18.000  
  20858171.469   109610433.458          78.169          42.000  
  22172173.945   116515573.8242      -1916.860          30.000  
  23100317.941   121392905.307       -3883.892          32.000  
  22511517.508   118298801.364       -2740.039          37.000  
  20944638.989   110064802.686       -3415.087          42.000  
  22466055.337   118059921.774        3585.738          38.000  
  23611856.573   124081121.860        3341.494          34.000  
  22247170.420   116909640.967        -713.249          39.000  
 23 11 05 16 22 34.9960000  0 11G24G12G22G19G17G13G23G15G25G32G10
  18914600.629    99396887.121        -566.057          45.000  
  19866201.263   104397597.265        2191.595          43.000  
  23510697.833                       -3357.154          18.000  
  20858156.547   109610355.214          77.973          42.000  
  22172535.140   116517490.2472      -1918.125          31.000  
  23101056.842   121396788.853       -3883.320          32.000  
  22512038.916   118301541.190       -2740.283          37.000  
  20945288.652   110068217.549       -3414.871          42.000  
  22465372.927   118056335.899        3585.624          38.000  
  23611220.752   124077780.290        3341.562          34.000  
  22247306.409   116910354.364        -714.080          38.000  
 23 11 05 16 22 35.9960000  0 11G24G12G22G19G17G13G23G15G25G32G10
  18914708.760    99397453.462        -566.492          45.000  
  19865784.069   104395406.031        2191.309          43.000  
  23511336.557                       -3357.154          16.000  
  20858141.817   109610277.831          77.172          42.000  
  22172898.748   116519407.2542      -1916.506          31.000  
  23101795.686   121400672.700       -3883.235          32.000  
  22512560.553   118304281.526       -2740.125          37.000  
  20945938.439   110071632.959       -3415.580          42.000  
  22464690.850   118052750.348        3585.824          38.000  
  23610584.766   124074439.086        3340.919          35.000  
  22247442.447   116911068.544        -714.461          38.000  
 23 11 05 16 22 36.9960000  0 11G24G12G22G19G17G13G23G15G25G32G10
  18914816.360    99398020.178        -566.875          45.000  
  19865367.153   104393215.210        2190.484          43.000  
  23511976.522                       -3353.519          16.000  
  20858126.771   109610201.047          76.196          42.000  
  22173265.338   116521324.6862      -1916.610          30.000  
  23102534.529   121404556.578       -3883.655          32.000  
  22513082.254   118307022.141       -2740.668          37.000  
  20946588.167   110075048.614       -3415.949          42.000  
  22464008.422   118049164.888        3585.388          38.000  
  23609948.865   124071097.908        3341.579          34.000  
  22247578.502   116911783.247        -714.773          38.000  
 23 11 05 16 22 37.9960000  0 11G24G12G22G19G17G13G23G15G25G32G10
  18914924.143    99398587.233        -567.648          45.000  
  19864950.627   104391024.684        2190.043          43.000  
  23512614.395                       -3352.638          16.000  
  20858112.287   109610124.802          75.380          42.000  
  22173633.566   116523242.5782      -1918.109          30.000  
  23103273.500   121408440.396       -3884.578          32.000  
  22513604.046   118309762.934       -2741.388          37.000  
  20947238.247   110078464.429       -3416.373          42.000  
  22463325.852   118045579.463        3584.989          37.000  
  23609313.402   124067756.794        3340.817          34.000  
  22247714.570   116912498.464        -715.866          38.000  
 23 11 05 16 22 38.9960000  0 11G24G12G22G19G17G13G23G15G25G32G10
  18915032.391    99399154.842        -567.999          45.000  
  19864534.217   104388834.727        2189.429          43.000  
  23513253.773                       -3351.893          17.000  
  20858098.207   109610049.310          74.927          42.000  
  22173996.557   116525161.0332      -1918.763          30.000  
  23104012.791   121412324.337       -3883.778          31.000  
  22514125.635   118312504.162       -2741.736          36.000  
  20947888.483   110081880.689       -3416.662          42.000  
  22462643.433   118041994.292        3584.885          37.000  
  23608677.782   124064415.916        3340.465          34.000  
  22247850.972   116913214.362        -716.736          39.000  
 23 11 05 16 22 39.9960000  0 11G24G12G22G19G17G13G23G15G25G32G10
  18915140.079    99399722.720        -567.905          45.000  
  19864117.046   104386645.036        2189.327          43.000  
  23513894.353                       -3361.110          18.000  
  20858083.952   109609974.314          74.919          42.000  
  22174362.213   116527079.7792      -1918.608          30.000  
  23104749.685   121416208.245       -3883.976          30.000  
  22514646.960   118315245.488       -2740.906          36.000  
  20948538.504   110085297.078       -3416.690          42.000  
  22461961.217   118038409.077        3585.095          37.000  
  23608041.761   124061074.972        3341.289          34.000  
  22247987.526   116913930.683        -716.534          39.000  
 23 11 05 16 22 40.9960000  0 11G24G12G22G19G17G13G23G15G25G32G10
  18915248.074    99400290.996        -569.086          45.000  
  19863700.271   104384455.710        2188.552          43.000  
  23514536.750                       -3356.120          19.000  
  20858070.099   109609899.900          73.608          42.000  
  22174725.924   116528998.9612      -1919.646          30.000  
  23105489.808   121420092.140       -3884.792          32.000  
  22515168.759   118317987.106       -2741.998          36.000  
  20949188.337   110088713.690       -3417.411          42.000  
  22461279.247   118034823.916        3584.625          37.000  
  23607406.248   124057734.088        3340.435          34.000  
  22248124.100   116914647.549        -717.602          39.000  
 23 11 05 16 22 41.9960000  0 11G24G12G22G19G17G13G23G15G25G32G10
  18915356.407    99400859.864        -569.147          45.000  
  19863283.700   104382266.995        2188.575          43.000  
  23515181.291                       -3354.331          19.000  
  20858056.357   109609826.321          72.878          42.000  
  22175090.129   116530918.6842      -1919.756          30.000  
  23106226.423   121423976.176       -3883.411          32.000  
  22515690.653   118320729.184       -2742.352          36.000  
  20949838.203   110092130.784       -3417.472          41.000  
  22460596.926   118031239.071        3584.773          37.000  
  23606770.751   124054393.548        3340.327          35.000  
  22248260.788   116915365.144        -717.754          38.000  
 23 11 05 16 22 42.9960000  0 11G24G12G22G19G17G13G23G15G25G32G10
  18915464.513    99401429.128        -569.498          45.000  
  19862867.017   104380078.652        2188.240          43.000  
  23515819.123                       -3354.769          18.000  
  20858042.453   109609753.296          72.793          42.000  
  22175457.064                       -1923.644          22.000  
  23106968.657   121427860.355       -3884.766          30.000  
  22516212.330   118323471.500       -2742.431          36.000  
  20950488.319   110095548.121       -3417.365          42.000  
  22459914.459   118027654.272        3584.937          37.000  
  23606134.978   124051053.025        3341.090          35.000  
  22248397.345   116916083.300        -718.539          38.000  
 23 11 05 16 22 43.9960000  0 10G24G12G22G19G13G23G15G25G32G10
  18915572.918    99401998.923        -570.653          45.000  
  19862450.884   104377890.875        2186.799          43.000  
  23516456.697                       -3353.937          18.000  
  20858028.369   109609681.090          71.271          42.000  
  23107710.259   121431744.586       -3884.601          30.000  
  22516733.845   118326214.263       -2743.677          36.000  
  20951138.479   110098965.852       -3418.616          40.000  
  22459232.095   118024069.770        3583.940          37.000  
  23605499.304   124047712.807        3339.636          35.000  
  22248534.403   116916802.127        -719.658          39.000  
 23 11 05 16 22 44.9960000  0 10G24G12G22G19G13G23G15G25G32G10
  18915681.500    99402569.342        -570.771          45.000  
  19862034.696   104375703.660        2187.068          43.000  
  23517095.735                       -3356.264          17.000  
  20858014.666   109609609.593          71.059          43.000  
  23108446.580   121435629.057       -3884.978          31.000  
  22517255.366   118328957.416       -2743.298          35.000  
  20951789.082   110102384.054       -3418.572          41.000  
  22458549.695   118020485.580        3583.950          37.000  
  23604864.031   124044372.835        3339.844          34.000  
  22248671.634   116917521.711        -720.024          38.000  
 23 11 05 16 22 45.9960000  0 11G24G12G22G19G17G13G23G15G25G32G10
  18915790.073    99403139.976        -570.741          45.000  
  19861618.934   104373516.725        2186.707          43.000  
  23517736.749                       -3350.154          17.000  
  20858001.151   109609538.635          70.741          41.000  
  22176544.212                       -1921.042          29.000  
  23109187.983   121439513.386       -3884.315          31.000  
  22517776.908   118331700.714       -2743.433          35.000  
  20952439.533   110105802.346       -3418.470          41.000  
  22457867.272   118016901.257        3584.264          37.000  
  23604228.450   124041032.805        3339.769          34.000  
  22248808.232   116918241.640        -719.755          38.000  
 23 11 05 16 22 46.9960000  0 11G24G12G22G19G17G13G23G15G25G32G10
  18915898.889    99403710.992        -571.258          45.000  
  19861202.683   104371330.138        2186.505          43.000  
  23518377.892                       -3356.651          19.000  
  20857988.181   109609468.270          69.824          42.000  
  22176911.406   116540455.8753      -1922.187          29.000  
  23109924.881   121443397.724       -3883.142          31.000  
  22518298.796   118334444.251       -2743.762          35.000  
  20953089.946   110109220.878       -3418.718          41.000  
  22457184.739   118013317.065        3584.349          36.000  
  23603592.758   124037692.785        3340.390          34.000  
  22248944.740   116918962.097        -720.629          38.000  
 23 11 05 16 22 47.9960000  0 11G24G12G22G19G17G13G23G15G25G32G10
  18916007.527    99404282.597        -571.921          45.000  
  19860786.960   104369144.131        2185.847          43.000  
  23519019.107                       -3348.883          19.000  
  20857975.089   109609398.615          69.677          42.000  
  22177278.153   116542378.5762      -1922.648          29.000  
  23110664.683   121447282.319       -3885.507          31.000  
  22518820.963   118337188.219       -2744.196          36.000  
  20953740.329   110112639.825       -3419.275          41.000  
  22456502.824   118009733.096        3584.229          36.000  
  23602957.263   124034353.042        3340.167          34.000  
  22249081.592   116919683.278        -721.239          38.000  
 23 11 05 16 22 48.9960000  0 11G24G12G22G19G17G13G23G15G25G32G10
  18916115.793    99404854.536        -572.533          44.000  
  19860371.106   104366958.482        2184.772          44.000  
  23519658.688                       -3346.440          18.000  
  20857961.796   109609329.560          68.472          42.000  
  22177643.993   116544301.6702      -1923.714          28.000  
  23111405.076   121451166.885       -3885.643          30.000  
  22519343.041   118339932.430       -2745.276          36.000  
  20954391.004   110116059.000       -3419.932          41.000  
  22455820.603   118006149.199        3583.529          36.000  
  23602321.573   124031013.368        3338.979          34.000  
  22249218.729   116920404.982        -722.501          38.000  
 23 11 05 16 22 49.9960000  0 11G24G12G22G19G17G13G23G15G25G32G10
  18916224.900    99405427.159        -572.619          44.000  
  19859955.208   104364773.484        2184.880          43.000  
  23520297.723                       -3356.449          18.000  
  20857949.084   109609261.390          68.060          42.000  
  22178014.090   116546225.3962      -1923.199          28.000  
  23112142.213   121455051.601       -3884.979          29.000  
  22519865.236   118342677.170       -2744.989          35.000  
  20955041.415   110119478.709       -3419.963          41.000  
  22455138.561   118002565.651        3583.393          36.000  
  23601686.296   124027674.085        3338.811          35.000  
  22249355.887   116921127.479        -722.627          38.000  
 23 11 05 16 22 50.9960000  0 11G24G12G22G19G17G13G23G15G25G32G10
  18916333.977    99405999.876        -572.650          45.000  
  19859539.701   104362588.580        2184.997          43.000  
  23520938.111                       -3359.072          18.000  
  20857936.040   109609193.528          67.574          42.000  
  22178379.504   116548149.3572      -1923.752          28.000  
  23112881.227   121458936.088       -3884.664          30.000  
  22520386.871   118345421.809       -2744.208          35.000  
  20955692.618   110122898.328       -3419.545          41.000  
  22454456.729   117998981.898        3583.859          37.000  
  23601050.800   124024334.540        3339.405          35.000  
  22249492.950   116921850.196        -722.545          38.000  
 23 11 05 16 22 51.9960000  0 11G24G12G22G19G17G13G23G15G25G32G10
  18916442.816    99406572.953        -573.274          44.000  
  19859124.351   104360404.029        2184.635          44.000  
  23521576.966                       -3356.514          18.000  
  20857923.238   109609126.196          67.276          42.000  
  22178744.848   116550073.6222      -1923.929          28.000  
  23113621.003   121462820.583       -3884.509          29.000  
  22520908.768   118348166.728       -2744.964          35.000  
  20956343.541   110126318.186       -3420.010          41.000  
  22453775.191   117995398.190        3583.981          37.000  
  23600415.414   124020995.051        3339.414          35.000  
  22249630.453   116922573.430        -723.055          38.000  
 23 11 05 16 22 52.9960000  0 11G24G12G22G19G17G13G23G15G25G32G10
  18916551.880    99407146.423        -573.854          44.000  
  19858708.822   104358219.897        2183.590          44.000  
  23522215.620                       -3354.302          17.000  
  20857910.597   109609059.509          66.094          42.000  
  22179105.322   116551998.3772      -1924.690          28.000  
  23114363.534   121466705.027       -3885.126          28.000  
  22521430.833   118350911.869       -2745.386          35.000  
  20956994.090   110129738.296       -3420.416          41.000  
  22453093.300   117991814.581        3583.504          37.000  
  23599779.774   124017655.671        3338.685          35.000  
  22249768.216   116923297.212        -724.259          38.000  
 23 11 05 16 22 53.9960000  0 11G24G12G22G19G17G13G23G15G25G32G10
  18916661.387    99407720.388        -573.850          45.000  
  19858293.439   104356036.247        2183.660          44.000  
  23522857.173                       -3350.847          17.000  
  20857897.741   109608993.495          66.009          42.000  
  22179474.025   116553923.6522      -1925.075          29.000  
  23115103.456   121470589.720       -3884.930          30.000  
  22521952.666   118353657.390       -2745.087          34.000  
  20957644.763   110133158.769       -3420.325          41.000  
  22452411.675   117988231.156        3583.784          37.000  
  23599144.593   124014316.419        3339.149          35.000  
  22249906.178   116924021.622        -724.723          37.000  
 23 11 05 16 22 54.9960000  0 11G24G12G22G19G17G13G23G15G25G32G10
  18916770.608    99408294.863        -574.706          45.000  
  19857877.840   104353853.087        2183.045          44.000  
  23523498.106                       -3363.161          18.000  
  20857885.240   109608928.203          64.886          42.000  
  22179841.296   116555849.4492      -1926.037          29.000  
  23115836.402   121474474.467       -3885.453          31.000  
  22522474.428   118356403.283       -2745.654          34.000  
  20958295.928   110136579.622       -3421.082          41.000  
  22451730.196   117984647.941        3583.382          37.000  
  23598508.877   124010977.430        3338.382          34.000  
  22250044.087   116924746.684        -725.416          37.000  
 23 11 05 16 22 55.9960000  0 11G24G12G22G19G17G13G23G15G25G32G10
  18916880.241    99408869.944        -575.135          45.000  
  19857462.774   104351670.559        2182.571          44.000  
  23524139.832                       -3356.898          17.000  
  20857873.169   109608863.734          64.564          42.000  
  22180207.410   116557775.8882      -1926.750          28.000  
  23116577.009   121478359.363       -3884.128          31.000  
  22522996.665   118359149.686       -2746.655          35.000  
  20958946.931   110140000.921       -3421.390          41.000  
  22451048.475   117981065.027        3583.204          38.000  
  23597873.434   124007638.691        3339.148          34.000  
  22250182.142   116925472.472        -725.911          37.000  
 23 11 05 16 22 56.9960000  0 11G24G12G22G19G17G13G23G15G25G32G10
  18916989.612    99409445.190        -575.118          44.000  
  19857047.406   104349488.179        2182.484          44.000  
  23524779.057                       -3353.683          16.000  
  20857861.104   109608799.663          64.047          42.000  
  22180572.774   116559702.5472      -1927.074          29.000  
  23117320.504   121482244.147       -3884.899          31.000  
  22523518.904   118361896.085       -2746.411          35.000  
  20959598.042   110143422.257       -3421.410          42.000  
  22450366.629   117977481.990        3583.663          37.000  
  23597237.904   124004299.827        3339.221          34.000  
  22250319.831   116926198.556        -726.005          37.000  
 23 11 05 16 22 57.9960000  0 11G24G12G22G19G17G13G23G15G25G32G10
  18917099.302    99410020.872        -575.757          44.000  
  19856632.534   104347306.237        2182.075          44.000  
  23525417.475                       -3358.099          17.000  
  20857849.297   109608736.230          63.055          42.000  
  22180938.491   116561629.6692      -1927.319          29.000  
  23118057.398   121486128.947       -3884.069          31.000  
  22524041.174   118364642.767       -2747.021          35.000  
  20960249.386   110146843.864       -3421.423          42.000  
  22449685.425   117973899.084        3583.059          37.000  
  23596602.607   124000961.101        3339.427          35.000  
  22250458.161   116926925.217        -726.534          37.000  
 23 11 05 16 22 58.9960000  0 11G24G12G22G19G17G13G23G15G25G32G10
  18917209.062    99410597.009        -576.240          44.000  
  19856217.666   104345124.768        2181.171          44.000  
  23526057.772                       -3358.099          16.000  
  20857837.296   109608673.439          62.519          42.000  
  22181309.505   116563557.2252      -1927.598          29.000  
  23118797.811   121490013.872       -3885.546          31.000  
  22524564.050   118367389.757       -2747.107          35.000  
  20960900.550   110150265.811       -3422.018          42.000  
  22449003.966   117970316.313        3582.262          38.000  
  23595967.404   123997622.536        3337.834          35.000  
  22250596.790   116927652.499        -727.732          38.000  
 23 11 05 16 22 59.9960000  0 11G24G12G22G19G17G13G23G15G25G32G10
  18917318.448    99411173.438        -576.782          44.000  
  19855802.652   104342943.553        2180.849          44.000  
  23526695.527                       -3358.099          15.000  
  20857825.362   109608611.147          61.934          42.000  
  22181678.706   116565485.1202      -1928.243          30.000  
  23119535.903   121493898.627       -3884.667          31.000  
  22525087.046   118370136.912       -2747.473          35.000  
  20961551.703   110153687.893       -3422.356          42.000  
  22448322.478   117966733.507        3582.530          37.000  
  23595332.039   123994283.883        3338.792          35.000  
  22250735.754   116928380.220        -728.385          38.000  
 23 11 05 16 23 00.9960000  0 11G24G12G22G19G17G13G23G15G25G32G10
  18917428.315    99411750.548        -577.413          44.000  
  19855387.690   104340763.037        2180.083          44.000  
  23527335.257                       -3358.099          12.000  
  20857813.753   109608549.735          61.293          42.000  
  22182044.506   116567413.7092      -1929.071          30.000  
  23120277.930   121497783.708       -3885.163          31.000  
  22525609.839   118372884.576       -2747.247          35.000  
  20962203.207   110157110.516       -3422.739          42.000  
  22447641.065   117963151.089        3582.651          38.000  
  23594696.862   123990945.674        3337.860          35.000  
  22250874.488   116929108.753        -728.926          38.000  
 23 11 05 16 23 01.9960000  0 10G24G12G19G17G13G23G15G25G32G10
  18917538.188    99412327.930        -577.435          44.000  
  19854972.802   104338582.790        2180.097          44.000  
  20857802.517   109608488.834          60.892          42.000  
  22182413.563   116569342.5782      -1928.769          30.000  
  23121017.695   121501668.654       -3884.065          31.000  
  22526132.637   118375632.444       -2747.955          35.000  
  20962854.464   110160533.266       -3422.785          42.000  
  22446958.898   117959568.676        3582.362          38.000  
  23594061.744   123987607.363        3338.502          35.000  
  22251013.553   116929837.735        -729.127          38.000  
 23 11 05 16 23 02.9960000  0 10G24G12G19G17G13G23G15G25G32G10
  18917648.059    99412905.661        -578.103          44.000  
  19854557.917   104336402.891        2179.328          44.000  
  20857790.839   109608428.490          59.961          42.000  
  22182779.374   116571271.8902      -1929.676          30.000  
  23121753.145   121505553.657       -3884.795          31.000  
  22526655.714   118378380.484       -2748.438          36.000  
  20963505.913   110163956.226       -3423.249          42.000  
  22446277.070   117955986.262        3582.379          37.000  
  23593426.510   123984269.155        3337.703          35.000  
  22251152.261   116930567.190        -729.714          38.000  
 23 11 05 16 23 03.9960000  0 10G24G12G19G17G13G23G15G25G32G10
  18917757.998    99413484.018        -578.604          44.000  
  19854143.293   104334223.582        2178.999          44.000  
  20857779.544   109608368.989          58.864          42.000  
  22183146.921   116573201.7922      -1929.440          30.000  
  23122490.318   121509438.807       -3885.193          31.000  
  22527178.677   118381128.988       -2748.621          36.000  
  20964157.500   110167379.657       -3423.762          42.000  
  22445595.293   117952404.176        3581.897          37.000  
  23592791.268   123980931.219        3337.472          35.000  
  22251291.568   116931297.421        -730.652          38.000  
 23 11 05 16 23 04.9960000  0 10G24G12G19G17G13G23G15G25G32G10
  18917868.242    99414062.744        -578.960          44.000  
  19853728.549   104332044.679        2178.531          43.000  
  20857767.990   109608310.035          58.628          42.000  
  22183514.270   116575132.1882      -1931.027          30.000  
  23123229.798   121513323.972       -3884.037          31.000  
  22527702.133   118383877.756       -2749.072          36.000  
  20964809.133   110170803.313       -3423.852          43.000  
  22444913.694   117948822.168        3581.958          37.000  
  23592155.851   123977593.338        3337.549          35.000  
  22251430.574   116932028.143        -731.126          38.000  
 23 11 05 16 23 05.9960000  0 10G24G12G19G17G13G23G15G25G32G10
  18917978.525    99414641.889        -579.252          44.000  
  19853313.932   104329866.184        2178.292          43.000  
  20857756.983   109608251.727          58.024          42.000  
  22183882.426   116577062.9342      -1930.779          30.000  
  23123969.515   121517209.262       -3885.132          32.000  
  22528225.132   118386626.800       -2749.274          36.000  
  20965460.977   110174227.255       -3424.136          42.000  
  22444231.757   117945240.244        3581.840          37.000  
  23591520.661   123974255.585        3337.704          35.000  
  22251570.176   116932759.426        -731.543          38.000  
 23 11 05 16 23 06.9960000  0 10G24G12G19G17G13G23G15G25G32G10
  18918088.856    99415221.649        -579.651          44.000  
  19852899.387   104327688.297        2178.140          44.000  
  20857745.948   109608194.246          57.504          42.000  
  22184252.253   116578994.398       -1931.411          31.000  
  23124712.091   121521094.711       -3885.112          32.000  
  22528748.233   118389376.337       -2749.451          36.000  
  20966112.945   110177651.648       -3424.036          42.000  
  22443550.044   117941658.690        3581.590          37.000  
  23590885.721   123970918.116        3338.170          35.000  
  22251709.278   116933491.469        -732.013          38.000  
 23 11 05 16 23 07.9960000  0 10G24G12G19G17G13G23G15G25G32G10
  18918199.063    99415801.697        -580.176          44.000  
  19852484.951   104325510.705        2177.584          44.000  
  20857734.965   109608137.260          56.673          42.000  
  22184613.243   116580926.150       -1931.996          31.000  
  23125449.808   121524980.123       -3886.081          31.000  
  22529271.285   118392125.991       -2749.762          36.000  
  20966764.497   110181076.214       -3424.537          42.000  
  22442868.423   117938077.059        3581.961          37.000  
  23590250.734   123967580.643        3337.423          35.000  
  22251848.714   116934223.957        -732.807          38.000  
 23 11 05 16 23 08.9960000  0 10G24G12G19G17G13G23G15G25G32G10
  18918309.385    99416382.133        -580.413          44.000  
  19852070.848   104323333.471        2177.388          44.000  
  20857724.251   109608080.853          56.451          42.000  
  22184982.547   116582858.275       -1932.177          31.000  
  23126190.426   121528865.476       -3884.745          32.000  
  22529794.495   118394875.878       -2749.957          36.000  
  20967416.108   110184500.997       -3424.984          42.000  
  22442186.986   117934495.531        3581.769          37.000  
  23589615.612   123964243.231        3337.561          35.000  
  22251987.976   116934956.954        -733.223          38.000  
 23 11 05 16 23 09.9960000  0 10G24G12G19G17G13G23G15G25G32G10
  18918419.830    99416962.979        -581.021          44.000  
  19851656.617   104321156.691        2176.502          44.000  
  20857713.595   109608025.098          55.315          42.000  
  22185352.317   116584790.936       -1933.021          31.000  
  23126931.809   121532750.895       -3885.484          32.000  
  22530317.915   118397626.103       -2750.647          36.000  
  20968067.725   110187926.043       -3425.244          42.000  
  22441505.280   117930914.112        3581.672          37.000  
  23588980.827   123960905.935        3337.473          35.000  
  22252127.894   116935690.520        -733.463          38.000  
 23 11 05 16 23 10.9960000  0 10G24G12G19G17G13G23G15G25G32G10
  18918530.445    99417544.341        -581.529          44.000  
  19851242.746   104318980.395        2176.021          44.000  
  20857703.302   109607970.042          54.860          42.000  
  22185717.816   116586724.062       -1933.123          31.000  
  23127668.505   121536636.365       -3885.223          31.000  
  22530841.406   118400376.656       -2750.696          35.000  
  20968719.713   110191351.484       -3425.453          42.000  
  22440823.736   117927332.926        3581.013          37.000  
  23588346.117   123957568.842        3336.888          36.000  
  22252267.713   116936424.775        -734.914          38.000  
 23 11 05 16 23 11.9960000  0 10G24G12G19G17G13G23G15G25G32G10
  18918641.247    99418126.211        -582.226          44.000  
  19850828.864   104316804.613        2175.646          44.000  
  20857692.865   109607915.733          53.842          42.000  
  22186090.064   116588657.790       -1934.076          31.000  
  23128408.983   121540521.999       -3884.880          32.000  
  22531364.690   118403127.603       -2751.306          36.000  
  20969371.802   110194777.300       -3425.687          43.000  
  22440142.545   117923751.907        3580.759          37.000  
  23587711.202   123954231.927        3336.786          35.000  
  22252407.546   116937159.629        -735.138          38.000  
 23 11 05 16 23 12.9960000  0 10G24G12G19G17G13G23G15G25G32G10
  18918752.405    99418708.558        -582.432          44.000  
  19850414.962   104314629.311        2175.380          44.000  
  20857682.837   109607862.101          53.106          42.000  
  22186456.929   116590591.951       -1934.040          31.000  
  23129148.423   121544407.799       -3886.165          31.000  
  22531888.713   118405878.825       -2751.215          36.000  
  20970023.775   110198203.446       -3426.037          43.000  
  22439461.000   117920171.037        3581.281          36.000  
  23587076.755   123950895.176        3336.612          36.000  
  22252547.687   116937895.099        -735.284          38.000  
 23 11 05 16 23 13.9960000  0 10G24G12G19G17G13G23G15G25G32G10
  18918863.694    99419291.311        -583.054          44.000  
  19850000.932   104312454.420        2174.464          44.000  
  20857672.747   109607809.068          52.836          42.000  
  22186825.669   116592526.613       -1935.390          32.000  
  23129887.592   121548293.517       -3884.570          31.000  
  22532412.562   118408630.365       -2751.574          36.000  
  20970675.807   110201629.846       -3426.523          42.000  
  22438779.434   117916590.318        3581.014          37.000  
  23586441.661   123947558.531        3336.847          36.000  
  22252687.707   116938631.142        -736.508          38.000  
 23 11 05 16 23 14.9960000  0 10G24G12G19G17G13G23G15G25G32G10
  18918974.729    99419874.562        -583.450          45.000  
  19849587.301   104310280.022        2174.087          44.000  
  20857662.765   109607756.773          51.836          42.000  
  22187193.810   116594461.787       -1935.423          32.000  
  23130626.679   121552179.444       -3885.535          30.000  
  22532936.516   118411382.292       -2752.368          36.000  
  20971327.513   110205056.615       -3426.895          42.000  
  22438098.590   117913009.813        3580.306          37.000  
  23585806.796   123944222.071        3337.141          36.000  
  22252828.025   116939367.815        -736.880          38.000  
 23 11 05 16 23 15.9960000  0 10G24G12G19G17G13G23G15G25G32G10
  18919085.831    99420458.122        -583.672          45.000  
  19849173.539   104308105.908        2174.017          44.000  
  20857653.054   109607704.962          51.571          42.000  
  22187562.300   116596397.317       -1937.492          32.000  
  23131362.797   121556065.288       -3885.836          30.000  
  22533460.581   118414134.353       -2752.374          36.000  
  20971979.538   110208483.539       -3426.947          42.000  
  22437417.316   117909429.265        3580.483          37.000  
  23585172.018   123940885.625        3336.611          36.000  
  22252968.305   116940104.921        -737.068          38.000  
 23 11 05 16 23 16.9960000  0 10G24G12G19G17G13G23G15G25G32G10
  18919197.292    99421042.015        -584.307          45.000  
  19848760.126   104305932.149        2173.270          44.000  
  20857643.430   109607653.707          50.723          42.000  
  22187930.543   116598333.121       -1936.719          32.000  
  23132102.989   121559951.017       -3885.711          30.000  
  22533984.389   118416886.601       -2752.948          36.000  
  20972631.664   110211910.660       -3427.817          42.000  
  22436735.893   117905848.743        3580.303          37.000  
  23584537.177   123937549.184        3336.369          36.000  
  22253108.563   116940842.506        -737.748          38.000  
 23 11 05 16 23 17.9960000  0 10G24G12G19G17G13G23G15G25G32G10
  18919308.511    99421626.637        -584.612          45.000  
  19848346.608   104303759.142        2172.993          44.000  
  20857633.514   109607603.424          50.114          42.000  
  22188298.998   116600269.765       -1936.644          32.000  
  23132840.008   121563837.095       -3885.160          30.000  
  22534508.277   118419639.457       -2753.033          36.000  
  20973284.115   110215338.356       -3427.526          42.000  
  22436054.316   117902268.702        3580.109          37.000  
  23583902.546   123934213.221        3335.787          36.000  
  22253249.279   116941581.009        -738.939          38.000  
 23 11 05 16 23 18.9960000  0 10G24G12G19G17G13G23G15G25G32G10
  18919419.828    99422211.475        -584.920          45.000  
  19847932.907   104301586.300        2173.002          44.000  
  20857624.021   109607553.515          49.736          42.000  
  22188667.631   116602206.614       -1936.788          32.000  
  23133581.352   121567723.062       -3886.384          30.000  
  22535032.239   118422392.374       -2752.734          37.000  
  20973936.129   110218766.104       -3427.447          42.000  
  22435372.667   117898688.488        3580.944          37.000  
  23583267.737   123930877.091        3336.418          36.000  
  22253390.127   116942319.816        -739.023          38.000  
 23 11 05 16 23 19.9960000  0 10G24G12G19G17G13G23G15G25G32G10
  18919531.250    99422796.694        -585.234          45.000  
  19847519.461   104299413.907        2172.160          44.000  
  20857614.550   109607504.224          49.133          42.000  
  22189036.154   116604143.920       -1938.328          32.000  
  23134323.017   121571609.017       -3886.178          31.000  
  22535556.363   118425145.545       -2752.777          37.000  
  20974588.276   110222194.122       -3428.144          42.000  
  22434691.672   117895108.427        3580.504          37.000  
  23582633.057   123927541.099        3335.843          36.000  
  22253530.592   116943059.152        -739.102          38.000  
 23 11 05 16 23 20.9960000  0 10G24G12G19G17G13G23G15G25G32G10
  18919642.615    99423382.340        -586.293          45.000  
  19847105.954   104297241.891        2171.613          44.000  
  20857605.201   109607455.558          47.981          42.000  
  22189405.069   116606081.602       -1938.516          33.000  
  23135061.831   121575494.951       -3886.087          30.000  
  22536080.225   118427898.990       -2753.882          37.000  
  20975240.611   110225622.386       -3428.357          42.000  
  22434010.383   117891528.455        3580.035          37.000  
  23581998.439   123924205.146        3335.940          36.000  
  22253671.350   116943799.082        -740.242          38.000  
 23 11 05 16 23 21.9960000  0 10G24G12G19G17G13G23G15G25G32G10
  18919754.183    99423968.393        -586.399          45.000  
  19846692.475   104295070.282        2171.449          44.000  
  20857596.280   109607407.523          47.303          42.000  
  22189773.838   116608019.756       -1938.556          32.000  
  23135800.103   121579380.935       -3885.704          31.000  
  22536604.790   118430652.704       -2753.998          37.000  
  20975893.081   110229050.925       -3428.778          42.000  
  22433328.963   117887948.626        3579.063          37.000  
  23581363.471   123920869.342        3335.607          36.000  
  22253812.184   116944539.566        -740.937          38.000  
 23 11 05 16 23 22.9960000  0 10G24G12G19G17G13G23G15G25G32G10
  18919865.722    99424554.986        -586.973          45.000  
  19846279.171   104292899.220        2170.909          43.000  
  20857587.476   109607360.214          46.888          43.000  
  22190142.550   116609958.485       -1939.041          33.000  
  23136539.744   121583267.130       -3886.482          31.000  
  22537128.992   118433406.844       -2754.663          37.000  
  20976545.558   110232479.855       -3429.115          42.000  
  22432647.676   117884368.980        3579.528          36.000  
  23580728.347   123917533.814        3335.043          36.000  
  22253953.370   116945280.707        -741.697          38.000  
 23 11 05 16 23 23.9960000  0 10G24G12G19G17G13G23G15G25G32G10
  18919977.543    99425142.156        -587.441          45.000  
  19845865.957   104290728.732        2170.223          43.000  
  20857578.648   109607313.694          46.072          42.000  
  22190511.607   116611897.811       -1939.243          33.000  
  23137279.537   121587153.440       -3885.999          31.000  
  22537653.155   118436161.366       -2754.840          37.000  
  20977198.310   110235909.209       -3429.363          42.000  
  22431966.622   117880789.620        3579.399          37.000  
  23580093.839   123914198.457        3335.313          36.000  
  22254094.760   116946022.569        -742.122          37.000  
 23 11 05 16 23 24.9960000  0 10G24G12G19G17G13G23G15G25G32G10
  18920089.451    99425729.576        -587.966          45.000  
  19845453.063   104288558.507        2169.802          43.000  
  20857569.592   109607267.658          45.302          42.000  
  22190880.831   116613837.474       -1941.023          33.000  
  23138019.459   121591039.705       -3886.855          31.000  
  22538177.438   118438916.022       -2755.078          37.000  
  20977851.096   110239338.686       -3429.921          42.000  
  22431285.218   117877210.243        3579.117          37.000  
  23579459.155   123910863.097        3334.878          37.000  
  22254235.845   116946764.845        -742.616          37.000  
 23 11 05 16 23 25.9960000  0 10G24G12G19G17G13G23G15G25G32G10
  18920201.347    99426317.566        -588.274          45.000  
  19845039.957   104286388.832        2169.451          43.000  
  20857560.487   109607222.376          44.925          42.000  
  22191249.853   116615777.629       -1940.269          33.000  
  23138759.071   121594926.154       -3886.683          31.000  
  22538701.730   118441671.074       -2755.322          36.000  
  20978503.887   110242768.550       -3430.202          42.000  
  22430603.907   117873631.119        3578.707          37.000  
  23578824.225   123907527.978        3335.062          36.000  
  22254376.871   116947507.826        -743.458          37.000  
