     2.11           OBSERVATION DATA    M: Mixed            RINEX VERSION / TYPE
RTKCONV demo5 b34f.1                    20231105 175218 UTC PGM / RUN BY / DATE 
format: u-blox UBX                                          COMMENT             
log: C:\Users\oo\Desktop\divers\verniquet\Reseau\verniquet\mCOMMENT             
                                                            MARKER NAME         
                                                            MARKER NUMBER       
                                                            OBSERVER / AGENCY   
                                                            REC # / TYPE / VERS 
                                                            ANT # / TYPE        
  4206584.5459   176964.0397  4775086.5435                  APPROX POSITION XYZ 
        0.0000        0.0000        0.0000                  ANTENNA: DELTA H/E/N
     1     1                                                WAVELENGTH FACT L1/2
     4    C1    L1    D1    S1                              # / TYPES OF OBSERV 
  2023    11    05    13    33   23.9950000     GPS         TIME OF FIRST OBS   
  2023    11    05    14    28   40.9960000     GPS         TIME OF LAST OBS    
                                                            END OF HEADER       
 23 11 05 13 33 23.9950000  0 12G05G07G13G14G20G22G30G15G18G08G24G23
  20382373.416   107110049.3341      -2897.521          48.000  
  23647768.617   124269862.4403      -3195.170          30.000  
  18515486.759    97299549.5571       -245.813          44.000  
  19803750.635   104069423.7511       -459.276          43.000  
  22490279.974   118187061.6371      -3961.852          41.000  
  19787621.503   103984692.6601        611.698          45.000  
  21144419.621   111114633.4201      -2825.460          42.000  
  19611279.299   103058042.0551       2120.802          42.000  
  23157753.662   121694843.6361      -1614.792          35.000  
  23831217.048                       -1520.835          18.000  
  21977055.546   115490223.6011       3191.630          41.000  
  22768740.837   119650493.9881       2938.287          41.000  
 23 11 05 13 33 24.9950000  0 12G05G07G13G14G20G22G30G15G18G08G24G23
  20382923.924   107112943.721       -2892.596          47.000  
  23648371.125   124273054.2892      -3190.181          29.000  
  18515533.029    97299792.401        -240.998          44.000  
  19803837.572   104069880.170        -454.722          43.000  
  22491033.614   118191020.278       -3956.623          41.000  
  19787504.266   103984077.986         616.515          44.000  
  21144956.460   111117455.944       -2820.788          42.000  
  19610875.178   103055918.108        2125.871          42.000  
  23158060.389   121696454.959       -1609.448          36.000  
  23831504.204                       -1521.941          17.000  
  21976447.133   115487028.811        3196.684          41.000  
  22768181.117   119647552.757        2943.203          41.000  
 23 11 05 13 33 25.9950000  0 12G05G07G13G14G20G22G30G15G18G08G24G23
  20383474.245   107115836.335       -2888.258          48.000  
  23648982.513   124276241.5393      -3185.252          30.000  
  18515578.737    97300033.468        -236.619          44.000  
  19803923.979   104070334.975        -450.492          43.000  
  22491786.691   118194976.765       -3951.802          41.000  
  19787387.020   103983461.702         620.601          44.000  
  21145492.888   111120276.415       -2816.110          41.000  
  19610470.941   103053792.347        2130.216          43.000  
  23158367.000   121698064.612       -1605.099          35.000  
  23831793.112                       -1520.613          18.000  
  21975838.494   115483831.945        3201.414          41.000  
  22767621.037   119644609.605        2947.654          41.000  
 23 11 05 13 33 26.9950000  0 12G05G07G13G14G20G22G30G15G18G08G24G23
  20384022.344   107118717.221       -2874.535          47.000  
  23649582.609                       -3171.276          29.000  
  18515622.542    97300262.776        -223.187          45.000  
  19804008.028   104070778.221        -437.242          43.000  
  22492537.002   118198921.129       -3937.885          41.000  
  19787267.604   103982833.843         633.918          45.000  
  21146027.029   111123084.863       -2802.336          41.000  
  19610064.567   103051654.755        2144.101          43.000  
  23158671.194   121699662.503       -1591.729          36.000  
  23832081.108                       -1515.451          18.000  
  21975227.738   115480623.067        3215.185          41.000  
  22767059.131   119641654.577        2961.443          42.000  
 23 11 05 13 33 27.9950000  0 12G05G07G13G14G20G22G30G15G18G08G24G23
  20384568.880   107121591.268       -2873.364          47.000  
  23650190.169   124282587.7773      -3170.332          32.000  
  18515665.048    97300485.219        -221.683          45.000  
  19804091.292   104071214.773        -435.770          43.000  
  22493286.031   118202858.249       -3936.144          41.000  
  19787147.158   103982199.259         635.505          45.000  
  21146559.699   111125886.186       -2800.485          41.000  
  19609656.385   103049510.291        2145.302          43.000  
  23158973.556   121701253.628       -1590.454          35.000  
  23832367.606                       -1515.451          16.000  
  21974615.955   115477407.060        3216.701          41.000  
  22766495.555   119638692.607        2962.722          42.000  
 23 11 05 13 33 28.9950000  0 12G05G07G13G14G20G22G30G15G18G08G24G23
  20385115.633   107124463.386       -2871.120          47.000  
  23650788.554   124285755.5172      -3167.051          31.000  
  18515706.968    97300705.740        -219.690          45.000  
  19804174.167   104071649.595        -433.928          43.000  
  22494034.887   118206793.075       -3933.738          41.000  
  19787026.394   103981562.911         637.424          45.000  
  21147092.249   111128685.315       -2798.120          41.000  
  19609248.364   103047363.808        2147.633          43.000  
  23159275.942   121702842.849       -1587.587          35.000  
  23832654.677                       -1501.730          15.000  
  21974003.893   115474188.835        3219.257          42.000  
  22765931.568   119635728.540        2964.935          42.000  
 23 11 05 13 43 47.9950000  0 13G05G20G13G14G07G22G30G15G18G08G24G23
                                G17
  20740950.506   108994427.0091      -3148.439          45.000  
  22961113.178   120661458.3221      -3972.590          35.000  
  18559923.988    97533057.0471       -513.092          46.000  
  19880177.602   104471036.3051       -831.997          43.000  
  24025923.622   126257091.0811      -3175.672          38.000  
  19736367.487   103715307.6781        244.108          46.000  
  21485312.269   112906078.8771      -2917.142          38.000  
  19373007.755   101805842.6121       1873.212          47.000  
  23365681.762   122787496.1041      -1898.987          39.000  
  24031274.022   126285220.7733      -1848.833          31.000  
  21603016.880   113524617.7371       3088.256          42.000  
  22430893.792   117875124.7391       2731.281          35.000  
  23416886.302   123056569.8651       2590.073          35.000  
 23 11 05 13 43 48.9950000  0 13G05G20G13G14G07G22G30G15G18G08G24G23
                                G17
  20741548.074   108997566.898       -3127.519          45.000  
  22961867.553                       -3949.121          35.000  
  18560020.055    97533561.768        -492.301          46.000  
  19880334.222   104471859.948        -811.239          43.000  
  24026525.645                       -3151.221          38.000  
  19736319.198   103715055.206         265.072          46.000  
  21485865.755   112908987.517       -2896.999          37.000  
  19372649.574   101803960.953        1893.835          47.000  
  23366041.644   122789386.798       -1878.580          39.000  
  24031626.324   126287059.8902      -1822.612          31.000  
  21602427.551   113521520.587        3109.730          42.000  
  22430372.207   117872385.127        2751.819          35.000  
  23416392.236                        2610.693          35.000  
 23 11 05 13 43 49.9950000  0 13G05G20G13G14G07G22G30G15G18G08G24G23
                                G17
  20742143.460   109000694.476       -3128.123          45.000  
  22962619.283   120669378.1353      -3951.944          34.000  
  18560113.844    97534054.252        -493.032          46.000  
  19880488.576   104472671.520        -812.383          43.000  
  24027125.695   126263397.4943      -3154.819          38.000  
  19736269.081   103714790.688         263.907          46.000  
  21486416.830   112911883.590       -2896.420          37.000  
  19372289.397   101802067.025        1893.298          47.000  
  23366399.184   122791265.237       -1879.265          39.000  
  24031971.110   126288859.7113      -1827.515          32.000  
  21601835.766   113518410.982        3109.305          42.000  
  22429848.388   117869633.174        2751.410          35.000  
  23415895.389   123051359.9003       2611.290          36.000  
 23 11 05 13 43 50.9950000  0 13G05G20G13G14G07G22G30G15G18G08G24G23
                                G17
  20742739.069   109003823.857       -3134.862          45.000  
  22963371.420   120673330.8162      -3957.329          34.000  
  18560207.770    97534548.590        -499.751          46.000  
  19880643.301   104473485.110        -819.467          44.000  
  24027726.216   126266552.9722      -3161.528          38.000  
  19736218.903   103714528.173         256.753          46.000  
  21486967.705   112914781.230       -2903.267          37.000  
  19371929.567   101800174.942        1886.835          47.000  
  23366757.033   122793145.533       -1886.256          39.000  
  24032320.470   126290688.7642      -1834.724          32.000  
  21601244.415   113515302.955        3102.530          42.000  
  22429325.275   117866882.968        2745.227          35.000  
  23415399.011   123048749.6342       2604.889          36.000  
 23 11 05 13 43 51.9950000  0 13G05G20G13G14G07G22G30G15G18G08G24G23
                                G17
  20743335.319   109006957.743       -3134.012          45.000  
  22964124.133   120677287.6392      -3956.244          34.000  
  18560302.673    97535047.482        -499.288          46.000  
  19880799.275   104474303.372        -818.839          44.000  
  24028327.206   126269712.4892      -3159.369          39.000  
  19736169.968   103714270.351         257.360          46.000  
  21487519.839   112917683.097       -2901.649          36.000  
  19371570.323   101798287.404        1887.213          47.000  
  23367115.391   122795030.337       -1885.308          39.000  
  24032672.099   126292522.4602      -1834.473          32.000  
  21600653.647   113512199.222        3103.529          42.000  
  22428802.874   117864137.326        2745.032          35.000  
  23414903.155   123046143.5892       2605.667          36.000  
 23 11 05 13 43 52.9950000  0 13G05G20G13G14G07G22G30G15G18G08G24G23
                                G17
  20743931.771   109010091.986       -3133.293          45.000  
  22964876.841   120681244.4862      -3955.536          34.000  
  18560397.678    97535546.798        -498.604          46.000  
  19880955.234   104475122.224        -818.234          43.000  
  24028928.381   126272871.9912      -3158.352          38.000  
  19736121.049   103714013.144         257.902          46.000  
  21488071.798   112920585.166       -2900.914          36.000  
  19371211.337   101796400.300        1887.781          47.000  
  23367474.185   122796915.609       -1884.833          39.000  
  24033022.119   126294356.6612      -1832.965          32.000  
  21600063.265   113509095.664        3104.469          42.000  
  22428280.635   117861392.012        2745.752          36.000  
  23414407.470   123043537.5752       2606.917          37.000  
 23 11 05 13 43 53.9950000  0 13G05G20G13G14G07G22G30G15G18G08G24G23
                                G17
  20744527.755                       -3140.332          45.000  
  22965629.452                       -3962.451          35.000  
  18560492.743                        -504.736          46.000  
  19881111.075                        -825.146          43.000  
  24029529.136                       -3164.209          38.000  
  19736072.079                         251.904          46.000  
  21488623.805                       -2909.619          35.000  
  19370852.116                        1881.299          47.000  
  23367832.833                       -1889.648          39.000  
  24033372.040                       -1838.829          32.000  
  21599472.788                        3097.363          42.000  
  22427758.372                        2739.014          36.000  
  23413911.457                        2602.246          37.000  
 23 11 05 13 43 54.9950000  0 13G05G20G13G14G07G22G30G15G18G08G24G23
                                G17
  20745124.533   109016364.7703      -3137.411          45.000  
  22966383.155   120689157.2203      -3959.674          35.000  
  18560588.416    97536550.3803       -502.789          46.000  
  19881267.861   104476766.8743       -822.782          43.000  
  24030131.000   126279190.5473      -3161.893          38.000  
  19736024.139   103713506.1323        253.093          46.000  
  21489176.774   112926385.2743      -2905.154          34.000  
  19370493.750   101792630.9753       1883.606          47.000  
  23368192.549   122800680.0183      -1888.602          39.000  
  24033719.685   126298048.7343      -1838.771          31.000  
  21598883.058   113502895.7453       3100.692          42.000  
  22427236.826   117855924.1053       2741.870          37.000  
  23413416.329   123038332.4873       2603.524          36.000  
 23 11 05 13 43 55.9950000  0 13G05G20G13G14G07G22G30G15G18G08G24G23
                                G17
  20745721.424   109019502.9622      -3139.723          46.000  
  22967137.020   120693116.7902      -3961.417          35.000  
  18560684.361    97537053.7822       -504.668          46.000  
  19881424.244   104477590.3162       -825.297          43.000  
  24030732.633   126282352.6992      -3162.992          38.000  
  19735976.105   103713253.5082        250.663          46.000  
  21489729.903   112929290.4672      -2906.308          35.000  
  19370135.654   101790747.8922       1882.062          47.000  
  23368552.039   122802569.3692      -1890.712          39.000  
  24034073.624   126299887.1572      -1839.082          30.000  
  21598293.088   113499795.5492       3099.050          42.000  
  22426715.433   117853182.6452       2740.302          38.000  
  23412921.030   123035729.5482       2601.650          35.000  
 23 11 05 13 43 56.9950000  0 13G05G20G13G14G07G22G30G15G18G08G24G23
                                G17
  20746317.539   109022634.2283      -3137.208          46.000  
  22967889.953   120697075.5343      -3957.390          35.000  
  18560779.554    97537554.8593       -502.511          46.000  
  19881580.211   104478409.0153       -822.531          43.000  
  24031333.338   126285508.5763      -3160.582          38.000  
  19735927.554   103712999.1513        253.351          46.000  
  21490281.993   112932193.5113      -2903.054          35.000  
  19369776.509   101788861.9973       1884.106          47.000  
  23368911.121   122804455.8293      -1888.272          40.000  
  24034419.393   126301725.8413      -1837.462          30.000  
  21597702.335   113496691.2443       3101.590          42.000  
  22426193.325   117850441.3273       2742.755          38.000  
  23412425.084   123033123.3493       2605.179          35.000  
 23 11 05 13 43 57.9950000  0 13G05G20G13G14G07G22G30G15G18G08G24G23
                                G17
  20746915.536   109025776.8682      -3146.235          45.000  
  22968644.503   120701040.7752      -3966.587          35.000  
  18560876.516    97538063.8572       -511.407          46.000  
  19881737.791   104479236.3582       -832.014          43.000  
  24031935.756   126288674.4152      -3169.311          38.000  
  19735880.567   103712751.4322        244.160          46.000  
  21490836.554   112935107.7952      -2912.970          37.000  
  19369419.534   101786986.5012       1874.976          47.000  
  23369272.196   122806353.7822      -1897.568          40.000  
  24034780.183   126303622.0302      -1846.499          31.000  
  21597113.438   113493597.1022       3092.744          42.000  
  22425672.966   117847706.3222       2733.441          37.000  
  23411930.545   123030525.3392       2595.988          36.000  
 23 11 05 13 43 58.9950000  0 13G05G20G13G14G07G22G30G15G18G08G24G23
                                G17
  20747514.746   109028924.2642      -3146.510          46.000  
  22969399.927   120705008.4012      -3966.807          35.000  
  18560974.148    97538576.7042       -512.151          46.000  
  19881896.191   104480069.6662       -832.545          43.000  
  24032538.796   126291844.5802      -3168.952          37.000  
  19735834.307   103712508.6932        243.408          46.000  
  21491391.901   112938021.4922      -2912.382          36.000  
  19369062.923   101785112.8262       1874.548          47.000  
  23369633.462   122808252.4992      -1897.410          40.000  
  24035129.216   126305470.1212      -1846.887          32.000  
  21596525.163   113490505.5602       3092.381          42.000  
  22425153.571   117844974.1082       2732.916          37.000  
  23411436.769   123027930.8202       2595.293          36.000  
 23 11 05 13 43 59.9950000  0 13G05G20G13G14G07G22G30G15G18G08G24G23
                                G17
  20748114.528   109032075.1852      -3153.300          45.000  
  22970155.537   120708979.1802      -3973.198          35.000  
  18561072.201    97539093.1202       -519.086          46.000  
  19882055.263   104480906.7232       -839.541          43.000  
  24033142.596   126295017.9112      -3175.976          37.000  
  19735788.751   103712269.7062        236.152          46.000  
  21491947.441   112940938.5062      -2919.456          37.000  
  19368707.310   101783242.7262       1867.609          47.000  
  23369995.737   122810154.8542      -1905.124          40.000  
  24035482.548   126307321.9432      -1855.245          32.000  
  21595937.176   113487417.3182       3085.996          42.000  
  22424634.416   117842245.4192       2726.001          37.000  
  23410943.792   123025339.4752       2589.394          36.000  
 23 11 05 13 44 00.9950000  0 13G05G20G13G14G07G22G30G15G18G08G24G23
                                G17
  20748712.675   109035217.9972      -3137.135          46.000  
  22970909.432   120712941.4382      -3955.819          35.000  
  18561168.995    97539601.5072       -502.908          46.000  
  19882212.908   104481735.9152       -823.566          43.000  
  24033744.519   126298182.7252      -3158.966          38.000  
  19735741.978   103712022.8292        252.542          46.000  
  21492501.154   112943847.1802      -2903.347          36.000  
  19368349.809   101781364.5952       1883.917          47.000  
  23370356.546   122812049.1532      -1888.772          40.000  
  24035836.720   126309165.6842      -1837.668          32.000  
  21595348.246   113484320.8432       3102.129          42.000  
  22424113.597   117839508.6242       2742.560          37.000  
  23410448.960   123022739.7252       2605.745          35.000  
 23 11 05 13 44 01.9950000  0 13G05G20G13G14G07G22G30G15G18G08G24G23
                                G17
  20749310.088   109038356.2972      -3134.191          46.000  
  22971662.716   120716901.3903      -3952.659          35.000  
  18561265.011    97540105.4503       -499.835          46.000  
  19882369.465   104482555.8233       -821.184          43.000  
  24034345.753   126301339.0943      -3155.629          38.000  
  19735694.541   103711771.6712        255.058          47.000  
  21493053.613   112946751.1252      -2899.717          38.000  
  19367991.722   101779482.0082       1886.841          47.000  
  23370716.398   122813942.9853      -1886.035          40.000  
  24036186.849   126311014.1413      -1835.841          33.000  
  21594758.211   113481220.1563       3105.379          42.000  
  22423592.077   117836771.3133       2745.520          37.000  
  23409953.442   123020134.7333       2608.541          34.000  
 23 11 05 13 44 02.9950000  0 13G05G20G13G14G07G22G30G15G18G08G24G23
                                G17
  20749907.252   109041494.3892      -3137.619          46.000  
  22972415.833   120720858.2122      -3956.133          36.000  
  18561360.980    97540609.2462       -503.346          46.000  
  19882526.779   104483380.6992       -824.539          43.000  
  24034946.889   126304498.3552      -3158.658          38.000  
  19735646.658   103711520.5062        251.566          46.000  
  21493606.202   112949654.5892      -2903.113          36.000  
  19367633.428   101777599.2592       1883.197          47.000  
  23371076.145   122815832.6562      -1889.011          40.000  
  24036535.422   126312853.4132      -1838.279          33.000  
  21594167.822   113478118.5202       3102.039          42.000  
  22423070.488   117834029.7892       2741.913          38.000  
  23409457.991   123017529.6972       2606.179          36.000  
 23 11 05 13 44 03.9950000  0 13G05G20G13G14G07G22G30G15G18G08G24G23
                                G17
  20750504.475   109044631.5522      -3135.806          46.000  
  22973168.847   120724813.7252      -3954.086          37.000  
  18561456.791    97541112.2342       -502.580          46.000  
  19882683.733   104484204.9322       -824.141          42.000  
  24035547.774   126307656.3282      -3156.688          38.000  
  19735599.008   103711268.7032        252.150          46.000  
  21494158.785   112952557.0602      -2901.563          36.000  
  19367274.874   101775715.6502       1884.558          47.000  
  23371435.849   122817721.5312      -1887.910          40.000  
  24036886.304   126314692.0012      -1837.332          32.000  
  21593577.213   113475015.7982       3104.381          42.000  
  22422548.755   117831287.3652       2743.335          38.000  
  23408962.198   123014923.5372       2607.991          35.000  
 23 11 05 13 44 04.9950000  0 13G05G20G13G14G07G22G30G15G18G08G24G23
                                G17
  20751101.499   109047767.2412      -3134.854          45.000  
  22973921.407   120728767.3482      -3952.815          38.000  
  18561552.359    97541613.7482       -501.007          46.000  
  19882840.610   104485027.8712       -822.133          44.000  
  24036148.448   126310812.3582      -3155.240          38.000  
  19735550.760   103711015.5822        253.743          46.000  
  21494710.441   112955457.6472      -2899.749          38.000  
  19366916.174   101773830.6212       1885.840          46.000  
  23371795.260   122819608.9262      -1886.904          40.000  
  24037235.518   126316529.2402      -1836.685          33.000  
  21592986.405   113471911.4632       3105.084          41.000  
  22422026.363   117828543.4232       2744.751          38.000  
  23408465.806   123012315.5462       2608.771          35.000  
 23 11 05 13 44 05.9950000  0 13G05G20G13G14G07G22G30G15G18G08G24G23
                                G17
  20751698.218   109050901.2692      -3135.304          45.000  
  22974673.354   120732718.8942      -3951.588          36.000  
  18561647.633    97542113.6412       -500.981          47.000  
  19882997.027   104485849.3412       -822.618          44.000  
  24036748.598   126313966.2882      -3154.774          38.000  
  19735502.421   103710761.0292        253.504          46.000  
  21495261.805   112958356.3132      -2899.534          37.000  
  19366557.214   101771943.9032       1885.785          46.000  
  23372154.508   122821494.7372      -1887.306          41.000  
  24037584.503   126318364.7712      -1835.939          32.000  
  21592395.270   113468805.1882       3105.217          42.000  
  22421503.845   117825797.8032       2744.604          39.000  
  23407969.300   123009705.6412       2608.861          35.000  
 23 11 05 13 44 06.9950000  0 13G05G20G13G14G07G22G30G15G18G08G24G23
                                G17
  20752294.932   109054037.306       -3134.503          45.000  
  22975425.792   120736672.0782      -3951.219          36.000  
  18561743.125    97542615.6322       -500.508          47.000  
  19883153.702   104486673.0022       -822.134          44.000  
  24037349.230   126317121.8302      -3153.500          38.000  
  19735454.455   103710508.2241        253.891          46.000  
  21495813.572   112961256.2621      -2898.679          35.000  
  19366198.411   101770058.7911       1886.194          46.000  
  23372513.978   122823382.5832      -1886.344          41.000  
  24037927.762   126320202.5192      -1836.066          32.000  
  21591804.596   113465700.7762       3105.825          42.000  
  22420982.105   117823054.1802       2745.282          38.000  
  23407472.889   123007097.3212       2610.124          33.000  
 23 11 05 13 44 07.9950000  0 13G05G20G13G14G07G22G30G15G18G08G24G23
                                G17
  20752892.203   109057174.611       -3135.676          46.000  
  22976177.940   120740626.1852      -3952.485          36.000  
  18561839.223    97543118.9532       -501.629          47.000  
  19883310.979   104487498.2392       -824.185          44.000  
  24037949.694   126320278.2342      -3154.238          38.000  
  19735406.896   103710257.436         251.619          46.000  
  21496365.509   112964157.746       -2899.576          34.000  
  19365839.923   101768175.471        1885.431          47.000  
  23372873.631   122825271.8132      -1888.143          41.000  
  24038280.341   126322041.6952      -1837.677          32.000  
  21591213.973   113462597.4282       3105.307          42.000  
  22420460.621   117820311.8222       2744.379          38.000  
  23406976.561   123004490.1152       2608.448          33.000  
 23 11 05 13 44 08.9950000  0 13G05G20G13G14G07G22G30G15G18G08G24G23
                                G17
  20753489.182   109060312.145       -3139.056          45.000  
  22976930.503   120744580.1742      -3955.344          35.000  
  18561935.114    97543622.5872       -505.292          46.000  
  19883468.135   104488323.9272       -827.429          43.000  
  24038550.396   126323434.5092      -3157.496          38.000  
  19735359.414   103710007.052         248.823          46.000  
  21496917.300   112967059.335       -2901.985          37.000  
  19365481.554   101766292.499        1881.641          46.000  
  23373233.217   122827161.2932      -1890.922          41.000  
  24038639.820   126323881.2012      -1840.708          32.000  
  21590623.713   113459494.1502       3101.652          42.000  
  22419938.682   117817569.7462       2740.686          40.000  
  23406480.469   123001882.8192       2606.737          33.000  
 23 11 05 13 44 09.9950000  0 13G05G20G13G14G07G22G30G15G18G08G24G23
                                G17
  20754085.589   109063446.832       -3135.011          45.000  
  22977682.099   120748530.8282      -3950.774          35.000  
  18562030.288    97544123.4162       -501.176          46.000  
  19883624.904   104489146.9352       -823.538          45.000  
  24039150.481   126326587.4682      -3152.926          38.000  
  19735311.457   103709754.091         252.610          46.000  
  21497468.889   112969957.736       -2898.684          36.000  
  19365122.826   101764406.705        1885.406          46.000  
  23373592.582   122829048.0062      -1887.482          42.000  
  24038982.961   126325718.0082      -1837.238          32.000  
  21590032.430   113456387.8052       3106.227          42.000  
  22419416.240   117814824.7502       2744.543          38.000  
  23405983.415   122999272.3932       2610.375          32.000  
 23 11 05 13 44 10.9950000  0 13G05G20G13G14G07G22G30G15G18G08G24G23
                                G17
  20754681.921   109066581.403       -3135.602          46.000  
  22978433.580   120752481.0982      -3951.025          37.000  
  18562125.459    97544624.2182       -501.629          46.000  
  19883781.738   104489970.1002       -824.380          44.000  
  24039750.334   126329739.9492      -3152.949          37.000  
  19735263.549   103709501.230         251.941          47.000  
  21498020.220   112972855.799       -2898.619          36.000  
  19364763.646   101762520.866        1884.894          46.000  
  23373951.629   122830934.6432      -1887.550          41.000  
  24039330.521   126327554.8722      -1837.769          33.000  
  21589441.369   113453281.1792       3105.958          42.000  
  22418893.499   117812079.6982       2743.781          39.000  
  23405486.947   122996661.6272       2608.863          33.000  
 23 11 05 13 44 11.9950000  0 13G05G20G13G14G07G22G30G15G18G08G24G23
                                G17
  20755278.961   109069716.846       -3135.485          46.000  
  22979184.866   120756431.7552      -3950.677          35.000  
  18562221.010    97545125.9332       -502.288          46.000  
  19883938.425   104490794.3002       -824.397          43.000  
  24040350.369   126332892.8622      -3152.409          38.000  
  19735215.472   103709249.452         251.586          47.000  
  21498571.930   112975754.519       -2899.234          36.000  
  19364405.329   101760635.936        1884.528          46.000  
  23374310.945   122832822.2082      -1887.617          41.000  
  24039676.974   126329392.7912      -1839.619          32.000  
  21588850.529   113450175.2112       3106.014          42.000  
  22418370.977   117809335.4542       2745.020          38.000  
  23404990.576   122994051.3132       2610.804          34.000  
 23 11 05 13 44 12.9950000  0 13G05G20G13G14G07G22G30G15G18G08G24G23
                                G17
  20755875.887   109072853.086       -3136.718          46.000  
  22979936.765   120760382.4011      -3951.866          37.000  
  18562316.851    97545628.492        -503.035          46.000  
  19884095.032   104491619.521        -825.801          42.000  
  24040950.395   126336045.6561      -3153.807          38.000  
  19735167.763   103708998.689         250.026          46.000  
  21499123.723   112978653.739       -2899.677          38.000  
  19364047.098   101758751.839        1883.716          46.000  
  23374670.127   122834710.1401      -1889.078          41.000  
  24040024.983   126331231.454       -1837.919          30.000  
  21588259.519   113447069.890        3104.732          43.000  
  22417848.761   117806591.5661       2743.072          38.000  
  23404494.383   122991441.276        2612.557          31.000  
 23 11 05 13 44 13.9950000  0 13G05G20G13G14G07G22G30G15G18G08G24G23
                                G17
  20756472.556   109075989.740       -3136.869          45.000  
  22980688.809   120764333.536       -3950.653          37.000  
  18562412.600    97546131.559        -503.304          46.000  
  19884252.213   104492445.407        -826.254          42.000  
  24041550.488   126339198.949       -3153.116          38.000  
  19735120.102   103708748.598         249.692          47.000  
  21499675.451   112981553.204       -2899.551          38.000  
  19363688.738   101756868.236        1883.398          46.000  
  23375029.599   122836599.053       -1889.303          41.000  
  24040374.086   126333070.823       -1838.836          30.000  
  21587668.635   113443964.784        3105.043          43.000  
  22417326.804   117803848.551        2742.590          38.000  
  23404003.969   122988831.920        2609.800          34.000  
 23 11 05 13 44 14.9950000  0 13G05G20G13G14G07G22G30G15G18G08G24G23
                                G17
  20757069.393   109079126.923       -3137.760          46.000  
  22981441.199   120768284.825       -3951.487          37.000  
  18562508.456    97546635.201        -504.091          46.000  
  19884409.387   104493272.011        -827.172          42.000  
  24042150.946   126342352.354       -3153.432          38.000  
  19735072.860   103708499.212         248.861          47.000  
  21500227.509   112984452.895       -2899.623          39.000  
  19363330.701   101754985.183        1882.544          47.000  
  23375388.890   122838488.532       -1890.140          41.000  
  24040719.742   126334910.828       -1840.716          30.000  
  21587077.687   113440859.976        3104.421          42.000  
  22416805.014   117801106.083        2741.711          39.000  
  23403506.577   122986222.440        2609.592          35.000  
 23 11 05 13 44 15.9950000  0 13G05G20G13G14G07G22G30G15G18G08G24G23
                                G17
  20757666.321   109082264.592       -3137.265          46.000  
  22982193.294   120772236.232       -3951.423          37.000  
  18562604.319    97547139.410        -504.241          46.000  
  19884566.631   104494099.369        -827.686          42.000  
  24042751.290   126345505.902       -3153.073          38.000  
  19735025.371   103708250.563         248.794          47.000  
  21500779.743   112987352.902       -2899.501          38.000  
  19362972.062   101753102.701        1882.574          46.000  
  23375748.655   122840378.549       -1889.725          41.000  
  24041066.090   126336751.333       -1839.906          29.000  
  21586486.891   113437755.479        3104.904          42.000  
  22416283.353   117798364.095        2741.760          38.000  
  23403006.320   122983613.475        2607.885          34.000  
 23 11 05 13 44 16.9950000  0 13G05G20G13G14G07G22G30G15G18G08G24G23
                                G17
  20758263.330   109085402.836       -3138.390          45.000  
  22982945.360   120776187.757       -3951.500          37.000  
  18562700.119    97547644.206        -504.902          46.000  
  19884724.294   104494927.424        -828.229          42.000  
  24043351.547   126348659.497       -3153.661          39.000  
  19734978.260   103708002.694         247.731          47.000  
  21501331.972   112990253.155       -2900.264          39.000  
  19362613.347   101751220.795        1881.708          46.000  
  23376108.913   122842269.214       -1891.030          41.000  
  24041429.222   126338592.532       -1841.572          31.000  
  21585896.153   113434651.372        3104.515          41.000  
  22415762.027   117795622.605        2741.498          38.000  
  23402507.482   122981004.587        2608.067          36.000  
 23 11 05 13 44 17.9950000  0 13G05G20G13G14G07G22G30G15G18G08G24G23
                                G17
  20758860.771   109088541.556       -3138.603          45.000  
  22983697.399   120780139.435       -3951.525          38.000  
  18562796.256    97548149.611        -505.627          46.000  
  19884882.039   104495756.266        -829.126          43.000  
  24043951.592   126351813.234       -3153.466          39.000  
  19734931.160   103707755.572         246.757          47.000  
  21501884.239   112993153.743       -2900.565          39.000  
  19362254.952   101749339.487        1881.006          46.000  
  23376469.070   122844160.435       -1891.680          41.000  
  24041773.515   126340434.445       -1842.027          31.000  
  21585305.639   113431547.585        3103.888          42.000  
  22415240.353   117792881.703        2740.967          39.000  
  23402011.527   122978395.910        2608.841          36.000  
 23 11 05 13 44 18.9950000  0 13G05G20G13G14G07G22G30G15G18G08G24G23
                                G17
  20759458.310   109091680.862       -3139.491          45.000  
  22984449.512   120784091.305       -3952.157          38.000  
  18562892.527    97548655.629        -506.434          46.000  
  19885039.937   104496585.904        -830.327          43.000  
  24044551.600   126354967.202       -3153.802          36.000  
  19734884.515   103707509.226         245.843          47.000  
  21502436.593   112996054.581       -2901.007          39.000  
  19361897.173   101747458.777        1880.414          46.000  
  23376829.321   122846052.250       -1891.673          41.000  
  24042125.750   126342276.986       -1842.979          31.000  
  21584715.083   113428444.188        3103.153          42.000  
  22414719.030   117790141.343        2740.033          38.000  
  23401513.904   122975787.524        2608.040          34.000  
 23 11 05 13 44 19.9950000  0 13G05G20G13G14G07G22G30G15G18G08G24G23
                                G17
  20760055.890   109094820.513       -3139.647          45.000  
  22985201.666   120788043.115       -3951.312          37.000  
  18562989.079    97549162.068        -506.619          47.000  
  19885197.903   104497416.086        -830.369          43.000  
  24045151.404   126358121.036       -3154.048          36.000  
  19734837.856   103707263.455         245.659          47.000  
  21502988.816   112998955.588       -2900.999          36.000  
  19361538.882   101745578.480        1880.200          46.000  
  23377189.491   122847944.518       -1892.289          41.000  
  24042478.344   126344120.057       -1843.102          31.000  
  21584124.598   113425340.922        3103.356          42.000  
  22414197.827   117787401.331        2739.764          39.000  
  23401019.164   122973179.205        2608.252          37.000  
 23 11 05 13 44 20.9950000  0 13G05G20G13G14G07G22G30G15G18G08G24G23
                                G17
  20760653.257   109097960.609       -3139.966          46.000  
  22985953.707   120791995.038       -3951.578          37.000  
  18563085.625    97549669.043        -506.951          47.000  
  19885356.212   104498246.950        -830.924          43.000  
  24045751.765   126361274.952       -3153.388          36.000  
  19734791.028   103707018.377         245.127          47.000  
  21503540.845   113001856.803       -2900.469          37.000  
  19361180.935   101743698.698        1879.913          46.000  
  23377549.581   122849837.278       -1892.421          41.000  
  24042828.215   126345963.689       -1843.376          32.000  
  21583534.154   113422237.983        3102.700          42.000  
  22413676.881   117784661.772        2739.502          38.000  
  23400522.653   122970570.987        2608.995          34.000  
 23 11 05 13 44 21.9950000  0 13G05G20G13G14G07G22G30G15G18G08G24G23
                                G17
  20761250.866   109101101.192       -3140.940          46.000  
  22986705.618   120795947.023       -3952.245          37.000  
  18563182.469    97550176.541        -507.816          46.000  
  19885514.295   104499078.495        -831.998          42.000  
  24046351.992   126364428.873       -3154.558          36.000  
  19734744.259   103706773.979         243.831          47.000  
  21504092.996   113004758.262       -2901.801          38.000  
  19360823.236   101741819.446        1879.071          46.000  
  23377909.690   122851730.593       -1894.053          41.000  
  24043182.103   126347807.945       -1844.969          31.000  
  21582943.670   113419135.260        3102.776          42.000  
  22413155.724   117781922.679        2738.794          38.000  
  23400026.305   122967963.045        2608.105          35.000  
 23 11 05 13 44 22.9950000  0 13G05G20G13G14G07G22G30G15G18G08G24G23
                                G17
  20761848.676   109104242.002       -3141.374          46.000  
  22987457.643   120799898.822       -3951.980          37.000  
  18563279.028    97550684.332        -508.210          47.000  
  19885672.704   104499910.481        -832.333          43.000  
  24046952.558   126367582.629       -3154.030          36.000  
  19734697.859   103706530.032         243.379          47.000  
  21504645.014   113007659.705       -2901.664          38.000  
  19360465.949   101739940.461        1878.522          46.000  
  23378269.830   122853624.157       -1894.219          41.000  
  24043529.436   126349652.467       -1845.026          31.000  
  21582353.263   113416032.625        3102.318          42.000  
  22412634.414   117779183.801        2738.727          38.000  
  23399529.871   122965354.964        2608.230          34.000  
 23 11 05 13 44 23.9950000  0 13G05G20G13G14G07G22G30G15G18G08G24G23
                                G17
  20762446.583   109107383.279       -3141.669          46.000  
  22988209.399   120803850.762       -3952.333          37.000  
  18563375.706    97551192.658        -508.792          47.000  
  19885831.237   104500743.189        -833.400          43.000  
  24047552.983   126370736.476       -3154.152          36.000  
  19734651.527   103706286.797         242.666          47.000  
  21505197.051   113010561.387       -2901.880          38.000  
  19360108.708   101738062.011        1877.930          47.000  
  23378630.061   122855518.243       -1894.186          41.000  
  24043880.788   126351497.735       -1846.307          31.000  
  21581762.796   113412930.236        3102.343          41.000  
  22412113.102   117776445.422        2737.854          38.000  
  23399033.442   122962747.152        2607.415          34.000  
 23 11 05 13 44 24.9950000  0 13G05G20G13G14G07G22G30G15G18G08G24G23
                                G17
  20763044.367   109110525.085       -3142.259          46.000  
  22988961.715   120807802.782       -3952.026          37.000  
  18563472.681    97551701.560        -509.319          47.000  
  19885989.897   104501576.625        -834.032          43.000  
  24048152.979   126373890.490       -3154.012          36.000  
  19734605.196   103706044.289         241.971          46.000  
  21505749.410   113013463.338       -2901.710          38.000  
  19359751.348   101736184.143        1877.466          46.000  
  23378990.258   122857412.959       -1895.145          41.000  
  24044234.430   126353343.582       -1846.443          32.000  
  21581172.333   113409828.197        3101.929          41.000  
  22411592.040   117773707.558        2737.396          38.000  
  23398537.219   122960139.525        2606.879          35.000  
 23 11 05 13 44 25.9950000  0 13G05G20G13G14G07G22G30G15G18G08G24G23
                                G17
  20763642.442   109113667.401       -3142.748          45.000  
  22989713.403   120811754.960       -3952.336          37.000  
  18563569.574    97552211.020        -509.726          47.000  
  19886148.548   104502410.756        -834.553          43.000  
  24048753.011   126377044.510       -3154.216          36.000  
  19734559.141   103705802.512         241.472          46.000  
  21506301.770   113016365.571       -2902.629          38.000  
  19359393.814   101734306.823        1876.917          46.000  
  23379350.753   122859308.187       -1895.600          41.000  
  24044589.027   126355190.112       -1846.884          32.000  
  21580581.698   113406726.482        3101.478          41.000  
  22411071.143   117770970.183        2736.945          38.000  
  23398041.011   122957532.103        2607.367          35.000  
 23 11 05 13 44 26.9950000  0 13G05G20G13G14G07G22G30G15G18G08G24G23
                                G17
  20764240.409   109116810.129       -3143.188          45.000  
  22990465.876   120815707.184       -3952.661          37.000  
  18563666.560    97552720.995        -510.494          47.000  
  19886307.469   104503245.554        -834.971          43.000  
  24049353.076   126380198.557       -3154.153          37.000  
  19734513.077   103705561.402         240.650          46.000  
  21506854.043   113019267.984       -2902.808          38.000  
  19359036.735   101732429.995        1876.447          46.000  
  23379711.551   122861203.923       -1896.253          41.000  
  24044935.014   126357037.218       -1848.365          32.000  
  21579991.614   113403625.003        3101.025          41.000  
  22410550.254   117768233.234        2736.621          38.000  
  23397544.849   122954924.848        2607.506          35.000  
 23 11 05 13 44 27.9950000  0 13G05G20G13G14G07G22G30G15G18G08G24G23
                                G17
  20764838.507   109119953.452       -3143.227          45.000  
  22991218.270   120819659.580       -3952.334          38.000  
  18563763.851    97553231.609        -510.875          46.000  
  19886466.312   104504081.167        -835.806          43.000  
  24049953.413   126383352.809       -3154.118          37.000  
  19734467.283   103705321.097         240.144          46.000  
  21507406.873   113022170.737       -2902.637          38.000  
  19358679.845   101730553.805        1876.056          46.000  
  23380072.195   122863100.291       -1896.232          41.000  
  24045282.987   126358884.926       -1848.616          32.000  
  21579401.278   113400523.914        3100.681          41.000  
  22410029.515   117765496.873        2736.475          38.000  
  23397048.882   122952317.954        2606.664          35.000  
 23 11 05 13 44 28.9950000  0 13G05G20G13G14G07G22G30G15G18G08G24G23
                                G17
  20765436.384   109123097.263       -3144.085          45.000  
  22991970.828   120823612.077       -3952.704          37.000  
  18563860.918    97553742.761        -511.509          46.000  
  19886625.336   104504917.483        -836.799          43.000  
  24050553.564   126386507.060       -3154.681          38.000  
  19734421.592   103705081.499         239.157          46.000  
  21507959.515   113025073.738       -2903.311          38.000  
  19358322.929   101728678.139        1875.348          47.000  
  23380433.231   122864997.220       -1897.367          41.000  
  24045633.409   126360733.256       -1848.778          32.000  
  21578811.054   113397423.103        3100.699          41.000  
  22409508.862   117762760.986        2735.663          38.000  
  23396552.750   122949711.159        2606.807          35.000  
 23 11 05 13 44 29.9950000  0 13G05G20G13G14G07G22G30G15G18G08G24G23
                                G17
  20766034.828   109126241.738       -3144.814          45.000  
  22992723.244   120827564.848       -3953.046          38.000  
  18563958.247    97554254.643        -512.091          46.000  
  19886784.750   104505754.678        -837.579          43.000  
  24051154.019   126389661.632       -3154.662          39.000  
  19734375.979   103704842.789         238.269          46.000  
  21508512.619   113027977.166       -2903.385          38.000  
  19357965.977   101726803.201        1874.536          46.000  
  23380794.265   122866894.844       -1897.910          40.000  
  24045986.493   126362582.386       -1849.525          32.000  
  21578221.071   113394322.804        3099.894          41.000  
  22408987.958   117760025.785        2734.851          38.000  
  23396056.669   122947104.788        2606.032          35.000  
 23 11 05 13 44 30.9950000  0 13G05G20G13G14G07G22G30G15G18G08G24G23
                                G17
  20766633.268   109129386.438       -3144.903          45.000  
  22993475.255   120831517.449       -3952.538          37.000  
  18564055.680    97554766.827        -512.425          46.000  
  19886944.251   104506592.291        -838.007          43.000  
  24051754.291   126392815.993       -3153.874          39.000  
  19734330.430   103704604.519         238.155          46.000  
  21509065.549   113030880.589       -2903.427          39.000  
  19357609.331   101724928.534        1874.487          46.000  
  23381155.119   122868792.763       -1898.055          40.000  
  24046339.419   126364431.913       -1850.034          32.000  
  21577631.064   113391222.513        3100.225          41.000  
  22408467.234   117757290.786        2735.168          38.000  
  23395560.635   122944498.367        2606.727          36.000  
 23 11 05 13 44 31.9950000  0 13G05G20G13G14G07G22G30G15G18G08G24G23
                                G17
  20767231.712   109132531.480       -3145.621          45.000  
  22994227.569   120835470.019       -3952.550          37.000  
  18564153.083    97555279.410        -512.936          46.000  
  19887103.589   104507430.477        -838.426          43.000  
  24052354.611   126395970.386       -3154.850          37.000  
  19734285.521   103704366.823         237.287          46.000  
  21509618.378   113033784.099       -2904.200          39.000  
  19357253.022   101723054.263        1873.999          47.000  
  23381516.135   122870691.087       -1898.606          40.000  
  24046691.695   126366281.857       -1849.714          32.000  
  21577041.219   113388122.391        3099.810          41.000  
  22407946.188   117754556.146        2734.192          38.000  
  23395064.471   122941891.975        2606.339          36.000  
 23 11 05 13 44 32.9950000  0 13G05G20G13G14G07G22G30G15G18G08G24G23
                                G17
  20767830.109   109135677.232       -3146.277          45.000  
  22994979.715   120839422.914       -3952.992          37.000  
  18564250.614    97555792.788        -513.861          46.000  
  19887262.988   104508269.587        -839.431          43.000  
  24052954.731   126399124.970       -3154.514          35.000  
  19734240.286   103704130.072         236.209          46.000  
  21510171.171   113036688.081       -2903.728          38.000  
  19356896.697   101721180.783        1873.071          47.000  
  23381877.346   122872590.196       -1899.622          40.000  
  24047044.098   126368132.682       -1850.843          32.000  
  21576451.595   113385022.818        3098.993          41.000  
  22407425.760   117751822.207        2733.612          37.000  
  23394568.676   122939286.078        2605.193          38.000  
 23 11 05 13 44 33.9950000  0 13G05G20G13G14G07G22G30G15G18G08G24G23
                                G17
  20768428.847   109138823.232       -3145.819          45.000  
  22995731.895   120843375.695       -3952.271          37.000  
  18564348.410    97556306.491        -513.699          46.000  
  19887422.699   104509109.221        -839.669          42.000  
  24053555.457   126402279.513       -3154.428          35.000  
  19734195.258   103703893.814         236.319          46.000  
  21510723.743   113039592.123       -2904.375          39.000  
  19356540.401   101719307.636        1873.181          47.000  
  23382238.949   122874489.613       -1899.197          40.000  
  24047396.263   126369983.947       -1851.477          32.000  
  21575861.826   113381923.295        3099.877          41.000  
  22406905.326   117749088.548        2733.502          37.000  
  23394072.987   122936680.107        2606.089          36.000  
 23 11 05 13 44 34.9950000  0 13G05G20G13G14G07G22G30G15G18G08G24G23
                                G17
  20769027.806   109141969.834       -3147.051          45.000  
  22996484.209   120847328.700       -3953.125          37.000  
  18564446.259    97556820.850        -514.820          46.000  
  19887582.295   104509949.650        -840.990          42.000  
  24054155.906   126405434.159       -3154.934          36.000  
  19734150.557   103703658.376         234.875          46.000  
  21511276.513   113042496.490       -2904.520          39.000  
  19356184.401   101717435.110        1872.144          47.000  
  23382600.420   122876389.703       -1900.734          40.000  
  24047747.710   126371835.839       -1851.909          32.000  
  21575272.135   113378824.195        3098.961          41.000  
  22406385.190   117746355.496        2732.300          37.000  
  23393577.656   122934074.443        2605.385          36.000  
 23 11 05 13 44 35.9950000  0 13G05G20G13G14G07G22G30G15G18G08G24G23
                                G17
  20769626.606   109145117.043       -3147.289          45.000  
  22997236.464   120851281.896       -3953.229          37.000  
  18564544.395    97557335.886        -515.383          46.000  
  19887742.293   104510790.919        -841.660          42.000  
  24054756.481   126408589.034       -3154.643          36.000  
  19734105.566   103703423.784         234.198          46.000  
  21511829.135   113045401.253       -2904.830          39.000  
  19355828.100   101715563.281        1871.320          47.000  
  23382962.403   122878290.448       -1901.080          40.000  
  24048099.524   126373688.611       -1853.531          31.000  
  21574682.412   113375725.517        3098.533          41.000  
  22405865.171   117743623.020        2732.178          37.000  
  23393082.201   122931469.131        2605.265          36.000  
 23 11 05 13 44 36.9950000  0 13G05G20G13G14G07G22G30G15G18G08G24G23
                                G17
  20770225.450   109148264.686       -3147.752          45.000  
  22997988.706   120855235.149       -3953.513          37.000  
  18564642.352    97557851.387        -515.698          46.000  
  19887902.417   104511632.800        -842.021          42.000  
  24055356.575   126411743.907       -3155.068          36.000  
  19734060.963   103703189.808         233.582          46.000  
  21512381.557   113048306.155       -2904.870          38.000  
  19355472.079   101713691.901        1871.027          47.000  
  23383324.246   122880191.677       -1901.590          40.000  
  24048456.170   126375541.847       -1853.164          32.000  
  21574092.657   113372627.064        3098.405          40.000  
  22405345.312   117740890.972        2731.646          37.000  
  23392586.597   122928863.962        2605.032          36.000  
 23 11 05 13 44 37.9950000  0 13G05G20G13G14G07G22G30G15G18G08G24G23
                                G17
  20770824.555   109151412.765       -3148.921          45.000  
  22998740.714   120859188.484       -3954.097          37.000  
  18564740.429    97558367.415        -516.696          46.000  
  19888062.710   104512475.367        -843.218          42.000  
  24055956.834   126414898.823       -3155.773          36.000  
  19734016.635   103702956.520         232.392          46.000  
  21512934.170   113051211.313       -2905.947          38.000  
  19355116.236   101711821.030        1869.952          47.000  
  23383685.948   122882093.380       -1902.475          41.000  
  24048807.656   126377395.703       -1854.552          32.000  
  21573502.890   113369528.871        3097.716          40.000  
  22404825.156   117738159.392        2730.927          37.000  
  23392090.908   122926258.930        2604.291          36.000  
 23 11 05 13 44 38.9950000  0 13G05G20G13G14G07G22G30G15G18G08G24G23
                                G17
  20771423.830   109154561.378       -3148.826          45.000  
  22999492.871   120863141.919       -3953.456          36.000  
  18564838.998    97558884.040        -516.877          46.000  
  19888223.357   104513318.689        -843.691          42.000  
  24056557.372   126418053.871       -3155.333          36.000  
  19733972.384   103702723.975         232.322          46.000  
  21513486.906   113054116.777       -2905.736          38.000  
  19354760.291   101709950.761        1869.928          47.000  
  23384047.898   122883995.670       -1902.379          40.000  
  24049159.618   126379250.126       -1854.321          32.000  
  21572913.145   113366431.047        3097.644          40.000  
  22404305.368   117735428.340        2730.670          37.000  
  23391595.073   122923654.140        2604.934          36.000  
 23 11 05 13 44 39.9950000  0 13G05G20G13G14G07G22G30G15G18G08G24G23
                                G17
  20772023.322   109157710.240       -3149.336          45.000  
  23000245.204   120867095.212       -3953.107          37.000  
  18564937.638    97559400.987        -517.520          46.000  
  19888383.622   104514162.468        -844.130          42.000  
  24057157.998   126421208.771       -3155.726          37.000  
  19733928.335   103702491.921         231.486          46.000  
  21514040.154   113057022.221       -2906.104          38.000  
  19354404.431   101708080.792        1869.360          47.000  
  23384410.208   122885898.319       -1903.280          41.000  
  24049511.441   126381104.990       -1855.327          31.000  
  21572323.511   113363333.267        3097.193          40.000  
  22403785.419   117732697.515        2730.530          37.000  
  23391099.217   122921049.395        2604.063          36.000  
 23 11 05 13 44 40.9950000  0 13G05G20G13G14G07G22G30G15G18G08G24G23
                                G17
  20772622.547   109160859.758       -3149.667          45.000  
  23000997.647   120871048.846       -3953.602          37.000  
  18565035.990    97559918.662        -517.885          46.000  
  19888544.356   104515007.161        -844.987          42.000  
  24057758.929   126424363.904       -3155.422          36.000  
  19733884.046   103702260.776         230.648          46.000  
  21514593.130   113059928.098       -2906.294          38.000  
  19354048.736   101706211.553        1868.976          47.000  
  23384772.791   122887801.667       -1903.641          41.000  
  24049865.196   126382960.623       -1855.323          32.000  
  21571734.047   113360235.976        3097.195          40.000  
  22403265.881   117729967.403        2729.858          37.000  
  23390603.513   122918444.977        2604.647          37.000  
 23 11 05 13 44 41.9950000  0 13G05G20G13G14G07G22G30G15G18G08G24G23
                                G17
  20773222.043   109164009.829       -3150.349          45.000  
  23001750.039   120875002.600       -3953.773          37.000  
  18565134.490    97560436.943        -518.649          46.000  
  19888704.913   104515852.597        -845.886          42.000  
  24058359.742   126427519.075       -3154.954          36.000  
  19733840.347   103702030.367         230.128          46.000  
  21515145.924   113062834.286       -2906.062          38.000  
  19353693.214   101704342.906        1868.280          47.000  
  23385135.077   122889705.597       -1903.792          40.000  
  24050222.688   126384816.993       -1856.548          32.000  
  21571144.772   113357139.013        3096.912          40.000  
  22402746.490   117727237.797        2729.468          36.000  
  23390108.324   122915840.842        2604.284          37.000  
 23 11 05 13 44 42.9950000  0 13G05G20G13G14G07G22G30G15G18G08G24G23
                                G17
  20773821.560   109167160.249       -3150.118          45.000  
  23002502.599   120878956.334       -3953.990          37.000  
  18565233.046    97560955.638        -518.621          46.000  
  19888866.107   104516698.589        -845.864          42.000  
  24058960.398   126430674.320       -3154.765          39.000  
  19733796.601   103701800.558         229.470          46.000  
  21515698.616   113065740.585       -2905.751          38.000  
  19353337.562   101702474.671        1868.298          47.000  
  23385497.662   122891609.976       -1904.725          40.000  
  24050575.690   126386673.774       -1856.147          33.000  
  21570555.518   113354042.233        3097.160          39.000  
  22402226.980   117724508.595        2728.864          36.000  
  23389612.870   122913236.796        2604.237          36.000  
 23 11 05 13 44 43.9950000  0 13G05G20G13G14G07G22G30G15G18G08G24G23
                                G17
  20774420.977   109170311.164       -3151.077          45.000  
  23003255.350   120882910.190       -3954.321          38.000  
  18565331.531    97561474.907        -519.618          46.000  
  19889026.913   104517545.354        -846.893          42.000  
  24059561.013   126433829.710       -3155.594          39.000  
  19733753.316   103701571.474         228.920          46.000  
  21516251.655   113068647.204       -2906.219          37.000  
  19352982.264   101700607.007        1867.407          47.000  
  23385860.227   122893514.912       -1905.185          40.000  
  24050928.606   126388531.293       -1857.832          32.000  
  21569966.346   113350945.835        3095.364          39.000  
  22401707.888   117721779.872        2728.870          36.000  
  23389117.947   122910632.985        2603.695          36.000  
 23 11 05 13 44 44.9950000  0 13G05G20G13G14G07G22G30G15G18G08G24G23
                                G17
  20775020.643   109173462.612       -3151.675          45.000  
  23004007.644   120886864.194       -3953.972          37.000  
  18565430.519    97561994.789        -520.062          46.000  
  19889188.175   104518392.847        -847.761          42.000  
  24060161.455   126436985.129       -3155.514          39.000  
  19733709.695   103701343.165         228.064          46.000  
  21516804.426   113071554.069       -2906.768          36.000  
  19352626.675   101698739.942        1866.925          47.000  
  23386222.662   122895420.411       -1905.946          41.000  
  24051283.657   126390389.358       -1858.267          33.000  
  21569376.956   113347849.713        3095.434          40.000  
  22401188.855   117719051.717        2728.009          36.000  
  23388622.741   122908029.350        2603.904          36.000  
 23 11 05 13 44 45.9950000  0 13G05G20G13G14G07G22G30G15G18G08G24G23
                                G17
  20775620.318   109176614.616       -3152.245          45.000  
  23004760.483   120890818.308       -3954.075          37.000  
  18565529.746    97562515.263        -520.652          46.000  
  19889349.129   104519241.105        -848.661          42.000  
  24060761.952   126440140.721       -3155.593          39.000  
  19733666.399   103701115.612         227.196          46.000  
  21517357.268   113074461.212       -2907.284          37.000  
  19352271.502   101696873.457        1866.376          47.000  
  23386585.402   122897326.535       -1906.534          41.000  
  24051632.543   126392248.114       -1859.850          31.000  
  21568787.900   113344753.941        3095.791          40.000  
  22400669.978   117716324.033        2727.509          35.000  
  23388127.730   122905426.024        2603.036          36.000  
 23 11 05 13 44 46.9950000  0 13G05G20G13G14G07G22G30G15G18G08G24G23
                                G17
  20776220.339   109179767.065       -3152.474          45.000  
  23005513.022   120894772.553       -3954.088          37.000  
  18565629.118    97563036.268        -521.309          46.000  
  19889510.452   104520090.023        -849.318          42.000  
  24061362.654   126443296.312       -3155.421          40.000  
  19733623.297   103700888.742         226.737          46.000  
  21517910.288   113077368.612       -2907.689          36.000  
  19351916.355   101695007.516        1865.692          47.000  
  23386948.251   122899233.159       -1907.080          41.000  
  24051980.156   126394107.434       -1859.986          30.000  
  21568198.877   113341658.513        3095.355          40.000  
  22400151.015   117713596.894        2727.240          35.000  
  23387632.443   122902822.799        2603.918          36.000  
 23 11 05 13 44 47.9950000  0 13G05G20G13G14G07G22G30G15G18G08G24G23
                                G17
  20776820.236   109182920.088       -3153.230          45.000  
  23006265.471   120898726.946       -3954.327          37.000  
  18565728.440    97563557.905        -521.812          46.000  
  19889672.309   104520939.756        -850.096          42.000  
  24061963.308   126446452.103       -3156.022          41.000  
  19733580.090   103700662.688         225.793          46.000  
  21518463.896   113080276.353       -2908.185          36.000  
  19351561.208   101693142.186        1865.253          47.000  
  23387311.296   122901140.422       -1907.597          41.000  
  24052331.416   126395967.451       -1860.177          30.000  
  21567609.956   113338563.405        3094.963          40.000  
  22399632.132   117710870.311        2726.575          35.000  
  23387136.844   122900219.961        2602.923          35.000  
 23 11 05 13 44 48.9950000  0 13G05G20G13G14G07G22G30G15G18G08G24G23
                                G17
  20777420.175   109186073.476       -3153.521          45.000  
  23007018.147   120902681.373       -3954.482          38.000  
  18565827.804    97564080.004        -522.264          46.000  
  19889834.239   104521790.103        -850.541          42.000  
  24062563.944   126449607.897       -3155.956          41.000  
  19733537.614   103700437.244         224.920          46.000  
  21519017.094   113083184.205       -2907.810          36.000  
  19351206.345   101691277.313        1864.728          47.000  
  23387674.319   122903048.124       -1907.920          41.000  
  24052685.740   126397828.091       -1861.552          30.000  
  21567021.443   113335468.561        3094.487          40.000  
  22399113.082   117708144.100        2726.160          35.000  
  23386641.458   122897617.194        2602.840          35.000  
 23 11 05 13 44 49.9950000  0 13G05G20G13G14G07G22G30G15G18G08G24G23
                                G17
  20778020.586   109189227.454       -3154.536          45.000  
  23007770.822   120906635.927       -3954.374          38.000  
  18565927.207    97564602.743        -523.218          46.000  
  19889996.299   104522641.234        -851.747          42.000  
  24063164.356   126452763.817       -3156.213          41.000  
  19733494.830   103700212.590         224.171          46.000  
  21519570.279   113086092.440       -2908.281          36.000  
  19350851.708   101689413.055        1863.818          47.000  
  23388037.772   122904956.452       -1908.809          41.000  
  24053040.470   126399689.367       -1861.542          30.000  
  21566432.716   113332374.077        3094.083          40.000  
  22398593.943   117705418.463        2725.769          35.000  
  23386146.206   122895014.719        2602.617          35.000  
 23 11 05 13 44 50.9950000  0 13G05G20G13G14G07G22G30G15G18G08G24G23
                                G17
  20778621.125   109192381.606       -3154.737          45.000  
  23008523.274   120910590.316       -3954.529          37.000  
  18566026.643    97565125.729        -523.492          46.000  
  19890158.348   104523492.764        -852.163          42.000  
  24063764.918   126455919.548       -3155.710          41.000  
  19733451.975   103699988.355         223.534          46.000  
  21520123.435   113089000.606       -2908.696          36.000  
  19350497.168   101687549.052        1863.513          47.000  
  23388401.256   122906865.018       -1908.756          41.000  
  24053395.711   126401550.981       -1861.847          29.000  
  21565843.885   113329279.579        3094.035          40.000  
  22398075.359   117702693.023        2724.524          35.000  
  23385650.722   122892412.182        2602.490          35.000  
 23 11 05 13 44 51.9950000  0 13G05G20G13G14G07G22G30G15G18G08G24G23
                                G17
  20779221.460   109195536.364       -3155.034          45.000  
  23009276.032   120914544.918       -3954.775          37.000  
  18566126.266    97565649.395        -524.183          46.000  
  19890320.565   104524345.108        -852.880          42.000  
  24064365.365   126459075.470       -3156.301          39.000  
  19733409.625   103699764.943         222.931          46.000  
  21520676.821   113091909.140       -2908.703          36.000  
  19350142.577   101685685.686        1862.927          47.000  
  23388764.916   122908774.251       -1909.289          41.000  
  24053748.282   126403413.331       -1862.950          28.000  
  21565255.043   113326185.498        3093.738          40.000  
  22397556.619   117699968.170        2724.719          34.000  
  23385155.492   122889809.958        2601.763          36.000  
 23 11 05 13 44 52.9950000  0 13G05G20G13G14G07G22G30G15G18G08G24G23
                                G17
  20779822.195   109198691.605       -3155.592          46.000  
  23010028.562   120918499.633       -3955.002          37.000  
  18566226.003    97566173.587        -524.632          46.000  
  19890482.920   104525198.175        -853.375          42.000  
  24064965.984   126462231.421       -3156.165          39.000  
  19733367.167   103699542.227         222.238          46.000  
  21521230.307   113094817.894       -2908.649          37.000  
  19349788.340   101683822.862        1862.598          47.000  
  23389128.188   122910684.017       -1910.065          41.000  
  24054109.656   126405276.337       -1863.721          26.000  
  21564666.056   113323091.727        3093.313          40.000  
  22397037.806   117697243.818        2724.341          34.000  
  23384660.394   122887207.915        2601.776          36.000  
 23 11 05 13 44 53.9950000  0 13G05G20G13G14G07G22G30G15G18G08G24G23
                                G17
  20780422.703   109201847.386       -3156.020          45.000  
  23010780.839   120922454.445       -3954.552          37.000  
  18566325.877    97566698.389        -525.117          46.000  
  19890645.251   104526051.975        -853.969          41.000  
  24065566.597   126465387.546       -3155.742          38.000  
  19733325.299   103699320.293         221.676          46.000  
  21521783.505   113097726.968       -2908.938          36.000  
  19349433.771   101681960.656        1862.091          47.000  
  23389491.930   122912594.396       -1910.736          41.000  
  24054465.292   126407139.972       -1863.990          32.000  
  21564077.201   113319998.286        3093.218          40.000  
  22396519.005   117694520.030        2723.327          34.000  
  23384165.207   122884606.194        2601.320          36.000  
 23 11 05 13 44 54.9950000  0 13G05G20G13G14G07G22G30G15G18G08G24G23
                                G17
  20781023.027   109205003.495       -3156.219          45.000  
  23011533.231   120926409.199       -3954.230          37.000  
  18566425.899    97567223.570        -525.578          46.000  
  19890808.122   104526906.317        -854.865          41.000  
  24066167.039   126468543.511       -3156.319          38.000  
  19733282.773   103699098.895         220.904          46.000  
  21522336.636   113100636.112       -2909.135          37.000  
  19349079.516   101680098.826        1861.462          47.000  
  23389855.158   122914505.131       -1910.978          41.000  
  24054823.464   126409003.987       -1862.969          31.000  
  21563488.293   113316904.965        3093.265          40.000  
  22396000.051   117691796.523        2723.169          35.000  
  23383670.197   122882004.408        2601.362          36.000  
 23 11 05 13 44 55.9950000  0 13G05G20G13G14G07G22G30G15G18G08G24G23
                                G17
  20781623.363   109208160.160       -3156.471          45.000  
  23012285.192   120930364.190       -3954.563          36.000  
  18566525.852    97567749.393        -525.633          46.000  
  19890970.878   104527761.477        -855.157          41.000  
  24066767.538   126471699.777       -3155.902          36.000  
  19733240.504   103698878.305         220.440          46.000  
  21522889.888   113103545.593       -2909.019          36.000  
  19348725.504   101678237.608        1861.060          47.000  
  23390218.762   122916416.519       -1911.438          40.000  
  24055172.545   126410868.775       -1865.297          31.000  
  21562899.907   113313812.098        3092.186          39.000  
  22395481.574   117689073.610        2723.114          35.000  
  23383175.042   122879402.966        2601.457          35.000  
 23 11 05 13 44 56.9950000  0 13G05G20G13G14G07G22G30G15G18G08G24G23
                                G17
  20782223.984   109211317.149       -3157.470          45.000  
  23013037.929   120934319.085       -3954.895          36.000  
  18566626.237    97568275.599        -526.655          46.000  
  19891133.591   104528617.143        -855.829          41.000  
  24067368.185   126474855.767       -3156.293          37.000  
  19733198.868   103698658.237         219.668          46.000  
  21523443.178   113106455.198       -2909.225          35.000  
  19348371.254   101676376.769        1860.516          47.000  
  23390582.265   122918328.248       -1912.021          40.000  
  24055523.844   126412733.987       -1865.388          31.000  
  21562311.494   113310719.268        3092.539          39.000  
  22394963.218   117686351.018        2722.522          34.000  
  23382679.807   122876801.536        2601.775          35.000  
 23 11 05 13 44 57.9950000  0 13G05G20G13G14G07G22G30G15G18G08G24G23
                                G17
  20782824.930   109214474.726       -3157.932          45.000  
  23013790.406   120938274.176       -3955.129          36.000  
  18566726.447    97568802.451        -527.169          46.000  
  19891296.532   104529473.624        -856.813          42.000  
  24067968.377   126478012.049       -3156.148          38.000  
  19733156.981   103698438.996         218.696          46.000  
  21523996.417   113109365.092       -2909.592          35.000  
  19348016.973   101674516.568        1859.833          47.000  
  23390946.222   122920240.637       -1912.835          41.000  
  24055875.985   126414599.787       -1865.566          30.000  
  21561722.942   113307626.900        3092.144          39.000  
  22394444.913   117683629.081        2720.398          34.000  
  23382184.745   122874200.464        2600.837          36.000  
 23 11 05 13 44 58.9950000  0 13G05G20G13G14G07G22G30G15G18G08G24G23
                                G17
  20783425.530   109217632.683       -3158.443          45.000  
  23014542.977   120942229.240       -3954.708          36.000  
  18566826.855    97569329.776        -527.857          46.000  
  19891459.641   104530330.743        -857.789          42.000  
  24068568.682   126481168.294       -3156.171          38.000  
  19733115.737   103698220.386         217.936          46.000  
  21524549.906   113112275.204       -2910.800          35.000  
  19347663.030   101672656.837        1859.314          47.000  
  23391309.943   122922153.466       -1913.500          41.000  
  24056230.274   126416466.278       -1866.700          29.000  
  21561134.401   113304534.737        3091.956          39.000  
  22393926.686   117680907.378        2720.941          34.000  
  23381689.610   122871599.471        2600.943          36.000  
 23 11 05 13 44 59.9950000  0 13G05G20G13G14G07G22G30G15G18G08G24G23
                                G17
  20784026.522   109220791.028       -3158.447          45.000  
  23015295.186   120946184.384       -3955.322          36.000  
  18566927.148    97569857.572        -528.104          46.000  
  19891622.958   104531188.452        -857.927          42.000  
  24069169.233   126484324.596       -3156.542          38.000  
  19733074.481   103698002.403         217.564          46.000  
  21525103.263   113115185.404       -2910.161          35.000  
  19347309.292   101670797.562        1859.052          47.000  
  23391674.134   122924066.785       -1913.556          41.000  
  24056583.977   126418333.201       -1866.559          30.000  
  21560546.132   113301442.812        3091.619          39.000  
  22393408.288   117678186.149        2721.283          34.000  
  23381194.373   122868998.584        2600.810          33.000  
 23 11 05 13 45 00.9950000  0 13G05G20G13G14G07G22G30G15G18G08G24G23
                                G17
  20784627.241   109223949.842       -3159.025          45.000  
  23016047.616   120950139.555       -3955.408          36.000  
  18567027.432    97570385.881        -528.820          46.000  
  19891786.189   104532046.860        -858.750          42.000  
  24069769.650   126487480.967       -3156.545          37.000  
  19733033.281   103697785.091         217.100          46.000  
  21525657.098   113118095.867       -2910.135          35.000  
  19346955.360   101668938.802        1858.453          47.000  
  23392038.503   122925980.615       -1914.376          41.000  
  24056941.920   126420200.803       -1868.286          30.000  
  21559958.051   113298351.127        3091.608          39.000  
  22392889.883   117675465.445        2720.178          34.000  
  23380699.310   122866397.878        2600.103          33.000  
 23 11 05 13 45 01.9950000  0 13G05G20G13G14G07G22G30G15G18G08G24G23
                                G17
  20785228.643   109227109.082       -3159.396          45.000  
  23016800.163   120954094.764       -3955.104          36.000  
  18567128.314    97570914.675        -529.036          46.000  
  19891949.648   104532905.895        -859.218          42.000  
  24070369.821   126490637.243       -3155.649          34.000  
  19732992.031   103697568.436         216.415          46.000  
  21526210.772   113121006.478       -2910.220          35.000  
  19346602.100   101667080.519        1857.965          47.000  
  23392402.792   122927894.880       -1914.220          41.000  
  24057300.271   126422068.833       -1866.793          30.000  
  21559369.551   113295259.726        3091.110          39.000  
  22392371.701   117672745.114        2719.940          34.000  
  23380195.361   122863797.312        2601.294          32.000  
 23 11 05 13 45 02.9950000  0 13G05G20G13G14G07G22G30G15G18G08G24G23
                                G17
  20785829.729   109230268.834       -3160.031          45.000  
  23017552.850   120958050.130       -3955.306          36.000  
  18567229.177    97571444.079        -529.621          46.000  
  19892113.403   104533765.692        -860.071          42.000  
  24070970.070   126493793.739       -3156.618          35.000  
  19732950.791   103697352.548         215.564          46.000  
  21526764.788   113123917.459       -2911.095          36.000  
  19346248.596   101665222.832        1857.391          47.000  
  23392767.133   122929809.774       -1915.354          41.000  
  24057654.967   126423937.689       -1869.081          30.000  
  21558781.474   113292168.632        3090.943          40.000  
  22391853.997   117670025.334        2720.081          34.000  
  23379704.035   122861196.971        2600.445          33.000  
 23 11 05 13 45 03.9950000  0 13G05G20G13G14G07G22G30G15G18G08G24G23
                                G17
  20786431.349   109233428.993       -3160.356          44.000  
  23018305.663   120962005.508       -3955.464          37.000  
  18567330.124    97571973.967        -530.163          46.000  
  19892277.328   104534626.126        -860.790          42.000  
  24071570.170   126496950.208       -3156.536          34.000  
  19732909.738   103697137.288         214.968          46.000  
  21527319.063   113126828.552       -2911.052          36.000  
  19345895.336   101663365.614        1856.982          47.000  
  23393131.596   122931725.107       -1915.255          41.000  
  24058013.911   126425806.992       -1869.600          31.000  
  21558193.376   113289077.810        3090.470          40.000  
  22391336.303   117667305.973        2719.177          34.000  
  23379207.916   122858596.809        2601.230          33.000  
 23 11 05 13 45 04.9950000  0 13G05G20G13G14G07G22G30G15G18G08G24G23
                                G17
  20787032.841   109236589.609       -3160.762          45.000  
  23019058.566   120965960.946       -3955.165          37.000  
  18567431.165    97572504.358        -530.552          46.000  
  19892441.319   104535487.230        -861.377          42.000  
  24072170.830   126500106.680       -3157.019          34.000  
  19732869.065   103696922.712         214.322          46.000  
  21527873.345   113129739.883       -2911.433          36.000  
  19345542.045   101661508.911        1856.488          47.000  
  23393496.296   122933640.973       -1915.708          41.000  
  24058376.032   126427676.868       -1869.952          32.000  
  21557605.432   113285987.213        3090.156          40.000  
  22390818.821   117664587.095        2718.890          34.000  
  23378716.667   122855996.830        2600.587          36.000  
 23 11 05 13 45 05.9950000  0 13G05G20G13G14G07G22G30G15G18G08G24G23
                                G17
  20787634.838   109239750.733       -3161.042          45.000  
  23019811.126   120969916.546       -3955.957          36.000  
  18567532.348    97573035.343        -530.945          46.000  
  19892605.484   104536349.071        -862.158          42.000  
  24072771.833   126503263.311       -3156.464          35.000  
  19732828.611   103696708.868         213.640          46.000  
  21528427.377   113132651.509       -2911.948          36.000  
  19345188.809   101659652.798        1856.018          47.000  
  23393860.764   122935557.390       -1915.976          40.000  
  24058725.385   126429547.430       -1871.152          31.000  
  21557017.392   113282896.940        3090.533          40.000  
  22390301.468   117661868.713        2718.292          36.000  
  23378223.571   122853397.136        2599.234          35.000  
 23 11 05 13 45 06.9950000  0 13G05G20G13G14G07G22G30G15G18G08G24G23
                                G17
  20788236.136   109242912.261       -3161.664          45.000  
  23020563.793   120973872.141       -3955.624          36.000  
  18567633.457    97573566.806        -531.752          46.000  
  19892769.540   104537211.540        -862.989          42.000  
  24073371.937   126506419.901       -3156.168          36.000  
  19732787.800   103696495.671         212.824          46.000  
  21528981.460   113135563.255       -2911.781          37.000  
  19344835.846   101657797.140        1855.414          47.000  
  23394225.604   122937474.314       -1917.143          41.000  
  24059081.444   126431418.463       -1872.513          31.000  
  21556429.412   113279806.949        3089.656          40.000  
  22389784.473   117659150.756        2717.047          35.000  
  23377729.017   122850797.491        2599.859          35.000  
 23 11 05 13 45 07.9950000  0 13G05G20G13G14G07G22G30G15G18G08G24G23
                                G17
  20788837.874   109246074.249       -3162.346          45.000  
  23021316.515   120977827.788       -3954.990          36.000  
  18567734.670    97574098.782        -532.117          46.000  
  19892933.624   104538074.682        -863.450          41.000  
  24073972.286   126509576.562       -3156.638          36.000  
  19732747.525   103696283.161         212.159          46.000  
  21529535.738   113138475.247       -2911.939          37.000  
  19344482.848   101655942.001        1854.840          47.000  
  23394590.237   122939391.734       -1917.808          40.000  
  24059441.906   126433290.044       -1871.583          31.000  
  21555841.054   113276717.175        3090.033          40.000  
  22389267.318   117656433.206        2717.468          34.000  
  23377233.232   122848198.050        2599.948          35.000  
 23 11 05 13 45 08.9950000  0 13G05G20G13G14G07G22G30G15G18G08G24G23
                                G17
  20789439.693   109249236.779       -3162.987          45.000  
  23022069.367   120981783.662       -3956.185          36.000  
  18567835.925    97574631.394        -532.993          46.000  
  19893097.842   104538938.596        -864.547          41.000  
  24074572.521   126512733.421       -3157.784          35.000  
  19732707.280   103696071.431         211.217          46.000  
  21530090.073   113141387.543       -2912.084          36.000  
  19344129.664   101654087.484        1854.144          47.000  
  23394955.122   122941309.756       -1918.568          40.000  
  24059797.343   126435162.377       -1873.219          31.000  
  21555253.485   113273627.815        3089.153          40.000  
  22388750.790   117653716.301        2716.345          34.000  
  23376739.657   122845598.894        2599.031          35.000  
 23 11 05 13 45 09.9950000  0 13G05G20G13G14G07G22G30G15G18G08G24G23
                                G17
  20790041.276   109252399.777       -3163.525          45.000  
  23022821.956   120985739.578       -3956.016          36.000  
  18567937.208    97575164.524        -533.447          46.000  
  19893262.111   104539803.191        -864.978          41.000  
  24075173.114   126515890.236       -3156.767          36.000  
  19732666.922   103695860.391         210.583          46.000  
  21530644.532   113144300.095       -2912.755          37.000  
  19343776.760   101652233.490        1853.528          47.000  
  23395320.455   122943228.281       -1919.081          40.000  
  24060154.180   126437035.243       -1872.864          32.000  
  21554665.507   113270538.697        3089.143          40.000  
  22388233.879   117650999.845        2715.735          33.000  
  23376245.234   122842999.937        2598.525          35.000  
 23 11 05 13 45 10.9950000  0 13G05G20G13G14G07G22G30G15G18G08G24G23
                                G17
  20790643.217   109255563.368       -3163.596          44.000  
  23023574.793   120989695.686       -3955.899          36.000  
  18568038.923    97575698.324        -533.759          46.000  
  19893426.722   104540668.619        -865.550          41.000  
  24075773.478   126519047.300       -3156.654          35.000  
  19732627.101   103695650.165         210.307          46.000  
  21531198.825   113147212.975       -2912.504          36.000  
  19343423.866   101650380.140        1853.400          47.000  
  23395685.847   122945147.465       -1919.019          40.000  
  24060512.015   126438908.884       -1873.604          32.000  
  21554078.028   113267450.037        3088.557          40.000  
  22387717.217   117648283.942        2715.955          33.000  
  23375751.015   122840401.252        2599.304          35.000  
 23 11 05 13 45 11.9950000  0 13G05G20G13G14G07G22G30G15G18G08G24G23
                                G17
  20791245.101   109258727.404       -3163.912          44.000  
  23024327.471   120993651.887       -3955.973          36.000  
  18568140.658    97576232.643        -534.340          46.000  
  19893591.375   104541534.684        -866.202          42.000  
  24076373.617   126522204.372       -3156.466          35.000  
  19732587.436   103695440.639         209.374          46.000  
  21531752.854   113150126.088       -2913.515          36.000  
  19343071.417   101648527.313        1852.637          47.000  
  23396051.008   122947067.184       -1919.721          40.000  
  24060868.224   126440783.131       -1874.655          33.000  
  21553490.494   113264361.600        3088.350          40.000  
  22387200.737   117645568.526        2715.240          34.000  
  23375256.513   122837802.784        2598.428          35.000  
 23 11 05 13 45 12.9950000  0 13G05G20G13G14G07G22G30G15G18G08G24G23
                                G17
  20791847.077   109261891.851       -3164.689          44.000  
  23025080.230   120997608.067       -3955.943          36.000  
  18568242.317    97576767.417        -534.958          46.000  
  19893756.408   104542401.396        -867.153          42.000  
  24076974.306   126525361.433       -3157.008          34.000  
  19732547.737   103695231.724         208.566          46.000  
  21532307.031   113153039.314       -2913.530          36.000  
  19342719.078   101646674.921        1852.289          47.000  
  23396416.538   122948987.336       -1920.118          39.000  
  24061224.773   126442657.732       -1873.961          33.000  
  21552903.054   113261273.401        3088.126          40.000  
  22386684.487   117642853.526        2714.081          34.000  
  23374762.070   122835204.373        2598.614          35.000  
 23 11 05 13 45 13.9950000  0 13G05G20G13G14G07G22G30G15G18G08G24G23
                                G17
  20792449.133   109265056.823       -3165.380          44.000  
  23025832.727   121001564.407       -3956.367          36.000  
  18568344.206    97577302.796        -535.681          46.000  
  19893921.608   104543268.846        -867.705          42.000  
  24077575.219   126528518.649       -3157.166          33.000  
  19732507.981   103695023.574         207.740          46.000  
  21532861.918   113155952.886       -2913.452          37.000  
  19342366.749   101644823.143        1851.544          47.000  
  23396782.011   122950908.109       -1921.711          39.000  
  24061581.364   126444533.166       -1876.301          33.000  
  21552315.582   113258185.541        3087.998          40.000  
  22386167.944   117640139.025        2714.301          33.000  
  23374267.851   122832606.282        2597.788          34.000  
 23 11 05 13 45 14.9950000  0 13G05G20G13G14G07G22G30G15G18G08G24G23
                                G17
  20793051.462   109268222.249       -3165.483          44.000  
  23026585.612   121005520.801       -3955.337          36.000  
  18568445.930    97577838.692        -535.771          46.000  
  19894087.079   104544136.975        -868.373          42.000  
  24078175.424   126531675.901       -3156.654          34.000  
  19732468.603   103694816.096         207.585          46.000  
  21533416.353   113158866.676       -2913.871          37.000  
  19342014.722   101642971.883        1851.221          47.000  
  23397147.414   122952829.316       -1921.065          39.000  
  24061938.358   126446409.095       -1876.260          33.000  
  21551728.044   113255097.977        3087.461          40.000  
  22385651.587   117637425.030        2714.044          34.000  
  23373773.399   122830008.387        2597.928          34.000  
 23 11 05 13 45 15.9950000  0 13G05G20G13G14G07G22G30G15G18G08G24G23
                                G17
  20793653.883   109271387.896       -3165.331          43.000  
  23027338.447   121009477.104       -3956.658          36.000  
  18568547.883    97578374.943        -536.721          46.000  
  19894252.350   104545005.606        -868.976          42.000  
  24078776.154   126534833.023       -3157.277          34.000  
  19732429.259   103694609.131         206.563          46.000  
  21533970.694   113161780.497       -2914.132          36.000  
  19341662.212   101641120.972        1850.281          48.000  
  23397512.874   122954750.935       -1922.173          39.000  
  24062295.198   126448285.439       -1876.826          33.000  
  21551140.510   113252010.462        3087.590          40.000  
  22385135.381   117634711.331        2712.067          34.000  
  23373278.967   122827410.362        2597.847          37.000  
 23 11 05 13 45 16.9950000  0 13G05G20G13G14G07G22G30G15G18G08G24G23
                                G17
  20794256.736   109274554.270       -3166.252          45.000  
  23028091.405   121013433.690       -3956.815          35.000  
  18568649.880    97578911.923        -537.030          46.000  
  19894418.025   104545875.123        -869.426          42.000  
  24079377.057   126537990.467       -3157.493          34.000  
  19732389.845   103694403.073         206.034          46.000  
  21534525.464   113164694.736       -2913.765          37.000  
  19341309.971   101639270.776        1850.073          47.000  
  23397878.681   122956673.233       -1922.060          39.000  
  24062652.039   126450162.589       -1875.533          32.000  
  21550553.016   113248923.471        3087.150          40.000  
  22384619.160   117631998.262        2712.738          33.000  
  23372784.790   122824812.873        2597.625          34.000  
 23 11 05 13 45 17.9950000  0 13G05G20G13G14G07G22G30G15G18G08G24G23
                                G17
  20794859.207   109277721.093       -3166.780          44.000  
  23028844.353   121017390.317       -3956.556          36.000  
  18568751.745    97579449.420        -537.477          46.000  
  19894583.645   104546745.326        -870.187          42.000  
  24079977.632   126541147.815       -3155.966          34.000  
  19732350.827   103694197.697         205.234          47.000  
  21535080.065   113167609.207       -2914.812          37.000  
  19340957.895   101637421.105        1849.530          47.000  
  23398244.516   122958596.061       -1922.943          39.000  
  24063009.219   126452040.363       -1876.928          32.000  
  21549965.696   113245836.741        3086.717          40.000  
  22384102.902   117629285.648        2713.458          33.000  
  23372290.469   122822215.504        2597.948          34.000  
 23 11 05 13 45 18.9950000  0 13G05G20G13G14G07G22G30G15G18G08G24G23
                                G17
  20795462.151   109280888.261       -3167.774          45.000  
  23029597.444   121021346.929       -3956.772          36.000  
  18568854.154    97579987.350        -538.622          46.000  
  19894749.684   104547616.088        -871.357          42.000  
  24080578.389   126544305.246       -3157.590          34.000  
  19732311.662   103693992.911         203.864          46.000  
  21535634.389   113170523.774       -2914.745          37.000  
  19340605.907   101635571.842        1848.779          47.000  
  23398610.238   122960519.290       -1924.003          39.000  
  24063366.848   126453918.661       -1878.223          32.000  
  21549378.235   113242750.174        3086.498          40.000  
  22383586.681   117626573.456        2711.328          33.000  
  23371796.336   122819618.228        2596.787          35.000  
 23 11 05 13 45 19.9950000  0 13G05G20G13G14G07G22G30G15G18G08G24G23
                                G17
  20796064.901   109284056.036       -3168.300          45.000  
  23030350.335   121025303.781       -3957.344          36.000  
  18568956.585    97580525.961        -539.301          46.000  
  19894915.589   104548487.677        -872.000          42.000  
  24081178.971   126547462.781       -3157.443          34.000  
  19732273.420   103693788.957         203.376          47.000  
  21536189.000   113173438.740       -2915.692          36.000  
  19340254.069   101633723.257        1848.089          47.000  
  23398975.898   122962443.218       -1924.411          39.000  
  24063724.563   126455797.674       -1879.622          33.000  
  21548790.978   113239664.052        3085.836          40.000  
  22383070.395   117623861.812        2711.487          33.000  
  23371302.224   122817021.333        2596.556          35.000  
 23 11 05 13 45 20.9950000  0 13G05G20G13G14G07G22G30G15G18G08G24G23
                                G17
  20796667.647   109287224.156       -3168.411          44.000  
  23031103.413   121029260.557       -3956.348          36.000  
  18569059.196    97581064.982        -539.264          46.000  
  19895081.622   104549359.858        -872.624          42.000  
  24081779.936   126550620.275       -3157.026          37.000  
  19732234.364   103693585.586         203.087          47.000  
  21536743.625   113176353.770       -2914.946          37.000  
  19339902.443   101631875.084        1847.876          47.000  
  23399342.076   122964367.530       -1924.918          38.000  
  24064082.126   126457677.170       -1879.464          33.000  
  21548203.599   113236578.114        3085.849          40.000  
  22382554.459   117621150.583        2711.133          33.000  
  23370808.158   122814424.414        2597.293          35.000  
 23 11 05 13 45 21.9950000  0 13G05G20G13G14G07G22G30G15G18G08G24G23
                                G17
  20797270.386   109290392.748       -3168.917          44.000  
  23031856.625   121033217.498       -3956.982          37.000  
  18569161.764    97581604.561        -539.749          46.000  
  19895247.647   104550232.743        -873.333          42.000  
  24082380.865   126553777.907       -3157.700          37.000  
  19732196.139   103693382.926         202.372          47.000  
  21537298.605   113179269.095       -2915.051          38.000  
  19339551.209   101630027.461        1847.412          47.000  
  23399708.177   122966292.399       -1925.412          38.000  
  24064440.087   126459557.191       -1879.827          32.000  
  21547616.583   113233492.453        3085.537          40.000  
  22382038.483   117618439.817        2710.962          32.000  
  23370314.138   122811827.803        2596.954          36.000  
 23 11 05 13 45 22.9950000  0 13G05G20G13G14G07G22G30G15G18G08G24G23
                                G17
  20797873.339   109293561.579       -3168.986          44.000  
  23032609.663   121037174.211       -3956.769          37.000  
  18569264.387    97582144.441        -540.199          46.000  
  19895414.223   104551106.073        -873.810          42.000  
  24082981.947   126556935.396       -3157.608          37.000  
  19732157.792   103693180.726         201.620          47.000  
  21537853.448   113182184.436       -2915.318          37.000  
  19339199.314   101628180.126        1846.906          47.000  
  23400074.669   122968217.533       -1925.429          39.000  
  24064798.338   126461437.645       -1880.973          32.000  
  21547029.455   113230406.837        3085.792          40.000  
  22381522.722   117615729.264        2710.681          33.000  
  23369820.005   122809231.070        2596.372          35.000  
 23 11 05 13 45 23.9950000  0 13G05G20G13G14G07G22G30G15G18G08G24G23
                                G17
  20798476.617   109296730.733       -3169.433          44.000  
  23033362.913   121041130.885       -3957.274          37.000  
  18569367.208    97582684.693        -540.687          46.000  
  19895580.694   104551979.946        -874.540          42.000  
  24083583.115   126560092.766       -3157.598          37.000  
  19732119.302   103692979.061         200.991          47.000  
  21538408.367   113185099.803       -2915.650          38.000  
  19338847.810   101626333.151        1846.576          47.000  
  23400441.114   122970143.004       -1925.557          39.000  
  24065155.094   126463318.503       -1880.742          32.000  
  21546442.619   113227321.388        3085.246          40.000  
  22381007.245   117613019.061        2709.937          33.000  
  23369326.233   122806634.421        2596.436          36.000  
 23 11 05 13 45 24.9950000  0 13G05G20G13G14G07G22G30G15G18G08G24G23
                                G17
  20799079.767   109299900.432       -3170.055          44.000  
  23034116.057   121045087.706       -3956.842          37.000  
  18569470.251    97583225.575        -541.197          46.000  
  19895746.721   104552854.599        -875.144          42.000  
  24084183.854   126563250.235       -3157.404          37.000  
  19732081.014   103692778.187         200.345          47.000  
  21538962.782   113188015.523       -2915.386          38.000  
  19338496.082   101624486.820        1846.057          47.000  
  23400807.549   122972069.156       -1926.646          39.000  
  24065515.317   126465200.129       -1882.285          31.000  
  21545855.415   113224236.310        3084.730          40.000  
  22380491.065   117610309.450        2709.338          32.000  
  23368831.980   122804038.075        2596.494          35.000  
 23 11 05 13 45 25.9950000  0 13G05G20G13G14G07G22G30G15G18G08G24G23
                                G17
  20799683.077   109303070.563       -3170.311          44.000  
  23034869.052   121049044.610       -3957.300          37.000  
  18569573.369    97583766.977        -541.661          46.000  
  19895913.373   104553729.895        -875.710          42.000  
  24084784.774   126566407.752       -3157.487          37.000  
  19732042.987   103692577.980         200.020          47.000  
  21539517.114   113190931.442       -2916.024          37.000  
  19338144.953   101622641.001        1845.630          47.000  
  23401173.952   122973995.757       -1927.197          38.000  
  24065875.186   126467082.231       -1881.485          32.000  
  21545268.527   113221151.480        3084.618          40.000  
  22379975.675   117607600.271        2709.369          33.000  
  23368337.803   122801441.837        2596.328          34.000  
 23 11 05 13 45 26.9950000  0 13G05G20G13G14G07G22G30G15G18G08G24G23
                                G17
  20800286.434   109306241.086       -3170.709          45.000  
  23035622.085   121053001.509       -3957.383          37.000  
  18569676.365    97584308.838        -542.171          46.000  
  19896079.968   104554605.831        -876.351          42.000  
  24085385.367   126569565.354       -3157.971          33.000  
  19732005.164   103692378.403         199.103          47.000  
  21540071.824   113193847.513       -2916.392          37.000  
  19337793.935   101620795.646        1845.032          47.000  
  23401540.666   122975922.816       -1927.217          38.000  
  24066236.151   126468964.969       -1883.747          33.000  
  21544681.563   113218066.863        3084.130          40.000  
  22379460.097   117604891.520        2708.276          33.000  
  23367843.451   122798845.716        2596.061          34.000  
 23 11 05 13 45 27.9950000  0 13G05G20G13G14G07G22G30G15G18G08G24G23
                                G17
  20800890.192   109309412.195       -3171.299          45.000  
  23036375.287   121056958.614       -3957.597          37.000  
  18569779.934    97584851.368        -542.912          46.000  
  19896246.794   104555482.570        -877.151          42.000  
  24085985.960   126572723.095       -3158.342          33.000  
  19731967.236   103692179.653         198.137          47.000  
  21540626.617   113196763.952       -2916.451          36.000  
  19337442.568   101618950.940        1844.269          47.000  
  23401907.367   122977850.536       -1928.000          38.000  
  24066588.649   126470848.350       -1883.798          33.000  
  21544094.616   113214982.653        3083.862          40.000  
  22378944.624   117602183.288        2708.746          33.000  
  23367349.418   122796249.968        2595.703          34.000  
 23 11 05 13 45 28.9950000  0 13G05G20G13G14G07G22G30G15G18G08G24G23
                                G17
  20801493.856   109312583.732       -3171.484          44.000  
  23037128.447   121060915.748       -3957.147          37.000  
  18569882.953    97585394.403        -543.205          46.000  
  19896413.581   104556359.979        -877.695          42.000  
  24086586.544   126575880.851       -3157.792          33.000  
  19731929.530   103691981.561         197.794          47.000  
  21541181.695   113199680.579       -2916.439          36.000  
  19337091.487   101617106.741        1844.012          47.000  
  23402274.670   122979778.772       -1928.461          39.000  
  24066949.710   126472732.262       -1883.807          32.000  
  21543507.903   113211898.712        3083.944          40.000  
  22378429.247   117599475.608        2707.361          33.000  
  23366855.295   122793654.406        2595.119          35.000  
 23 11 05 13 45 29.9950000  0 13G05G20G13G14G07G22G30G15G18G08G24G23
                                G17
  20802097.422   109315755.534       -3171.860          45.000  
  23037881.771   121064872.769       -3956.805          37.000  
  18569986.944    97585937.766        -543.361          46.000  
  19896580.665   104557237.865        -877.847          42.000  
  24087187.270   126579038.460       -3157.717          33.000  
  19731891.890   103691783.971         197.504          47.000  
  21541737.031   113202597.254       -2917.010          36.000  
  19336740.354   101615262.859        1843.921          47.000  
  23402641.949   122981707.290       -1928.197          39.000  
  24067302.830                       -1881.443          31.000  
  21542921.126   113208814.857        3084.062          40.000  
  22377913.967   117596768.139        2707.825          32.000  
  23366361.419   122791058.732        2596.333          35.000  
 23 11 05 13 45 30.9950000  0 13G05G20G13G14G07G22G30G15G18G08G24G23
                                G17
  20802701.311   109318927.950       -3172.442          45.000  
  23038634.964   121068830.029       -3957.147          37.000  
  18570090.639    97586481.808        -544.167          46.000  
  19896747.718   104558116.602        -878.965          42.000  
  24087788.286   126582196.308       -3158.071          34.000  
  19731854.519   103691587.211         196.697          47.000  
  21542292.362   113205514.265       -2916.807          37.000  
  19336389.853   101613419.659        1843.146          47.000  
  23403009.200   122983636.482       -1928.781          39.000  
  24067649.335   126476350.2263      -1885.548          30.000  
  21542334.110   113205731.430        3083.217          40.000  
  22377398.601   117594061.326        2707.300          32.000  
  23365867.934   122788463.498        2594.930          36.000  
 23 11 05 13 45 31.9950000  0 13G05G20G13G14G07G22G30G15G18G08G24G23
                                G17
  20803304.903   109322100.612       -3172.646          44.000  
  23039387.995   121072787.170       -3957.317          37.000  
  18570193.995    97587026.204        -544.740          46.000  
  19896914.996   104558995.795        -879.299          42.000  
  24088388.938   126585353.921       -3157.446          34.000  
  19731816.950   103691390.957         195.769          47.000  
  21542848.036   113208431.317       -2916.926          37.000  
  19336039.049   101611576.794        1842.419          47.000  
  23403376.588   122985566.032       -1930.311          39.000  
  24068013.298   126478235.8092      -1886.827          30.000  
  21541747.246   113202648.078        3083.312          40.000  
  22376883.551   117591354.805        2706.897          33.000  
  23365374.505   122785868.186        2595.686          36.000  
 23 11 05 13 45 32.9950000  0 13G05G20G13G14G07G22G30G15G18G08G24G23
                                G17
  20803908.482   109325273.839       -3172.942          44.000  
  23040140.937   121076744.469       -3956.677          37.000  
  18570297.747    97587571.218        -544.787          46.000  
  19897082.197   104559875.795        -879.618          42.000  
  24088990.192   126588511.748       -3157.107          34.000  
  19731779.747   103691195.473         195.951          47.000  
  21543403.605   113211348.706       -2916.978          38.000  
  19335688.374   101609734.535        1842.438          47.000  
  23403743.863   122987496.179       -1929.391          39.000  
  24068373.578   126480121.9092      -1885.513          30.000  
  21541160.356   113199565.099        3083.377          40.000  
  22376369.509   117588648.828        2706.329          34.000  
  23364881.030   122783273.227        2595.670          36.000  
 23 11 05 13 45 33.9950000  0 13G05G20G13G14G07G22G30G15G18G08G24G23
                                G17
  20804512.150   109328447.621       -3174.049          44.000  
  23040893.999   121080701.918       -3957.563          37.000  
  18570401.644    97588116.855        -545.984          46.000  
  19897249.787   104560756.556        -881.212          42.000  
  24089591.428   126591669.628       -3157.343          34.000  
  19731742.410   103691000.789         194.287          46.000  
  21543958.775   113214266.394       -2917.870          38.000  
  19335338.205   101607892.907        1841.394          47.000  
  23404110.799   122989426.966       -1931.086          38.000  
  24068739.762   126482008.7632      -1886.928          31.000  
  21540574.122   113196482.527        3082.128          40.000  
  22375854.882   117585943.391        2705.780          33.000  
  23364387.309   122780678.519        2594.267          37.000  
 23 11 05 13 45 34.9950000  0 13G05G20G13G14G07G22G30G15G18G08G24G23
                                G17
  20805115.749   109331621.710       -3174.243          44.000  
  23041647.198   121084659.321       -3957.649          37.000  
  18570505.560    97588662.883        -546.223          46.000  
  19897417.621   104561637.860        -881.581          42.000  
  24090192.686   126594827.486       -3157.510          36.000  
  19731705.415   103690806.636         193.862          46.000  
  21544514.250   113217184.161       -2917.254          38.000  
  19334987.940   101606051.655        1841.083          47.000  
  23404478.386   122991358.092       -1931.494          39.000  
  24069096.909   126483896.0942      -1887.786          31.000  
  21539987.411   113193400.061        3082.364          40.000  
  22375340.448   117583238.343        2704.352          33.000  
  23363893.808   122778083.808        2595.126          34.000  
 23 11 05 13 45 35.9950000  0 13G05G20G13G14G07G22G30G15G18G08G24G23
                                G17
  20805720.041   109334796.330       -3175.093          44.000  
  23042400.518   121088616.854       -3957.935          37.000  
  18570609.340    97589209.499        -547.041          46.000  
  19897585.700   104562519.892        -882.435          42.000  
  24090793.934   126597985.428       -3158.098          36.000  
  19731668.597   103690613.231         192.921          46.000  
  21545069.822   113220102.232       -2918.438          38.000  
  19334637.679   101604210.981        1840.228          47.000  
  23404846.387   122993289.774       -1932.136          39.000  
  24069459.967   126485784.0702      -1888.789          31.000  
  21539401.105   113190317.938        3081.905          40.000  
  22374825.963   117580533.779        2703.961          33.000  
  23363399.723   122775489.430        2594.060          34.000  
 23 11 05 13 45 36.9950000  0 13G05G20G13G14G07G22G30G15G18G08G24G23
                                G17
  20806324.355   109337971.473       -3175.081          44.000  
  23043153.706   121092574.507       -3957.502          37.000  
  18570713.512    97589756.695        -547.313          46.000  
  19897753.885   104563402.667        -882.723          42.000  
  24091395.170   126601143.638       -3159.366          35.000  
  19731631.788   103690420.574         192.514          46.000  
  21545624.987   113223020.576       -2918.058          38.000  
  19334287.589   101602370.885        1840.192          47.000  
  23405214.102   122995222.074       -1932.476          39.000  
  24069820.408   126487672.6732      -1888.577          31.000  
  21538814.885   113187236.176        3081.769          40.000  
  22374311.576   117577829.752        2703.418          33.000  
  23362905.938   122772895.292        2592.706          33.000  
 23 11 05 13 45 37.9950000  0 13G05G20G13G14G07G22G30G15G18G08G24G23
                                G17
  20806928.580   109341146.815       -3175.879          44.000  
  23043906.866   121096531.934       -3957.406          37.000  
  18570817.642    97590304.165        -547.815          46.000  
  19897922.007   104564285.891        -883.680          42.000  
  24091995.918   126604301.418       -3158.129          33.000  
  19731595.245   103690228.349         191.833          46.000  
  21546179.983   113225938.903       -2918.914          38.000  
  19333937.683   101600531.052        1839.539          47.000  
  23405582.160   122997154.606       -1933.163          39.000  
  24070178.449   126489561.5872      -1889.324          31.000  
  21538228.396   113184154.413        3081.432          40.000  
  22373797.761   117575125.925        2702.899          33.000  
  23362412.317   122770300.998        2594.080          34.000  
 23 11 05 13 45 38.9950000  0 13G05G20G13G14G07G22G30G15G18G08G24G23
                                G17
  20807533.058   109344322.752       -3175.896          44.000  
  23044659.911   121100489.645       -3957.488          37.000  
  18570922.011    97590852.321        -548.157          46.000  
  19898090.002   104565169.920        -884.039          42.000  
  24092596.805   126607459.443       -3157.504          34.000  
  19731558.883   103690036.973         191.388          46.000  
  21546735.596   113228857.581       -2918.771          38.000  
  19333587.822   101598691.904        1839.136          47.000  
  23405949.636   122999087.785       -1932.988          38.000  
  24070540.807   126491451.2572      -1889.552          32.000  
  21537642.038   113181073.090        3081.356          40.000  
  22373283.534   117572422.743        2703.302          33.000  
  23361918.657   122767707.075        2593.960          35.000  
 23 11 05 13 45 39.9950000  0 13G05G20G13G14G07G22G30G15G18G08G24G23
                                G17
  20808137.424   109347499.050       -3176.391          44.000  
  23045412.962   121104447.327       -3957.738          37.000  
  18571026.252    97591400.916        -548.863          46.000  
  19898258.525   104566054.549        -885.035          42.000  
  24093197.749   126610617.512       -3157.910          34.000  
  19731522.663   103689846.198         190.454          46.000  
  21547290.903   113231776.372       -2918.570          38.000  
  19333238.019   101596853.189        1838.568          47.000  
  23406317.983   123001021.423       -1933.810          38.000  
  24070894.080   126493341.4112      -1891.331          32.000  
  21537055.742   113177991.962        3080.987          40.000  
  22372769.075   117569719.943        2702.185          33.000  
  23361425.215   122765113.296        2592.913          34.000  
 23 11 05 13 45 40.9950000  0 13G05G20G13G14G07G22G30G15G18G08G24G23
                                G17
  20808741.933   109350675.844       -3177.111          44.000  
  23046166.185   121108405.120       -3957.820          37.000  
  18571130.845    97591950.079        -549.510          46.000  
  19898427.001   104566939.887        -885.808          42.000  
  24093798.715   126613775.601       -3158.219          35.000  
  19731486.369   103689656.141         189.721          46.000  
  21547846.579   113234695.454       -2919.117          38.000  
  19332888.282   101595015.040        1837.720          47.000  
  23406685.873   123002955.591       -1934.418          38.000  
  24071253.852   126495232.1972      -1890.720          32.000  
  21536469.541   113174911.128        3080.754          40.000  
  22372254.913   117567017.649        2701.801          33.000  
  23360931.771   122762519.685        2593.811          34.000  
 23 11 05 13 45 41.9950000  0 13G05G20G13G14G07G22G30G15G18G08G24G23
                                G17
  20809346.655   109353853.088       -3177.667          44.000  
  23046919.374   121112362.962       -3957.679          37.000  
  18571235.528    97592499.774        -550.042          46.000  
  19898595.873   104567825.901        -886.285          42.000  
  24094400.148   126616933.826       -3158.315          35.000  
  19731450.147   103689466.786         188.909          46.000  
  21548402.115   113237614.742       -2919.610          38.000  
  19332538.577   101593177.402        1837.421          47.000  
  23407053.759   123004890.280       -1935.163          38.000  
  24071618.179   126497123.5512      -1891.663          32.000  
  21535883.181   113171830.600        3080.271          40.000  
  22371740.634   117564315.801        2701.569          32.000  
  23360438.490   122759926.277        2593.090          35.000  
 23 11 05 13 45 42.9950000  0 13G05G20G13G14G07G22G30G15G18G08G24G23
                                G17
  20809951.769   109357030.739       -3177.414          45.000  
  23047672.359   121116320.894       -3957.705          37.000  
  18571340.289    97593049.941        -550.151          46.000  
  19898764.638   104568712.552        -886.433          42.000  
  24095001.391   126620091.966       -3157.615          35.000  
  19731414.210   103689278.057         188.627          46.000  
  21548958.044   113240534.221       -2919.061          38.000  
  19332189.158   101591340.255        1837.366          48.000  
  23407421.472   123006825.455       -1935.252          38.000  
  24071981.273   126499014.9871      -1891.816          32.000  
  21535296.923   113168750.296        3080.391          40.000  
  22371226.306   117561614.323        2702.399          32.000  
  23359945.273   122757333.041        2593.620          35.000  
 23 11 05 13 45 43.9950000  0 13G05G20G13G14G07G22G30G15G18G08G24G23
                                G17
  20810556.810   109360208.820       -3178.248          44.000  
  23048425.637   121120278.815       -3958.046          37.000  
  18571444.589    97593600.598        -550.956          46.000  
  19898933.493   104569599.848        -887.618          42.000  
  24095602.616   126623250.166       -3158.259          35.000  
  19731378.296   103689089.972         187.775          46.000  
  21549514.002   113243453.852       -2919.712          38.000  
  19331839.288   101589503.588        1836.359          48.000  
  23407789.545   123008761.081       -1935.921          38.000  
  24072337.240   126500907.380       -1892.505          33.000  
  21534710.775   113165670.217        3080.015          40.000  
  22370712.140   117558913.377        2701.233          32.000  
  23359452.073   122754739.946        2592.592          35.000  
 23 11 05 13 45 44.9950000  0 13G05G20G13G14G07G22G30G15G18G08G24G23
                                G17
  20811161.543   109363387.446       -3178.903          44.000  
  23049178.697   121124236.905       -3958.047          37.000  
  18571549.659    97594151.891        -551.495          46.000  
  19899102.568   104570487.929        -888.286          42.000  
  24096204.123   126626408.455       -3158.058          38.000  
  19731342.414   103688902.679         187.057          46.000  
  21550069.979   113246373.814       -2920.338          39.000  
  19331490.201   101587667.539        1835.779          48.000  
  23408157.819   123010697.328       -1936.526          38.000  
  24072699.692   126502800.582       -1893.729          34.000  
  21534124.218   113162590.504        3079.721          40.000  
  22370197.906   117556213.003        2700.189          32.000  
  23358958.911   122752147.107        2593.049          35.000  
 23 11 05 13 45 45.9950000  0 13G05G20G13G14G07G22G30G15G18G08G24G23
                                G17
  20811766.751   109366566.289       -3178.795          44.000  
  23049931.556   121128194.800       -3957.433          36.000  
  18571654.510    97594703.480        -551.541          46.000  
  19899272.104   104571376.439        -888.553          42.000  
  24096805.403   126629566.627       -3158.362          38.000  
  19731306.994   103688715.818         187.021          46.000  
  21550625.877   113249293.763       -2919.646          39.000  
  19331141.029   101585831.766        1835.925          48.000  
  23408526.228   123012633.853       -1936.802          39.000  
  24073059.585   126504694.050       -1893.135          34.000  
  21533537.930   113159510.849        3079.666          39.000  
  22369683.659   117553512.792        2700.629          32.000  
  23358465.580   122749554.223        2592.974          35.000  
 23 11 05 13 45 46.9950000  0 13G05G20G13G14G07G22G30G15G18G08G24G23
                                G17
  20812372.053   109369745.716       -3179.398          44.000  
  23050684.987   121132152.968       -3958.357          37.000  
  18571759.947    97595255.735        -552.287          46.000  
  19899441.282   104572265.779        -889.530          42.000  
  24097406.805   126632724.951       -3158.070          38.000  
  19731271.369   103688529.824         185.576          46.000  
  21551181.529   113252214.082       -2920.545          39.000  
  19330791.799   101583996.682        1834.918          48.000  
  23408894.646   123014571.010       -1937.505          39.000  
  24073419.751   126506588.271       -1894.736          34.000  
  21532951.629   113156431.608        3079.225          39.000  
  22369169.588   117550813.186        2700.543          32.000  
  23357972.173   122746961.697        2592.243          35.000  
 23 11 05 13 45 47.9950000  0 13G05G20G13G14G07G22G30G15G18G08G24G23
                                G17
  20812976.716   109372925.429       -3180.135          44.000  
  23051438.232   121136110.950       -3957.765          37.000  
  18571865.396    97595808.327        -552.738          46.000  
  19899610.564   104573155.597        -890.111          43.000  
  24098008.200   126635883.155       -3158.170          37.000  
  19731236.246   103688344.302         185.113          46.000  
  21551737.412   113255134.420       -2920.749          39.000  
  19330442.632   101582161.913        1834.454          48.000  
  23409263.705   123016508.517       -1938.049          39.000  
  24073779.963   126508482.888       -1895.177          34.000  
  21532365.642   113153352.467        3078.955          39.000  
  22368655.588   117548113.931        2698.560          32.000  
  23357478.628   122744369.118        2592.113          35.000  
 23 11 05 13 45 48.9950000  0 13G05G20G13G14G07G22G30G15G18G08G24G23
                                G17
  20813581.401   109376105.315       -3180.264          44.000  
  23052191.379   121140068.763       -3957.915          37.000  
  18571970.283    97596361.184        -553.070          46.000  
  19899779.842   104574045.844        -890.522          42.000  
  24098609.661   126639041.152       -3157.810          37.000  
  19731201.078   103688159.201         184.594          46.000  
  21552293.171   113258054.704       -2920.322          38.000  
  19330093.435   101580327.400        1834.289          48.000  
  23409632.707   123018446.244       -1938.036          39.000  
  24074140.364   126510377.815       -1895.722          34.000  
  21531779.797   113150273.355        3078.589          39.000  
  22368141.219   117545414.847        2698.969          32.000  
  23356985.103   122741776.482        2592.900          34.000  
 23 11 05 13 45 49.9950000  0 13G05G20G13G14G07G22G30G15G18G08G24G23
                                G17
  20814186.043   109379285.605       -3181.215          44.000  
  23052944.491   121144026.577       -3958.540          37.000  
  18572075.508    97596914.498        -554.092          46.000  
  19899949.427   104574936.702        -891.708          43.000  
  24099210.859   126642199.157       -3158.893          36.000  
  19731166.210   103687974.729         183.558          46.000  
  21552848.991   113260975.165       -2921.130          39.000  
  19329744.232   101578493.354        1833.282          47.000  
  23410001.836   123020384.437       -1938.742          39.000  
  24074500.958   126512273.301       -1896.465          34.000  
  21531193.893   113147194.429        3078.566          39.000  
  22367627.242   117542716.177        2697.186          32.000  
  23356491.234   122739184.057        2591.604          33.000  
 23 11 05 13 45 50.9950000  0 13G05G20G13G14G07G22G30G15G18G08G24G23
                                G17
  20814791.007   109382466.474       -3181.023          44.000  
  23053697.767   121147984.585       -3957.787          36.000  
  18572180.831    97597468.482        -554.216          46.000  
  19900119.473   104575828.378        -891.854          43.000  
  24099811.744   126645357.363       -3158.396          36.000  
  19731131.126   103687791.084         183.341          46.000  
  21553404.920   113263895.979       -2920.807          39.000  
  19329395.488   101576659.974        1833.173          47.000  
  23410370.788   123022323.276       -1938.626          39.000  
  24074861.617   126514169.477       -1897.124          34.000  
  21530607.984   113144115.928        3078.576          39.000  
  22367113.475   117540018.110        2697.498          31.000  
  23355997.907   122736591.856        2592.364          33.000  
 23 11 05 13 45 51.9950000  0 13G05G20G13G14G07G22G30G15G18G08G24G23
                                G17
  20815396.449   109385647.949       -3181.805          44.000  
  23054451.043   121151942.846       -3958.916          36.000  
  18572286.413    97598023.123        -555.261          46.000  
  19900289.323   104576720.872        -893.425          43.000  
  24100412.982   126648515.708       -3158.820          36.000  
  19731096.409   103687608.273         182.034          46.000  
  21553960.806   113266817.168       -2921.645          39.000  
  19329046.738   101574827.253        1832.019          48.000  
  23410739.923   123024262.777       -1940.043          38.000  
  24075222.871   126516066.351       -1897.842          34.000  
  21530022.497   113141037.852        3077.572          39.000  
  22366599.479   117537320.619        2696.753          32.000  
  23355504.127   122734000.022        2591.500          32.000  
 23 11 05 13 45 52.9950000  0 13G05G20G13G14G07G22G30G15G18G08G24G23
                                G17
  20816001.738   109388829.939       -3182.122          44.000  
  23055204.253   121155901.171       -3958.160          36.000  
  18572391.898    97598578.350        -555.468          46.000  
  19900459.561   104577614.086        -893.550          42.000  
  24101014.192   126651674.185       -3158.671          36.000  
  19731061.685   103687426.196         181.704          46.000  
  21554516.770   113269738.617       -2921.666          39.000  
  19328698.085   101572995.107        1831.854          48.000  
  23411109.109   123026202.843       -1940.464          38.000  
  24075583.988   126517963.906       -1898.280          34.000  
  21529436.573   113137960.089        3077.803          39.000  
  22366085.969   117534623.689        2697.272          32.000  
  23355010.616   122731408.339        2592.152          32.000  
 23 11 05 13 45 53.9950000  0 13G05G20G13G14G07G22G30G15G18G08G24G23
                                G17
  20816607.705   109392012.212       -3182.426          44.000  
  23055957.348   121159859.424       -3958.356          36.000  
  18572497.903    97599133.942        -555.767          46.000  
  19900629.340   104578507.826        -893.953          42.000  
  24101615.355   126654832.525       -3158.240          36.000  
  19731027.023   103687244.653         181.088          46.000  
  21555072.891   113272660.117       -2921.503          39.000  
  19328349.546   101571163.322        1831.470          48.000  
  23411478.257   123028143.259       -1940.724          38.000  
  24075945.068   126519861.886       -1898.674          34.000  
  21528851.007   113134882.469        3077.542          39.000  
  22365572.492   117531927.023        2697.198          31.000  
  23354517.252   122728816.764        2591.704          32.000  
 23 11 05 13 45 54.9950000  0 13G05G20G13G14G07G22G30G15G18G08G24G23
                                G17
  20817213.771   109395195.101       -3183.052          44.000  
  23056710.388   121163817.916       -3958.839          36.000  
  18572603.783    97599690.223        -556.418          46.000  
  19900799.406   104579402.402        -894.685          42.000  
  24102216.680   126657991.102       -3158.250          36.000  
  19730992.687   103687063.952         180.416          46.000  
  21555629.154   113275582.022       -2921.949          39.000  
  19328001.119   101569332.226        1831.036          48.000  
  23411847.347   123030084.336       -1941.029          38.000  
  24076306.392   126521760.609       -1899.321          34.000  
  21528265.303   113131805.285        3077.487          39.000  
  22365059.290   117529231.063        2695.624          32.000  
  23354023.858   122726225.545        2591.182          31.000  
 23 11 05 13 45 55.9950000  0 13G05G20G13G14G07G22G30G15G18G08G24G23
                                G17
  20817819.878   109398378.237       -3183.185          44.000  
  23057463.504   121167776.249       -3957.546          36.000  
  18572709.832    97600246.838        -556.810          46.000  
  19900969.345   104580297.454        -895.023          42.000  
  24102817.703   126661149.557       -3158.652          36.000  
  19730958.535   103686883.741         180.225          46.000  
  21556185.456   113278503.915       -2921.579          39.000  
  19327652.660   101567501.461        1830.652          48.000  
  23412216.763   123032025.753       -1941.251          38.000  
  24076667.769   126523659.677       -1898.977          34.000  
  21527679.689   113128728.184        3076.876          39.000  
  22364546.271   117526535.375        2695.300          32.000  
  23353530.244   122723634.267        2591.234          31.000  
 23 11 05 13 45 56.9950000  0 13G05G20G13G14G07G22G30G15G18G08G24G23
                                G17
  20818426.062   109401561.714       -3183.370          45.000  
  23058216.538   121171734.584       -3958.385          35.000  
  18572815.665    97600803.854        -557.115          46.000  
  19901139.580   104581193.087        -895.732          42.000  
  24103418.486   126664307.915       -3157.942          37.000  
  19730924.402   103686704.099         179.694          46.000  
  21556741.943   113281425.934       -2921.877          40.000  
  19327304.297   101565671.097        1830.243          47.000  
  23412585.881   123033967.544       -1941.785          38.000  
  24077029.169   126525559.254       -1899.674          34.000  
  21527094.198   113125651.227        3076.925          39.000  
  22364033.014   117523840.022        2694.977          32.000  
  23353036.924   122721043.108        2591.504          33.000  
 23 11 05 13 45 57.9950000  0 13G05G20G13G14G07G22G30G15G18G08G24G23
                                G17
  20819032.023   109404745.722       -3184.066          45.000  
  23058969.735   121175692.989       -3957.563          35.000  
  18572921.878    97601361.488        -557.757          46.000  
  19901310.121   104582089.480        -896.725          42.000  
  24104019.434   126667466.445       -3158.531          37.000  
  19730890.326   103686525.241         178.510          46.000  
  21557298.169   113284348.249       -2922.360          40.000  
  19326955.655   101563841.343        1829.651          47.000  
  23412955.329   123035909.945       -1942.795          38.000  
  24077390.866   126527459.496       -1900.872          34.000  
  21526508.902   113122574.641        3076.476          39.000  
  22363520.192   117521145.188        2694.531          33.000  
  23352543.979   122718452.201        2590.977          33.000  
 23 11 05 13 45 58.9950000  0 13G05G20G13G14G07G22G30G15G18G08G24G23
                                G17
  20819638.206   109407930.073       -3184.554          45.000  
  23059723.092   121179651.437       -3958.509          35.000  
  18573028.109    97601919.515        -558.339          46.000  
  19901480.708   104582986.397        -897.080          42.000  
  24104620.361   126670624.871       -3158.033          37.000  
  19730856.307   103686346.923         177.976          46.000  
  21557854.383   113287270.663       -2922.528          39.000  
  19326607.381   101562011.992        1829.034          47.000  
  23413325.245   123037852.695       -1943.203          38.000  
  24077752.928   126529360.199       -1901.324          35.000  
  21525923.388   113119498.193        3076.217          39.000  
  22363007.587   117518450.725        2694.031          33.000  
  23352050.736   122715861.343        2590.710          32.000  
 23 11 05 13 45 59.9950000  0 13G05G20G13G14G07G22G30G15G18G08G24G23
                                G17
  20820244.204   109411114.655       -3185.245          44.000  
  23060476.040   121183609.652       -3958.170          35.000  
  18573134.169    97602477.839        -558.825          46.000  
  19901651.419   104583883.799        -898.348          42.000  
  24105221.246   126673783.106       -3158.526          37.000  
  19730822.670   103686169.075         177.214          46.000  
  21558410.323   113290193.067       -2923.128          39.000  
  19326259.214   101560182.932        1828.454          47.000  
  23413695.078   123039795.728       -1943.616          38.000  
  24078114.743   126531261.219       -1902.316          35.000  
  21525337.973   113116421.811        3076.051          39.000  
  22362494.902   117515756.509        2693.787          33.000  
  23351557.470   122713270.438        2590.229          32.000  
 23 11 05 13 46 00.9950000  0 13G05G20G13G14G07G22G30G15G18G08G24G23
                                G17
  20820850.146   109414299.905       -3185.355          44.000  
  23061229.218   121187568.208       -3958.490          35.000  
  18573240.489    97603036.928        -559.446          46.000  
  19901822.425   104584782.102        -898.544          42.000  
  24105822.617   126676941.681       -3158.853          37.000  
  19730788.995   103685992.155         176.750          46.000  
  21558966.429   113293115.913       -2922.875          39.000  
  19325911.118   101558354.646        1828.033          47.000  
  23414064.742   123041739.558       -1944.356          38.000  
  24078476.772   126533163.126       -1902.428          34.000  
  21524752.695   113113345.970        3075.568          39.000  
  22361982.090   117513062.989        2693.164          33.000  
  23351064.851   122710680.004        2589.694          33.000  
 23 11 05 13 46 01.9950000  0 13G05G20G13G14G07G22G30G15G18G08G24G23
                                G17
  20821455.904   109417485.492       -3185.949          44.000  
  23061982.376   121191526.696       -3958.611          35.000  
  18573347.038    97603596.420        -559.592          46.000  
  19901993.437   104585680.964        -899.033          42.000  
  24106423.917   126680100.057       -3158.189          37.000  
  19730755.194   103685815.796         176.042          46.000  
  21559522.629   113296038.881       -2922.777          39.000  
  19325563.110   101556526.754        1827.673          47.000  
  23414434.944   123043683.760       -1944.788          38.000  
  24078839.090   126535065.460       -1902.508          34.000  
  21524167.297   113110270.265        3075.350          39.000  
  22361469.671   117510369.815        2693.359          33.000  
  23350572.286   122708089.606        2590.451          34.000  
 23 11 05 13 46 02.9950000  0 13G05G20G13G14G07G22G30G15G18G08G24G23
                                G17
  20822061.893   109420671.398       -3186.138          44.000  
  23062735.581   121195485.112       -3958.672          35.000  
  18573453.807    97604156.311        -560.118          46.000  
  19902164.495   104586580.344        -899.473          42.000  
  24107025.003   126683258.451       -3158.153          38.000  
  19730721.768   103685639.981         175.649          46.000  
  21560078.883   113298961.949       -2923.336          39.000  
  19325215.270   101554699.234        1827.246          47.000  
  23414805.071   123045628.336       -1945.089          38.000  
  24079201.333   126536968.212       -1902.716          34.000  
  21523582.005   113107194.667        3075.526          39.000  
  22360957.531   117507677.016        2692.108          34.000  
  23350079.319   122705499.266        2590.309          34.000  
 23 11 05 13 46 03.9950000  0 13G05G20G13G14G07G22G30G15G18G08G24G23
                                G17
  20822668.203   109423857.958       -3186.994          44.000  
  23063488.864   121199443.794       -3959.137          35.000  
  18573560.395    97604716.951        -561.031          46.000  
  19902335.777   104587480.645        -900.714          42.000  
  24107626.268   126686417.115       -3158.912          38.000  
  19730688.371   103685465.082         174.519          46.000  
  21560635.353   113301885.408       -2923.709          39.000  
  19324867.680   101552872.460        1826.300          47.000  
  23415175.382   123047573.620       -1945.777          38.000  
  24079563.451   126538871.847       -1903.918          33.000  
  21522996.732   113104119.595        3075.181          39.000  
  22360445.439   117504984.852        2691.705          34.000  
  23349586.547   122702909.323        2589.470          33.000  
 23 11 05 13 46 04.9950000  0 13G05G20G13G14G07G22G30G15G18G08G24G23
                                G17
  20823274.583   109427044.746       -3186.825          44.000  
  23064242.393   121203402.344       -3958.206          36.000  
  18573667.173    97605277.893        -561.070          46.000  
  19902507.468   104588381.414        -901.013          42.000  
  24108227.502   126689575.555       -3157.891          38.000  
  19730655.248   103685290.651         174.081          46.000  
  21561191.454   113304808.897       -2923.490          39.000  
  19324520.135   101551046.002        1826.288          47.000  
  23415545.582   123049519.217       -1945.921          38.000  
  24079925.585   126540775.811       -1904.753          33.000  
  21522411.831   113101044.599        3075.130          39.000  
  22359933.624   117502292.970        2691.955          34.000  
  23349093.803   122700319.362        2590.239          34.000  
 23 11 05 13 46 05.9950000  0 13G05G20G13G14G07G22G30G15G18G08G24G23
                                G17
  20823881.139   109430231.937       -3187.766          44.000  
  23064996.039   121207360.923       -3958.992          36.000  
  18573773.667    97605839.315        -561.949          46.000  
  19902679.076   104589282.774        -901.938          42.000  
  24108828.448   126692734.052       -3159.019          38.000  
  19730622.136   103685116.848         173.079          46.000  
  21561748.007   113307732.549       -2924.057          40.000  
  19324172.583   101549220.022        1825.293          47.000  
  23415915.928   123051465.265       -1946.552          38.000  
  24080287.653   126542680.244       -1904.501          32.000  
  21521826.862   113097969.841        3074.055          39.000  
  22359421.735   117499601.512        2690.778          35.000  
  23348601.020   122697729.511        2589.631          34.000  
 23 11 05 13 46 06.9950000  0 13G05G20G13G14G07G22G30G15G18G08G24G23
                                G17
  20824487.654   109433419.648       -3187.981          44.000  
  23065749.406   121211319.622       -3958.590          36.000  
  18573880.556    97606401.314        -562.282          46.000  
  19902850.869   104590184.907        -902.615          42.000  
  24109429.822   126695892.610       -3158.677          39.000  
  19730589.164   103684943.783         172.807          46.000  
  21562304.625   113310656.477       -2924.220          39.000  
  19323825.271   101547394.614        1825.189          47.000  
  23416285.986   123053411.909       -1947.220          38.000  
  24080650.131   126544585.403       -1905.578          32.000  
  21521241.608   113094895.380        3074.383          39.000  
  22358909.872   117496910.573        2690.356          35.000  
  23348108.171   122695139.948        2589.269          34.000  
 23 11 05 13 46 07.9950000  0 13G05G20G13G14G07G22G30G15G18G08G24G23
                                G17
  20825094.460   109436607.646       -3188.006          44.000  
  23066502.988   121215278.198       -3958.152          36.000  
  18573987.857    97606963.680        -562.494          46.000  
  19903022.797   104591087.536        -902.781          42.000  
  24110030.886   126699051.076       -3157.981          38.000  
  19730556.397   103684771.261         172.392          46.000  
  21562860.674   113313580.445       -2923.754          39.000  
  19323478.241   101545569.572        1824.829          47.000  
  23416656.138   123055358.857       -1946.935          38.000  
  24081012.404   126546490.931       -1905.357          32.000  
  21520656.583   113091821.065        3074.271          39.000  
  22358397.909   117494219.952        2690.320          35.000  
  23347615.449   122692550.375        2589.517          33.000  
 23 11 05 13 46 08.9950000  0 13G05G20G13G14G07G22G30G15G18G08G24G23
                                G17
  20825701.407   109439796.214       -3188.577          44.000  
  23067256.316   121219237.010       -3958.586          36.000  
  18574094.928    97607526.703        -563.162          46.000  
  19903194.675   104591990.975        -903.652          42.000  
  24110631.893   126702209.712       -3158.507          38.000  
  19730523.867   103684599.551         171.657          46.000  
  21563417.090   113316504.793       -2924.214          39.000  
  19323131.230   101543745.184        1824.280          47.000  
  23417026.798   123057306.479       -1947.754          39.000  
  24081374.915   126548397.230       -1906.512          32.000  
  21520071.953   113088747.125        3074.336          39.000  
  22357886.267   117491529.916        2689.941          35.000  
  23347122.903   122689961.050        2589.812          33.000  
 23 11 05 13 46 09.9950000  0 13G05G20G13G14G07G22G30G15G18G08G24G23
                                G17
  20826308.519   109442985.212       -3189.224          44.000  
  23068010.023   121223195.825       -3958.927          36.000  
  18574202.055    97608090.207        -563.729          46.000  
  19903366.658   104592895.055        -904.307          42.000  
  24111233.125   126705368.376       -3158.154          37.000  
  19730491.155   103684428.487         170.917          46.000  
  21563973.224   113319429.309       -2924.657          39.000  
  19322783.949   101541921.270        1823.767          47.000  
  23417397.674   123059254.558       -1948.256          39.000  
  24081737.761   126550304.017       -1906.924          32.000  
  21519487.259   113085673.464        3073.723          40.000  
  22357374.755   117488840.346        2689.001          35.000  
  23346630.301   122687371.989        2590.048          35.000  
 23 11 05 13 46 10.9950000  0 13G05G20G13G14G07G22G30G15G18G08G24G23
                                G17
  20826915.222   109446174.344       -3189.452          44.000  
  23068763.282   121227154.423       -3959.238          36.000  
  18574309.253    97608653.937        -564.098          46.000  
  19903538.649   104593799.513        -905.084          42.000  
  24111834.246   126708526.814       -3158.841          37.000  
  19730458.687   103684257.818         170.038          46.000  
  21564529.683   113322353.740       -2924.765          39.000  
  19322437.270   101540097.591        1823.163          47.000  
  23417768.315   123061202.857       -1948.724          39.000  
  24082100.255   126552211.172       -1907.509          31.000  
  21518902.481   113082599.771        3073.173          39.000  
  22356863.069   117486150.900        2688.568          36.000  
  23346137.660   122684782.825        2589.106          32.000  
 23 11 05 13 46 11.9950000  0 13G05G20G13G14G07G22G30G15G18G08G24G23
                                G17
  20827522.520   109449363.810       -3190.087          44.000  
  23069516.494   121231112.928       -3959.024          36.000  
  18574416.289    97609218.072        -564.849          46.000  
  19903710.922   104594704.507        -905.829          42.000  
  24112435.268   126711685.150       -3158.741          37.000  
  19730426.332   103684087.696         169.409          46.000  
  21565086.159   113325278.266       -2924.735          39.000  
  19322090.355   101538274.301        1822.528          47.000  
  23418139.428   123063151.529       -1949.713          39.000  
  24082461.771   126554118.729       -1907.964          31.000  
  21518317.521   113079526.223        3072.845          40.000  
  22356351.596   117483461.821        2688.318          36.000  
  23345644.693   122682193.635        2588.068          31.000  
 23 11 05 13 46 12.9950000  0 13G05G20G13G14G07G22G30G15G18G08G24G23
                                G17
  20828129.493   109452553.777       -3190.218          44.000  
  23070270.322   121235071.532       -3958.423          37.000  
  18574523.773    97609782.777        -564.839          46.000  
  19903883.130   104595610.239        -905.569          42.000  
  24113036.402   126714843.574       -3158.655          37.000  
  19730394.077   103683918.323         168.885          46.000  
  21565642.647   113328203.062       -2925.012          39.000  
  19321743.384   101536451.590        1822.479          47.000  
  23418510.209   123065100.765       -1949.293          38.000  
  24082819.256   126556026.927       -1907.304          31.000  
  21517732.705   113076453.019        3073.100          39.000  
  22355840.266   117480773.250        2688.831          36.000  
  23345151.825   122679604.837        2587.682          30.000  
 23 11 05 13 46 13.9950000  0 13G05G20G13G14G07G22G30G15G18G08G24G23
                                G17
  20828736.739   109455744.112       -3190.187          44.000  
  23071023.811   121239030.177       -3958.478          37.000  
  18574631.507    97610347.953        -565.385          46.000  
  19904055.904   104596516.600        -906.429          42.000  
  24113636.962   126718002.018       -3158.845          37.000  
  19730362.067   103683749.575         168.633          46.000  
  21566199.143   113331128.042       -2925.143          39.000  
  19321396.914   101534629.357        1822.003          48.000  
  23418881.375   123067050.456       -1950.059          38.000  
  24083188.893   126557935.658       -1908.920          32.000  
  21517147.975   113073380.051        3072.523          39.000  
  22355328.896   117478085.121        2687.701          36.000  
  23344656.599   122677016.054        2587.787          31.000  
 23 11 05 13 46 14.9950000  0 13G05G20G13G14G07G22G30G15G18G08G24G23
                                G17
  20829343.926   109458934.876       -3190.762          44.000  
  23071777.368   121242988.864       -3958.473          37.000  
  18574739.172    97610913.636        -565.793          46.000  
  19904228.343   104597423.609        -907.296          42.000  
  24114237.924   126721160.449       -3158.749          37.000  
  19730329.801   103683581.502         167.740          46.000  
  21566755.781   113334053.191       -2925.225          39.000  
  19321050.198   101532807.608        1821.558          47.000  
  23419252.707   123069000.612       -1950.342          38.000  
  24083554.231   126559844.932       -1909.313          32.000  
  21516562.993   113070307.285        3073.132          40.000  
  22354817.670   117475397.417        2687.830          36.000  
  23344158.258   122674427.404        2589.497          31.000  
 23 11 05 13 46 15.9950000  0 13G05G20G13G14G07G22G30G15G18G08G24G23
                                G17
  20829950.986   109462125.939       -3191.258          44.000  
  23072530.509   121246947.452       -3958.371          36.000  
  18574846.978    97611479.693        -566.350          46.000  
  19904400.869   104598331.142        -907.936          42.000  
  24114839.027   126724318.779       -3158.215          37.000  
  19730297.883   103683413.953         167.272          46.000  
  21567312.563   113336978.386       -2924.974          39.000  
  19320703.658   101530986.235        1821.222          47.000  
  23419623.997   123070951.158       -1950.927          38.000  
  24083915.224   126561754.682       -1910.815          31.000  
  21515978.219   113067234.683        3072.429          40.000  
  22354306.516   117472710.065        2687.024          37.000  
  23343672.703   122671838.801        2588.857          33.000  
 23 11 05 13 46 16.9950000  0 13G05G20G13G14G07G22G30G15G18G08G24G23
                                G17
  20830558.230   109465317.496       -3192.100          44.000  
  23073283.935   121250906.160       -3959.074          36.000  
  18574954.946    97612046.319        -567.213          46.000  
  19904573.589   104599239.387        -908.852          42.000  
  24115440.006   126727477.224       -3158.847          36.000  
  19730266.119   103683247.146         166.080          46.000  
  21567869.229   113339903.871       -2925.951          39.000  
  19320356.975   101529165.436        1820.325          47.000  
  23419995.239   123072902.262       -1951.973          38.000  
  24084278.816   126563665.013       -1910.831          31.000  
  21515393.613   113064162.400        3071.715          40.000  
  22353795.512   117470023.202        2686.536          37.000  
  23343179.344   122669250.472        2588.037          33.000  
 23 11 05 13 46 17.9950000  0 13G05G20G13G14G07G22G30G15G18G08G24G23
                                G17
  20831165.569   109468509.585       -3192.106          44.000  
  23074037.224   121254865.001       -3958.347          36.000  
  18575063.013    97612613.543        -567.185          46.000  
  19904746.540   104600148.402        -908.787          42.000  
  24116040.791   126730635.790       -3158.372          36.000  
  19730234.137   103683081.089         166.018          46.000  
  21568426.214   113342829.644       -2925.439          39.000  
  19320010.359   101527345.232        1820.319          47.000  
  23420366.787   123074853.938       -1951.831          39.000  
  24084642.396   126565576.002       -1911.298          32.000  
  21514809.347   113061090.450        3072.193          40.000  
  22353284.487   117467336.897        2686.426          37.000  
  23342688.157   122666662.399        2588.758          33.000  
 23 11 05 13 46 18.9950000  0 13G05G20G13G14G07G22G30G15G18G08G24G23
                                G17
  20831772.804   109471701.948       -3192.487          44.000  
  23074790.238   121258823.745       -3958.502          36.000  
  18575170.729    97613181.134        -567.927          46.000  
  19904919.247   104601057.934        -909.951          42.000  
  24116642.424   126733794.274       -3158.676          35.000  
  19730202.469   103682915.551         165.003          45.000  
  21568983.031   113345755.481       -2926.170          39.000  
  19319664.099   101525525.398        1819.666          47.000  
  23420738.708   123076805.931       -1952.151          39.000  
  24085007.947   126567487.431       -1911.727          33.000  
  21514224.782   113058018.652        3071.521          40.000  
  22352773.218   117464650.896        2685.870          37.000  
  23342194.146   122664074.428        2587.493          32.000  
 23 11 05 13 46 19.9950000  0 13G05G20G13G14G07G22G30G15G18G08G24G23
                                G17
  20832380.211   109474894.785       -3193.005          44.000  
  23075543.158   121262782.606       -3958.974          36.000  
  18575278.698    97613749.278        -568.396          46.000  
  19905092.456   104601968.163        -910.707          42.000  
  24117243.772   126736952.768       -3158.590          35.000  
  19730170.935   103682750.718         164.683          45.000  
  21569539.885   113348681.547       -2926.303          39.000  
  19319318.030   101523706.118        1819.000          47.000  
  23421110.300   123078758.482       -1952.724          39.000  
  24085372.083   126569399.538       -1912.855          33.000  
  21513640.485   113054947.135        3071.202          40.000  
  22352262.131   117461965.376        2685.669          36.000  
  23341702.746   122661486.518        2588.027          33.000  
 23 11 05 13 46 20.9950000  0 13G05G20G13G14G07G22G30G15G18G08G24G23
                                G17
  20832988.055   109478088.221       -3193.634          44.000  
  23076296.647   121266741.652       -3958.955          36.000  
  18575386.905    97614318.098        -569.011          46.000  
  19905265.874   104602879.208        -911.201          42.000  
  24117845.420   126740111.521       -3158.799          34.000  
  19730139.766   103682586.742         163.707          45.000  
  21570097.160   113351607.987       -2926.479          39.000  
  19318971.890   101521887.506        1818.457          47.000  
  23421482.072   123080711.689       -1953.652          39.000  
  24085736.588   126571312.237       -1912.766          32.000  
  21513055.835   113051876.067        3071.026          40.000  
  22351751.239   117459280.540        2684.393          37.000  
  23341212.177   122658899.039        2587.353          32.000  
 23 11 05 13 46 21.9950000  0 13G05G20G13G14G07G22G30G15G18G08G24G23
                                G17
  20833595.815   109481281.822       -3193.813          44.000  
  23077049.661   121270700.483       -3958.978          36.000  
  18575495.122    97614887.172        -569.283          46.000  
  19905439.216   104603790.673        -911.957          42.000  
  24118446.792   126743270.055       -3158.738          33.000  
  19730108.661   103682423.170         163.254          45.000  
  21570654.042   113354534.388       -2926.805          39.000  
  19318625.944   101520069.138        1818.225          47.000  
  23421853.888   123082665.082       -1953.118          40.000  
  24086100.458   126573225.332       -1913.714          32.000  
  21512471.552   113048804.958        3070.978          40.000  
  22351240.722   117456595.831        2684.338          37.000  
  23340719.867   122656311.450        2587.961          32.000  
 23 11 05 13 46 22.9950000  0 13G05G20G13G14G07G22G30G15G18G08G24G23
                                G17
  20834203.417   109484475.972       -3194.424          44.000  
  23077803.005   121274659.463       -3959.143          35.000  
  18575603.564    97615456.845        -569.883          46.000  
  19905612.994   104604702.864        -912.639          42.000  
  24119047.738   126746428.700       -3158.260          33.000  
  19730077.452   103682260.362         162.531          45.000  
  21571211.129   113357461.039       -2926.993          39.000  
  19318280.098   101518251.374        1817.493          47.000  
  23422225.803   123084619.155       -1954.498          39.000  
  24086464.864   126575139.084       -1915.681          31.000  
  21511887.410   113045734.259        3070.506          40.000  
  22350730.017   117453911.682        2683.923          37.000  
  23340227.661   122653724.143        2587.288          32.000  
 23 11 05 13 46 23.9950000  0 13G05G20G13G14G07G22G30G15G18G08G24G23
                                G17
  20834811.253   109487670.255       -3194.460          44.000  
  23078556.446   121278618.194       -3958.894          36.000  
  18575712.127    97616026.754        -570.164          46.000  
  19905786.336   104605615.451        -912.811          41.000  
  24119648.955   126749587.210       -3159.067          32.000  
  19730046.504   103682097.945         162.069          45.000  
  21571767.828   113360387.665       -2926.695          39.000  
  19317934.237   101516433.845        1817.340          47.000  
  23422597.859   123086573.389       -1954.387          39.000  
  24086829.235   126577052.997       -1914.265          32.000  
  21511302.957   113042663.499        3070.585          40.000  
  22350219.446   117451227.708        2683.862          37.000  
  23339735.373   122651136.738        2586.877          32.000  
 23 11 05 13 46 24.9950000  0 12G05G20G13G14G22G30G15G18G08G24G23G17
  20835419.226   109490864.872       -3194.983          44.000  
  23079309.663   121282576.902       -3959.170          36.000  
  18575820.809    97616597.086        -570.632          46.000  
  19905960.085   104606528.622        -913.597          41.000  
  19730015.575   103681936.114         161.474          45.000  
  21572324.654   113363314.368       -2926.636          39.000  
  19317588.330   101514616.741        1816.840          47.000  
  23422969.865   123088528.046       -1955.341          39.000  
  24087193.644   126578967.463       -1914.602          32.000  
  21510718.695   113039592.947        3070.320          40.000  
  22349709.064   117448544.133        2683.319          37.000  
  23339243.107   122648549.416        2587.224          30.000  
 23 11 05 13 46 25.9950000  0 13G05G20G13G14G07G22G30G15G18G08G24G23
                                G17
  20836027.363   109494059.966       -3195.529          44.000  
  23080063.264   121286535.697       -3958.848          36.000  
  18575929.687    97617167.984        -571.142          46.000  
  19906133.717   104607442.497        -914.077          41.000  
  24120840.355   126755871.3313      -3159.398          34.000  
  19729984.885   103681775.006         160.865          45.000  
  21572881.863   113366241.352       -2927.018          39.000  
  19317242.639   101512800.186        1816.235          47.000  
  23423342.004   123090483.224       -1955.181          39.000  
  24087558.151   126580882.563       -1915.449          33.000  
  21510134.449   113036522.693        3070.118          41.000  
  22349198.615   117445861.066        2682.672          37.000  
  23338751.076   122645962.272        2587.406          32.000  
 23 11 05 13 46 26.9950000  0 12G05G20G13G14G22G30G15G18G08G24G23G17
  20836635.680   109497255.525       -3195.863          44.000  
  23080816.622   121290494.576       -3959.104          36.000  
  18576038.463    97617739.413        -571.742          46.000  
  19906307.859   104608357.058        -915.038          41.000  
  19729954.628   103681614.592         159.946          45.000  
  21573438.758   113369168.550       -2927.261          40.000  
  19316897.197   101510984.175        1815.637          47.000  
  23423714.223   123092438.925       -1956.220          39.000  
  24087923.037   126582798.239       -1916.031          34.000  
  21509550.257   113033452.732        3069.950          41.000  
  22348687.906   117443178.458        2682.391          37.000  
  23338259.120   122643375.400        2587.657          33.000  
 23 11 05 13 46 27.9950000  0 12G05G20G13G14G22G30G15G18G08G24G23G17
  20837243.940   109500451.612       -3196.096          44.000  
  23081569.691   121294453.565       -3959.537          36.000  
  18576147.178    97618311.446        -572.482          46.000  
  19906481.677   104609272.378        -916.005          41.000  
  19729924.007   103681454.948         159.086          45.000  
  21573995.431   113372096.036       -2927.677          41.000  
  19316552.042   101509168.758        1815.039          47.000  
  23424086.395   123094395.216       -1956.814          39.000  
  24088287.975   126584714.602       -1916.963          33.000  
  21508966.122   113030383.153        3068.883          41.000  
  22348177.906   117440496.404        2681.659          37.000  
  23337767.080   122640788.751        2587.178          33.000  
 23 11 05 13 46 28.9950000  0 13G05G20G13G14G07G22G30G15G18G08G24G23
                                G17
  20837852.285   109503648.101       -3196.605          44.000  
  23082323.409   121298412.607       -3959.071          37.000  
  18576256.216    97618883.942        -572.723          46.000  
  19906655.636   104610188.306        -916.495          41.000  
  24122643.604   126765347.0672      -3159.100          31.000  
  19729893.904   103681295.928         158.616          45.000  
  21574552.444   113375023.675       -2927.506          40.000  
  19316206.447   101507353.800        1814.953          47.000  
  23424458.709   123096351.947       -1956.697          39.000  
  24088653.123   126586631.411       -1917.388          32.000  
  21508382.157   113027313.757        3069.424          41.000  
  22347667.530   117437814.808        2681.122          37.000  
  23337270.729   122638202.293        2586.485          30.000  
 23 11 05 13 46 29.9950000  0 13G05G20G13G14G07G22G30G15G18G08G24G23
                                G17
  20838460.768   109506844.852       -3196.948          45.000  
  23083076.666   121302371.430       -3957.936          37.000  
  18576365.476    97619456.781        -572.979          46.000  
  19906829.935   104611104.698        -916.462          42.000  
  24123240.851   126768505.4882      -3158.333          31.000  
  19729863.715   103681137.378         158.428          45.000  
  21575109.772   113377951.369       -2927.427          40.000  
  19315861.001   101505539.183        1814.825          47.000  
  23424831.015   123098309.024       -1957.334          39.000  
  24089017.931   126588548.658       -1917.311          33.000  
  21507798.185   113024244.468        3069.104          41.000  
  22347157.279   117435133.456        2681.262          35.000  
  23336786.129   122635615.805        2586.396          33.000  
 23 11 05 13 46 30.9950000  0 13G05G20G13G14G07G22G30G15G18G08G24G23
                                G17
  20839069.244   109510041.996       -3197.667          44.000  
  23083830.445   121306330.401       -3958.682          37.000  
  18576474.614    97620030.105        -573.755          46.000  
  19907004.016   104612021.753        -917.175          41.000  
  24123849.218   126771663.9962      -3158.038          32.000  
  19729833.524   103680979.506         157.721          45.000  
  21575667.097   113380879.244       -2928.169          40.000  
  19315515.875   101503725.081        1813.898          47.000  
  23425203.650   123100266.539       -1957.602          39.000  
  24089382.739   126590466.496       -1918.607          32.000  
  21507214.417   113021175.422        3068.573          41.000  
  22346647.275   117432452.529        2680.475          36.000  
  23336304.464   122633029.474        2586.339          32.000  
 23 11 05 13 46 31.9950000  0 13G05G20G13G14G07G22G30G15G18G08G24G23
                                G17
  20839677.940   109513239.717       -3197.669          44.000  
  23084583.557   121310289.541       -3959.276          36.000  
  18576583.848    97620604.096        -574.141          46.000  
  19907178.230   104612939.626        -917.957          41.000  
  24124452.948   126774822.6392      -3158.285          32.000  
  19729803.725   103680822.451         156.859          46.000  
  21576224.553   113383807.444       -2928.226          40.000  
  19315170.639   101501911.608        1813.348          47.000  
  23425575.974   123102224.724       -1958.204          39.000  
  24089747.708   126592384.967       -1918.973          33.000  
  21506630.495   113018106.756        3068.390          41.000  
  22346137.356   117429772.235        2680.670          38.000  
  23335819.795   122630443.399        2585.955          36.000  
 23 11 05 13 46 32.9950000  0 12G05G20G13G14G22G30G15G18G08G24G23G17
  20840286.488   109516437.532       -3197.467          44.000  
  23085336.615   121314248.428       -3960.413          36.000  
  18576693.104    97621178.252        -574.228          46.000  
  19907353.119   104613857.844        -918.685          41.000  
  19729774.230   103680665.744         156.549          46.000  
  21576781.996   113386735.527       -2928.184          40.000  
  19314825.391   101500098.331        1812.988          47.000  
  23425948.595   123104183.056       -1958.572          39.000  
  24090112.671   126594303.750       -1919.324          33.000  
  21506046.679   113015038.076        3068.917          40.000  
  22345627.345   117427092.089        2680.170          37.000  
  23335324.401   122627857.216        2586.525          35.000  
 23 11 05 13 46 33.9950000  0 13G05G20G13G14G07G22G30G15G18G08G24G23
                                G17
  20840895.337   109519635.911       -3198.379          44.000  
  23086089.827   121318207.315       -3959.365          36.000  
  18576802.486    97621753.018        -574.969          46.000  
  19907527.883   104614776.752        -919.412          41.000  
  24125650.257                       -3161.279          31.000  
  19729744.752   103680509.770         155.613          46.000  
  21577339.696   113389663.887       -2928.469          41.000  
  19314480.858   101498285.623        1812.463          47.000  
  23426321.220   123106141.956       -1959.176          39.000  
  24090478.137   126596223.148       -1919.721          33.000  
  21505462.615   113011969.710        3068.723          40.000  
  22345117.565   117424412.407        2679.486          37.000  
  23334826.749   122625271.319        2586.044          38.000  
 23 11 05 13 46 34.9950000  0 13G05G20G13G14G07G22G30G15G18G08G24G23
                                G17
  20841504.125   109522834.870       -3198.831          44.000  
  23086842.909   121322166.488       -3959.286          36.000  
  18576911.892    97622328.435        -575.388          47.000  
  19907703.177   104615696.497        -919.888          42.000  
  24126259.052   126784306.0563      -3157.412          30.000  
  19729715.320   103680354.634         154.979          46.000  
  21577897.163   113392592.613       -2928.738          41.000  
  19314135.942   101496473.598        1812.006          47.000  
  23426693.937   123108101.500       -1959.531          40.000  
  24090843.479   126598143.281       -1919.842          33.000  
  21504878.805   113008901.757        3068.186          41.000  
  22344607.283   117421733.389        2678.876          37.000  
  23334328.439   122622685.673        2585.651          35.000  
 23 11 05 13 46 35.9950000  0 13G05G20G13G14G07G22G30G15G18G08G24G23
                                G17
  20842112.961   109526034.202       -3199.798          46.000  
  23087596.104   121326125.627       -3959.215          36.000  
  18577021.650    97622904.352        -576.399          47.000  
  19907878.036   104616616.894        -921.035          41.000  
  24126846.729   126787464.8502      -3159.304          30.000  
  19729686.115   103680200.119         153.870          46.000  
  21578455.129   113395521.487       -2929.193          41.000  
  19313790.816   101494662.050        1811.145          47.000  
  23427066.838   123110061.491       -1960.132          40.000  
  24091209.170   126600063.917       -1921.359          32.000  
  21504294.722   113005834.064        3067.653          41.000  
  22344097.506   117419054.802        2678.455          36.000  
  23333833.191   122620100.281        2584.926          36.000  
 23 11 05 13 46 36.9950000  0 13G05G20G13G14G07G22G30G15G18G08G24G23
                                G17
  20842721.958   109529234.000       -3199.877          45.000  
  23088349.862   121330084.839       -3958.605          36.000  
  18577131.442    97623480.782        -576.565          47.000  
  19908053.239   104617537.951        -921.246          41.000  
  24127448.094   126790623.4872      -3156.790          30.000  
  19729656.746   103680046.313         153.205          46.000  
  21579012.650   113398450.583       -2928.988          41.000  
  19313446.172   101492851.029        1810.882          47.000  
  23427439.827   123112022.037       -1961.075          39.000  
  24091574.960   126601985.182       -1921.344          34.000  
  21503711.010   113002766.669        3066.948          40.000  
  22343587.929   117416376.631        2678.003          37.000  
  23333336.911   122617514.951        2586.570          32.000  
 23 11 05 13 46 37.9950000  0 13G05G20G13G14G07G22G30G15G18G08G24G23
                                G17
  20843330.698   109532434.211       -3200.453          44.000  
  23089103.452   121334044.127       -3958.873          36.000  
  18577241.555    97624057.683        -576.957          47.000  
  19908228.598   104618459.628        -921.628          41.000  
  24128051.776   126793782.2062      -3157.494          30.000  
  19729627.478   103679893.120         152.983          46.000  
  21579569.683   113401379.859       -2929.246          40.000  
  19313101.707   101491040.479        1810.309          47.000  
  23427812.773   123113982.982       -1960.985          39.000  
  24091940.893   126603906.952       -1921.206          35.000  
  21503127.447   112999699.435        3067.131          40.000  
  22343078.252   117413698.984        2677.124          37.000  
  23332845.822   122614929.893        2585.662          30.000  
 23 11 05 13 46 38.9950000  0 13G05G20G13G14G07G22G30G15G18G08G24G23
                                G17
  20843939.351   109535634.763       -3201.362          43.000  
  23089857.007   121338003.387       -3959.902          37.000  
  18577351.601    97624635.025        -577.648          47.000  
  19908404.200   104619381.897        -922.853          41.000  
  24128654.410   126796941.0162      -3159.631          31.000  
  19729598.323   103679740.533         152.054          46.000  
  21580126.934   113404309.267       -2929.763          40.000  
  19312757.359   101489230.321        1809.668          47.000  
  23428185.689   123115944.364       -1961.834          38.000  
  24092307.136   126605829.225       -1922.331          35.000  
  21502543.558   112996632.379        3067.015          40.000  
  22342568.865   117411021.621        2676.978          36.000  
  23332343.838   122612344.851        2585.680          30.000  
 23 11 05 13 46 39.9950000  0 13G05G20G13G14G07G22G30G15G18G08G24G23
                                G17
  20844548.237   109538835.734       -3200.821          43.000  
  23090610.577   121341962.598       -3958.831          37.000  
  18577461.594    97625212.884        -577.823          47.000  
  19908579.670   104620304.825        -923.052          41.000  
  24129256.441   126800099.7452      -3158.367          31.000  
  19729569.548   103679588.602         151.899          46.000  
  21580684.564   113407238.865       -2929.560          40.000  
  19312412.940   101487420.721        1809.790          47.000  
  23428559.239   123117906.241       -1961.975          37.000  
  24092673.076   126607752.059       -1922.510          35.000  
  21501959.929   112993565.654        3066.798          40.000  
  22342059.360   117408344.753        2676.703          37.000  
  23331855.514   122609727.5093       2585.033          31.000  
 23 11 05 13 46 40.9950000  0 13G05G20G13G14G07G22G30G15G18G08G24G23
                                G17
  20845157.071   109542037.036       -3201.595          43.000  
  23091364.186   121345921.807       -3959.303          36.000  
  18577571.532    97625791.127        -578.438          47.000  
  19908755.202   104621228.287        -923.981          41.000  
  24129857.529   126803258.3202      -3159.416          32.000  
  19729540.905   103679437.235         151.084          46.000  
  21581241.846   113410168.519       -2929.800          40.000  
  19312068.711   101485611.528        1808.862          47.000  
  23428932.652   123119868.484       -1962.400          38.000  
  24093039.301   126609675.345       -1923.601          35.000  
  21501376.379   112990499.064        3066.356          40.000  
  22341550.215   117405668.217        2676.288          37.000  
  23331368.450   122607142.7002       2584.449          32.000  
 23 11 05 13 46 41.9950000  0 13G05G20G13G14G07G22G30G15G18G08G24G23
                                G17
  20845766.306   109545238.690       -3201.996          44.000  
  23092117.783   121349881.051       -3959.749          36.000  
  18577681.563    97626369.851        -578.979          47.000  
  19908931.081   104622152.343        -924.374          41.000  
  24130466.932   126806416.9272      -3157.898          31.000  
  19729512.226   103679286.515         150.542          46.000  
  21581799.363   113413098.392       -2929.764          39.000  
  19311724.407   101483802.806        1808.453          47.000  
  23429306.006   123121831.199       -1962.962          39.000  
  24093405.553   126611599.117       -1923.633          35.000  
  21500792.994   112987432.652        3066.479          40.000  
  22341040.860   117402992.088        2675.983          37.000  
  23330872.859   122604558.1012       2585.203          30.000  
 23 11 05 13 46 42.9950000  0 13G05G20G13G14G07G22G30G15G18G08G24G23
                                G17
  20846375.936   109548440.845       -3202.467          44.000  
  23092871.394   121353840.375       -3959.236          37.000  
  18577791.641    97626949.143        -579.425          47.000  
  19909107.023   104623077.179        -925.000          41.000  
  24131059.803   126809575.6532      -3159.383          31.000  
  19729483.741   103679136.528         149.657          46.000  
  21582356.572   113416028.497       -2930.314          39.000  
  19311380.260   101481994.645        1808.087          48.000  
  23429679.794   123123794.462       -1963.405          39.000  
  24093771.829   126613523.543       -1924.666          35.000  
  21500209.352   112984366.605        3066.256          40.000  
  22340531.905   117400316.533        2675.232          36.000  
  23330388.917   122601973.6122       2585.545          34.000  
 23 11 05 13 46 43.9950000  0 13G05G20G13G14G07G22G30G15G18G08G24G23
                                G17
  20846985.123   109551643.224       -3202.775          44.000  
  23093625.054   121357799.469       -3959.377          35.000  
  18577901.989    97627528.716        -579.814          46.000  
  19909283.239   104624002.391        -925.389          41.000  
  24131657.444   126812734.2212      -3160.730          30.000  
  19729455.203   103678986.952         149.316          46.000  
  21582914.100   113418958.566       -2930.288          40.000  
  19311036.013   101480186.759        1807.574          48.000  
  23430053.165   123125757.981       -1963.918          39.000  
  24094138.058   126615448.286       -1925.266          35.000  
  21499626.019   112981300.600        3065.600          40.000  
  22340022.993   117397641.144        2675.305          38.000  
  23329905.319   122599389.2652       2583.419          33.000  
 23 11 05 13 46 44.9950000  0 13G05G20G13G14G07G22G30G15G18G08G24G23
                                G17
  20847594.738   109554846.061       -3203.061          44.000  
  23094378.543   121361758.678       -3959.267          36.000  
  18578012.384    97628108.825        -580.133          47.000  
  19909459.589   104624928.308        -926.011          41.000  
  24132258.050   126815892.6682      -3158.943          31.000  
  19729426.990   103678838.098         148.693          46.000  
  21583471.462   113421888.858       -2929.804          40.000  
  19310692.277   101478379.414        1807.306          47.000  
  23430427.191   123127722.018       -1964.153          39.000  
  24094504.557   126617373.682       -1925.332          34.000  
  21499042.658   112978234.857        3065.850          40.000  
  22339514.450   117394966.285        2674.451          38.000  
  23329415.842   122596804.9482       2583.973          32.000  
 23 11 05 13 46 45.9950000  0 13G05G20G13G14G07G22G30G15G18G08G24G23
                                G17
  20848204.581   109558049.393       -3203.761          44.000  
  23095131.697   121365717.972       -3959.082          36.000  
  18578122.711    97628689.514        -580.854          47.000  
  19909636.185   104625854.953        -926.689          41.000  
  24132861.784   126819051.3842      -3158.383          31.000  
  19729398.861   103678689.968         147.933          45.000  
  21584029.267   113424819.449       -2931.059          40.000  
  19310348.586   101476572.632        1806.732          47.000  
  23430800.912   123129686.585       -1964.674          39.000  
  24094871.149   126619299.604       -1924.897          29.000  
  21498459.230   112975169.473        3065.164          40.000  
  22339006.156   117392291.897        2674.121          38.000  
  23328932.530   122594220.9192       2584.332          32.000  
 23 11 05 13 46 46.9950000  0 13G05G20G13G14G07G22G30G15G18G08G24G23
                                G17
  20848814.359   109561252.884       -3203.694          44.000  
  23095885.213   121369677.083       -3958.788          37.000  
  18578233.389    97629270.471        -581.155          47.000  
  19909812.736   104626782.026        -927.274          41.000  
  24133465.337   126822209.8192      -3158.110          31.000  
  19729370.737   103678542.274         147.369          46.000  
  21584586.684   113427749.992       -2930.537          40.000  
  19310004.725   101474766.139        1805.975          47.000  
  23431175.025   123131651.449       -1965.281          38.000  
  24095238.203   126621225.950       -1927.369          34.000  
  21497875.865   112972104.093        3065.031          40.000  
  22338497.770   117389617.795        2673.700          39.000  
  23328427.800   122591636.8842       2584.652          33.000  
 23 11 05 13 46 47.9950000  0 13G05G20G13G14G07G22G30G15G18G08G24G23
                                G17
  20849424.033   109564456.830       -3203.905          44.000  
  23096638.573   121373636.271       -3958.752          37.000  
  18578343.988    97629851.956        -581.375          46.000  
  19909988.996   104627709.776        -927.854          41.000  
  24134065.588   126825368.2912      -3156.868          31.000  
  19729342.680   103678395.269         146.875          46.000  
  21585144.524   113430680.704       -2930.530          39.000  
  19309660.847   101472960.159        1805.896          47.000  
  23431548.937   123133616.761       -1964.939          38.000  
  24095604.603   126623152.743       -1926.417          33.000  
  21497292.284   112969038.959        3065.809          40.000  
  22337989.234   117386944.107        2673.743          38.000  
  23327930.469   122589053.0262       2584.445          34.000  
 23 11 05 13 46 48.9950000  0 13G05G20G13G14G07G22G30G15G18G08G24G23
                                G17
  20850033.698   109567660.944       -3203.809          44.000  
  23097391.915   121377595.192       -3958.046          36.000  
  18578454.498    97630433.678        -581.436          46.000  
  19910165.753   104628637.917        -928.133          41.000  
  24134665.735   126828526.6122      -3159.213          31.000  
  19729314.947   103678248.637         146.940          46.000  
  21585702.207   113433611.378       -2930.230          40.000  
  19309317.407   101471154.416        1806.042          47.000  
  23431922.834   123135582.360       -1965.655          38.000  
  24095971.485   126625079.946       -1927.313          34.000  
  21496709.124   112965973.889        3065.271          40.000  
  22337480.700   117384270.651        2673.535          38.000  
  23327439.197   122586468.5601       2584.491          34.000  
 23 11 05 13 46 49.9950000  0 13G05G20G13G14G07G22G30G15G18G08G24G23
                                G17
  20850643.856   109570865.520       -3205.369          44.000  
  23098145.114   121381554.250       -3959.214          36.000  
  18578565.246    97631015.955        -582.959          46.000  
  19910342.507   104629566.744        -929.497          41.000  
  24135264.025   126831684.9052      -3158.796          32.000  
  19729287.369   103678102.741         145.179          46.000  
  21586260.062   113436542.275       -2931.399          40.000  
  19308973.851   101469349.219        1804.651          47.000  
  23432296.742   123137548.429       -1966.509          38.000  
  24096338.088   126627007.675       -1927.709          34.000  
  21496125.924   112962909.078        3064.237          40.000  
  22336972.475   117381597.683        2672.498          39.000  
  23326946.320   122583884.755        2583.384          34.000  
 23 11 05 13 46 50.9950000  0 13G05G20G13G14G07G22G30G15G18G08G24G23
                                G17
  20851254.053   109574070.635       -3205.357          44.000  
  23098898.536   121385513.453       -3959.314          36.000  
  18578676.676    97631598.848        -583.135          46.000  
  19910519.330   104630496.343        -929.956          41.000  
  24135866.127   126834843.2862      -3157.095          31.000  
  19729259.802   103677957.617         144.943          46.000  
  21586817.496   113439473.519       -2931.627          39.000  
  19308630.433   101467544.654        1804.327          47.000  
  23432671.097   123139515.126       -1966.978          38.000  
  24096704.791   126628936.123       -1927.703          34.000  
  21495542.596   112959844.644        3064.448          40.000  
  22336464.261   117378925.266        2672.302          39.000  
  23326453.720   122581301.246        2583.528          31.000  
 23 11 05 13 46 51.9950000  0 13G05G20G13G14G07G22G30G15G18G08G24G23
                                G17
  20851863.525   109577276.108       -3205.725          44.000  
  23099651.912   121389472.609       -3959.360          36.000  
  18578787.577    97632182.168        -583.455          47.000  
  19910696.251   104631426.503        -930.366          41.000  
  24136465.930   126838001.7362      -3157.923          31.000  
  19729232.137   103677813.075         144.352          46.000  
  21587375.255   113442404.856       -2931.266          38.000  
  19308287.261   101465740.497        1803.961          47.000  
  23433045.075   123141482.245       -1967.648          38.000  
  24097071.756   126630865.063       -1928.856          35.000  
  21494959.386   112956780.395        3064.075          40.000  
  22335956.172   117376253.254        2671.802          39.000  
  23325962.503   122578717.833        2583.754          30.000  
 23 11 05 13 46 52.9950000  0 13G05G20G13G14G07G22G30G15G18G08G24G23
                                G17
  20852473.382   109580482.062       -3206.135          44.000  
  23100405.360   121393431.850       -3959.383          36.000  
  18578898.301    97632766.050        -584.230          47.000  
  19910873.632   104632357.384        -930.942          41.000  
  24137072.105   126841169.2843      -3158.790          30.000  
  19729204.971   103677669.258         143.410          46.000  
  21587933.178   113445336.449       -2931.917          38.000  
  19307944.016   101463936.904        1803.406          48.000  
  23433419.478   123143449.858       -1967.708          38.000  
  24097438.835   126632794.656       -1930.401          34.000  
  21494376.296   112953716.453        3063.635          40.000  
  22335448.135   117373581.718        2671.130          39.000  
  23325462.341   122576134.678        2582.870          30.000  
 23 11 05 13 46 53.9950000  0 13G05G20G13G14G07G22G30G15G18G08G24G23
                                G17
  20853083.147   109583688.429       -3206.340          44.000  
  23101158.845   121397391.132       -3959.132          36.000  
  18579009.762    97633350.427        -584.299          47.000  
  19911050.990   104633288.923        -931.563          41.000  
  24137673.363   126844327.8782      -3158.320          31.000  
  19729177.908   103677526.108         143.199          46.000  
  21588490.806   113448268.216       -2931.929          39.000  
  19307601.077   101462133.818        1803.131          48.000  
  23433793.783   123145418.004       -1968.429          38.000  
  24097806.408   126634724.698       -1930.360          34.000  
  21493793.476   112950652.773        3063.972          40.000  
  22334940.168   117370910.660        2671.118          39.000  
  23324972.456   122573551.669        2583.097          34.000  
 23 11 05 13 46 54.9950000  0 13G05G20G13G14G07G22G30G15G18G08G24G23
                                G17
  20853693.085   109586895.129       -3206.863          43.000  
  23101912.317   121401350.422       -3959.687          35.000  
  18579120.782    97633935.229        -584.737          46.000  
  19911228.563   104634221.029        -932.224          41.000  
  24138273.339   126847486.4042      -3158.729          31.000  
  19729150.832   103677383.534         142.507          46.000  
  21589048.563   113451200.102       -2931.538          39.000  
  19307258.172   101460331.147        1802.728          47.000  
  23434168.470   123147386.520       -1968.636          38.000  
  24098173.962   126636655.301       -1932.010          34.000  
  21493210.268   112947589.269        3063.526          40.000  
  22334432.339   117368239.958        2670.923          40.000  
  23324477.034   122570953.2423       2582.882          30.000  
 23 11 05 13 46 55.9950000  0 13G05G20G13G14G07G22G30G15G18G08G24G23
                                G17
  20854303.360   109590102.304       -3207.510          44.000  
  23102665.277   121405309.664       -3959.424          35.000  
  18579232.126    97634520.571        -585.547          47.000  
  19911405.720   104635153.827        -933.281          41.000  
  24138878.744   126850644.8502      -3157.977          31.000  
  19729123.684   103677241.658         141.482          46.000  
  21589606.233   113454132.200       -2931.998          38.000  
  19306915.186   101458529.025        1801.886          48.000  
  23434543.157   123149355.537       -1969.586          38.000  
  24098541.158   126638586.381       -1931.014          34.000  
  21492627.330   112944526.060        3062.982          40.000  
  22333924.480   117365569.755        2669.867          39.000  
  23323977.988   122568370.5242       2582.879          29.000  
 23 11 05 13 46 56.9950000  0 13G05G20G13G14G07G22G30G15G18G08G24G23
                                G17
  20854913.581   109593310.056       -3207.842          43.000  
  23103418.773   121409269.173       -3959.188          36.000  
  18579343.868    97635106.578        -586.020          47.000  
  19911583.464   104636087.412        -933.672          41.000  
  24139478.619   126853803.6112      -3158.770          31.000  
  19729097.120   103677100.591         140.909          46.000  
  21590163.791   113457064.676       -2932.070          38.000  
  19306572.706   101456727.559        1801.361          48.000  
  23434917.680   123151325.222       -1970.016          38.000  
  24098908.357   126640518.207       -1932.173          34.000  
  21492044.541   112941463.265        3062.877          40.000  
  22333416.446   117362900.134        2669.598          39.000  
  23323493.053   122565788.1992       2582.227          29.000  
 23 11 05 13 46 57.9950000  0 13G05G20G13G14G07G22G30G15G18G08G24G23
                                G17
  20855524.095   109596518.080       -3208.426          44.000  
  23104172.249   121413228.565       -3959.972          36.000  
  18579455.406    97635692.945        -586.776          47.000  
  19911761.384   104637021.516        -934.540          41.000  
  24140079.456   126856962.1602      -3158.345          31.000  
  19729070.561   103676960.051         140.067          46.000  
  21590721.626   113459997.212       -2932.581          38.000  
  19306230.084   101454926.450        1800.720          48.000  
  23435292.231   123153295.212       -1970.403          38.000  
  24099275.760   126642450.470       -1932.571          34.000  
  21491461.706   112938400.600        3061.703          40.000  
  22332908.616   117360230.858        2668.701          39.000  
  23323015.641   122563205.8712       2582.059          31.000  
 23 11 05 13 46 58.9950000  0 13G05G20G13G14G07G22G30G15G18G08G24G23
                                G17
  20856134.584   109599726.682       -3208.642          44.000  
  23104925.638   121417188.138       -3959.505          36.000  
  18579567.135    97636279.955        -586.981          47.000  
  19911939.287   104637956.426        -935.215          41.000  
  24140674.945   126860120.8982      -3158.752          30.000  
  19729043.816   103676820.312         139.781          46.000  
  21591279.802   113462930.064       -2932.606          38.000  
  19305887.623   101453125.999        1800.293          48.000  
  23435667.010   123155265.843       -1970.536          38.000  
  24099643.753   126644383.413       -1932.980          34.000  
  21490879.163   112935338.297        3062.235          40.000  
  22332400.662   117357562.151        2668.713          39.000  
  23322532.955   122560623.8062       2582.055          31.000  
 23 11 05 13 46 59.9950000  0 13G05G20G13G14G07G22G30G15G18G08G24G23
                                G17
  20856745.344   109602935.358       -3208.642          44.000  
  23105678.809   121421147.452       -3959.702          36.000  
  18579679.043    97636867.150        -587.429          47.000  
  19912117.397   104638891.644        -935.394          42.000  
  24141278.973   126863279.2922      -3157.370          31.000  
  19729017.521   103676680.920         139.116          46.000  
  21591837.596   113465862.771       -2932.945          38.000  
  19305544.986   101451325.719        1800.000          48.000  
  23436042.015   123157236.692       -1971.323          38.000  
  24100011.581   126646316.595       -1933.598          34.000  
  21490296.265   112932275.936        3062.213          39.000  
  22331892.974   117354893.572        2668.536          39.000  
  23322046.057   122558041.6752       2581.911          32.000  
 23 11 05 13 47 00.9950000  0 13G05G20G13G14G07G22G30G15G18G08G24G23
                                G17
  20857356.167   109606144.661       -3209.514          44.000  
  23106432.403   121425106.917       -3959.467          36.000  
  18579790.818    97637455.020        -588.265          46.000  
  19912295.529   104639827.725        -936.500          42.000  
  24141885.128   126866437.5511      -3158.616          35.000  
  19728991.241   103676542.369         138.254          46.000  
  21592395.262   113468795.852       -2933.315          38.000  
  19305202.595   101449526.126        1799.091          48.000  
  23436417.040   123159208.141       -1971.924          38.000  
  24100379.530   126648250.508       -1934.434          34.000  
  21489713.262   112929214.027        3061.744          39.000  
  22331385.380   117352225.647        2667.712          39.000  
  23321545.118   122555459.7702       2582.507          33.000  
 23 11 05 13 47 01.9950000  0 13G05G20G13G14G07G22G30G15G18G08G24G23
                                G17
  20857967.045   109609354.456       -3209.999          44.000  
  23107185.697   121429066.572       -3959.851          36.000  
  18579902.700    97638043.467        -588.513          47.000  
  19912474.099   104640764.495        -937.024          42.000  
  24142484.469   126869596.334       -3158.829          35.000  
  19728965.083   103676404.559         137.545          46.000  
  21592953.684   113471729.239       -2933.312          39.000  
  19304860.281   101447727.104        1798.840          48.000  
  23436792.110   123161180.160       -1972.262          38.000  
  24100747.333   126650185.096       -1934.776          34.000  
  21489130.374   112926152.421        3062.198          39.000  
  22330877.690   117349558.226        2667.725          39.000  
  23321053.434   122552878.2362       2581.648          33.000  
 23 11 05 13 47 02.9950000  0 13G05G20G13G14G07G22G30G15G18G08G24G23
                                G17
  20858577.854   109612564.409       -3209.770          44.000  
  23107939.328   121433025.950       -3959.181          36.000  
  18580014.829    97638632.180        -588.712          47.000  
  19912652.532   104641701.692        -937.135          41.000  
  24143084.763   126872754.879       -3158.302          35.000  
  19728939.159   103676267.164         137.448          46.000  
  21593511.879   113474662.549       -2932.823          38.000  
  19304518.021   101445928.350        1798.779          48.000  
  23437167.323   123163152.396       -1971.923          37.000  
  24101115.384   126652120.023       -1934.851          32.000  
  21488547.487   112923090.876        3061.741          39.000  
  22330370.238   117346891.044        2667.169          39.000  
  23320563.288   122550296.6032       2581.830          33.000  
 23 11 05 13 47 03.9950000  0 13G05G20G13G14G07G22G30G15G18G08G24G23
                                G17
  20859188.944   109615774.884       -3210.729          44.000  
  23108692.828   121436985.496       -3959.365          36.000  
  18580126.979    97639221.486        -589.629          47.000  
  19912831.165   104642639.650        -938.634          42.000  
  24143687.014   126875913.556       -3159.344          35.000  
  19728913.103   103676130.528         136.184          46.000  
  21594070.022   113477596.136       -2933.488          38.000  
  19304175.772   101444130.190        1797.827          48.000  
  23437542.666   123165125.248       -1973.263          37.000  
  24101484.094   126654055.496       -1935.046          32.000  
  21487965.142   112920029.677        3060.378          40.000  
  22329863.047   117344224.374        2666.260          39.000  
  23320070.956   122547715.2572       2581.031          35.000  
 23 11 05 13 47 04.9950000  0 13G05G20G13G14G07G22G30G15G18G08G24G23
                                G17
  20859799.980   109618985.891       -3210.943          44.000  
  23109446.213   121440945.192       -3959.813          36.000  
  18580239.391    97639811.415        -590.148          47.000  
  19913010.012   104643578.337        -938.990          42.000  
  24144287.079   126879072.374       -3158.931          35.000  
  19728887.403   103675994.660         135.544          46.000  
  21594628.185   113480530.080       -2934.144          39.000  
  19303833.774   101442332.643        1797.565          48.000  
  23437918.138   123167098.661       -1973.648          37.000  
  24101852.917   126655991.810       -1936.753          31.000  
  21487382.901   112916968.795        3060.807          40.000  
  22329355.808   117341558.291        2665.552          39.000  
  23319579.495   122545134.0822       2581.211          34.000  
 23 11 05 13 47 05.9950000  0 13G05G20G13G14G07G22G30G15G18G08G24G23
                                G17
  20860410.710   109622197.081       -3211.465          44.000  
  23110199.790   121444904.678       -3959.349          37.000  
  18580351.712    97640401.613        -590.330          47.000  
  19913188.583   104644517.474        -939.563          42.000  
  24144889.310   126882230.930       -3158.138          34.000  
  19728861.549   103675859.226         135.045          46.000  
  21595186.324   113483463.882       -2933.658          39.000  
  19303491.627   101440535.392        1797.192          48.000  
  23438294.009   123169072.314       -1973.779          38.000  
  24102221.152   126657928.306       -1935.959          31.000  
  21486800.746   112913907.990        3060.951          40.000  
  22328848.600   117338892.420        2665.607          39.000  
  23319088.470   122542552.8992       2581.762          29.000  
 23 11 05 13 47 06.9950000  0 13G05G20G13G14G07G22G30G15G18G08G24G23
                                G17
  20861021.976   109625408.551       -3212.068          44.000  
  23110953.428   121448864.050       -3959.360          37.000  
  18580464.096    97640992.148        -590.938          46.000  
  19913367.380   104645457.072        -940.052          42.000  
  24145490.177   126885389.400       -3158.519          37.000  
  19728835.616   103675724.281         134.408          46.000  
  21595744.532   113486397.815       -2934.210          39.000  
  19303149.618   101438738.454        1796.637          48.000  
  23438669.959   123171046.307       -1974.270          38.000  
  24102590.008   126659865.306       -1937.467          30.000  
  21486218.674   112910847.272        3060.375          40.000  
  22328341.508   117336226.812        2665.308          39.000  
  23318597.453   122539971.2931       2580.444          36.000  
 23 11 05 13 47 07.9950000  0 13G05G20G13G14G07G22G30G15G18G08G24G23
                                G17
  20861633.010   109628620.477       -3211.932          44.000  
  23111706.887   121452823.533       -3959.373          34.000  
  18580576.693    97641583.257        -591.112          46.000  
  19913546.785   104646397.411        -940.392          42.000  
  24146091.405   126888547.984       -3158.099          34.000  
  19728810.125   103675590.089         134.131          47.000  
  21596303.131   113489331.940       -2933.891          39.000  
  19302807.553   101436942.100        1796.277          48.000  
  23439045.948   123173020.837       -1974.449          38.000  
  24102961.591   126661802.864       -1937.363          31.000  
  21485636.509   112907786.872        3060.333          40.000  
  22327834.067   117333561.786        2664.331          39.000  
  23318105.894   122537390.356        2580.391          33.000  
 23 11 05 13 47 08.9950000  0 13G05G20G13G14G07G22G30G15G18G08G24G23
                                G17
  20862244.089   109631832.814       -3212.244          44.000  
  23112460.206   121456783.013       -3959.349          37.000  
  18580689.086    97642174.848        -591.611          46.000  
  19913725.559   104647338.388        -941.035          41.000  
  24146692.668   126891706.555       -3158.784          35.000  
  19728784.729   103675456.520         133.565          46.000  
  21596861.547   113492266.262       -2934.036          39.000  
  19302465.936   101435146.232        1795.819          48.000  
  23439422.015   123174995.865       -1975.002          38.000  
  24103333.802   126663741.016       -1938.387          31.000  
  21485054.621   112904726.712        3059.956          40.000  
  22327326.883   117330897.143        2664.648          39.000  
  23317609.315   122534809.557        2580.216          33.000  
 23 11 05 13 47 09.9950000  0 13G05G20G13G14G07G22G30G15G18G08G24G23
                                G17
  20862855.108   109635045.522       -3212.798          44.000  
  23113213.774   121460742.446       -3959.529          36.000  
  18580801.461    97642766.868        -592.080          46.000  
  19913904.626   104648279.926        -941.765          42.000  
  24147293.660   126894865.045       -3158.827          35.000  
  19728759.336   103675323.544         132.779          46.000  
  21597420.261   113495200.700       -2934.188          39.000  
  19302123.999   101433350.791        1795.294          48.000  
  23439797.607   123176971.233       -1975.634          38.000  
  24103706.054   126665679.560       -1938.342          32.000  
  21484472.006   112901666.725        3060.019          40.000  
  22326819.775   117328232.894        2663.940          39.000  
  23317113.814   122532228.868        2580.529          32.000  
 23 11 05 13 47 10.9950000  0 13G05G20G13G14G07G22G30G15G18G08G24G23
                                G17
  20863466.221   109638258.528       -3212.933          44.000  
  23113967.292   121464701.874       -3959.453          36.000  
  18580914.320    97643359.301        -592.444          46.000  
  19914084.381   104649222.009        -942.074          42.000  
  24147894.403   126898023.431       -3157.871          35.000  
  19728734.230   103675191.144         132.393          46.000  
  21597978.766   113498135.248       -2934.225          39.000  
  19301782.684   101431555.777        1794.873          48.000  
  23440173.768   123178947.023       -1975.764          38.000  
  24104065.245   126667618.618       -1939.647          33.000  
  21483889.792   112898606.920        3060.200          40.000  
  22326312.637   117325569.024        2663.782          39.000  
  23316622.503   122529648.260        2580.637          32.000  
 23 11 05 13 47 11.9950000  0 13G05G20G13G14G07G22G30G15G18G08G24G23
                                G17
  20864077.921   109641472.050       -3213.679          44.000  
  23114721.095   121468661.393       -3959.629          36.000  
  18581027.018    97643952.329        -593.262          46.000  
  19914263.867   104650164.879        -943.505          42.000  
  24148495.103   126901182.086       -3159.146          31.000  
  19728709.221   103675059.503         131.225          46.000  
  21598536.977   113501070.076       -2934.620          38.000  
  19301441.264   101429761.359        1794.165          48.000  
  23440549.751   123180923.384       -1976.492          38.000  
  24104431.689   126669558.237       -1939.535          33.000  
  21483307.442   112895547.452        3059.462          40.000  
  22325805.671   117322905.677        2663.379          39.000  
  23316137.989   122527067.921        2580.152          33.000  
 23 11 05 13 47 12.9950000  0 13G05G20G13G14G07G22G30G15G18G08G24G23
                                G17
  20864689.486   109644685.998       -3214.124          44.000  
  23115474.515   121472620.931       -3959.217          36.000  
  18581140.060    97644545.871        -593.653          46.000  
  19914443.290   104651108.356        -943.679          42.000  
  24149096.162   126904340.702       -3158.365          33.000  
  19728684.052   103674928.519         130.671          46.000  
  21599095.447   113504005.107       -2934.516          38.000  
  19301100.162   101427967.453        1793.628          48.000  
  23440925.779   123182900.240       -1977.049          38.000  
  24104796.346   126671498.544       -1941.401          32.000  
  21482725.193   112892488.272        3058.911          40.000  
  22325298.958   117320242.801        2662.628          38.000  
  23315648.532   122524487.736        2579.605          33.000  
 23 11 05 13 47 13.9950000  0 13G05G20G13G14G07G22G30G15G18G08G24G23
                                G17
  20865301.430   109647900.180       -3214.425          44.000  
  23116227.985   121476580.412       -3959.799          36.000  
  18581253.070    97645139.759        -594.124          46.000  
  19914622.910   104652052.346        -944.259          42.000  
  24149696.912   126907499.098       -3158.185          34.000  
  19728659.098   103674798.045         129.903          46.000  
  21599653.946   113506940.165       -2934.903          39.000  
  19300758.598   101426173.875        1793.286          48.000  
  23441302.121   123184877.422       -1977.698          38.000  
  24105171.615   126673439.204       -1941.350          31.000  
  21482142.938   112889429.180        3058.512          39.000  
  22324792.142   117317580.209        2662.396          38.000  
  23315158.271   122521907.569        2580.144          33.000  
 23 11 05 13 47 14.9950000  0 13G05G20G13G14G07G22G30G15G18G08G24G23
                                G17
  20865913.152   109651114.804       -3214.938          44.000  
  23116981.597   121480539.912       -3959.725          36.000  
  18581366.313    97645734.185        -594.913          46.000  
  19914803.022   104652997.023        -945.109          42.000  
  24150297.745   126910657.645       -3158.853          34.000  
  19728634.330   103674668.264         129.163          46.000  
  21600212.516   113509875.458       -2935.602          39.000  
  19300417.340   101424380.853        1792.499          48.000  
  23441678.468   123186855.110       -1978.372          38.000  
  24105542.535   126675380.458       -1942.183          32.000  
  21481560.450   112886370.369        3058.344          40.000  
  22324285.796   117314918.106        2661.920          38.000  
  23314668.652   122519327.591        2579.921          33.000  
 23 11 05 13 47 15.9950000  0 13G05G20G13G14G07G22G30G15G18G08G24G23
                                G17
  20866525.475   109654329.901       -3215.187          44.000  
  23117734.964   121484499.508       -3959.614          37.000  
  18581479.312    97646329.136        -595.080          46.000  
  19914983.017   104653942.388        -945.814          42.000  
  24150898.449   126913816.210       -3158.766          34.000  
  19728609.727   103674539.164         128.909          46.000  
  21600771.098   113512810.937       -2935.430          38.000  
  19300075.941   101422588.337        1792.407          48.000  
  23442054.832   123188833.259       -1977.806          38.000  
  24105911.223   126677322.266       -1942.285          31.000  
  21480977.966   112883311.812        3058.828          40.000  
  22323779.245   117312256.487        2661.639          39.000  
  23314177.387   122516747.857        2579.695          34.000  
 23 11 05 13 47 16.9950000  0 13G05G20G13G14G07G22G30G15G18G08G24G23
                                G17
  20867137.651   109657545.371       -3215.495          44.000  
  23118488.779   121488459.050       -3959.456          36.000  
  18581592.486    97646924.546        -595.322          46.000  
  19915163.293   104654888.335        -945.864          42.000  
  24151497.256   126916974.691       -3158.037          32.000  
  19728585.144   103674410.688         128.516          46.000  
  21601329.900   113515746.590       -2935.645          38.000  
  19299735.110   101420796.298        1792.193          48.000  
  23442431.443   123190811.893       -1978.440          38.000  
  24106271.906   126679264.573       -1941.881          31.000  
  21480395.711   112880253.500        3058.637          39.000  
  22323272.844   117309595.291        2661.353          39.000  
  23313686.356   122514168.285        2579.885          33.000  
 23 11 05 13 47 17.9950000  0 13G05G20G13G14G07G22G30G15G18G08G24G23
                                G17
  20867750.064   109660761.110       -3216.022          44.000  
  23119242.277   121492418.486       -3959.716          36.000  
  18581705.659    97647520.326        -596.114          46.000  
  19915343.584   104655834.811        -946.984          42.000  
  24152098.660   126920133.070       -3157.990          33.000  
  19728560.572   103674282.729         127.550          46.000  
  21601888.416   113518682.266       -2935.870          38.000  
  19299394.061   101419004.621        1791.211          48.000  
  23442808.097   123192790.845       -1979.413          38.000  
  24106641.312   126681207.345       -1943.777          31.000  
  21479813.644   112877195.295        3058.184          40.000  
  22322766.371   117306934.401        2660.382          39.000  
  23313195.843   122511588.647        2579.045          32.000  
 23 11 05 13 47 18.9950000  0 13G05G20G13G14G07G22G30G15G18G08G24G23
                                G17
  20868361.919   109663977.241       -3216.224          44.000  
  23119995.485   121496377.940       -3959.476          36.000  
  18581819.062    97648116.570        -596.550          46.000  
  19915523.930   104656781.901        -947.482          42.000  
  24152701.111   126923291.597       -3158.738          37.000  
  19728536.637   103674155.403         126.752          46.000  
  21602446.964   113521618.120       -2936.177          39.000  
  19299053.051   101417213.411        1790.979          48.000  
  23443184.666   123194770.271       -1979.808          37.000  
  24107007.498   126683150.543       -1943.385          30.000  
  21479231.662   112874137.327        3057.911          40.000  
  22322260.327   117304273.931        2659.894          38.000  
  23312705.228   122509009.203        2579.275          32.000  
 23 11 05 13 47 19.9950000  0 13G05G20G13G14G07G22G30G15G18G08G24G23
                                G17
  20868973.953   109667193.883       -3217.328          44.000  
  23120748.933   121500337.517       -3960.634          36.000  
  18581932.780    97648713.379        -597.499          46.000  
  19915704.407   104657729.711        -948.739          42.000  
  24153301.189   126926450.022       -3159.182          35.000  
  19728512.464   103674028.807         125.764          46.000  
  21603005.579   113524554.265       -2936.835          39.000  
  19298712.248   101415422.768        1790.118          48.000  
  23443561.311   123196750.211       -1980.979          37.000  
  24107378.577   126685094.446       -1944.523          30.000  
  21478649.691   112871079.665        3057.115          40.000  
  22321753.950   117301613.967        2659.467          38.000  
  23312214.539   122506429.995        2578.581          32.000  
 23 11 05 13 47 20.9950000  0 13G05G20G13G14G07G22G30G15G18G08G24G23
                                G17
  20869586.167   109670410.932       -3217.520          44.000  
  23121501.953   121504297.089       -3959.755          36.000  
  18582046.290    97649310.703        -597.766          46.000  
  19915884.842   104658678.172        -948.838          43.000  
  24153905.672   126929608.604       -3158.644          36.000  
  19728488.494   103673902.883         125.491          46.000  
  21603564.367   113527490.534       -2936.117          39.000  
  19298371.627   101413632.646        1789.923          48.000  
  23443937.800   123198730.663       -1980.683          37.000  
  24107747.307   126687038.938       -1944.888          30.000  
  21478067.477   112868022.301        3057.143          39.000  
  22321247.685   117298954.488        2658.868          38.000  
  23311723.531   122503850.956        2578.429          32.000  
 23 11 05 13 47 21.9950000  0 13G05G20G13G14G07G22G30G15G18G08G24G23
                                G17
  20870198.116   109673628.079       -3217.107          44.000  
  23122255.111   121508256.416       -3959.174          36.000  
  18582159.908    97649908.221        -597.667          46.000  
  19916065.487   104659626.972        -949.158          42.000  
  24154505.121   126932766.804       -3157.905          37.000  
  19728464.480   103673777.307         125.287          46.000  
  21604123.193   113530426.743       -2936.025          39.000  
  19298030.970   101411842.733        1789.734          48.000  
  23444314.443   123200711.270       -1980.961          37.000  
  24108117.184   126688983.674       -1945.876          30.000  
  21477485.462   112864964.857        3057.600          39.000  
  22320741.591   117296295.129        2659.338          38.000  
  23311232.735   122501271.818        2578.865          31.000  
 23 11 05 13 47 22.9950000  0 13G05G20G13G14G07G22G30G15G18G08G24G23
                                G17
  20870810.213   109676845.749       -3217.943          44.000  
  23123008.293   121512215.844       -3958.968          36.000  
  18582273.851    97650506.315        -598.365          46.000  
  19916246.352   104660576.504        -950.019          42.000  
  24155105.745   126935925.185       -3158.682          34.000  
  19728440.623   103673652.469         124.526          46.000  
  21604682.171   113533363.212       -2936.887          38.000  
  19297690.270   101410053.377        1789.154          47.000  
  23444691.462   123202692.436       -1981.193          37.000  
  24108483.987   126690928.937       -1946.042          30.000  
  21476903.624   112861907.735        3057.245          39.000  
  22320235.703   117293636.330        2658.356          38.000  
  23310741.603   122498692.848        2579.473          32.000  
 23 11 05 13 47 23.9950000  0 13G05G20G13G14G07G22G30G15G18G08G24G23
                                G17
  20871422.624   109680063.953       -3218.067          43.000  
  23123761.796   121516175.466       -3959.158          36.000  
  18582387.742    97651105.049        -598.489          46.000  
  19916427.182   104661526.815        -950.089          42.000  
  24155706.774   126939083.708       -3158.284          34.000  
  19728416.928   103673528.432         124.237          46.000  
  21605241.294   113536300.021       -2936.663          38.000  
  19297350.058   101408264.687        1788.849          47.000  
  23445068.936   123204674.214       -1981.525          38.000  
  24108859.970   126692874.973       -1947.072          31.000  
  21476321.816   112858851.019        3057.203          39.000  
  22319729.418   117290978.104        2658.142          38.000  
  23310250.676   122496114.201        2579.184          31.000  
 23 11 05 13 47 24.9950000  0 13G05G20G13G14G07G22G30G15G18G08G24G23
                                G17
  20872035.443   109683282.456       -3219.003          44.000  
  23124515.386   121520134.992       -3960.381          36.000  
  18582501.718    97651704.175        -599.706          46.000  
  19916608.361   104662477.686        -951.617          42.000  
  24156308.202   126942242.144       -3158.516          35.000  
  19728393.412   103673404.953         122.746          46.000  
  21605800.264   113539236.878       -2937.495          39.000  
  19297009.696   101406476.372        1787.793          48.000  
  23445446.380   123206656.349       -1982.573          38.000  
  24109236.375   126694821.320       -1946.527          31.000  
  21475740.181   112855794.480        3055.857          39.000  
  22319223.220   117288320.197        2657.587          38.000  
  23309759.605   122493535.719        2578.011          30.000  
 23 11 05 13 47 25.9950000  0 13G05G20G13G14G07G22G30G15G18G08G24G23
                                G17
  20872648.011   109686501.219       -3218.247          44.000  
  23125268.731   121524094.381       -3959.049          36.000  
  18582616.046    97652303.648        -599.336          46.000  
  19916789.228   104663429.017        -951.273          43.000  
  24156908.863   126945400.454       -3158.448          35.000  
  19728369.941   103673281.970         123.104          46.000  
  21606358.978   113542173.787       -2936.811          39.000  
  19296669.135   101404688.408        1788.086          48.000  
  23445823.935   123208638.827       -1982.237          38.000  
  24109607.345   126696768.224       -1947.206          32.000  
  21475158.497   112852737.990        3056.857          39.000  
  22318717.178   117285662.612        2657.391          38.000  
  23309268.342   122490957.142        2578.544          30.000  
 23 11 05 13 47 26.9950000  0 13G05G20G13G14G07G22G30G15G18G08G24G23
                                G17
  20873260.889   109689720.551       -3220.122          44.000  
  23126022.157   121528053.931       -3960.111          37.000  
  18582730.244    97652903.737        -600.813          46.000  
  19916970.383   104664381.130        -952.955          43.000  
  24157509.824   126948558.850       -3159.296          34.000  
  19728346.741   103673159.772         121.335          46.000  
  21606917.422   113545110.981       -2937.919          38.000  
  19296329.109   101402901.057        1786.707          47.000  
  23446201.545   123210621.896       -1983.971          39.000  
  24109972.460   126698715.776       -1948.313          32.000  
  21474576.941   112849681.900        3055.626          39.000  
  22318211.242   117283005.606        2656.360          38.000  
  23308777.557   122488378.900        2578.206          30.000  
 23 11 05 13 47 27.9950000  0 13G05G20G13G14G07G22G30G15G18G08G24G23
                                G17
  20873873.666   109692940.257       -3220.065          44.000  
  23126775.606   121532013.472       -3959.828          37.000  
  18582844.598    97653504.310        -601.081          46.000  
  19917151.617   104665333.864        -953.324          43.000  
  24158110.578   126951717.279       -3159.200          34.000  
  19728323.561   103673038.219         120.927          46.000  
  21607476.318   113548048.359       -2938.104          38.000  
  19295988.854   101401114.200        1786.365          47.000  
  23446579.047   123212605.380       -1983.469          39.000  
  24110341.971   126700663.779       -1948.780          32.000  
  21473995.233   112846626.043        3055.589          39.000  
  22317705.655   117280349.004        2655.994          37.000  
  23308286.951   122485800.774        2577.823          31.000  
 23 11 05 13 47 28.9950000  0 13G05G20G13G14G07G22G30G15G18G08G24G23
                                G17
  20874486.393   109696160.398       -3220.584          44.000  
  23127528.927   121535973.066       -3959.799          37.000  
  18582958.905    97654105.395        -601.592          46.000  
  19917333.249   104666287.260        -953.804          43.000  
  24158711.208   126954875.691       -3158.863          34.000  
  19728300.367   103672917.335         120.283          46.000  
  21608035.004   113550985.920       -2937.852          38.000  
  19295648.771   101399327.854        1785.925          47.000  
  23446956.317   123214589.380       -1984.180          39.000  
  24110716.614   126702612.395       -1949.363          32.000  
  21473413.755   112843570.438        3055.445          39.000  
  22317199.917   117277692.879        2655.554          37.000  
  23307796.395   122483222.828        2577.838          31.000  
 23 11 05 13 47 29.9950000  0 13G05G20G13G14G07G22G30G15G18G08G24G23
                                G17
  20875099.225   109699380.929       -3220.423          44.000  
  23128282.513   121539932.699       -3959.392          36.000  
  18583073.374    97654706.981        -601.579          46.000  
  19917514.838   104667241.307        -954.075          43.000  
  24159312.100   126958034.186       -3158.599          34.000  
  19728277.503   103672797.106         120.092          46.000  
  21608593.900   113553923.669       -2937.308          38.000  
  19295309.100   101397542.025        1785.797          47.000  
  23447333.937   123216573.863       -1984.394          39.000  
  24111087.461   126704561.550       -1948.813          31.000  
  21472832.359   112840515.128        3055.295          39.000  
  22316693.981   117275037.201        2655.933          37.000  
  23307306.083   122480645.087        2578.062          31.000  
 23 11 05 13 47 30.9950000  0 13G05G20G13G14G07G22G30G15G18G08G24G23
                                G17
  20875712.324   109702601.786       -3220.752          44.000  
  23129036.183   121543892.259       -3959.448          36.000  
  18583187.813    97655308.973        -602.200          46.000  
  19917696.556   104668195.919        -954.938          43.000  
  24159913.291   126961192.551       -3158.033          35.000  
  19728254.613   103672677.451         119.460          46.000  
  21609153.118   113556861.553       -2937.969          38.000  
  19294969.500   101395756.604        1785.229          47.000  
  23447711.937   123218558.737       -1984.847          39.000  
  24111457.941   126706511.238       -1950.343          31.000  
  21472250.962   112837459.957        3054.884          39.000  
  22316188.443   117272381.892        2655.377          37.000  
  23306820.720   122478067.402        2577.863          31.000  
 23 11 05 13 47 31.9950000  0 13G05G20G13G14G07G22G30G15G18G08G24G23
                                G17
  20876325.177   109705823.046       -3221.397          44.000  
  23129789.773   121547851.822       -3959.503          36.000  
  18583302.306    97655911.438        -602.789          46.000  
  19917878.204   104669151.118        -955.406          43.000  
  24160514.527   126964350.927       -3158.093          35.000  
  19728232.017   103672558.414         118.656          46.000  
  21609712.260   113559799.573       -2938.284          38.000  
  19294629.890   101393971.641        1784.558          47.000  
  23448089.907   123220544.048       -1985.762          39.000  
  24111828.926   126708461.350       -1950.627          31.000  
  21471669.571   112834405.012        3054.806          39.000  
  22315682.847   117269727.022        2654.437          37.000  
  23306330.419   122475489.933        2577.462          31.000  
 23 11 05 13 47 32.9950000  0 13G05G20G13G14G07G22G30G15G18G08G24G23
                                G17
  20876937.983   109709044.591       -3221.928          44.000  
  23130543.151   121551811.270       -3959.171          36.000  
  18583417.355    97656514.269        -603.088          46.000  
  19918059.961   104670106.876        -956.382          43.000  
  24161115.643   126967509.229       -3158.501          37.000  
  19728209.436   103672439.911         118.085          46.000  
  21610271.374   113562737.623       -2937.857          38.000  
  19294290.245   101392187.051        1784.210          47.000  
  23448468.040   123222529.683       -1985.716          39.000  
  24112200.138   126710411.901       -1950.817          31.000  
  21471088.167   112831350.193        3054.686          39.000  
  22315177.546   117267072.448        2654.034          37.000  
  23305838.175   122472912.519        2576.837          31.000  
 23 11 05 13 47 33.9950000  0 13G05G20G13G14G07G22G30G15G18G08G24G23
                                G17
  20877551.313   109712266.633       -3222.264          44.000  
  23131296.700   121555770.879       -3959.528          36.000  
  18583532.544    97657117.692        -603.792          46.000  
  19918241.978   104671063.332        -956.947          43.000  
  24161716.679   126970667.636       -3158.317          36.000  
  19728186.974   103672322.155         117.269          46.000  
  21610830.400   113565675.975       -2938.326          38.000  
  19293950.976   101390403.056        1783.563          47.000  
  23448846.201   123224515.901       -1986.611          39.000  
  24112571.293   126712363.164       -1951.810          31.000  
  21470507.028   112828295.706        3054.605          40.000  
  22314672.606   117264418.410        2653.632          37.000  
  23305346.290   122470335.250        2576.387          30.000  
 23 11 05 13 47 34.9950000  0 13G05G20G13G14G07G22G30G15G18G08G24G23
                                G17
  20878164.273   109715489.156       -3222.688          43.000  
  23132050.163   121559730.614       -3959.931          36.000  
  18583647.471    97657721.693        -604.211          46.000  
  19918424.189   104672020.505        -957.180          43.000  
  24162317.765   126973826.139       -3158.358          35.000  
  19728164.794   103672205.128         116.818          46.000  
  21611389.608   113568614.570       -2937.875          38.000  
  19293611.487   101388619.629        1783.258          47.000  
  23449224.411   123226502.669       -1987.070          39.000  
  24112942.503   126714314.976       -1952.151          30.000  
  21469925.779   112825241.584        3053.731          40.000  
  22314167.737   117261764.905        2653.461          37.000  
  23304852.617   122467758.189        2576.739          31.000  
 23 11 05 13 47 35.9950000  0 13G05G20G13G14G07G22G30G15G18G08G24G23
                                G17
  20878777.659   109718711.983       -3222.863          43.000  
  23132803.611   121563690.236       -3960.132          36.000  
  18583762.455    97658326.066        -604.464          46.000  
  19918606.542   104672978.229        -958.059          43.000  
  24162918.652   126976984.585       -3158.676          34.000  
  19728142.277   103672088.644         116.339          46.000  
  21611948.473   113571553.276       -2938.709          38.000  
  19293272.540   101386836.588        1782.831          47.000  
  23449602.422   123228489.770       -1987.098          39.000  
  24113313.745   126716267.272       -1952.257          30.000  
  21469344.748   112822187.546        3054.365          40.000  
  22313662.945   117259111.743        2653.485          37.000  
  23304368.476   122465181.261        2576.979          30.000  
 23 11 05 13 47 36.9950000  0 13G05G20G13G14G07G22G30G15G18G08G24G23
                                G17
  20879391.150   109721935.235       -3223.916          43.000  
  23133556.799   121567649.839       -3959.722          35.000  
  18583877.193    97658930.936        -605.478          46.000  
  19918788.936   104673936.582        -959.108          43.000  
  24163519.618   126980143.033       -3158.894          34.000  
  19728120.346   103671972.807         115.372          46.000  
  21612507.866   113574492.140       -2939.354          38.000  
  19292933.214   101385054.033        1782.141          47.000  
  23449980.826   123230477.339       -1987.770          39.000  
  24113684.815   126718220.088       -1953.794          30.000  
  21468763.795   112819133.790        3053.132          40.000  
  22313158.198   117256459.013        2652.368          36.000  
  23303872.183   122462604.484        2576.819          31.000  
 23 11 05 13 47 37.9950000  0 13G05G20G13G14G07G22G30G15G18G08G24G23
                                G17
  20880004.582   109725159.019       -3223.856          43.000  
  23134310.269   121571609.625       -3960.140          35.000  
  18583992.357    97659536.427        -605.695          46.000  
  19918971.205   104674895.704        -959.375          43.000  
  24164120.974   126983301.544       -3158.527          34.000  
  19728098.379   103671857.767         114.888          46.000  
  21613067.516   113577431.296       -2939.278          38.000  
  19292593.914   101383272.110        1781.769          47.000  
  23450359.397   123232465.538       -1988.344          39.000  
  24114049.283   126720173.599       -1955.295          30.000  
  21468183.185   112816080.404        3053.185          40.000  
  22312653.289   117253806.861        2652.240          36.000  
  23303383.876   122460028.070        2576.832          31.000  
 23 11 05 13 47 38.9950000  0 13G05G20G13G14G07G22G30G15G18G08G24G23
                                G17
  20880618.533   109728383.090       -3224.340          43.000  
  23135063.637   121575569.330       -3960.245          35.000  
  18584107.732    97660142.288        -606.032          46.000  
  19919153.813   104675855.355        -959.869          43.000  
  24164721.737   126986460.009       -3158.764          34.000  
  19728076.583   103671743.255         113.938          46.000  
  21613626.756   113580370.519       -2939.394          39.000  
  19292254.723   101381490.563        1781.110          47.000  
  23450737.740   123234454.057       -1988.760          39.000  
  24114421.930   126722127.461       -1955.096          30.000  
  21467602.433   112813027.132        3053.046          40.000  
  22312148.461   117251155.025        2652.063          36.000  
  23302889.071   122457451.594        2575.932          31.000  
 23 11 05 13 47 39.9950000  0 13G05G20G13G14G07G22G30G15G18G08G24G23
                                G17
  20881232.024   109731607.497       -3224.563          43.000  
  23135816.771   121579528.941       -3959.443          35.000  
  18584223.158    97660748.566        -606.419          46.000  
  19919336.646   104676815.565        -960.436          43.000  
  24165322.935   126989618.298       -3158.290          34.000  
  19728055.196   103671629.311         113.660          46.000  
  21614186.714   113583309.858       -2939.613          39.000  
  19291915.840   101379709.427        1780.951          47.000  
  23451116.342   123236442.963       -1988.614          40.000  
  24114796.566   126724081.813       -1954.183          31.000  
  21467021.596   112809974.046        3053.080          40.000  
  22311643.931   117248503.586        2651.202          36.000  
  23302393.120   122454875.280        2576.511          31.000  
 23 11 05 13 47 40.9950000  0 13G05G20G13G14G07G22G30G15G18G08G24G23
                                G17
  20881845.848   109734832.340       -3225.489          43.000  
  23136570.315   121583488.604       -3959.461          35.000  
  18584338.578    97661355.360        -607.091          46.000  
  19919519.369   104677776.446        -961.482          43.000  
  24165923.588   126992776.744       -3158.818          35.000  
  19728033.442   103671516.052         112.816          46.000  
  21614746.399   113586249.377       -2939.425          39.000  
  19291576.795   101377928.813        1780.206          47.000  
  23451495.022   123238432.382       -1989.879          40.000  
  24115173.262   126726036.688       -1954.597          32.000  
  21466441.003   112806921.236        3052.580          41.000  
  22311139.445   117245852.625        2650.641          37.000  
  23301904.902   122452299.075        2575.878          31.000  
 23 11 05 13 47 41.9950000  0 13G05G20G13G14G07G22G30G15G18G08G24G23
                                G17
  20882459.226   109738057.462       -3225.397          43.000  
  23137323.752   121587448.195       -3959.273          37.000  
  18584454.256    97661962.573        -607.493          46.000  
  19919702.463   104678737.848        -961.742          43.000  
  24166524.256   126995935.067       -3158.119          35.000  
  19728012.142   103671403.360         112.289          46.000  
  21615306.418   113589189.022       -2939.779          39.000  
  19291237.936   101376148.620        1779.755          46.000  
  23451873.609   123240422.181       -1990.219          40.000  
  24115543.878   126727992.160       -1956.924          32.000  
  21465860.323   112803868.575        3052.401          41.000  
  22310634.737   117243201.964        2651.208          34.000  
  23301409.818   122449723.008        2576.293          30.000  
 23 11 05 13 47 42.9950000  0 13G05G20G13G14G07G22G30G15G18G08G24G23
                                G17
  20883073.144   109741283.094       -3225.866          43.000  
  23138077.438   121591407.945       -3960.084          36.000  
  18584570.258    97662570.332        -608.160          46.000  
  19919885.392   104679700.001        -962.755          43.000  
  24167125.285   126999093.586       -3158.444          34.000  
  19727990.894   103671291.387         111.462          46.000  
  21615865.874   113592128.912       -2940.274          39.000  
  19290899.343   101374368.988        1779.327          47.000  
  23452252.469   123242412.488       -1990.309          40.000  
  24115919.361   126729948.108       -1955.980          31.000  
  21465279.831   112800816.243        3052.200          41.000  
  22310130.544   117240551.886        2649.567          37.000  
  23300923.118   122447147.153        2575.789          31.000  
 23 11 05 13 47 43.9950000  0 13G05G20G13G14G07G22G30G15G18G08G24G23
                                G17
  20883687.125   109744509.052       -3226.103          43.000  
  23138830.779   121595367.597       -3959.860          35.000  
  18584685.980    97663178.511        -608.226          46.000  
  19920068.623   104680662.693        -963.103          43.000  
  24167726.410   127002251.984       -3158.136          35.000  
  19727969.640   103671179.990         111.293          46.000  
  21616425.699   113595068.910       -2940.221          40.000  
  19290560.495   101372589.767        1779.205          47.000  
  23452631.682   123244403.195       -1990.516          40.000  
  24116292.748   126731904.568       -1956.066          32.000  
  21464699.090   112797764.090        3052.282          41.000  
  22309626.496   117237902.135        2649.738          37.000  
  23300434.577   122444571.422        2575.917          30.000  
 23 11 05 13 47 44.9950000  0 13G05G20G13G14G07G22G30G15G18G08G24G23
                                G17
  20884300.758   109747735.248       -3226.563          43.000  
  23139584.484   121599327.073       -3959.267          36.000  
  18584801.282    97663787.031        -608.768          46.000  
  19920252.352   104681625.849        -963.416          43.000  
  24168327.476   127005410.206       -3158.005          34.000  
  19727948.115   103671069.089         110.566          45.000  
  21616985.485   113598008.896       -2940.324          40.000  
  19290221.950   101370810.905        1778.339          47.000  
  23453010.534   123246394.246       -1991.389          39.000  
  24116663.170   126733861.480       -1957.847          32.000  
  21464118.377   112794712.022        3051.839          41.000  
  22309122.314   117235252.672        2649.255          37.000  
  23299947.642   122441995.609        2575.557          31.000  
 23 11 05 13 47 45.9950000  0 13G05G20G13G14G07G22G30G15G18G08G24G23
                                G17
  20884914.774   109750961.961       -3227.253          43.000  
  23140338.179   121603286.733       -3960.098          35.000  
  18584917.217    97664396.160        -609.659          46.000  
  19920435.658   104682589.793        -964.519          43.000  
  24168928.767   127008568.542       -3158.223          35.000  
  19727926.701   103670958.954         109.467          45.000  
  21617545.113   113600949.192       -2940.754          39.000  
  19289883.581   101369032.629        1777.728          47.000  
  23453389.187   123248385.841       -1992.172          39.000  
  24117039.052   126735819.000       -1958.195          32.000  
  21463537.625   112791660.308        3051.539          41.000  
  22308618.332   117232603.801        2648.175          37.000  
  23299455.162   122439420.136        2575.631          32.000  
 23 11 05 13 47 46.9950000  0 13G05G20G13G14G07G22G30G15G18G08G24G23
                                G17
  20885528.582   109754188.977       -3227.158          43.000  
  23141091.793   121607246.314       -3959.938          35.000  
  18585033.376    97665005.698        -609.733          46.000  
  19920619.014   104683554.274        -965.020          43.000  
  24169530.215   127011726.821       -3158.618          35.000  
  19727905.916   103670849.385         109.203          45.000  
  21618104.606   113603889.593       -2940.656          39.000  
  19289545.219   101367254.780        1777.576          47.000  
  23453767.911   123250377.829       -1992.374          39.000  
  24117411.667   126737776.876       -1957.032          32.000  
  21462956.795   112788608.754        3051.482          41.000  
  22308114.566   117229955.254        2648.450          37.000  
  23298965.291   122436844.734        2575.688          32.000  
 23 11 05 13 47 47.9950000  0 13G05G20G13G14G07G22G30G15G18G08G24G23
                                G17
  20886142.659   109757416.369       -3227.271          43.000  
  23141845.515   121611205.873       -3959.603          36.000  
  18585149.294    97665615.713        -610.189          46.000  
  19920802.856   104684519.371        -965.408          43.000  
  24170131.069   127014885.090       -3157.817          35.000  
  19727885.187   103670740.447         108.692          45.000  
  21618664.337   113606830.131       -2940.837          39.000  
  19289207.429   101365477.408        1777.271          47.000  
  23454147.089   123252370.258       -1992.487          39.000  
  24117784.061   126739735.409       -1957.966          33.000  
  21462376.158   112785557.431        3051.429          41.000  
  22307610.898   117227307.162        2647.894          37.000  
  23298478.081   122434269.490        2575.312          31.000  
 23 11 05 13 47 48.9950000  0 13G05G20G13G14G07G22G30G15G18G08G24G23
                                G17
  20886756.715   109760644.289       -3228.391          43.000  
  23142599.188   121615165.554       -3959.882          35.000  
  18585265.469    97666226.296        -610.770          46.000  
  19920987.129   104685485.195        -966.025          43.000  
  24170732.280   127018043.412       -3157.993          35.000  
  19727864.814   103670632.242         107.907          45.000  
  21619223.654   113609770.978       -2941.207          39.000  
  19288869.375   101363700.616        1776.501          47.000  
  23454526.162   123254363.239       -1993.380          39.000  
  24118156.837   126741694.546       -1959.751          33.000  
  21461795.265   112782506.450        3050.946          41.000  
  22307107.516   117224659.593        2647.345          37.000  
  23297988.299   122431694.579        2573.834          35.000  
 23 11 05 13 47 49.9950000  0 13G05G20G13G14G07G22G30G15G18G08G24G23
                                G17
  20887371.167   109763872.317       -3227.862          42.000  
  23143352.562   121619125.003       -3959.378          35.000  
  18585381.462    97666837.100        -610.979          46.000  
  19921171.128   104686451.379        -966.459          43.000  
  24171333.224   127021201.525       -3157.948          35.000  
  19727844.018   103670524.434         107.336          45.000  
  21619783.531   113612711.679       -2940.921          40.000  
  19288531.517   101361924.040        1776.434          47.000  
  23454905.414   123256356.409       -1993.326          40.000  
  24118530.027   126743653.901       -1959.323          33.000  
  21461214.449   112779455.432        3051.214          41.000  
  22306603.935   117222012.198        2647.095          37.000  
  23297497.974   122429119.341        2576.225          31.000  
 23 11 05 13 47 50.9950000  0 13G05G20G13G14G07G22G30G15G18G08G24G23
                                G17
  20887985.649   109767100.659       -3228.505          43.000  
  23144106.036   121623084.337       -3959.587          35.000  
  18585497.700    97667448.318        -611.650          46.000  
  19921355.134   104687418.127        -967.212          43.000  
  24171934.181   127024359.558       -3158.031          35.000  
  19727823.586   103670417.166         106.641          45.000  
  21620343.166   113615652.499       -2940.948          40.000  
  19288193.580   101360147.897        1775.726          47.000  
  23455284.479   123258349.975       -1994.127          39.000  
  24118903.041   126745613.766       -1960.574          33.000  
  21460633.691   112776404.594        3050.777          41.000  
  22306100.538   117219365.149        2646.759          37.000  
  23297009.950   122426544.335        2575.411          31.000  
 23 11 05 13 47 51.9950000  0 13G05G20G13G14G07G22G30G15G18G08G24G23
                                G17
  20888599.911   109770329.666       -3228.807          43.000  
  23144859.299   121627043.981       -3959.046          35.000  
  18585614.213    97668060.286        -611.990          46.000  
  19921539.526   104688385.780        -968.015          43.000  
  24172535.000   127027517.902       -3158.131          35.000  
  19727803.398   103670310.825         106.124          45.000  
  21620902.965   113618593.737       -2940.837          40.000  
  19287855.713   101358372.494        1775.415          47.000  
  23455664.244   123260344.242       -1994.250          40.000  
  24119276.476   126747574.414       -1960.496          33.000  
  21460053.460   112773354.273        3050.521          41.000  
  22305596.822   117216718.822        2646.381          37.000  
  23296519.763   122423969.729        2575.233          31.000  
 23 11 05 13 47 52.9950000  0 13G05G20G13G14G07G22G30G15G18G08G24G23
                                G17
  20889214.696   109773558.914       -3229.592          43.000  
  23145612.708   121631003.506       -3959.797          35.000  
  18585730.750    97668672.571        -612.586          46.000  
  19921723.639   104689353.899        -968.769          43.000  
  24173136.082   127030676.050       -3158.282          35.000  
  19727783.450   103670204.957         105.330          45.000  
  21621462.591   113621535.002       -2941.064          40.000  
  19287518.084   101356597.432        1774.567          47.000  
  23456043.736   123262338.819       -1994.857          40.000  
  24119649.808   126749535.459       -1961.219          33.000  
  21459472.911   112770304.032        3049.676          42.000  
  22305093.207   117214072.781        2645.319          37.000  
  23296029.859   122421395.065        2574.990          30.000  
 23 11 05 13 47 53.9950000  0 13G05G20G13G14G07G22G30G15G18G08G24G23
                                G17
  20889829.657   109776788.656       -3229.669          43.000  
  23146366.287   121634963.126       -3959.592          35.000  
  18585847.340    97669285.442        -612.933          46.000  
  19921907.822   104690322.722        -968.942          43.000  
  24173737.240   127033834.303       -3157.785          35.000  
  19727763.498   103670099.832         104.912          45.000  
  21622022.684   113624476.561       -2941.475          40.000  
  19287180.451   101354822.941        1774.548          47.000  
  23456423.084   123264333.954       -1995.091          39.000  
  24120023.509   126751497.178       -1961.534          33.000  
  21458892.637   112767254.100        3049.868          42.000  
  22304589.713   117211427.235        2645.636          36.000  
  23295540.007   122418820.787        2574.675          30.000  
 23 11 05 13 47 54.9950000  0 13G05G20G13G14G07G22G30G15G18G08G24G23
                                G17
  20890444.469   109780018.666       -3230.338          43.000  
  23147119.787   121638922.588       -3959.458          35.000  
  18585964.130    97669898.637        -613.340          46.000  
  19922091.970   104691292.048        -969.537          42.000  
  24174338.308   127036992.391       -3157.739          35.000  
  19727743.210   103669995.192         104.518          45.000  
  21622582.792   113627418.113       -2941.489          40.000  
  19286842.798   101353048.792        1774.097          47.000  
  23456802.894   123266329.391       -1995.668          40.000  
  24120397.024   126753459.183       -1961.983          33.000  
  21458312.679   112764204.250        3050.093          42.000  
  22304086.591   117208781.994        2645.044          37.000  
  23295049.787   122416246.265        2575.752          30.000  
 23 11 05 13 47 55.9950000  0 13G05G20G13G14G07G22G30G15G18G08G24G23
                                G17
  20891059.234   109783249.107       -3230.540          43.000  
  23147873.554   121642882.122       -3959.401          36.000  
  18586080.503    97670512.394        -613.922          46.000  
  19922276.399   104692262.066        -970.187          43.000  
  24174939.204   127040150.648       -3158.815          36.000  
  19727723.707   103669891.291         103.611          45.000  
  21623142.539   113630359.919       -2941.685          40.000  
  19286505.138   101351275.202        1773.346          47.000  
  23457182.323   123268325.335       -1996.034          39.000  
  24120770.502   126755421.907       -1962.923          33.000  
  21457732.653   112761154.735        3049.512          42.000  
  22303583.119   117206137.292        2644.739          36.000  
  23294555.019   122413672.255        2573.692          29.000  
 23 11 05 13 47 56.9950000  0 13G05G20G13G14G07G22G30G15G18G08G24G23
                                G17
  20891673.815   109786479.939       -3230.977          43.000  
  23148626.888   121646841.710       -3960.171          36.000  
  18586197.282    97671126.647        -614.637          46.000  
  19922461.005   104693232.733        -971.350          43.000  
  24175540.170   127043308.820       -3158.502          36.000  
  19727703.840   103669788.020         102.571          45.000  
  21623702.353   113633301.906       -2942.186          40.000  
  19286167.919   101349502.106        1772.656          47.000  
  23457562.326   123270321.786       -1997.003          39.000  
  24121144.358   126757385.064       -1963.067          34.000  
  21457152.076   112758105.467        3049.235          42.000  
  22303080.078   117203493.046        2643.713          37.000  
  23294062.362   122411098.288        2573.943          29.000  
 23 11 05 13 47 57.9950000  0 13G05G20G13G14G07G22G30G15G18G08G24G23
                                G17
  20892289.066   109789711.326       -3231.274          43.000  
  23149380.602   121650801.411       -3959.418          36.000  
  18586314.207    97671741.506        -614.741          46.000  
  19922645.737   104694204.142        -971.470          43.000  
  24176141.649   127046467.159       -3158.476          37.000  
  19727684.420   103669685.513         102.538          45.000  
  21624262.638   113636244.156       -2942.233          41.000  
  19285830.456   101347729.636        1772.467          47.000  
  23457942.193   123272318.792       -1996.883          39.000  
  24121518.379   126759348.915       -1964.083          33.000  
  21456571.804   112755056.575        3048.848          42.000  
  22302576.809   117200849.328        2643.878          36.000  
  23293575.604   122408524.604        2572.933          30.000  
 23 11 05 13 47 58.9950000  0 13G05G20G13G14G07G22G30G15G18G08G24G23
                                G17
  20892903.726   109792942.953       -3231.975          42.000  
  23150134.231   121654760.997       -3959.806          36.000  
  18586431.058    97672356.714        -615.510          45.000  
  19922830.561   104695176.056        -972.444          43.000  
  24176743.256   127049625.341       -3158.406          37.000  
  19727664.822   103669583.521         101.699          45.000  
  21624822.877   113639186.469       -2942.402          41.000  
  19285493.379   101345957.515        1771.881          47.000  
  23458322.307   123274316.124       -1997.354          39.000  
  24121892.776   126761313.109       -1964.230          33.000  
  21455991.547   112752007.771        3048.389          42.000  
  22302073.785   117198205.920        2642.682          36.000  
  23293093.762   122405950.951        2571.941          34.000  
 23 11 05 13 47 59.9950000  0 13G05G20G13G14G07G22G30G15G18G08G24G23
                                G17
  20893518.489   109796174.972       -3232.459          42.000  
  23150887.655   121658720.608       -3959.767          36.000  
  18586547.951    97672972.405        -615.880          45.000  
  19923015.518   104696148.582        -972.819          42.000  
  24177344.693   127052783.559       -3158.454          37.000  
  19727646.012   103669482.179         101.041          45.000  
  21625382.933   113642128.940       -2942.385          41.000  
  19285156.141   101344185.878        1771.497          47.000  
  23458702.669   123276313.918       -1997.892          40.000  
  24122267.140   126763277.871       -1965.189          34.000  
  21455411.541   112748959.188        3048.512          42.000  
  22301570.734   117195562.940        2642.914          36.000  
  23292605.398   122403377.402        2574.134          33.000  
 23 11 05 13 48 00.9950000  0 13G05G20G13G14G07G22G30G15G18G08G24G23
                                G17
  20894133.155   109799407.222       -3232.333          42.000  
  23151640.942   121662680.024       -3959.275          35.000  
  18586665.159    97673588.396        -616.094          46.000  
  19923200.728   104697121.576        -973.176          43.000  
  24177945.693   127055941.581       -3158.323          37.000  
  19727626.778   103669381.295         100.826          45.000  
  21625942.542   113645071.404       -2942.455          40.000  
  19284819.090   101342414.561        1771.197          47.000  
  23459082.975   123278311.982       -1998.004          40.000  
  24122641.512   126765242.924       -1964.603          34.000  
  21454831.365   112745910.684        3048.449          42.000  
  22301068.126   117192920.250        2642.175          37.000  
  23292119.372   122400803.921        2573.188          32.000  
 23 11 05 13 48 01.9950000  0 13G05G20G13G14G07G22G30G15G18G08G24G23
                                G17
  20894747.872   109802639.896       -3232.995          42.000  
  23152394.408   121666639.540       -3959.792          35.000  
  18586782.309    97674204.941        -616.950          45.000  
  19923385.897   104698095.253        -974.170          43.000  
  24178546.587   127059099.667       -3157.979          37.000  
  19727607.886   103669281.119          99.690          45.000  
  21626502.722   113648014.096       -2942.737          40.000  
  19284482.074   101340643.791        1770.373          47.000  
  23459463.477   123280310.563       -1998.917          40.000  
  24123016.027   126767208.616       -1965.784          34.000  
  21454251.128   112742862.488        3048.008          42.000  
  22300565.176   117190278.016        2642.145          37.000  
  23291625.873   122398230.608        2573.383          31.000  
 23 11 05 13 48 02.9950000  0 13G05G20G13G14G07G22G30G15G18G08G24G23
                                G17
  20895362.824   109805873.047       -3233.189          42.000  
  23153147.834   121670599.117       -3959.149          35.000  
  18586899.786    97674822.035        -617.152          45.000  
  19923571.257   104699069.626        -974.370          43.000  
  24179147.477   127062257.830       -3157.964          37.000  
  19727588.555   103669181.642          99.520          45.000  
  21627062.451   113650957.034       -2942.822          40.000  
  19284144.911   101338873.558        1770.477          47.000  
  23459844.278   123282309.662       -1999.131          40.000  
  24123390.408   126769174.912       -1966.179          34.000  
  21453670.888   112739814.570        3048.237          41.000  
  22300062.558   117187636.329        2641.882          37.000  
  23291136.373   122395657.574        2572.544          31.000  
 23 11 05 13 48 03.9950000  0 13G05G20G13G14G07G22G30G15G18G08G24G23
                                G17
  20895977.981   109809106.372       -3233.686          42.000  
  23153900.985   121674558.511       -3959.640          35.000  
  18587017.309    97675439.408        -617.787          45.000  
  19923756.773   104700044.416        -975.033          42.000  
  24179748.358   127065415.816       -3158.331          37.000  
  19727570.028   103669082.618          98.492          45.000  
  21627622.544   113653899.918       -2943.063          40.000  
  19283808.087   101337103.641        1769.580          47.000  
  23460225.231   123284309.007       -1999.468          41.000  
  24123764.981   126771141.534       -1966.654          34.000  
  21453090.902   112736766.727        3047.577          41.000  
  22299559.908   117184994.852        2641.345          37.000  
  23290642.798   122393084.399        2572.685          31.000  
 23 11 05 13 48 04.9950000  0 13G05G20G13G14G07G22G30G15G18G08G24G23
                                G17
  20896593.143   109812340.235       -3234.114          42.000  
  23154654.728   121678518.059       -3959.624          36.000  
  18587135.100    97676057.392        -618.375          45.000  
  19923942.386   104701019.973        -975.939          42.000  
  24180349.123   127068573.907       -3158.454          37.000  
  19727551.208   103668984.342          97.916          45.000  
  21628182.382   113656843.126       -2943.497          40.000  
  19283471.058   101335334.318        1769.006          47.000  
  23460605.975   123286308.941       -2000.104          40.000  
  24124139.611   126773108.841       -1967.943          34.000  
  21452510.835   112733719.220        3047.533          41.000  
  22299056.930   117182353.955        2640.765          37.000  
  23290148.985   122390511.533        2572.417          31.000  
 23 11 05 13 48 05.9950000  0 13G05G20G13G14G07G22G30G15G18G08G24G23
                                G17
  20897208.477   109815574.526       -3234.441          42.000  
  23155408.396   121682477.612       -3959.264          36.000  
  18587252.804    97676675.911        -618.972          45.000  
  19924127.993   104701996.212        -976.691          42.000  
  24180950.322   127071732.052       -3158.640          37.000  
  19727533.053   103668886.778          97.014          45.000  
  21628742.438   113659786.558       -2944.102          40.000  
  19283134.448   101333565.549        1768.115          47.000  
  23460986.719   123288309.371       -2001.008          40.000  
  24124514.268   126775076.683       -1968.556          33.000  
  21451931.128   112730672.040        3046.604          41.000  
  22298554.573   117179713.547        2639.990          37.000  
  23289660.654   122387938.914        2572.549          31.000  
 23 11 05 13 48 06.9950000  0 13G05G20G13G14G07G22G30G15G18G08G24G23
                                G17
  20897823.785   109818809.126       -3234.826          42.000  
  23156162.030   121686437.112       -3959.247          36.000  
  18587370.689    97677294.822        -619.527          45.000  
  19924313.821   104702972.976        -977.124          42.000  
  24181551.338   127074890.109       -3158.376          37.000  
  19727514.265   103668789.744          96.597          45.000  
  21629302.263   113662730.062       -2944.337          39.000  
  19282797.654   101331797.142        1767.957          47.000  
  23461367.424   123290310.185       -2001.337          40.000  
  24124888.771   126777044.988       -1969.067          33.000  
  21451351.218   112727624.988        3046.427          41.000  
  22298052.107   117177073.470        2639.996          37.000  
  23289169.827   122385366.341        2572.222          32.000  
 23 11 05 13 48 07.9950000  0 13G05G20G13G14G07G22G30G15G18G08G24G23
                                G17
  20898439.664   109822044.195       -3235.529          42.000  
  23156915.772   121690396.718       -3960.117          36.000  
  18587488.061    97677914.275        -619.859          45.000  
  19924499.890   104703950.438        -978.175          42.000  
  24182152.387   127078048.213       -3158.442          37.000  
  19727496.259   103668693.435          95.723          45.000  
  21629862.083   113665673.769       -2944.142          39.000  
  19282461.269   101330029.298        1767.291          47.000  
  23461748.129   123292311.481       -2001.716          40.000  
  24125263.676   126779013.928       -1970.114          33.000  
  21450771.417   112724578.237        3046.269          41.000  
  22297549.526   117174433.904        2639.166          37.000  
  23288680.460   122382794.050        2570.314          32.000  
 23 11 05 13 48 08.9950000  0 13G05G20G13G14G07G22G30G15G18G08G24G23
                                G17
  20899055.676   109825279.550       -3235.409          42.000  
  23157669.286   121694356.232       -3959.260          36.000  
  18587606.082    97678534.133        -619.786          45.000  
  19924685.879   104704928.437        -978.009          42.000  
  24182753.178   127081206.234       -3157.781          37.000  
  19727477.827   103668597.677          95.542          45.000  
  21630422.004   113668617.576       -2943.491          39.000  
  19282125.079   101328261.852        1767.426          47.000  
  23462129.250   123294313.204       -2001.772          40.000  
  24125638.775   126780983.236       -1969.394          33.000  
  21450191.734   112721531.625        3046.655          41.000  
  22297047.188   117171794.695        2639.178          37.000  
  23288191.086   122380221.681        2572.580          32.000  
 23 11 05 13 48 09.9950000  0 13G05G20G13G14G07G22G30G15G18G08G24G23
                                G17
  20899671.623   109828515.245       -3236.378          42.000  
  23158422.849   121698315.683       -3959.890          36.000  
  18587724.475    97679154.420        -620.914          45.000  
  19924872.239   104705907.013        -979.342          42.000  
  24183354.074   127084364.199       -3158.204          37.000  
  19727459.949   103668502.513          94.410          45.000  
  21630982.117   113671561.513       -2944.519          40.000  
  19281788.545   101326494.838        1766.443          47.000  
  23462510.036   123296315.295       -2002.866          40.000  
  24126013.760   126782953.044       -1970.355          33.000  
  21449612.072   112718485.205        3045.823          41.000  
  22296544.753   117169155.870        2638.281          37.000  
  23287701.767   122377649.487        2572.334          32.000  
 23 11 05 13 48 10.9950000  0 13G05G20G13G14G07G22G30G15G18G08G24G23
                                G17
  20900287.426   109831751.484       -3236.577          42.000  
  23159176.618   121702275.248       -3959.058          36.000  
  18587842.222    97679775.298        -620.998          45.000  
  19925058.557   104706886.333        -979.510          42.000  
  24183954.997   127087522.274       -3157.923          36.000  
  19727441.786   103668408.094          94.121          45.000  
  21631542.177   113674505.703       -2943.918          39.000  
  19281452.543   101324728.432        1766.284          47.000  
  23462891.356   123298317.952       -2002.906          41.000  
  24126388.768   126784923.506       -1970.727          32.000  
  21449032.341   112715439.136        3045.959          41.000  
  22296042.791   117166517.597        2637.756          37.000  
  23287212.412   122375077.611        2571.371          32.000  
 23 11 05 13 48 11.9950000  0 13G05G20G13G14G07G22G30G15G18G08G24G23
                                G17
  20900903.244   109834988.077       -3236.866          41.000  
  23159930.286   121706234.837       -3959.762          36.000  
  18587960.406    97680396.672        -621.746          45.000  
  19925245.235   104707866.277        -980.370          42.000  
  24184556.220   127090680.370       -3157.985          36.000  
  19727423.919   103668314.321          93.396          45.000  
  21632102.499   113677450.072       -2944.077          39.000  
  19281116.424   101322962.520        1765.527          47.000  
  23463272.665   123300321.047       -2003.340          40.000  
  24126763.444   126786894.489       -1971.664          32.000  
  21448452.710   112712393.320        3045.676          41.000  
  22295540.968   117163879.761        2637.201          37.000  
  23286722.925   122372505.865        2571.526          33.000  
 23 11 05 13 48 12.9950000  0 13G05G20G13G14G07G22G30G15G18G08G24G23
                                G17
  20901519.363   109838225.015       -3237.166          42.000  
  23160683.883   121710194.407       -3959.655          37.000  
  18588078.978    97681018.473        -622.266          45.000  
  19925431.882   104708846.798        -980.735          42.000  
  24185157.393   127093838.410       -3157.952          36.000  
  19727406.050   103668221.152          92.637          45.000  
  21632663.070   113680394.593       -2944.944          39.000  
  19280780.693   101321197.050        1765.210          47.000  
  23463653.944   123302324.566       -2003.740          41.000  
  24127138.194   126788865.986       -1972.832          32.000  
  21447873.202   112709347.697        3045.163          41.000  
  22295038.971   117161242.292        2637.524          37.000  
  23286233.616   122369934.178        2571.806          33.000  
 23 11 05 13 48 13.9950000  0 13G05G20G13G14G07G22G30G15G18G08G24G23
                                G17
  20902135.493   109841462.346       -3237.491          42.000  
  23161437.719   121714153.931       -3959.200          37.000  
  18588197.321    97681640.737        -622.509          46.000  
  19925618.624   104709827.926        -981.053          43.000  
  24185758.466   127096996.491       -3158.082          36.000  
  19727388.783   103668128.600          92.444          45.000  
  21633223.558   113683339.261       -2945.007          39.000  
  19280445.055   101319432.051        1764.966          47.000  
  23464035.342   123304328.507       -2003.837          41.000  
  24127513.061   126790837.991       -1972.924          32.000  
  21447293.961   112706302.281        3045.330          41.000  
  22294537.271   117158605.282        2637.134          37.000  
  23285744.670   122367362.708        2571.299          33.000  
 23 11 05 13 48 14.9950000  0 13G05G20G13G14G07G22G30G15G18G08G24G23
                                G17
  20902751.517   109844699.977       -3237.743          41.000  
  23162191.302   121718113.384       -3959.148          37.000  
  18588315.640    97682263.401        -622.770          46.000  
  19925805.221   104710809.619        -981.732          43.000  
  24186359.776   127100154.430       -3157.526          37.000  
  19727371.444   103668036.602          91.957          45.000  
  21633784.030   113686283.979       -2944.922          39.000  
  19280109.295   101317667.454        1764.514          47.000  
  23464416.645   123306332.829       -2004.404          41.000  
  24127888.226   126792810.427       -1973.540          32.000  
  21446714.712   112703257.031        3045.177          41.000  
  22294035.510   117155968.603        2636.774          37.000  
  23285255.394   122364791.326        2571.810          33.000  
 23 11 05 13 48 15.9950000  0 13G05G20G13G14G07G22G30G15G18G08G24G23
                                G17
  20903367.946   109847938.118       -3238.483          41.000  
  23162945.132   121722072.995       -3959.606          37.000  
  18588434.387    97682886.672        -623.587          46.000  
  19925992.429   104711792.069        -982.935          43.000  
  24186960.635   127103312.550       -3158.444          37.000  
  19727354.219   103667945.388          90.850          45.000  
  21634344.998   113689228.953       -2944.729          40.000  
  19279773.702   101315903.479        1763.599          47.000  
  23464798.287   123308337.736       -2005.205          41.000  
  24128267.334   126794783.538       -1974.100          31.000  
  21446135.415   112700212.145        3044.528          41.000  
  22293533.794   117153332.512        2635.913          37.000  
  23284766.156   122362220.236        2570.331          34.000  
 23 11 05 13 48 16.9950000  0 13G05G20G13G14G07G22G30G15G18G08G24G23
                                G17
  20903984.104   109851176.682       -3238.863          41.000  
  23163698.918   121726032.655       -3959.480          37.000  
  18588553.201    97683510.454        -623.686          46.000  
  19926179.286   104712775.148        -983.127          42.000  
  24187561.560   127106470.633       -3157.664          37.000  
  19727337.083   103667854.843          90.226          45.000  
  21634905.754   113692174.182       -2944.939          40.000  
  19279438.075   101314140.015        1763.397          47.000  
  23465180.266   123310343.107       -2005.326          41.000  
  24128639.730   126796757.193       -1973.784          31.000  
  21445556.018   112697167.520        3044.823          42.000  
  22293031.980   117150696.888        2635.541          37.000  
  23284276.963   122359649.246        2570.682          34.000  
 23 11 05 13 48 17.9950000  0 13G05G20G13G14G07G22G30G15G18G08G24G23
                                G17
  20904600.378   109854415.306       -3238.796          41.000  
  23164452.432   121729991.972       -3959.010          37.000  
  18588672.046    97684134.438        -624.267          46.000  
  19926366.640   104713758.582        -983.662          43.000  
  24188162.133   127109628.447       -3157.560          36.000  
  19727319.576   103667764.636          89.819          45.000  
  21635466.341   113695119.263       -2944.980          40.000  
  19279102.677   101312376.768        1762.848          47.000  
  23465562.188   123312348.652       -2005.672          41.000  
  24129011.871   126798731.142       -1974.998          31.000  
  21444976.699   112694122.847        3044.592          42.000  
  22292530.330   117148061.406        2635.022          37.000  
  23283787.759   122357078.168        2570.455          31.000  
 23 11 05 13 48 18.9950000  0 13G05G20G13G14G07G22G30G15G18G08G24G23
                                G17
  20905216.663   109857654.609       -3239.565          41.000  
  23165205.762   121733951.619       -3959.818          37.000  
  18588790.884    97684759.113        -624.833          46.000  
  19926554.193   104714742.867        -984.479          43.000  
  24188762.998   127112786.485       -3157.957          37.000  
  19727302.972   103667675.282          89.243          45.000  
  21636027.099   113698064.772       -2945.469          39.000  
  19278767.400   101310614.202        1762.469          47.000  
  23465944.339   123314354.870       -2006.136          41.000  
  24129386.541   126800705.766       -1974.570          31.000  
  21444397.435   112691078.638        3044.340          42.000  
  22292029.138   117145426.546        2634.875          37.000  
  23283298.616   122354507.470        2570.505          34.000  
 23 11 05 13 48 19.9950000  0 13G05G20G13G14G07G22G30G15G18G08G24G23
                                G17
  20905832.972   109860894.173       -3239.719          41.000  
  23165959.151   121737911.071       -3959.365          37.000  
  18588909.986    97685384.141        -625.134          46.000  
  19926741.656   104715727.636        -985.251          43.000  
  24189363.779   127115944.454       -3158.551          37.000  
  19727285.441   103667586.447          88.608          45.000  
  21636587.720   113701010.276       -2945.615          39.000  
  19278432.284   101308851.988        1762.060          47.000  
  23466326.383   123316361.401       -2006.686          41.000  
  24129764.091   126802680.801       -1974.333          31.000  
  21443818.122   112688034.546        3043.981          42.000  
  22291527.828   117142792.057        2634.064          37.000  
  23282809.498   122351936.781        2570.861          34.000  
 23 11 05 13 48 20.9950000  0 13G05G20G13G14G07G22G30G15G18G08G24G23
                                G17
  20906449.497   109864133.994       -3240.002          41.000  
  23166712.837   121741870.418       -3959.492          37.000  
  18589029.162    97686009.529        -625.526          46.000  
  19926929.008   104716712.919        -985.623          43.000  
  24189964.747   127119102.228       -3157.654          38.000  
  19727269.110   103667498.127          88.127          45.000  
  21637148.655   113703955.844       -2945.626          39.000  
  19278096.795   101307090.155        1761.621          47.000  
  23466708.118   123318368.277       -2006.996          41.000  
  24130139.243   126804656.284       -1975.127          31.000  
  21443238.960   112684990.563        3044.023          42.000  
  22291026.811   117140157.858        2634.064          38.000  
  23282320.259   122349366.184        2569.838          33.000  
 23 11 05 13 48 21.9950000  0 13G05G20G13G14G07G22G30G15G18G08G24G23
                                G17
  20907066.279   109867374.301       -3240.424          41.000  
  23167466.272   121745829.826       -3959.394          36.000  
  18589148.251    97686635.469        -626.177          46.000  
  19927116.819   104717698.875        -986.222          43.000  
  24190565.702   127122260.100       -3157.738          38.000  
  19727252.019   103667410.530          87.025          45.000  
  21637709.228   113706901.647       -2945.991          39.000  
  19277761.565   101305328.855        1760.950          47.000  
  23467090.059   123320375.671       -2007.899          41.000  
  24130515.199   126806632.354       -1976.391          32.000  
  21442659.810   112681946.859        3043.937          42.000  
  22290525.957   117137524.142        2633.618          38.000  
  23281831.341   122346795.779        2570.374          33.000  
 23 11 05 13 48 22.9950000  0 13G05G20G13G14G07G22G30G15G18G08G24G23
                                G17
  20907683.162   109870614.953       -3240.697          41.000  
  23168219.563   121749789.261       -3958.976          37.000  
  18589267.414    97687261.880        -626.336          46.000  
  19927304.365   104718685.458        -986.703          43.000  
  24191167.021   127125417.965       -3157.539          38.000  
  19727235.863   103667323.553          86.778          45.000  
  21638269.943   113709847.586       -2945.814          39.000  
  19277426.708   101303568.048        1760.858          47.000  
  23467472.505   123322383.484       -2007.666          41.000  
  24130890.344   126808608.894       -1976.142          32.000  
  21442080.528   112678903.426        3043.628          42.000  
  22290025.027   117134890.867        2633.746          38.000  
  23281342.030   122344225.437        2570.928          31.000  
 23 11 05 13 48 23.9950000  0 13G05G20G13G14G07G22G30G15G18G08G24G23
                                G17
  20908299.938   109873856.037       -3241.461          41.000  
  23168972.882   121753748.682       -3959.747          37.000  
  18589386.789    97687888.767        -627.018          46.000  
  19927492.011   104719672.646        -987.258          43.000  
  24191767.799   127128575.796       -3157.607          37.000  
  19727218.803   103667237.206          85.932          45.000  
  21638830.551   113712793.723       -2946.369          39.000  
  19277091.442   101301807.719        1760.205          47.000  
  23467854.606   123324391.763       -2008.509          41.000  
  24131268.102   126810585.976       -1976.882          32.000  
  21441501.196   112675860.178        3043.462          42.000  
  22289524.367   117132258.045        2632.611          38.000  
  23280847.472   122341655.395        2569.961          30.000  
 23 11 05 13 48 24.9950000  0 13G05G20G13G14G07G22G30G15G18G08G24G23
                                G17
  20908916.718   109877097.686       -3241.771          41.000  
  23169726.304   121757708.296       -3959.355          37.000  
  18589506.181    97688516.332        -627.625          46.000  
  19927679.634   104720660.692        -988.362          43.000  
  24192368.634   127131733.839       -3157.755          37.000  
  19727202.463   103667151.702          85.189          45.000  
  21639390.818   113715740.193       -2946.474          38.000  
  19276756.476   101300048.076        1759.613          46.000  
  23468236.609   123326400.695       -2009.094          41.000  
  24131643.294   126812563.844       -1978.364          32.000  
  21440922.171   112672817.406        3042.875          42.000  
  22289023.445   117129625.847        2631.982          38.000  
  23280349.811   122339085.571        2569.964          29.000  
 23 11 05 13 48 25.9950000  0 13G05G20G13G14G07G22G30G15G18G08G24G23
                                G17
  20909533.535   109880339.462       -3242.101          41.000  
  23170479.833   121761667.647       -3959.402          37.000  
  18589625.890    97689144.099        -628.203          46.000  
  19927867.496   104721649.052        -988.923          43.000  
  24192969.515   127134891.615       -3157.760          37.000  
  19727186.352   103667066.561          84.602          45.000  
  21639950.994   113718686.595       -2946.999          38.000  
  19276421.733   101298288.629        1759.070          46.000  
  23468619.052   123328409.773       -2009.577          42.000  
  24132019.137   126814541.825       -1977.352          31.000  
  21440343.016   112669774.580        3042.403          42.000  
  22288522.668   117126993.775        2631.696          38.000  
  23279858.310   122336515.651        2570.955          30.000  
 23 11 05 13 48 26.9950000  0 13G05G20G13G14G07G22G30G15G18G08G24G23
                                G17
  20910150.618   109883581.749       -3242.634          40.000  
  23171233.244   121765627.135       -3959.652          37.000  
  18589745.729    97689772.478        -628.778          46.000  
  19928055.780   104722638.158        -989.563          42.000  
  24193570.453   127138049.509       -3158.110          35.000  
  19727170.176   103666982.184          83.771          45.000  
  21640511.157   113721633.238       -2947.425          38.000  
  19276086.800   101296529.816        1758.240          46.000  
  23469001.687   123330419.433       -2010.209          42.000  
  24132397.382   126816520.578       -1978.712          31.000  
  21439763.981   112666732.096        3042.045          42.000  
  22288021.866   117124362.308        2630.927          38.000  
  23279371.678   122333946.161        2567.952          30.000  
 23 11 05 13 48 27.9950000  0 13G05G20G13G14G07G22G30G15G18G08G24G23
                                G17
  20910767.407   109886824.323       -3242.889          40.000  
  23171986.764   121769586.526       -3959.683          37.000  
  18589865.573    97690401.225        -628.907          46.000  
  19928244.192   104723627.796        -989.829          42.000  
  24194171.168   127141207.299       -3158.052          36.000  
  19727154.479   103666898.350          83.313          45.000  
  21641072.107   113724579.941       -2946.626          39.000  
  19275752.305   101294771.362        1758.234          46.000  
  23469384.591   123332429.431       -2010.274          42.000  
  24132770.022   126818499.773       -1979.768          31.000  
  21439185.140   112663689.779        3041.881          42.000  
  22287521.045   117121731.166        2630.908          38.000  
  23278886.887   122331376.543        2569.727          30.000  
 23 11 05 13 48 28.9950000  0 13G05G20G13G14G07G22G30G15G18G08G24G23
                                G17
  20911384.392   109890067.414       -3243.241          40.000  
  23172740.273   121773546.037       -3959.813          37.000  
  18589985.537    97691030.624        -629.594          46.000  
  19928432.674   104724618.229        -990.793          43.000  
  24194771.453   127144365.252       -3157.983          36.000  
  19727138.266   103666815.298          82.729          45.000  
  21641632.905   113727526.975       -2946.855          39.000  
  19275417.708   101293013.577        1757.465          46.000  
  23469767.241   123334440.064       -2010.832          42.000  
  24133143.913   126820479.558       -1979.047          30.000  
  21438606.399   112660647.827        3042.029          42.000  
  22287020.505   117119100.612        2630.438          38.000  
  23278403.974   122328807.271        2568.763          30.000  
 23 11 05 13 48 29.9950000  0 13G05G20G13G14G07G22G30G15G18G08G24G23
                                G17
  20912001.570   109893310.964       -3243.620          40.000  
  23173493.813   121777505.621       -3959.533          37.000  
  18590105.324    97691660.528        -629.981          46.000  
  19928621.014   104725609.322        -991.639          43.000  
  24195372.260   127147523.210       -3157.214          36.000  
  19727123.064   103666732.922          82.129          45.000  
  21642193.735   113730474.208       -2946.778          39.000  
  19275083.066   101291256.297        1757.269          46.000  
  23470149.929   123336451.140       -2010.905          41.000  
  24133521.165   126822459.996       -1981.322          30.000  
  21438027.713   112657606.154        3041.804          42.000  
  22286519.958   117116470.529        2630.273          38.000  
  23277919.345   122326238.235        2569.287          30.000  
 23 11 05 13 48 30.9950000  0 13G05G20G13G14G07G22G30G15G18G08G24G23
                                G17
  20912618.496   109896554.770       -3243.980          40.000  
  23174247.475   121781465.071       -3959.512          37.000  
  18590225.431    97692290.787        -630.308          46.000  
  19928809.625   104726600.880        -991.537          43.000  
  24195972.957   127150681.070       -3157.446          35.000  
  19727107.422   103666651.064          81.822          45.000  
  21642754.699   113733421.497       -2947.114          39.000  
  19274748.861   101289499.388        1756.921          46.000  
  23470532.346   123338462.585       -2011.568          41.000  
  24133896.567   126824440.761       -1980.889          30.000  
  21437449.353   112654564.607        3041.667          42.000  
  22286019.936   117113840.783        2629.840          38.000  
  23277431.768   122323669.217        2569.532          30.000  
 23 11 05 13 48 31.9950000  0 13G05G20G13G14G07G22G30G15G18G08G24G23
                                G17
  20913235.913   109899798.840       -3244.682          40.000  
  23175001.383   121785424.416       -3960.233          37.000  
  18590345.068    97692921.405        -631.222          46.000  
  19928998.661   104727592.978        -992.828          43.000  
  24196573.945   127153838.802       -3157.614          35.000  
  19727091.750   103666569.718          80.769          45.000  
  21643315.939   113736368.815       -2947.771          39.000  
  19274414.395   101287742.839        1755.994          46.000  
  23470914.818   123340474.346       -2012.472          41.000  
  24134271.511   126826421.984       -1981.938          30.000  
  21436870.682   112651523.164        3041.199          42.000  
  22285519.681   117111211.338        2628.912          38.000  
  23276943.055   122321100.246        2568.941          31.000  
 23 11 05 13 48 32.9950000  0 13G05G20G13G14G07G22G30G15G18G08G24G23
                                G17
  20913853.533   109903043.186       -3244.580          40.000  
  23175755.241   121789383.623       -3959.188          37.000  
  18590465.186    97693552.390        -631.191          46.000  
  19929187.409   104728585.570        -992.799          43.000  
  24197174.516   127156996.424       -3157.447          35.000  
  19727076.592   103666488.913          80.402          45.000  
  21643876.861   113739316.212       -2947.737          39.000  
  19274080.359   101285986.676        1755.896          46.000  
  23471297.473   123342486.453       -2012.506          41.000  
  24134654.816   126828403.603       -1981.524          30.000  
  21436291.863   112648481.858        3041.126          42.000  
  22285019.473   117108582.210        2629.010          38.000  
  23276459.390   122318531.399        2568.226          32.000  
 23 11 05 13 48 33.9950000  0 13G05G20G13G14G07G22G30G15G18G08G24G23
                                G17
  20914471.033   109906287.924       -3245.311          41.000  
  23176508.582   121793342.878       -3959.650          37.000  
  18590585.558    97694183.877        -632.039          46.000  
  19929376.306   104729578.801        -993.776          43.000  
  24197775.563   127160154.099       -3158.444          34.000  
  19727061.131   103666408.731          79.721          45.000  
  21644437.912   113742263.760       -2948.104          39.000  
  19273746.113   101284230.997        1755.176          46.000  
  23471679.558   123344499.007       -2013.239          40.000  
  24135029.125   126830385.795       -1982.919          29.000  
  21435713.122   112645440.794        3040.613          42.000  
  22284519.282   117105953.544        2628.113          38.000  
  23275966.205   122315962.556        2568.023          32.000  
 23 11 05 13 48 34.9950000  0 13G05G20G13G14G07G22G30G15G18G08G24G23
                                G17
  20915088.742   109909533.065       -3245.072          41.000  
  23177262.035   121797302.112       -3959.505          37.000  
  18590705.860    97694815.847        -632.415          46.000  
  19929565.226   104730572.666        -994.253          42.000  
  24198375.985   127163311.717       -3157.711          34.000  
  19727046.098   103666329.218          79.095          45.000  
  21644999.026   113745211.490       -2948.084          39.000  
  19273412.120   101282475.802        1754.620          46.000  
  23472062.167   123346512.009       -2013.344          40.000  
  24135408.100   126832368.471       -1982.886          30.000  
  21435134.109   112642399.970        3040.545          42.000  
  22284019.257   117103325.291        2627.740          38.000  
  23275473.895   122313393.969        2568.648          32.000  
 23 11 05 13 48 35.9950000  0 13G05G20G13G14G07G22G30G15G18G08G24G23
                                G17
  20915706.776   109912778.600       -3245.931          41.000  
  23178015.437   121801261.438       -3959.725          37.000  
  18590826.129    97695448.348        -632.798          46.000  
  19929754.637   104731567.211        -994.996          42.000  
  24198976.724   127166469.420       -3157.981          30.000  
  19727030.720   103666250.390          78.622          45.000  
  21645559.900   113748159.418       -2948.076          39.000  
  19273078.197   101280721.165        1754.205          46.000  
  23472444.831   123348525.500       -2013.629          40.000  
  24135785.557   126834351.728       -1983.940          30.000  
  21434555.617   112639359.438        3040.460          42.000  
  22283519.175   117100697.546        2627.295          38.000  
  23274984.395   122310825.564        2567.523          32.000  
 23 11 05 13 48 36.9950000  0 13G05G20G13G14G07G22G30G15G18G08G24G23
                                G17
  20916324.486   109916024.424       -3246.306          41.000  
  23178769.077   121805220.581       -3959.063          37.000  
  18590946.564    97696081.183        -633.148          46.000  
  19929943.767   104732562.220        -995.314          42.000  
  24199573.229   127169627.008       -3156.592          31.000  
  19727016.149   103666172.060          77.856          45.000  
  21646120.828   113751107.381       -2947.902          39.000  
  19272744.281   101278966.847        1754.034          46.000  
  23472827.449   123350539.296       -2013.505          39.000  
  24136163.008   126836335.312       -1983.941          29.000  
  21433977.244   112636318.997        3040.395          42.000  
  22283018.919   117098070.073        2627.374          39.000  
  23274496.042   122308257.129        2568.227          33.000  
 23 11 05 13 48 37.9950000  0 13G05G20G13G14G07G22G30G15G18G08G24G23
                                G17
  20916941.888   109919270.763       -3246.559          40.000  
  23179522.606   121809179.943       -3959.714          37.000  
  18591067.286    97696714.685        -634.010          46.000  
  19930133.202   104733558.030        -996.536          42.000  
  24200174.629   127172784.737       -3157.856          31.000  
  19727001.480   103666094.540          77.012          45.000  
  21646681.648   113754055.667       -2948.635          39.000  
  19272410.674   101277213.207        1752.936          46.000  
  23473210.285   123352553.733       -2014.972          39.000  
  24136539.948   126838319.634       -1984.542          30.000  
  21433398.704   112633278.981        3039.354          42.000  
  22282519.068   117095443.227        2626.709          39.000  
  23274007.063   122305689.116        2566.960          33.000  
 23 11 05 13 48 38.9950000  0 13G05G20G13G14G07G22G30G15G18G08G24G23
                                G17
  20917559.510   109922517.713       -3247.108          40.000  
  23180276.160   121813139.476       -3959.253          37.000  
  18591188.038    97697348.848        -634.345          46.000  
  19930322.973   104734554.647        -996.959          42.000  
  24200775.342   127175942.644       -3158.107          33.000  
  19726986.599   103666017.857          76.409          45.000  
  21647242.801   113757004.335       -2948.945          38.000  
  19272077.015   101275460.246        1752.649          46.000  
  23473593.058   123354568.809       -2015.343          39.000  
  24136918.831   126840304.681       -1985.436          30.000  
  21432820.079   112630239.375        3039.376          42.000  
  22282019.558   117092817.045        2626.111          39.000  
  23273518.177   122303121.392        2567.695          33.000  
 23 11 05 13 48 39.9950000  0 13G05G20G13G14G07G22G30G15G18G08G24G23
                                G17
  20918177.306   109925764.917       -3247.885          40.000  
  23181029.593   121817098.909       -3959.725          37.000  
  18591308.773    97697983.380        -635.074          46.000  
  19930512.664   104735551.786        -997.666          42.000  
  24201375.446   127179100.395       -3157.637          32.000  
  19726972.595   103665941.695          75.504          45.000  
  21647803.509   113759953.030       -2949.258          38.000  
  19271743.395   101273707.649        1751.984          46.000  
  23473976.040   123356584.205       -2016.148          39.000  
  24137300.782   126842290.069       -1986.409          30.000  
  21432241.763   112627199.885        3039.246          42.000  
  22281520.253   117090191.142        2625.562          39.000  
  23273029.117   122300553.705        2567.691          33.000  
 23 11 05 13 48 40.9950000  0 13G05G20G13G14G07G22G30G15G18G08G24G23
                                G17
  20918795.611   109929012.580       -3247.868          40.000  
  23181782.804   121821058.401       -3959.371          37.000  
  18591429.680    97698618.463        -635.379          46.000  
  19930702.334   104736549.609        -998.049          42.000  
  24201977.156   127182258.268       -3157.638          33.000  
  19726958.096   103665866.230          75.396          45.000  
  21648364.516   113762901.965       -2948.868          38.000  
  19271409.762   101271955.619        1751.617          46.000  
  23474359.380   123358600.094       -2015.787          38.000  
  24137681.886   126844276.122       -1986.285          31.000  
  21431663.455   112624160.715        3039.162          42.000  
  22281020.712   117087565.769        2625.195          39.000  
  23272540.223   122297986.191        2568.061          33.000  
 23 11 05 13 48 41.9950000  0 13G05G20G13G14G07G22G30G15G18G08G24G23
                                G17
  20919413.591   109932260.622       -3248.483          40.000  
  23182536.361   121825017.897       -3959.813          37.000  
  18591550.511    97699253.997        -635.778          46.000  
  19930892.016   104737548.061        -998.949          42.000  
  24202578.726   127185416.121       -3158.012          33.000  
  19726943.990   103665791.409          74.242          45.000  
  21648925.292   113765851.048       -2949.149          38.000  
  19271076.537   101270204.055        1751.099          46.000  
  23474742.778   123360616.460       -2016.676          38.000  
  24138057.578   126846262.677       -1986.952          32.000  
  21431085.143   112621121.766        3038.490          43.000  
  22280521.583   117084940.809        2624.591          39.000  
  23272051.515   122295418.918        2566.980          33.000  
 23 11 05 13 48 42.9950000  0 13G05G20G13G14G07G22G30G15G18G08G24G23
                                G17
  20920031.963   109935508.854       -3248.602          40.000  
  23183289.708   121828977.177       -3959.423          37.000  
  18591671.511    97699889.806        -635.795          46.000  
  19931082.093   104738546.918        -999.054          42.000  
  24203180.785   127188573.722       -3156.660          34.000  
  19726929.773   103665716.992          74.318          45.000  
  21649486.218   113768800.096       -2948.936          38.000  
  19270743.020   101268452.761        1751.398          46.000  
  23475126.480   123362633.054       -2016.820          38.000  
  24138435.484   126848249.514       -1986.083          31.000  
  21430507.031   112618082.844        3039.036          43.000  
  22280022.276   117082316.083        2624.512          39.000  
  23271562.636   122292851.580        2567.178          33.000  
 23 11 05 13 48 43.9950000  0 13G05G20G13G14G07G22G30G15G18G08G24G23
                                G17
  20920649.677   109938757.457       -3248.945          40.000  
  23184043.521   121832936.481       -3959.112          37.000  
  18591792.880    97700526.123        -636.549          46.000  
  19931272.139   104739546.419        -999.808          42.000  
  24203781.550   127191731.400       -3157.772          35.000  
  19726915.237   103665643.260          73.327          45.000  
  21650047.396   113771749.311       -2949.067          37.000  
  19270409.954   101266702.004        1750.293          46.000  
  23475510.077   123364650.114       -2017.213          37.000  
  24138811.131   126850236.954       -1987.948          32.000  
  21429928.829   112615044.190        3038.405          43.000  
  22279523.045   117079691.820        2623.816          40.000  
  23271073.954   122290284.424        2567.280          33.000  
 23 11 05 13 48 44.9950000  0 13G05G20G13G14G07G22G30G15G18G08G24G23
                                G17
  20921268.074   109942006.462       -3248.996          40.000  
  23184796.692   121836895.783       -3959.403          37.000  
  18591913.803    97701162.932        -637.094          46.000  
  19931462.597   104740546.542       -1000.510          42.000  
  24204382.767   127194889.025       -3157.397          35.000  
  19726901.665   103665570.159          72.653          45.000  
  21650608.363   113774698.710       -2949.683          38.000  
  19270076.993   101264951.712        1750.116          46.000  
  23475893.539   123366667.639       -2017.968          37.000  
  24139189.443   126852224.879       -1988.540          31.000  
  21429350.347   112612005.762        3038.441          43.000  
  22279023.794   117077067.971        2623.700          39.000  
  23270585.712   122287717.425        2566.768          33.000  
 23 11 05 13 48 45.9950000  0 13G05G20G13G14G07G22G30G15G18G08G24G23
                                G17
  20921886.239   109945255.835       -3249.910          40.000  
  23185549.957   121840855.049       -3959.638          37.000  
  18592035.250    97701800.160        -637.633          46.000  
  19931653.236   104741547.242       -1001.039          42.000  
  24204983.434   127198046.610       -3157.120          34.000  
  19726887.875   103665497.647          72.151          45.000  
  21651169.942   113777648.201       -2949.729          38.000  
  19269744.283   101263201.869        1749.603          46.000  
  23476277.110   123368685.530       -2017.702          36.000  
  24139569.788   126854213.300       -1988.946          31.000  
  21428772.357   112608967.552        3038.084          43.000  
  22278524.923   117074444.541        2623.187          40.000  
  23270097.777   122285150.517        2566.148          33.000  
 23 11 05 13 48 46.9950000  0 13G05G20G13G14G07G22G30G15G18G08G24G23
                                G17
  20922504.520   109948505.716       -3249.734          40.000  
  23186303.535   121844814.470       -3959.429          37.000  
  18592156.608    97702438.037        -637.960          46.000  
  19931843.668   104742548.747       -1001.749          42.000  
  24205584.206   127201204.391       -3157.357          33.000  
  19726874.137   103665425.954          71.319          45.000  
  21651731.422   113780598.049       -2950.045          39.000  
  19269411.261   101261452.672        1749.005          46.000  
  23476661.181   123370704.106       -2018.988          36.000  
  24139945.205   126856202.347       -1989.540          31.000  
  21428194.548   112605929.738        3037.855          43.000  
  22278026.237   117071821.709        2622.754          39.000  
  23269609.616   122282583.923        2566.521          34.000  
 23 11 05 13 48 47.9950000  0 13G05G20G13G14G07G22G30G15G18G08G24G23
                                G17
  20923122.999   109951755.911       -3250.612          40.000  
  23187056.994   121848773.830       -3959.521          37.000  
  18592278.050    97703076.310        -638.698          46.000  
  19932034.517   104743550.783       -1002.823          42.000  
  24206185.161   127204362.051       -3157.401          33.000  
  19726860.836   103665354.803          70.463          45.000  
  21652293.243   113783547.964       -2950.438          39.000  
  19269078.590   101259703.892        1748.425          46.000  
  23477045.265   123372722.970       -2019.069          36.000  
  24140326.283   126858191.903       -1989.922          30.000  
  21427616.590   112602892.076        3037.214          43.000  
  22277527.181   117069199.256        2621.869          39.000  
  23269121.357   122280017.450        2565.833          35.000  
 23 11 05 13 48 48.9950000  0 13G05G20G13G14G07G22G30G15G18G08G24G23
                                G17
  20923741.354   109955006.529       -3251.362          40.000  
  23187810.567   121852733.193       -3959.476          37.000  
  18592399.672    97703715.083        -639.304          46.000  
  19932225.394   104744553.447       -1003.114          42.000  
  24206785.692   127207519.774       -3157.973          34.000  
  19726847.408   103665284.309          69.689          45.000  
  21652854.575   113786498.047       -2950.156          39.000  
  19268745.572   101257955.630        1747.754          46.000  
  23477429.436   123374742.344       -2020.073          36.000  
  24140707.653   126860181.909       -1990.399          31.000  
  21427038.569   112599854.663        3037.109          43.000  
  22277027.989   117066577.232        2621.307          39.000  
  23268633.399   122277451.120        2565.955          34.000  
 23 11 05 13 48 49.9950000  0 13G05G20G13G14G07G22G30G15G18G08G24G23
                                G17
  20924359.980   109958257.642       -3251.025          39.000  
  23188564.017   121856692.699       -3959.169          37.000  
  18592521.014    97704354.472        -639.268          46.000  
  19932416.402   104745556.894       -1003.545          42.000  
  24207386.809   127210677.599       -3157.552          34.000  
  19726834.032   103665214.580          69.786          45.000  
  21653416.304   113789448.452       -2950.209          39.000  
  19268413.204   101256207.975        1747.546          46.000  
  23477813.681   123376762.309       -2020.146          37.000  
  24141084.763   126862172.687       -1991.609          31.000  
  21426460.511   112596817.624        3037.234          43.000  
  22276529.205   117063955.793        2621.588          39.000  
  23268145.181   122274885.044        2566.613          33.000  
 23 11 05 13 48 50.9950000  0 13G05G20G13G14G07G22G30G15G18G08G24G23
                                G17
  20924978.404   109961508.899       -3252.056          39.000  
  23189317.493   121860651.917       -3959.115          37.000  
  18592642.642    97704994.093        -640.203          46.000  
  19932607.436   104746560.698       -1004.648          42.000  
  24207987.868   127213835.192       -3158.290          34.000  
  19726821.208   103665145.242          68.577          46.000  
  21653978.048   113792398.760       -2950.900          39.000  
  19268080.708   101254460.557        1746.716          46.000  
  23478198.251   123378782.460       -2021.246          37.000  
  24141465.834   126864163.659       -1991.249          31.000  
  21425882.616   112593780.580        3036.371          43.000  
  22276030.323   117061334.524        2620.911          39.000  
  23267657.155   122272318.954        2566.179          33.000  
 23 11 05 13 48 51.9950000  0 13G05G20G13G14G07G22G30G15G18G08G24G23
                                G17
  20925596.812   109964760.688       -3252.062          39.000  
  23190070.673   121864611.372       -3959.713          37.000  
  18592764.772    97705634.353        -640.561          46.000  
  19932798.524   104747565.280       -1004.982          42.000  
  24208588.682   127216992.931       -3157.952          33.000  
  19726808.197   103665076.695          68.160          46.000  
  21654539.566   113795349.394       -2950.954          39.000  
  19267748.495   101252713.788        1746.362          46.000  
  23478582.753   123380803.163       -2020.826          37.000  
  24141846.991   126866155.370       -1991.371          31.000  
  21425304.839   112590743.905        3036.500          43.000  
  22275531.626   117058713.878        2620.508          39.000  
  23267168.719   122269753.178        2565.459          33.000  
 23 11 05 13 48 52.9950000  0 13G05G20G13G14G07G22G30G15G18G08G24G23
                                G17
  20926215.522   109968012.850       -3252.342          39.000  
  23190824.012   121868570.735       -3959.342          36.000  
  18592886.685    97706275.045        -640.831          46.000  
  19932989.685   104748570.456       -1005.503          42.000  
  24209189.669   127220150.636       -3157.691          32.000  
  19726795.227   103665008.764          67.277          45.000  
  21655100.800   113798300.159       -2951.115          39.000  
  19267416.042   101250967.469        1746.008          46.000  
  23478967.419   123382824.335       -2021.933          37.000  
  24142218.992   126868147.698       -1994.527          31.000  
  21424727.135   112587707.450        3036.140          43.000  
  22275032.988   117056093.631        2619.928          39.000  
  23266680.578   122267187.464        2565.554          33.000  
 23 11 05 13 48 53.9950000  0 13G05G20G13G14G07G22G30G15G18G08G24G23
                                G17
  20926834.364   109971265.314       -3252.682          39.000  
  23191577.111   121872530.026       -3959.194          36.000  
  18593008.575    97706916.119        -641.207          46.000  
  19933180.948   104749576.137       -1005.957          42.000  
  24209790.358   127223308.215       -3157.160          32.000  
  19726782.792   103664941.336          67.143          45.000  
  21655662.110   113801250.965       -2950.832          39.000  
  19267083.596   101249221.525        1745.813          46.000  
  23479352.013   123384845.810       -2021.882          38.000  
  24142596.787   126870140.143       -1992.289          30.000  
  21424149.380   112584671.113        3036.460          43.000  
  22274534.135   117053473.730        2619.617          39.000  
  23266192.449   122264621.825        2565.398          34.000  
 23 11 05 13 48 54.9950000  0 13G05G20G13G14G07G22G30G15G18G08G24G23
                                G17
  20927453.576   109974518.347       -3253.295          39.000  
  23192330.518   121876489.496       -3959.176          36.000  
  18593130.448    97707557.865        -642.002          46.000  
  19933372.706   104750582.642       -1006.902          42.000  
  24210391.115   127226466.032       -3157.844          32.000  
  19726769.721   103664874.754          66.163          45.000  
  21656223.634   113804202.125       -2951.469          39.000  
  19266751.623   101247476.287        1744.800          46.000  
  23479737.020   123386867.940       -2022.188          38.000  
  24142978.858   126872133.500       -1993.162          30.000  
  21423571.815   112581635.232        3035.547          43.000  
  22274035.610   117050854.451        2618.512          39.000  
  23265704.247   122262056.488        2565.977          32.000  
 23 11 05 13 48 55.9950000  0 13G05G20G13G14G07G22G30G15G18G08G24G23
                                G17
  20928072.642   109977771.645       -3253.449          39.000  
  23193083.558   121880448.866       -3959.236          36.000  
  18593252.682    97708199.979        -642.299          46.000  
  19933564.371   104751589.663       -1007.390          42.000  
  24210991.758   127229623.728       -3157.507          32.000  
  19726756.974   103664808.711          65.761          45.000  
  21656785.254   113807153.354       -2951.003          39.000  
  19266419.447   101245731.404        1744.690          46.000  
  23480122.233   123388890.431       -2022.377          38.000  
  24143354.341   126874127.246       -1993.589          29.000  
  21422994.332   112578599.460        3035.846          43.000  
  22273537.387   117048235.481        2618.903          39.000  
  23265216.182   122259491.299        2564.792          32.000  
