     2.11           OBSERVATION DATA    G (GPS)             RINEX VERSION / TYPE
teqc  2019Feb25                         20231112 14:24:49UTCPGM / RUN BY / DATE
Linux 2.6.32-573.12.1.x86_64|x86_64|gcc|Linux 64|=+         COMMENT
teqc  2019Feb25                         20231112 14:24:47UTCCOMMENT
     2.11           OBSERVATION DATA    M (MIXED)           COMMENT
teqc  2019Feb25     IGN-RGP             20231109 09:02:17UTCCOMMENT
teqc  2019Feb25     Administrateur RGP  20231109 09:02:17UTCCOMMENT
teqc  2019Feb25     IGN-RGP             20231109 09:02:15UTCCOMMENT
teqc  2019Feb25     IGN-RGP             20231109 09:02:14UTCCOMMENT
BIT 2 OF LLI FLAGS DATA COLLECTED UNDER A/S CONDITION       COMMENT
IGNF                                                        MARKER NAME
10001M009                                                   MARKER NUMBER
Automatic           IGN                                     OBSERVER / AGENCY
1834194             LEICA GR50          4.51                REC # / TYPE / VERS
5000113963          TRM57971.00     NONE                    ANT # / TYPE
  4201694.1440   177888.8370  4779371.7670                  APPROX POSITION XYZ
        0.0000        0.0000        0.0000                  ANTENNA: DELTA H/E/N
     1     1                                                WAVELENGTH FACT L1/2
    21    L1    L2    C1    P1    P2    D1    D2    S1    S2# / TYPES OF OBSERV
          L5    C5    D5    S5    L7    C7    D7    S7    L8# / TYPES OF OBSERV
          C8    D8    S8                                    # / TYPES OF OBSERV
    30.0000                                                 INTERVAL
DefaultJobName                                              COMMENT
DefaultUserDiscription                                      COMMENT
Project creator:                                            COMMENT
 SNR is mapped to RINEX snr flag value [0-9]                COMMENT
  L1 & L2: min(max(int(snr_dBHz/6), 0), 9)                  COMMENT
    18                                                      LEAP SECONDS
Forced Modulo Decimation to 30 seconds                      COMMENT
teqc_2019 edited: all GLONASS satellites excluded           COMMENT
teqc_2019 edited: all SBAS satellites excluded              COMMENT
teqc_2019 edited: all Galileo satellites excluded           COMMENT
  2023    11     9     8     0    0.0000000     GPS         TIME OF FIRST OBS
                                                            END OF HEADER
 23 11  9  8  0  0.0000000  0 11G03G04G06G07G09G11G17G19G20G26G31
 120045694.334 7  93542102.61247  22843938.640                    22843942.460
     -2906.968       -2265.174          43.750          43.850    89644516.645 8
  22843943.700       -2170.551          50.350


 108776341.226 8  84760778.60048  20699447.820                    20699446.980
     -1482.793       -1155.424          49.450          48.100    81229090.853 9
  20699451.700       -1107.299          54.400


 108808286.936 8  84785678.78548  20705532.100                    20705533.640
       987.029         769.113          50.300          50.400    81252942.672 9
  20705533.820         737.056          54.300


 127236646.093 7  99145477.40447  24212320.020                    24212323.620
      3319.046        2586.271          42.350          42.900



 106433334.570 8  82935074.34248  20253588.900                    20253588.920
       780.786         608.405          52.200          52.150    79479454.960 9
  20253590.220         583.028          56.400


 121412023.081 7  94606760.40947  23103939.600                    23103938.160
      3011.977        2346.993          46.350          42.650    90664824.954 8
  23103943.320        2249.302          50.150


 128237544.116 6  99925339.45446  24402806.880                    24402808.180
     -3206.470       -2498.555          39.700          39.850



 121556726.573 7  94719523.87747  23131483.780                    23131481.860
     -3090.896       -2408.495          44.150          42.050



 131137331.124 6 102184913.38745  24954607.340                    24954604.020
      3307.195        2577.029          38.300          33.750



 132076253.831 6 102916589.67546  25133272.280                    25133279.280
      1484.736        1156.940          39.100          38.500    98628409.530 7
  25133280.280        1108.763          42.100


 128849840.202 7 100402456.49147  24519316.940                    24519317.740
     -2908.165       -2266.108          43.000          42.900



 23 11  9  8  0 30.0000000  0 11G03G04G06G07G09G11G17G19G20G26G31
 120132980.910 7  93610118.01247  22860548.880                    22860552.700
     -2912.153       -2269.214          44.500          44.400    89709698.045 8
  22860553.840       -2174.653          50.050


 108821036.099 8  84795605.75348  20707953.020                    20707951.960
     -1496.568       -1166.157          49.500          48.050    81262466.861 9
  20707956.720       -1117.581          54.250


 108778946.654 8  84762816.21648  20699948.780                    20699950.460
       969.226         755.240          50.150          50.250    81231032.699 9
  20699950.560         723.754          54.350


 127137117.113 6  99067922.40946  24193380.220                    24193383.780
      3316.905        2584.602          41.400          41.150



 106410155.610 8  82917012.81148  20249178.080                    20249177.980
       764.785         595.937          52.000          52.000    79462145.989 9
  20249179.280         571.090          56.250


 121321803.510 7  94536459.40647  23086771.420                    23086769.940
      3002.814        2339.854          46.050          43.350    90597453.167 8
  23086775.280        2242.314          50.250


 128333778.041 6 100000326.69246  24421119.480                    24421121.280
     -3208.426       -2500.081          38.700          38.100



 121649601.269 7  94791893.63747  23149157.500                    23149155.820
     -3100.387       -2415.891          44.050          42.750



 131038117.646 6 102107604.02446  24935727.680                    24935724.420
      3307.333        2577.137          38.300          37.550



 132031923.550 6 102882046.70546  25124836.300                    25124843.420
      1470.914        1146.170          38.500          38.350    98595305.892 7
  25124844.420        1098.381          42.400


 128937280.561 7 100470591.69047  24535956.700                    24535957.280
     -2920.742       -2275.909          43.600          43.150



 23 11  9  8  1  0.0000000  0 11G03G04G06G07G09G11G17G19G20G26G31
 120220441.419 7  93678268.96647  22877192.420                    22877195.980
     -2918.207       -2273.930          45.950          45.650    89775009.351 8
  22877197.020       -2179.183          50.400


 108866152.147 8  84830761.08147  20716538.440                    20716537.160
     -1510.876       -1177.308          50.250          47.950    81296157.371 9
  20716541.980       -1128.239          54.850


 108750152.168 8  84740378.94048  20694469.440                    20694471.080
       950.730         740.828          50.700          50.700    81209530.302 9
  20694471.220         709.938          54.950


 127037667.966 7  98990429.62447  24174455.580                    24174459.120
      3313.518        2581.963          42.400          42.350



 106387464.853 8  82899331.69548  20244860.180                    20244859.860
       748.210         583.021          52.650          52.600    79445201.586 9
  20244861.220         558.707          56.750


 121231874.548 7  94466384.84947  23069658.460                    23069657.120
      2992.940        2332.159          46.050          42.750    90530298.379 8
  23069662.540        2234.836          50.950


 128430055.895 6 100075348.13946  24439440.760                    24439442.820
     -3209.896       -2501.227          38.500          39.050



 121742769.856 7  94864492.39247  23166887.080                    23166885.600
     -3110.253       -2423.577          44.200          43.350



 130938900.948 6 102030292.17646  24916847.540                    24916844.320
      3307.345        2577.148          39.800          36.750



 131988025.919 6 102847840.89446  25116482.880                    25116490.200
      1456.336        1134.812          40.850          40.750    98562525.355 7
  25116490.760        1087.411          42.700


 129025106.552 7 100539027.38247  24552669.820                    24552670.280
     -2934.050       -2286.278          43.750          43.750



 23 11  9  8  1 30.0000000  0 11G03G04G06G07G09G11G17G19G20G26G31
 120308073.991 7  93746553.99747  22893868.780                    22893871.940
     -2924.245       -2278.635          46.250          46.200    89840449.127 8
  22893872.940       -2183.639          50.250


 108911686.575 8  84866242.42248  20725203.420                    20725202.140
     -1525.016       -1188.324          50.050          48.600    81330160.313 9
  20725206.960       -1138.839          54.700


 108721903.854 8  84718367.24848  20689094.060                    20689095.560
       932.292         726.461          50.600          50.600    81188435.764 9
  20689095.820         696.123          54.800


 126938300.351 7  98913000.32847  24155546.580                    24155549.560
      3310.928        2579.943          42.400          42.700



 106365261.179 8  82882030.13248  20240634.940                    20240634.420
       731.852         570.273          52.150          52.200    79428620.923 9
  20240635.900         546.390          56.600


 121142237.674 7  94396537.90247  23052600.940                    23052599.980
      2982.686        2324.169          45.350          44.100    90463361.694 8
  23052605.300        2227.354          50.850


 128526373.499 6 100150400.56546  24457769.280                    24457771.500
     -3211.543       -2502.509          37.850          37.700



 121836227.950 7  94937316.75646  23184671.700                    23184670.200
     -3120.184       -2431.317          43.950          41.700



 130839680.823 6 101952977.65146  24897966.820                    24897963.440
      3307.050        2576.917          39.800          36.600



 131944562.062 6 102813973.06246  25108212.060                    25108219.360
      1440.958        1122.828          39.600          39.300    98530068.700 6
  25108219.580        1076.294          41.350


 129113314.721 7 100607760.87947  24569455.580                    24569455.640
     -2946.959       -2296.337          43.000          43.200



 23 11  9  8  2  0.0000000  0 11G03G04G06G07G09G11G17G19G20G26G31
 120395879.301 7  93814973.61347  22910577.840                    22910580.840
     -2929.680       -2282.871          45.700          45.600    89906017.898 8
  22910581.640       -2187.744          49.900


 108957639.091 8  84902049.55148  20733948.000                    20733946.820
     -1538.713       -1198.999          50.000          48.600    81364475.462 9
  20733951.420       -1148.962          54.350


 108694204.630 8  84696783.41848  20683823.180                    20683824.460
       914.253         712.404          50.900          50.900    81167751.249 9
  20683824.900         682.688          54.750


 126839017.701 7  98835637.29247  24136653.740                    24136656.580
      3307.904        2577.590          43.150          43.000



 106343545.996 8  82865109.20548  20236502.700                    20236502.000
       715.836         557.794          52.100          52.150    79412405.028 9
  20236503.620         534.538          56.600


 121052896.840 7  94326921.64947  23035599.800                    23035599.140
      2973.229        2316.803          45.100          44.300    90396646.102 8
  23035604.320        2220.171          50.850


 128622729.109 6 100225482.60546  24476105.460                    24476107.520
     -3212.436       -2503.207          38.700          38.000



 121929973.219 7  95010364.88747  23202510.960                    23202509.520
     -3129.455       -2438.541          44.650          42.500



 130740459.452 6 101875662.22645  24879085.740                    24879082.580
      3307.430        2577.216          40.150          35.950



 131901535.568 6 102780446.00646  25100024.420                    25100031.580
      1426.731        1111.741          39.850          39.400    98497938.634 6
  25100031.440        1065.576          40.900


 129201903.389 7 100676790.86947  24586313.660                    24586313.380
     -2959.362       -2306.000          42.700          42.100



 23 11  9  8  2 30.0000000  0 11G03G04G06G07G09G11G17G19G20G26G31
 120483858.290 7  93883528.54547  22927319.740                    22927322.700
     -2935.251       -2287.212          45.650          45.700    89971716.347 8
  22927323.380       -2191.891          49.450


 109004009.765 8  84938182.50948  20742772.060                    20742771.020
     -1552.290       -1209.577          49.950          48.850    81399102.895 9
  20742775.300       -1159.318          54.100


 108667057.650 8  84675629.90748  20678657.440                    20678658.440
       895.933         698.129          51.450          51.350    81147479.134 9
  20678659.100         668.941          54.800


 126739824.414 7  98758343.89947  24117777.960                    24117780.660
      3305.120        2575.421          43.750          43.800



 106322320.976 8  82848570.22548  20232463.720                    20232463.000
       699.695         545.217          52.250          52.100    79396555.171 9
  20232464.720         522.335          56.650


 120963856.383 7  94257539.45047  23018655.820                    23018655.440
      2963.249        2309.024          44.800          43.550    90330154.825 8
  23018660.460        2212.730          51.000


 128719121.917 6 100300593.64046  24494448.700                    24494450.680
     -3213.574       -2504.093          39.450          39.500



 122024003.773 7  95083635.32347  23220404.460                    23220403.020
     -3138.650       -2445.707          43.650          42.700



 130641239.790 6 101798348.13845  24860204.980                    24860201.840
      3307.330        2577.138          41.350          34.300



 131858950.298 6 102747262.78146  25091920.560                    25091927.820
      1412.449        1100.613          37.950          38.100    98466138.075 6
  25091927.160        1054.576          39.650


 129290871.216 7 100746116.29547  24603243.660                    24603243.320
     -2971.974       -2315.829          42.650          42.250



 23 11  9  8  3  0.0000000  0 11G03G04G06G07G09G11G17G19G20G26G31
 120572006.261 7  93952215.16847  22944093.860                    22944096.660
     -2941.146       -2291.807          45.950          45.400    90037540.992 8
  22944097.180       -2196.162          48.950


 109050792.937 8  84974636.89648  20751674.600                    20751673.620
     -1566.209       -1220.424          49.950          48.050    81434038.345 9
  20751677.700       -1169.575          54.350


 108640460.408 8  84654904.75248  20673596.300                    20673597.060
       877.454         683.729          52.050          52.000    81127617.519 9
  20673597.980         655.258          55.050


 126640719.159 7  98681119.11747  24098919.020                    24098921.280
      3302.086        2573.058          44.000          44.250



 106301582.055 8  82832410.02048  20228517.240                    20228516.680
       683.272         532.420          52.600          52.600    79381068.303 9
  20228518.360         510.177          56.900


 120875114.896 7  94188390.21747  23001768.840                    23001768.600
      2953.037        2301.067          45.050          43.600    90263886.804 8
  23001773.520        2205.197          51.350


 128815545.491 6 100375728.64546  24512797.920                    24512799.880
     -3214.486       -2504.801          39.900          39.850



 122118312.691 7  95157122.66846  23238350.980                    23238349.320
     -3147.998       -2452.991          44.300          41.900



 130542018.763 7 101721032.99546  24841324.000                    24841321.240
      3307.311        2577.126          42.200          37.650



 131816804.653 6 102714422.07446  25083900.340                    25083907.880
      1397.385        1088.874          38.600          39.200    98434665.719 6
  25083906.980        1043.483          39.200


 129380211.756 7 100815732.18347  24620244.520                    24620244.380
     -2984.178       -2325.338          42.850          42.800



 23 11  9  8  3 30.0000000  0 11G03G04G06G07G09G11G17G19G20G26G31
 120660327.116 7  94021036.50247  22960900.980                    22960903.580
     -2946.895       -2296.285          45.950          46.100    90103494.770 8
  22960903.840       -2200.652          48.000


 109097991.616 8  85011415.05948  20760656.180                    20760655.240
     -1580.168       -1231.301          49.650          48.600    81469284.078 9
  20760659.380       -1180.002          54.350


 108614419.045 8  84634612.75748  20668640.900                    20668641.500
       858.704         669.119          51.650          51.400    81108171.018 9
  20668642.720         641.330          54.950


 126541709.379 7  98603968.71747  24080078.120                    24080080.060
      3298.789        2570.488          43.600          43.950



 106281333.909 8  82816632.24048  20224664.140                    20224663.800
       666.742         519.539          52.100          52.050    79365947.928 9
  20224665.420         497.869          56.850


 120786679.694 7  94119479.63947  22984940.240                    22984939.980
      2942.759        2293.058          44.400          43.700    90197847.512 8
  22984944.900        2197.491          51.300


 128912001.953 6 100450889.21346  24531153.240                    24531155.280
     -3215.975       -2505.963          38.150          38.850



 122212901.564 7  95230828.15446  23256350.800                    23256349.100
     -3157.583       -2460.459          44.150          41.350



 130442802.243 6 101643721.37846  24822443.780                    24822441.220
      3306.887        2576.797          41.150          36.700



 131775105.384 6 102681929.19346  25075964.940                    25075972.640
      1382.706        1077.434          39.400          39.550    98403526.715 7
  25075972.040        1032.341          42.100


 129469927.056 7 100885640.07447  24637316.660                    24637316.820
     -2996.709       -2335.104          42.800          42.700



 23 11  9  8  4  0.0000000  0 11G03G04G06G07G09G11G17G19G20G26G31
 120748816.280 7  94089988.98647  22977740.060                    22977742.520
     -2952.343       -2300.530          45.750          46.050    90169574.219 7
  22977742.620       -2204.598          47.850


 109145600.248 8  85048512.66848  20769715.800                    20769714.900
     -1593.748       -1241.882          49.850          48.200    81504835.943 9
  20769719.200       -1190.053          54.350


 108588931.099 8  84614751.99548  20663790.720                    20663791.240
       840.426         654.877          51.750          51.700    81089137.787 9
  20663792.800         627.635          54.900


 126442793.382 7  98526891.44247  24061255.040                    24061257.140
      3295.612        2568.012          44.500          44.300



 106261572.614 8  82801233.80848  20220903.640                    20220903.480
       650.653         507.002          51.850          51.750    79351191.095 9
  20220905.160         485.957          56.800


 120698549.548 7  94050806.77247  22968169.800                    22968169.340
      2932.710        2285.228          45.450          42.200    90132036.008 8
  22968174.400        2189.986          51.150


 129008484.008 6 100526069.71646  24549513.600                    24549515.640
     -3216.550       -2506.412          39.550          39.300



 122307763.018 7  95304746.01046  23274402.440                    23274400.740
     -3166.442       -2467.363          44.550          41.400



 130343587.153 6 101566410.85045  24803563.880                    24803561.340
      3306.949        2576.843          41.300          34.550



 131733850.802 6 102649782.85346  25068114.300                    25068121.880
      1367.645        1065.699          37.000          36.750    98372719.779 7
  25068122.020        1021.393          42.200


 129560010.595 7 100955834.91147  24654458.960                    24654459.440
     -3008.821       -2344.541          43.150          43.250



 23 11  9  8  4 30.0000000  0 11G03G04G06G07G09G11G17G19G20G26G31
 120837474.280 7  94159073.01447  22994611.180                    22994613.520
     -2957.769       -2304.759          45.350          45.700    90235779.745 8
  22994613.860       -2208.830          48.250


 109193618.416 8  85085929.38748  20778853.380                    20778852.520
     -1607.331       -1252.467          50.050          48.350    81540693.623 9
  20778856.900       -1200.166          54.350


 108563999.263 8  84595324.56848  20659046.360                    20659046.840
       821.830         640.387          51.850          51.950    81070519.823 9
  20659048.600         613.814          54.950


 126343974.770 7  98449890.08647  24042450.480                    24042452.220
      3292.495        2565.586          44.250          44.300



 106242299.343 8  82786215.65648  20217236.020                    20217235.920
       634.443         494.371          51.550          51.650    79336798.702 9
  20217237.760         473.782          56.850


 120610728.265 7  93982374.57047  22951458.240                    22951457.480
      2922.298        2277.113          46.250          42.650    90066455.141 8
  22951462.680        2182.352          51.000


 129104990.351 6 100601269.18746  24567878.640                    24567880.420
     -3217.148       -2506.878          40.550          40.950



 122402893.969 7  95378873.89946  23292505.300                    23292503.520
     -3175.533       -2474.447          43.900          41.600



 130244375.720 6 101489103.14446  24784684.560                    24784682.260
      3307.188        2577.024          39.950          36.800



 131693044.233 6 102617985.57345  25060349.020                    25060356.600
      1353.074        1054.344          36.500          35.500    98342247.419 6
  25060356.960        1010.425          41.950


 129650460.833 7 101026315.49347  24671671.180                    24671671.780
     -3020.843       -2353.907          43.000          43.200



 23 11  9  8  5  0.0000000  0 11G03G04G06G07G09G11G17G19G20G26G31
 120926301.209 7  94228288.66347  23011514.400                    23011516.800
     -2963.562       -2309.273          45.600          45.850    90302111.391 8
  23011517.500       -2213.172          48.850


 109242045.231 8  85123664.53548  20788068.780                    20788067.880
     -1621.087       -1263.186          49.800          48.300    81576856.475 9
  20788072.180       -1210.540          54.350


 108539625.728 8  84576332.18148  20654408.220                    20654408.740
       803.256         625.913          51.900          51.900    81052318.785 9
  20654410.500         599.687          55.050


 126245257.250 7  98372967.48847  24023665.120                    24023666.380
      3288.915        2562.795          44.100          44.350



 106223514.801 8  82771578.33248  20213661.380                    20213661.340
       618.065         481.609          51.600          51.700    79322771.264 9
  20213663.260         461.438          57.000


 120523219.268 7  93914185.71347  22934806.100                    22934805.080
      2911.979        2269.074          46.450          43.200    90001107.503 8
  22934810.420        2174.325          50.950


 129201519.525 6 100676486.42846  24586247.800                    24586249.500
     -3217.940       -2507.496          40.600          40.100



 122498293.032 7  95453210.68347  23310659.180                    23310657.660
     -3184.439       -2481.386          44.150          42.100



 130145169.993 6 101411799.92346  24765806.360                    24765803.820
      3306.894        2576.797          39.800          36.850



 131652688.779 6 102586539.79845  25052669.280                    25052677.260
      1337.707        1042.368          36.050          35.650    98312111.884 7
  25052677.520         998.928          42.200


 129741275.737 7 101097080.20947  24688952.840                    24688953.500
     -3033.283       -2363.603          42.400          42.250



 23 11  9  8  5 30.0000000  0 11G03G04G06G07G09G11G17G19G20G26G31
 121015290.999 7  94297631.23647  23028448.640                    23028451.200
     -2968.995       -2313.508          45.650          45.700    90368564.663 8
  23028452.120       -2217.214          48.650


 109290873.691 8  85161712.65748  20797360.540                    20797359.640
     -1634.437       -1273.589          49.850          48.200    81613319.251 8
  20797363.700       -1220.525          53.900


 108515806.605 8  84557771.80448  20649875.600                    20649876.140
       784.571         611.354          51.800          51.600    81034531.746 9
  20649877.840         585.869          54.900


 126146637.999 7  98296121.48647  24004898.520                    24004899.980
      3285.554        2560.177          45.050          45.200



 106205213.620 8  82757317.65948  20210178.780                    20210178.800
       601.794         468.930          51.600          51.450    79309104.778 9
  20210180.620         449.396          56.650


 120436019.929 7  93846238.13947  22918212.800                    22918211.640
      2901.316        2260.765          46.650          43.400    89935991.076 8
  22918217.020        2166.518          50.550


 129298063.371 6 100751715.10846  24604619.580                    24604621.120
     -3218.591       -2508.002          38.550          39.300



 122593951.609 7  95527749.69746  23328862.440                    23328861.240
     -3193.136       -2488.161          43.500          41.300



 130045965.649 6 101334497.77546  24746928.540                    24746926.120
      3306.587        2576.562          40.300          36.250



 131612781.109 6 102555442.94346  25045075.140                    25045083.120
      1323.361        1031.190          36.800          37.000    98282310.781 7
  25045083.240         987.705          42.250


 129832447.281 6 101168122.85046  24706302.220                    24706302.980
     -3045.156       -2372.857          41.900          41.800



 23 11  9  8  6  0.0000000  0 11G03G04G06G07G09G11G17G19G20G26G31
 121104449.878 7  94367105.54947  23045415.020                    23045417.640
     -2974.713       -2317.963          45.350          45.400    90435144.174 8
  23045418.600       -2221.252          48.900


 109340109.069 8  85200077.86448  20806729.720                    20806728.880
     -1647.990       -1284.149          49.250          48.650    81650085.892 9
  20806732.660       -1230.526          54.350


 108492550.214 8  84539649.91748  20645450.140                    20645450.580
       765.789         596.718          51.950          52.000    81017164.927 9
  20645452.280         571.910          55.300


 126048126.250 7  98219359.26347  23986152.240                    23986153.660
      3281.889        2557.321          45.000          44.850



 106187402.612 8  82743438.93848  20206789.480                    20206789.600
       585.628         456.333          51.450          51.600    79295804.337 9
  20206791.200         437.313          57.000


 120349139.702 7  93778539.23847  22901680.100                    22901679.040
      2890.833        2252.597          47.150          43.400    89871112.959 8
  22901684.320        2158.716          50.700


 129394626.224 6 100826958.56946  24622994.940                    24622996.320
     -3219.107       -2508.406          38.250          38.550



 122689872.988 7  95602493.48147  23347115.680                    23347114.720
     -3201.860       -2494.962          43.050          42.800



 129946770.549 6 101257202.78745  24728052.520                    24728050.260
      3306.364        2576.386          38.300          35.150



 131573330.494 5 102524702.23945  25037567.980                    25037575.900
      1307.672        1018.966          34.950          33.650    98252850.928 7
  25037575.880         976.196          42.550


 129923979.941 6 101239446.90047  24723720.260                    24723721.140
     -3057.041       -2382.115          41.900          42.350



 23 11  9  8  6 30.0000000  0 11G03G04G06G07G09G11G17G19G20G26G31
 121193774.309 7  94436708.87147  23062412.880                    23062415.280
     -2980.687       -2322.619          45.350          44.900    90501847.324 8
  23062416.340       -2225.671          48.950


 109389746.852 8  85238756.62548  20816175.420                    20816174.680
     -1661.615       -1294.766          49.650          48.200    81687153.030 9
  20816178.420       -1240.790          54.550


 108469855.111 8  84521965.39248  20641131.560                    20641131.800
       746.779         581.905          52.150          52.200    81000217.252 9
  20641133.540         557.674          55.400


 125949721.725 7  98142680.57847  23967426.340                    23967427.560
      3278.036        2554.319          45.700          45.450



 106170078.894 8  82729939.92248  20203492.920                    20203493.040
       568.975         443.356          51.950          51.950    79282867.772 9
  20203494.500         424.898          57.000


 120262578.498 7  93711088.92247  22885208.020                    22885207.140
      2879.549        2243.804          47.250          44.150    89806473.065 8
  22885212.180        2150.422          50.600


 129491202.299 6 100902212.34646  24641372.560                    24641373.920
     -3219.788       -2508.934          38.550          38.250



 122786050.960 7  95677437.19047  23365417.940                    23365417.240
     -3210.292       -2501.532          44.700          42.450



 129847583.123 6 101179913.76846  24709177.840                    24709175.380
      3305.711        2575.874          40.050          37.100



 131534336.079 5 102494317.04446  25030147.540                    25030155.500
      1291.778        1006.583          35.550          36.000    98223731.747 7
  25030155.500         964.773          42.700


 130015867.720 7 101311047.65747  24741205.840                    24741206.640
     -3069.243       -2391.619          42.550          42.250



 23 11  9  8  7  0.0000000  0 11G03G04G06G07G09G11G17G19G20G26G31
 121283265.637 7  94506442.25147  23079442.580                    23079444.660
     -2986.075       -2326.816          45.800          45.650    90568675.118 8
  23079445.980       -2229.793          48.800


 109439787.423 8  85277749.25147  20825697.880                    20825697.180
     -1674.818       -1305.055          50.150          47.650    81724520.952 9
  20825701.000       -1250.722          54.550


 108447724.672 8  84504720.86048  20636920.340                    20636920.460
       728.235         567.455          52.150          52.050    80983691.244 9
  20636922.220         543.719          55.300


 125851429.350 7  98066089.24447  23948721.860                    23948723.000
      3274.204        2551.333          45.250          45.550



 106153244.385 8  82716822.11148  20200289.560                    20200289.540
       552.887         430.820          52.250          52.300    79270296.539 9
  20200290.920         412.822          56.900


 120176340.953 7  93643890.82647  22868797.480                    22868796.900
      2869.094        2235.657          47.000          44.150    89742074.880 8
  22868801.500        2142.419          50.500


 129587790.749 6 100977475.79346  24659752.860                    24659754.560
     -3219.917       -2509.036          40.550          40.900



 122882484.006 7  95752579.65946  23383768.780                    23383768.200
     -3218.738       -2508.112          44.200          41.000



 129748406.310 6 101102633.01146  24690305.200                    24690302.800
      3305.733        2575.895          39.850          36.850



 131495802.012 5 102464290.52746  25022814.520                    25022822.760
      1276.506         994.680          35.750          36.600    98194956.384 7
  25022822.940         953.191          43.500


 130108110.254 6 101382924.83746  24758758.700                    24758759.720
     -3080.726       -2400.568          41.350          41.350



 23 11  9  8  7 30.0000000  0 11G03G04G06G07G09G11G17G19G20G26G31
 121372919.338 7  94576302.14847  23096503.200                    23096505.180
     -2991.088       -2330.723          45.400          45.300    90635624.163 8
  23096506.600       -2233.575          48.700


 109490225.301 8  85317051.45747  20835296.000                    20835295.180
     -1687.883       -1315.234          50.050          47.750    81762185.552 9
  20835299.180       -1260.435          54.250


 108426156.417 8  84487914.39648  20632816.000                    20632816.140
       709.669         552.987          51.700          51.850    80967585.046 9
  20632817.860         529.889          55.100


 125753247.518 7  97989584.08647  23930038.280                    23930039.680
      3270.702        2548.604          44.850          44.950



 106136895.126 8  82704082.42348  20197178.520                    20197178.300
       536.832         418.311          52.350          52.400    79258087.665 9
  20197179.640         400.901          56.700


 120090425.892 7  93576944.01147  22852448.320                    22852447.900
      2858.452        2227.365          47.050          44.100    89677917.503 8
  22852452.100        2134.539          50.250


 129684385.506 6 101052744.14046  24678134.500                    24678136.400
     -3220.286       -2509.323          37.750          36.950



 122979165.567 7  95827915.79446  23402166.840                    23402166.040
     -3226.955       -2514.516          44.250          41.700



 129649237.566 6 101025358.52646  24671434.100                    24671431.780
      3305.418        2575.646          41.000          37.800



 131457726.545 5 102434621.36745  25015568.960                    25015577.240
      1262.019         983.392          35.650          35.750    98166523.445 7
  25015577.680         942.077          43.600


 130200701.007 6 101455073.36346  24776378.040                    24776379.100
     -3091.937       -2409.304          41.650          41.900



 23 11  9  8  8  0.0000000  0 11G03G04G06G07G09G11G17G19G20G26G31
 121462735.017 7  94646288.25747  23113594.520                    23113596.720
     -2996.223       -2334.725          44.900          44.750    90702694.159 8
  23113598.000       -2237.469          48.600


 109541059.056 8  85356662.13447  20844969.440                    20844968.340
     -1700.727       -1325.243          50.050          47.800    81800145.772 9
  20844972.660       -1270.031          54.050


 108405151.977 8  84471547.28448  20628818.880                    20628819.100
       691.003         538.443          51.300          51.150    80951899.883 9
  20628820.780         515.977          54.900


 125655179.423 7  97913167.53847  23911376.380                    23911377.820
      3267.217        2545.889          44.550          44.300



 106121031.280 8  82691720.98248  20194159.840                    20194159.480
       520.888         405.887          52.000          52.000    79246241.282 9
  20194160.740         389.060          56.550


 120004836.278 7  93510250.78147  22836161.000                    22836160.900
      2847.916        2219.155          46.550          44.150    89614003.144 8
  22836164.640        2126.613          50.400


 129780984.443 6 101128015.78146  24696516.900                    24696519.140
     -3219.838       -2508.974          39.050          39.650



 123076092.447 7  95903443.07547  23420611.680                    23420610.580
     -3234.742       -2520.584          44.700          42.300



 129550078.281 6 100948091.42646  24652564.720                    24652562.660
      3305.540        2575.739          40.850          37.950



 131420112.163 6 102405311.47546  25008411.440                    25008419.500
      1246.158         971.033          36.150          36.000    98138434.800 7
  25008420.200         930.698          42.600


 130293637.410 6 101527491.23946  24794063.120                    24794064.320
     -3103.486       -2418.303          41.500          41.250



 23 11  9  8  8 30.0000000  0 11G03G04G06G07G09G11G17G19G20G26G31
 121552714.682 7  94716402.14047  23130717.080                    23130719.560
     -3001.699       -2338.991          45.700          45.650    90769886.593 8
  23130720.600       -2241.364          48.550


 109592289.711 8  85396582.08647  20854718.360                    20854717.040
     -1713.864       -1335.479          50.100          47.100    81838402.377 9
  20854721.540       -1279.807          54.000


 108384715.360 8  84455622.62848  20624929.800                    20624930.180
       672.015         523.647          51.950          51.900    80936638.749 9
  20624931.740         501.959          55.050


 125557230.338 7  97836843.72147  23892737.000                    23892738.480
      3263.029        2542.625          44.350          44.850



 106105655.401 8  82679739.77648  20191233.940                    20191233.560
       504.845         393.386          52.550          52.600    79234759.297 9
  20191234.720         376.996          56.650


 119919577.416 7  93443815.29547  22819936.640                    22819936.740
      2836.862        2210.542          46.800          43.700    89550335.802 8
  22819940.300        2118.417          50.850


 129877587.053 6 101203290.26546  24714899.960                    24714902.440
     -3219.771       -2508.925          38.650          38.350



 123173263.947 7  95979160.94246  23439102.900                    23439101.300
     -3242.687       -2526.774          45.700          41.250



 129450932.258 6 100870834.66646  24633697.700                    24633695.880
      3305.106        2575.403          40.150          37.650



 131382963.523 6 102376364.52046  25001342.360                    25001350.400
      1230.951         959.185          37.050          37.400    98110693.965 7
  25001350.980         919.261          42.400


 130386919.434 6 101600178.41646  24811814.160                    24811815.260
     -3114.677       -2427.024          40.950          41.650



 23 11  9  8  9  0.0000000  0 11G03G04G06G07G09G11G17G19G20G26G31
 121642856.755 7  94786642.58947  23147870.660                    23147873.160
     -3007.157       -2343.243          45.850          45.750    90837200.315 8
  23147874.120       -2245.498          48.550


 109643914.783 8  85436809.36447  20864542.280                    20864540.920
     -1727.095       -1345.790          49.700          47.650    81876953.510 9
  20864545.460       -1289.664          54.250


 108364846.998 8  84440140.77248  20621148.920                    20621149.460
       653.074         508.889          51.700          51.700    80921801.964 9
  20621150.940         487.729          55.150


 125459401.366 7  97760613.49947  23874120.600                    23874122.100
      3259.426        2539.818          44.350          44.300



 106090766.543 8  82668138.06248  20188400.660                    20188400.380
       488.514         380.660          52.000          52.150    79223640.980 9
  20188401.400         364.841          56.850


 119834651.148 7  93377638.96247  22803775.700                    22803775.760
      2825.729        2201.865          46.650          44.800    89486916.814 8
  22803779.420        2110.076          51.400


 129974190.073 6 101278565.15646  24733283.260                    24733285.480
     -3219.726       -2508.885          40.300          39.800



 123270675.890 7  96055066.19146  23457640.100                    23457638.040
     -3250.722       -2533.034          45.100          41.150



 129351799.868 6 100793588.56046  24614833.240                    24614831.780
      3304.575        2574.991          41.050          38.300



 131346281.918 6 102347781.49946  24994362.060                    24994369.880
      1214.941         946.707          37.950          38.600    98083301.897 7
  24994370.120         907.539          42.400


 130480543.582 6 101673132.21046  24829630.480                    24829631.520
     -3126.130       -2435.950          40.650          40.650



 23 11  9  8  9 30.0000000  0 11G03G04G06G07G09G11G17G19G20G26G31
 121733157.568 7  94857006.72947  23165054.520                    23165056.980
     -3012.885       -2347.706          45.850          45.850    90904632.594 8
  23165057.800       -2249.855          48.550


 109695929.518 8  85477340.27547  20874440.400                    20874438.900
     -1740.321       -1356.096          49.950          47.300    81915795.636 9
  20874443.720       -1299.680          54.350


 108345545.169 8  84425100.36548  20617475.980                    20617476.540
       633.915         493.959          51.400          51.600    80907388.234 9
  20617478.020         473.313          55.100


 125361692.623 7  97684476.95147  23855526.960                    23855528.640
      3255.087        2536.437          43.900          44.000



 106076361.474 8  82656913.32248  20185659.400                    20185659.340
       471.945         367.749          52.100          52.050    79212883.942 9
  20185660.300         352.428          56.800


 119750057.111 7  93311721.51247  22787678.020                    22787678.020
      2814.133        2192.830          46.600          43.350    89423745.928 8
  22787681.880        2101.426          51.450


 130070788.125 6 101353836.13346  24751665.680                    24751668.140
     -3219.873       -2509.001          39.250          39.350



 123368322.190 7  96131154.04747  23476221.720                    23476219.500
     -3259.024       -2539.508          43.600          42.300



 129252679.200 6 100716351.57546  24595971.240                    24595969.740
      3303.876        2574.442          40.850          36.950



 131310066.263 6 102319561.51946  24987470.500                    24987478.060
      1198.930         934.229          37.600          37.700    98056257.808 6
  24987478.120         895.483          41.950


 130574504.129 6 101746348.10346  24847510.900                    24847511.700
     -3137.547       -2444.847          41.600          41.200



 23 11  9  8 10  0.0000000  0 11G03G04G06G07G09G11G17G19G20G26G31
 121823619.514 7  94927496.42647  23182268.980                    23182271.420
     -3017.959       -2351.660          45.550          45.050    90972185.173 8
  23182272.220       -2253.635          48.350


 109748335.336 8  85518175.92847  20884412.920                    20884411.260
     -1753.278       -1366.192          49.900          47.500    81954929.789 9
  20884416.560       -1309.214          54.700


 108326814.204 8  84410504.79248  20613911.660                    20613912.260
       614.900         479.143          51.800          51.800    80893400.800 9
  20613913.780         459.229          55.300


 125264109.757 7  97608438.47347  23836957.420                    23836959.100
      3250.800        2533.093          44.950          44.750



 106062443.095 8  82646067.82448  20183010.760                    20183010.980
       455.920         355.262          52.350          52.300    79202490.339 9
  20183011.900         340.469          57.000


 119665801.010 7  93246067.39747  22771644.680                    22771644.620
      2802.997        2184.154          46.550          44.650    89360827.395 8
  22771648.680        2093.192          51.750


 130167381.165 6 101429103.25646  24770047.020                    24770049.840
     -3219.405       -2508.633          39.350          39.500



 123466202.864 7  96207424.50546  23494847.940                    23494845.640
     -3266.424       -2545.271          44.550          40.400



 129153574.323 6 100639126.87945  24577112.240                    24577110.620
      3303.232        2573.940          41.250          35.650



 131274321.708 6 102291708.66946  24980668.680                    24980676.400
      1183.657         922.330          37.500          38.250    98029565.497 7
  24980676.160         884.019          42.050


 130668801.768 6 101819826.69146  24865455.480                    24865455.980
     -3148.444       -2453.339          41.400          41.250



 23 11  9  8 10 30.0000000  0 11G03G04G06G07G09G11G17G19G20G26G31
 121914239.527 7  94998109.27747  23199513.500                    23199516.000
     -3023.648       -2356.095          45.100          45.400    91039855.809 7
  23199516.740       -2258.016          47.800


 109801128.150 8  85559313.13847  20894459.060                    20894457.360
     -1766.421       -1376.434          49.900          47.000    81994352.932 9
  20894462.940       -1319.141          54.150


 108308652.975 8  84396353.16248  20610455.700                    20610456.300
       595.569         464.079          51.650          51.600    80879838.818 9
  20610457.920         444.714          55.050


 125166652.649 7  97532497.99647  23818411.800                    23818413.560
      3246.155        2529.477          44.550          45.000



 106049008.854 8  82635599.57648  20180454.300                    20180454.720
       439.416         342.401          52.150          52.400    79192458.268 9
  20180455.520         328.157          56.650


 119581883.130 7  93180676.82147  22755675.700                    22755675.520
      2791.224        2174.979          46.650          44.550    89298161.433 8
  22755679.840        2084.369          51.350


 130263964.684 6 101504362.93846  24788426.560                    24788429.540
     -3219.651       -2508.824          40.000          40.400



 123564311.673 7  96283872.78846  23513517.560                    23513514.840
     -3274.369       -2551.460          43.700          41.900



 129054484.074 6 100561913.58145  24558256.080                    24558254.200
      3302.368        2573.268          41.650          33.150



 131239047.898 6 102264222.61946  24973956.300                    24973964.220
      1167.248         909.543          37.700          38.400    98003224.702 6
  24973963.720         871.810          41.500


 130763430.621 6 101893563.34546  24883462.860                    24883463.340
     -3160.225       -2462.517          40.150          40.000



 23 11  9  8 11  0.0000000  0 11G03G04G06G07G09G11G17G19G20G26G31
 122005017.818 7  95068845.47147  23216788.120                    23216790.740
     -3028.277       -2359.700          44.600          44.850    91107644.626 7
  23216791.360       -2261.319          47.850


 109854307.214 8  85600751.32547  20904578.700                    20904577.080
     -1778.630       -1385.947          49.800          47.350    82034064.510 8
  20904582.540       -1328.224          53.900


 108291063.591 8  84382647.13248  20607108.500                    20607109.100
       577.117         449.701          51.350          51.450    80866703.871 9
  20607110.840         430.970          55.150


 125069324.973 7  97456658.36347  23799890.800                    23799892.680
      3242.479        2526.610          44.400          44.400



 106036059.462 8  82625509.12648  20177990.120                    20177990.640
       424.037         330.417          52.100          52.000    79182788.260 9
  20177991.240         316.590          56.700


 119498307.030 7  93115552.56347  22739771.720                    22739771.320
      2780.460        2166.591          46.300          44.550    89235750.689 8
  22739776.000        2076.357          51.300


 130360536.697 6 101579613.62146  24806803.920                    24806806.740
     -3218.268       -2507.754          38.650          38.050



 123662646.369 7  96360497.06746  23532229.860                    23532227.100
     -3281.085       -2556.694          42.150          41.400



 128955410.493 6 100484713.24945  24539403.080                    24539400.900
      3302.348        2573.249          41.850          32.600



 131204247.597 6 102237105.53546  24967333.860                    24967341.840
      1152.602         898.131          38.250          38.100    97977237.506 6
  24967341.120         860.643          41.750


 130858389.046 6 101967556.78246  24901532.980                    24901533.260
     -3170.366       -2470.421          40.750          40.350



 23 11  9  8 11 30.0000000  0 11G03G04G06G07G09G11G17G19G20G26G31
 122095955.204 7  95139705.61347  23234092.860                    23234095.680
     -3033.767       -2363.979          43.350          43.150    91175552.239 7
  23234096.400       -2265.409          47.550


 109907872.332 8  85642490.32747  20914771.800                    20914770.340
     -1791.633       -1396.079          49.650          47.500    82074064.383 8
  20914775.360       -1337.903          53.400


 108274048.779 8  84369388.82548  20603870.680                    20603871.260
       557.803         434.651          51.650          51.550    80853997.993 9
  20603873.040         416.584          55.150


 124972130.840 7  97380922.75547  23781395.400                    23781397.060
      3237.782        2522.951          44.350          44.350



 106023596.220 8  82615797.50348  20175618.520                    20175619.020
       407.546         317.567          52.250          52.400    79173481.276 9
  20175619.460         304.361          56.650


 119415076.854 7  93050697.86747  22723933.660                    22723932.920
      2768.826        2157.526          46.300          44.950    89173598.267 8
  22723937.920        2067.640          50.950


 130457096.163 6 101654854.62046  24825178.680                    24825181.120
     -3218.089       -2507.608          41.200          40.950



 123761205.221 7  96437295.99147  23550984.840                    23550982.440
     -3288.692       -2562.622          42.600          42.000



 128856356.609 7 100407528.24645  24520553.880                    24520551.260
      3301.941        2572.933          42.600          31.250



 131169924.362 6 102210360.18146  24960802.420                    24960810.060
      1136.574         885.641          36.100          36.150    97951606.538 6
  24960809.560         848.704          39.650


 130953676.126 6 102041806.36046  24919665.520                    24919665.580
     -3181.430       -2479.039          39.800          39.900



 23 11  9  8 12  0.0000000  0 11G03G04G06G07G09G11G17G19G20G26G31
 122187047.822 7  95210686.71747  23251427.000                    23251430.040
     -3038.945       -2368.015          43.000          43.150    91243575.765 7
  23251431.120       -2269.185          47.350


 109961818.608 8  85684526.34147  20925037.420                    20925036.080
     -1804.321       -1405.967          49.600          47.800    82114348.887 8
  20925040.700       -1347.444          53.100


 108257606.543 8  84356576.68548  20600741.820                    20600742.420
       538.673         419.745          51.750          51.850    80841719.688 9
  20600744.180         402.228          55.100


 124875069.431 7  97305290.55847  23762925.200                    23762926.760
      3233.340        2519.488          44.000          43.900



 106011615.698 8  82606462.02348  20173338.800                    20173339.200
       391.563         305.113          52.250          52.300    79164534.776 9
  20173339.660         292.354          56.650


 119332192.112 7  92986112.32347  22708161.380                    22708160.260
      2757.126        2148.409          47.100          44.950    89111703.783 8
  22708165.560        2058.975          50.600


 130553637.074 6 101730081.12246  24843549.800                    24843552.300
     -3217.666       -2507.280          40.700          40.100



 123859981.711 7  96514264.52246  23569781.320                    23569779.260
     -3296.036       -2568.346          42.400          40.950



 128757320.089 7 100330356.78145  24501708.140                    24501705.180
      3301.401        2572.515          43.050          30.300



 131136077.007 6 102183985.65146  24954361.220                    24954369.040
      1120.592         873.187          38.000          37.900    97926330.924 6
  24954368.900         836.860          40.350


 131049285.963 6 102116307.42846  24937859.500                    24937859.560
     -3192.244       -2487.467          40.850          41.400



 23 11  9  8 12 30.0000000  0 11G03G04G06G07G09G11G17G19G20G26G31
 122278298.823 7  95281791.22147  23268791.380                    23268794.460
     -3044.352       -2372.228          42.750          43.000    91311717.564 7
  23268795.840       -2273.446          47.300


 110016148.168 8  85726861.01647  20935375.940                    20935374.880
     -1817.257       -1416.045          49.100          47.700    82154919.615 8
  20935379.240       -1357.143          53.050


 108241741.888 8  84344214.60048  20597722.980                    20597723.520
       519.154         404.535          52.200          52.250    80829872.688 9
  20597725.260         387.644          55.100


 124778147.349 7  97229766.92747  23744481.560                    23744483.080
      3228.351        2515.600          44.700          44.850



 106000121.527 8  82597505.51248  20171151.560                    20171151.820
       375.062         292.255          52.200          52.150    79155951.449 9
  20171152.520         280.027          56.650


 119249659.276 7  92921800.99447  22692456.060                    22692454.700
      2745.111        2139.046          47.600          44.850    89050072.075 8
  22692460.120        2049.965          50.250


 130650160.769 6 101805294.24246  24861917.560                    24861920.320
     -3217.194       -2506.908          41.050          41.050



 123958976.327 7  96591403.02046  23588619.160                    23588617.360
     -3303.484       -2574.150          42.100          41.350



 128658306.033 7 100253202.78745  24482866.680                    24482863.660
      3300.082        2571.481          42.950          32.350



 131102711.236 6 102157986.35846  24948011.720                    24948019.400
      1104.440         860.602          38.900          39.700    97901414.958 6
  24948020.040         824.599          41.100


 131145219.502 6 102191060.71647  24956115.140                    24956115.520
     -3203.123       -2495.944          41.800          42.100



 23 11  9  8 13  0.0000000  0 11G03G04G06G07G09G11G17G19G20G26G31
 122369699.084 7  95353012.03847  23286184.480                    23286187.280
     -3049.512       -2376.248          44.000          44.000    91379970.814 7
  23286188.880       -2277.111          47.500


 110070850.959 8  85769486.51948  20945785.480                    20945784.800
     -1830.089       -1426.045          49.000          48.100    82195769.033 8
  20945788.960       -1366.444          53.200


 108226447.525 8  84332296.90048  20594812.620                    20594813.200
       499.969         389.585          52.400          52.300    80818451.551 9
  20594814.900         373.406          55.200


 124681358.587 7  97154347.16447  23726063.260                    23726064.760
      3223.747        2512.013          43.850          43.400



 105989105.042 8  82588921.22848  20169055.180                    20169055.260
       358.815         279.596          52.550          52.550    79147724.829 9
  20169056.360         268.098          56.900


 119167472.597 7  92857759.39747  22676816.560                    22676815.220
      2733.329        2129.865          47.750          44.400    88988698.860 8
  22676820.420        2041.235          50.050


 130746656.408 6 101880485.46646  24880279.940                    24880283.700
     -3216.358       -2506.261          38.800          38.100



 124058177.418 7  96668702.42246  23607496.720                    23607495.260
     -3310.460       -2579.585          42.000          41.900



 128559307.358 7 100176060.83145  24464028.020                    24464025.140
      3299.363        2570.925          43.050          34.150



 131069820.613 6 102132357.28046  24941752.680                    24941760.500
      1087.832         847.661          38.150          37.800    97876853.762 6
  24941761.760         812.646          40.850


 131241465.745 7 102266057.66147  24974430.300                    24974431.100
     -3213.963       -2504.389          42.200          42.300



 23 11  9  8 13 30.0000000  0 11G03G04G06G07G09G11G17G19G20G26G31
 122461256.955 7  95424355.69647  23303607.760                    23303610.020
     -3054.753       -2380.332          45.050          45.200    91448341.761 7
  23303611.980       -2281.053          47.600


 110125934.220 8  85812408.49148  20956267.380                    20956266.980
     -1842.594       -1435.789          48.750          48.550    82236902.588 8
  20956271.040       -1375.904          53.250


 108211733.607 8  84320831.49548  20592012.680                    20592013.300
       480.665         374.544          51.900          51.850    80807463.867 9
  20592014.940         358.976          55.350


 124584714.769 7  97079040.35247  23707672.380                    23707673.960
      3218.898        2508.235          44.000          44.000



 105978574.962 8  82580715.96348  20167051.320                    20167051.200
       342.793         267.111          52.350          52.300    79139861.452 9
  20167052.660         256.042          57.050


 119085643.704 7  92793996.58747  22661245.080                    22661243.880
      2721.500        2120.648          47.750          45.200    88927592.822 8
  22661248.760        2032.314          50.100


 130843130.365 6 101955659.76346  24898638.420                    24898642.500
     -3215.537       -2505.617          39.150          39.400



 124157590.747 7  96746167.20647  23626414.680                    23626413.560
     -3317.562       -2585.118          42.800          42.150



 128460333.962 6 100098938.59845  24445194.120                    24445191.480
      3298.399        2570.177          41.900          35.400



 131037415.839 6 102107106.77045  24935586.200                    24935594.340
      1072.749         835.909          36.600          35.500    97852655.386 6
  24935595.520         800.393          40.600


 131338030.608 6 102341302.92346  24992806.060                    24992806.980
     -3224.300       -2512.447          40.150          40.400



 23 11  9  8 14  0.0000000  0 11G03G04G06G07G09G11G17G19G20G26G31
 122552969.208 7  95495819.66147  23321060.500                    23321062.440
     -3059.942       -2384.374          45.300          45.550    91516828.019 7
  23321064.460       -2284.957          47.650


 110181393.772 8  85855623.67348  20966820.960                    20966820.720
     -1855.111       -1445.544          48.950          48.550    82278317.126 8
  20966824.620       -1385.233          53.150


 108197598.713 8  84309817.28348  20589322.840                    20589323.520
       461.215         359.388          51.300          51.300    80796908.575 9
  20589325.160         344.479          55.400


 124488216.072 7  97003846.59347  23689309.280                    23689310.960
      3214.110        2504.504          43.650          43.650



 105968528.540 8  82572887.57848  20165139.520                    20165139.160
       326.624         254.512          52.350          52.600    79132359.250 9
  20165140.900         243.930          57.100


 119004172.769 7  92730512.71547  22645741.620                    22645740.720
      2709.588        2111.366          47.700          45.400    88866754.101 8
  22645745.180        2023.383          50.300


 130939577.520 6 102030813.18246  24916991.780                    24916995.820
     -3214.677       -2504.952          39.250          39.600



 124257210.612 7  96823792.91246  23645371.840                    23645370.800
     -3324.236       -2590.318          42.700          40.500



 128361384.910 7 100021835.37346  24426364.620                    24426362.260
      3297.691        2569.628          42.000          36.500



 131005496.509 5 102082234.53046  24929512.240                    24929520.380
      1055.818         822.715          35.850          36.050    97828819.413 6
  24929521.360         788.402          41.300


 131434908.966 6 102416792.45846  25011241.500                    25011242.180
     -3234.681       -2520.532          39.850          39.400



 23 11  9  8 14 30.0000000  0 11G03G04G06G07G09G11G17G19G20G26G31
 122644832.386 7  95567401.20647  23338541.820                    23338543.800
     -3064.719       -2388.098          45.250          45.600    91585426.968 7
  23338545.600       -2288.522          47.550


 110237225.069 8  85899128.53348  20977445.380                    20977445.260
     -1867.151       -1454.925          49.650          48.350    82320009.285 8
  20977448.940       -1394.320          53.200


 108184041.107 8  84299252.89148  20586742.840                    20586743.600
       442.396         344.724          51.750          51.650    80786784.368 9
  20586745.180         330.319          55.350


 124391861.923 7  96928765.49747  23670973.540                    23670975.340
      3209.551        2500.950          43.850          43.950



 105958962.650 8  82565433.63348  20163319.140                    20163318.640
       310.804         242.185          52.200          52.200    79125215.883 9
  20163320.560         232.146          57.250


 118923059.609 7  92667307.64747  22630306.180                    22630305.620
      2697.739        2102.136          47.350          45.750    88806182.561 8
  22630309.780        2014.576          50.600


 131035992.407 6 102105941.42446  24935339.040                    24935343.160
     -3213.097       -2503.721          39.300          39.100



 124357030.796 7  96901574.70547  23664367.300                    23664366.300
     -3330.697       -2595.354          43.900          42.850



 128262458.389 6  99944749.70746  24407539.360                    24407537.320
      3297.123        2569.184          41.750          36.750



 130974061.518 6 102057739.64646  24923530.380                    24923538.260
      1039.467         809.973          36.600          37.950    97805345.139 7
  24923539.200         776.362          42.000


 131532095.392 6 102492522.02846  25029735.460                    25029735.940
     -3244.659       -2528.310          40.900          41.250



 23 11  9  8 15  0.0000000  0 11G03G04G06G07G09G11G17G19G20G26G31
 122736849.828 7  95639102.95647  23356052.340                    23356054.720
     -3069.349       -2391.705          44.800          45.100    91654141.125 7
  23356056.180       -2292.205          47.100


 110293430.482 8  85942924.91247  20988141.060                    20988141.020
     -1879.532       -1464.572          49.750          47.900    82361980.805 8
  20988144.480       -1403.501          52.950


 108171065.957 8  84289142.36248  20584273.680                    20584274.520
       423.112         329.697          51.250          51.150    80777095.110 9
  20584276.080         315.886          55.250


 124295659.462 7  96853802.56147  23652666.780                    23652668.540
      3204.619        2497.106          43.850          43.700



 105949881.092 8  82558357.07848  20161590.980                    20161590.460
       294.999         229.869          51.900          51.950    79118434.190 9
  20161592.420         220.240          57.050


 118842310.960 7  92604386.60147  22614940.100                    22614939.860
      2685.743        2092.786          47.400          45.850    88745883.217 8
  22614943.800        2005.616          50.750


 131132376.145 6 102181045.43946  24953680.380                    24953684.380
     -3212.056       -2502.904          38.950          38.950



 124457052.062 7  96979513.16246  23683401.020                    23683400.020
     -3336.823       -2600.128          44.150          41.050



 128163559.728 6  99867685.75346  24388719.400                    24388717.900
      3296.712        2568.862          41.700          37.200



 130943116.771 6 102033626.78646  24917641.920                    24917649.460
      1023.796         797.760          36.950          36.400    97782236.972 6
  24917650.620         764.376          41.900


 131629591.140 6 102568492.64346  25048288.440                    25048288.560
     -3254.468       -2535.953          41.250          41.250



 23 11  9  8 15 30.0000000  0 11G03G04G06G07G09G11G17G19G20G26G31
 122829013.741 7  95710918.83247  23373590.640                    23373593.400
     -3074.587       -2395.789          44.700          44.700    91722964.654 7
  23373594.760       -2295.966          47.650


 110350001.126 8  85987005.88548  20998906.220                    20998906.220
     -1891.860       -1474.179          49.900          48.200    82404225.065 8
  20998909.600       -1412.693          53.150


 108158667.129 8  84279480.91748  20581914.160                    20581915.180
       403.600         314.492          50.950          50.950    80767836.220 9
  20581916.640         301.400          55.350


 124199603.875 7  96778954.15047  23634387.900                    23634389.760
      3199.210        2492.895          43.600          43.500



 105941276.363 8  82551652.08648  20159953.580                    20159953.140
       278.849         217.284          52.700          52.650    79112008.563 9
  20159954.920         208.257          57.150


 118761922.266 7  92541746.04447  22599642.660                    22599642.420
      2673.624        2083.343          47.750          45.350    88685852.679 8
  22599646.360        1996.501          51.100


 131228719.856 6 102256118.27746  24972014.060                    24972018.280
     -3210.988       -2502.075          39.200          38.500



 124557264.035 7  97057600.24246  23702471.080                    23702469.760
     -3343.653       -2605.449          43.800          40.100



 128064683.025 6  99790638.93145  24369903.720                    24369902.400
      3295.659        2568.046          41.750          34.850



 130912657.082 6 102009891.90945  24911845.660                    24911853.200
      1006.656         784.403          36.850          35.800    97759490.975 7
  24911854.720         752.123          42.600


 131727386.504 6 102644696.75946  25066898.460                    25066898.480
     -3264.784       -2543.990          40.550          41.350



 23 11  9  8 16  0.0000000  0 12G03G04G06G07G09G11G17G19G20G26G30G31
 122921332.841 7  95782855.62947  23391158.440                    23391161.600
     -3079.979       -2399.989          43.700          43.750    91791904.062 7
  23391162.940       -2299.937          47.950


 110406944.698 8  86031377.45548  21009742.340                    21009742.260
     -1904.246       -1483.829          49.750          48.650    82446747.814 8
  21009745.720       -1422.032          52.700


 108146855.068 8  84270276.69148  20579666.340                    20579667.560
       384.057         299.265          50.350          50.550    80759015.499 9
  20579668.940         286.728          55.350


 124103707.145 7  96704229.52847  23616139.300                    23616141.180
      3193.759        2488.646          44.250          44.350



 105933157.575 8  82545325.74548  20158408.680                    20158408.480
       262.614         204.635          52.350          52.400    79105945.816 9
  20158409.820         196.096          56.850


 118681905.585 7  92479395.36547  22584416.180                    22584415.720
      2660.984        2073.493          47.500          46.400    88626099.930 8
  22584419.660        1987.182          51.000


 131325030.178 6 102331165.07946  24990341.440                    24990345.560
     -3209.712       -2501.077          38.600          38.850



 124657672.862 7  97135840.69046  23721578.580                    23721576.820
     -3350.044       -2610.431          43.950          41.150



 127965838.671 7  99713617.31245  24351094.360                    24351093.180
      3294.434        2567.091          42.300          35.800



 130882693.453 5 101986543.57146  24906143.860                    24906151.600
       990.508         771.820          35.950          36.100    97737115.514 7
  24906153.220         739.703          42.550



                                                                 101924573.346 6
  25973239.540        2682.523          36.300


 131825487.979 6 102721139.35346  25085566.480                    25085566.820
     -3275.044       -2551.986          41.200          41.200



 23 11  9  8 16 30.0000000  0 12G03G04G06G07G09G11G17G19G20G26G30G31
 123013798.227 7  95854906.40547  23408753.860                    23408757.400
     -3084.763       -2403.718          44.250          44.100    91860952.700 8
  23408758.880       -2303.334          48.250


 110464251.246 8  86076031.86548  21020647.580                    21020647.320
     -1916.109       -1493.073          49.900          48.050    82489541.617 8
  21020650.680       -1430.915          52.200


 108135622.564 8  84261524.06548  20577528.860                    20577530.240
       364.726         284.201          50.800          50.800    80750627.553 9
  20577531.500         272.443          55.400


 124007963.649 7  96629624.32547  23597919.920                    23597921.740
      3189.129        2485.040          44.300          44.850



 105925516.167 8  82539371.39648  20156954.600                    20156954.620
       246.821         192.328          52.300          52.300    79100239.560 9
  20156955.520         184.346          56.850


 118602255.378 8  92417330.24847  22569259.440                    22569258.800
      2649.041        2064.188          48.200          45.550    88566620.855 8
  22569262.720        1978.114          51.150


 131421296.004 6 102406177.24346  25008660.500                    25008664.680
     -3208.107       -2499.828          38.100          37.400



 124758267.008 7  97214225.55246  23740721.160                    23740719.460
     -3355.979       -2615.056          43.050          41.850



 127867020.113 7  99636615.78845  24332290.040                    24332288.840
      3293.609        2566.446          42.250          35.800



 130853219.704 6 101963576.95046  24900535.260                    24900543.240
       974.649         759.466          37.650          37.250    97715105.826 7
  24900544.960         727.764          42.500



                                                                 101844056.461 4
  25952721.560        2685.561          29.200


 131923884.493 6 102797811.90146  25104290.740                    25104291.380
     -3284.847       -2559.623          39.500          39.350



 23 11  9  8 17  0.0000000  0 12G03G04G06G07G09G11G17G19G20G26G30G31
 123106412.720 7  95927073.38747  23426377.920                    23426381.580
     -3089.507       -2407.413          44.800          44.850    91930112.688 8
  23426383.260       -2306.981          48.250


 110521922.604 8  86120970.54947  21031622.220                    21031621.740
     -1928.184       -1502.481          49.700          47.600    82532607.848 8
  21031624.880       -1439.829          51.850


 108124974.115 8  84253226.55448  20575502.620                    20575504.060
       345.351         269.104          51.350          51.450    80742675.760 9
  20575505.240         257.996          55.300


 123912379.441 7  96555143.27547  23579730.880                    23579732.560
      3183.561        2480.702          44.750          45.000



 105918355.346 8  82533791.52148  20155591.920                    20155592.040
       230.850         179.882          52.100          52.100    79094892.180 9
  20155592.760         172.476          56.700


 118522977.805 8  92355555.49547  22554173.620                    22554172.880
      2636.581        2054.478          49.050          44.700    88507420.033 8
  22554176.720        1968.939          51.150


 131517518.452 6 102481155.58546  25026971.120                    25026975.480
     -3206.260       -2498.391          37.600          37.350



 124859046.444 7  97292754.78246  23759898.900                    23759897.820
     -3362.057       -2619.789          42.300          41.750



 127768232.015 7  99559637.99445  24313491.500                    24313489.980
      3292.646        2565.695          42.450          33.950



 130824241.032 6 101940996.09346  24895021.120                    24895028.700
       957.833         746.358          38.950          39.100    97693465.830 7
  24895030.860         715.307          42.350


 136274474.349 6 106187945.24146  25932172.600                    25932180.800
      3599.104        2804.507          39.750          38.950   101763468.945 6
  25932185.540        2687.542          38.150


 132022576.928 6 102874714.99346  25123071.300                    25123072.200
     -3294.387       -2567.059          39.550          38.750



 23 11  9  8 17 30.0000000  0 12G03G04G06G07G09G11G17G19G20G26G30G31
 123199175.833 7  95999356.19147  23444030.300                    23444033.940
     -3094.438       -2411.255          44.750          44.800    91999383.666 7
  23444035.800       -2310.819          47.850


 110579957.308 8  86166192.35747  21042665.860                    21042665.160
     -1940.469       -1512.055          49.850          47.250    82575945.412 8
  21042668.440       -1449.062          51.600


 108114910.929 8  84245385.08448  20573587.780                    20573589.140
       325.745         253.827          51.750          51.750    80735161.018 9
  20573590.440         243.218          55.300


 123816957.301 7  96480788.55547  23561572.620                    23561574.140
      3178.143        2476.481          45.750          45.450



 105911674.987 8  82528586.03448  20154320.600                    20154320.780
       214.675         167.279          52.050          52.000    79089903.590 9
  20154321.580         160.333          56.650


 118444075.723 8  92294073.33547  22539159.200                    22539158.420
      2623.837        2044.548          49.350          45.100    88448499.627 8
  22539162.280        1959.309          51.400


 131613695.462 6 102556098.51046  25045273.000                    25045277.540
     -3205.324       -2497.662          38.950          39.350



 124960008.453 6  97371426.29546  23779111.280                    23779110.420
     -3368.010       -2624.433          41.550          40.700



 127669475.896 6  99482685.13645  24294698.960                    24294697.040
      3291.259        2564.613          41.950          35.250



 130795759.378 6 101918802.57246  24889601.540                    24889608.400
       941.258         733.445          39.750          39.750    97672197.054 6
  24889611.300         702.743          41.900


 136166463.151 6 106103781.00846  25911618.620                    25911626.340
      3601.888        2806.679          38.700          38.450   101682811.631 6
  25911631.240        2689.771          39.850


 132121563.215 6 102951847.13646  25141907.800                    25141908.880
     -3304.784       -2575.158          39.500          39.700



 23 11  9  8 18  0.0000000  0 12G03G04G06G07G09G11G17G19G20G26G30G31
 123292086.350 7  96071753.86147  23461710.700                    23461714.420
     -3099.608       -2415.282          43.800          43.700    92068764.739 7
  23461716.200       -2314.703          47.550


 110638352.954 8  86211695.42947  21053778.200                    21053777.220
     -1952.676       -1521.567          49.400          47.150    82619552.521 8
  21053780.820       -1458.205          51.700


 108105433.486 8  84238000.03948  20571784.340                    20571785.560
       306.074         238.498          51.550          51.650    80728083.681 9
  20571787.040         228.531          55.300


 123721699.270 7  96406561.71747  23543445.580                    23543447.060
      3172.274        2471.909          45.200          45.750



 105905474.103 8  82523754.16248  20153140.540                    20153140.700
       198.547         154.712          51.650          51.450    79085273.054 9
  20153141.780         148.234          56.750


 118365551.152 8  92232885.33947  22524216.440                    22524215.800
      2611.073        2034.602          48.900          45.050    88389861.127 8
  22524219.780        1949.764          51.750


 131709823.900 6 102631003.65946  25063565.980                    25063570.440
     -3203.754       -2496.435          40.150          39.800



 125061149.233 6  97450237.12546  23798357.520                    23798357.040
     -3374.423       -2629.429          41.100          40.750



 127570752.015 6  99405757.40145  24275912.560                    24275910.200
      3290.283        2563.856          41.100          35.250



 130767775.941 6 101896997.28046  24884276.660                    24884282.820
       924.160         720.126          39.750          39.250    97651300.336 6
  24884286.120         690.155          41.100


 136058359.365 6 106019544.71346  25891046.880                    25891054.900
      3604.454        2808.674          37.050          36.650   101602085.249 6
  25891059.380        2691.902          38.800


 132220839.395 6 103029205.03946  25160799.380                    25160800.740
     -3313.939       -2582.295          38.750          38.550



 23 11  9  8 18 30.0000000  0 12G03G04G06G07G09G11G17G19G20G26G30G31
 123385140.056 7  96144263.07747  23479418.180                    23479422.360
     -3104.160       -2418.832          42.100          42.850    92138252.696 7
  23479423.940       -2318.061          47.500


 110697104.393 8  86257475.73047  21064958.140                    21064957.160
     -1964.271       -1530.602          49.050          47.200    82663425.312 8
  21064960.900       -1466.891          51.950


 108096538.913 8  84231069.16448  20570091.820                    20570092.840
       286.739         223.432          51.750          51.850    80721441.584 9
  20570094.500         214.096          55.400


 123626604.296 7  96332461.96847  23525349.480                    23525350.940
      3166.972        2467.779          45.000          44.900



 105899748.776 8  82519292.86248  20152050.980                    20152051.140
       182.964         142.569          52.200          52.200    79080997.642 9
  20152052.440         136.555          56.850


 118287403.207 8  92171990.82447  22509345.360                    22509344.820
      2598.617        2024.896          49.050          44.200    88331503.874 8
  22509348.940        1940.548          52.150


 131805897.404 6 102705865.93946  25081848.500                    25081852.980
     -3201.414       -2494.612          41.050          41.000



 125162462.003 6  97529181.95446  23817636.580                    23817636.560
     -3379.792       -2633.611          41.200          40.600



 127472058.499 6  99328853.34946  24257131.560                    24257129.120
      3289.477        2563.225          41.650          37.250



 130740288.874 6 101875578.79846  24879046.340                    24879052.020
       908.219         707.703          39.750          39.250    97630774.320 6
  24879055.100         678.000          41.100


 135950162.113 6 105935235.33646  25870457.080                    25870465.080
      3608.153        2811.556          37.850          38.250   101521288.817 6
  25870469.620        2694.337          39.500


 132320399.408 6 103106784.16946  25179744.940                    25179746.520
     -3323.440       -2589.704          39.500          39.850



 23 11  9  8 19  0.0000000  0 12G03G04G06G07G09G11G17G19G20G26G30G31
 123478345.034 6  96216890.14846  23497154.260                    23497158.980
     -3108.537       -2422.243          41.650          41.650    92207853.629 7
  23497160.560       -2321.368          47.900


 110756218.641 8  86303538.73647  21076206.940                    21076206.260
     -1975.650       -1539.469          48.550          47.800    82707569.024 8
  21076210.300       -1475.428          52.600


 108088237.073 8  84224600.16348  20568512.060                    20568512.980
       267.543         208.474          51.350          51.400    80715242.125 9
  20568514.640         199.780          55.350


 123531683.757 7  96258498.15647  23507286.540                    23507287.940
      3161.945        2463.862          44.800          45.550



 105894507.435 8  82515208.68648  20151053.540                    20151053.780
       167.482         130.504          52.250          52.300    79077083.640 9
  20151055.100         125.040          56.950


 118209643.280 7  92111398.66047  22494548.020                    22494547.520
      2586.316        2015.311          47.900          44.900    88273436.391 8
  22494552.000        1931.249          52.550


 131901922.470 6 102780690.49046  25100121.700                    25100126.300
     -3199.614       -2493.211          38.950          39.700



 125263952.256 6  97608265.07946  23836949.300                    23836949.740
     -3385.192       -2637.818          40.800          40.550



 127373405.282 7  99251980.71045  24238358.360                    24238355.640
      3288.234        2562.258          42.200          34.800



 130713308.723 6 101854555.40046  24873912.220                    24873918.240
       891.555         694.724          38.400          37.350    97610626.878 6
  24873920.660         665.804          41.950


 135841882.191 5 105850861.60445  25849851.800                    25849859.520
      3611.250        2813.978          34.900          34.950   101440430.711 5
  25849864.100        2696.943          35.850


 132420249.173 6 103184589.13646  25198745.800                    25198747.320
     -3332.338       -2596.622          38.650          38.000



 23 11  9  8 19 30.0000000  0 12G03G04G06G07G09G11G17G19G20G26G30G31
 123571691.093 7  96289627.15147  23514917.340                    23514922.400
     -3114.024       -2426.519          42.200          42.050    92277559.876 7
  23514923.900       -2325.466          47.750


 110815684.454 8  86349875.68247  21087522.720                    21087522.260
     -1988.186       -1549.237          49.000          46.950    82751975.254 8
  21087526.840       -1484.745          53.050


 108080519.268 8  84218586.26348  20567043.460                    20567044.340
       247.355         192.744          51.800          51.800    80709478.798 9
  20567045.880         184.688          55.300


 123436930.533 7  96184664.72447  23489255.280                    23489256.880
      3155.292        2458.678          45.650          45.700



 105889740.162 8  82511493.91548  20150146.400                    20150146.600
       150.792         117.500          52.300          52.350    79073523.637 9
  20150147.960         112.598          57.000


 118132264.496 8  92051103.49147  22479823.140                    22479822.720
      2572.775        2004.760          48.200          44.550    88215653.515 8
  22479827.520        1921.200          52.700


 131997886.885 6 102855467.81146  25118383.360                    25118388.040
     -3198.202       -2492.107          40.550          40.250



 125365607.068 7  97687476.43946  23856293.720                    23856294.240
     -3391.462       -2642.706          42.000          39.950



 127274783.950 6  99175132.88846  24219591.120                    24219588.560
      3286.577        2560.967          41.850          37.250



 130686827.611 6 101833920.90746  24868872.980                    24868879.440
       874.267         681.252          39.700          39.500    97590852.161 7
  24868881.420         652.746          42.800


 135733512.466 6 105766417.85345  25829229.380                    25829237.320
      3612.941        2815.283          36.000          34.500   101359505.449 6
  25829241.480        2698.546          38.800


 132520376.661 6 103262610.40446  25217799.420                    25217801.200
     -3342.221       -2604.331          39.600          40.050



 23 11  9  8 20  0.0000000  0 12G03G04G06G07G09G11G17G19G20G26G30G31
 123665179.850 7  96362475.36947  23532707.840                    23532712.880
     -3118.719       -2430.176          43.150          43.300    92347372.692 7
  23532714.360       -2328.934          47.700


 110875502.429 8  86396487.05247  21098905.760                    21098905.380
     -2000.044       -1558.478          49.500          47.350    82796644.467 8
  21098910.360       -1493.500          53.600


 108073388.711 8  84213029.95348  20565686.620                    20565687.500
       227.758         177.473          51.900          52.050    80704153.994 9
  20565688.860         170.025          55.550


 123342349.942 7  96110965.80447  23471256.940                    23471258.620
      3149.592        2454.235          44.950          44.750



 105885448.836 8  82508150.00548  20149329.840                    20149329.940
       135.027         105.215          52.300          52.250    79070319.061 9
  20149331.360         100.746          57.250


 118055271.802 8  91991109.16247  22465171.800                    22465171.340
      2559.863        1994.698          48.250          44.150    88158158.961 8
  22465176.400        1911.516          52.850


 132093790.720 6 102930197.95546  25136633.400                    25136638.080
     -3195.837       -2490.265          38.350          38.500



 125467425.540 7  97766815.35446  23875669.440                    23875669.500
     -3396.840       -2646.894          43.250          40.250



 127176198.539 7  99098313.05446  24200831.060                    24200828.480
      3285.367        2560.028          42.600          36.000



 130660849.504 6 101813678.39846  24863929.340                    24863936.120
       857.122         667.893          39.000          39.650    97571453.092 7
  24863937.660         640.112          42.650


 135625057.347 6 105681907.55946  25808590.820                    25808599.220
      3616.485        2818.048          37.200          37.650   101278516.470 6
  25808602.700        2700.659          38.700


 132620781.282 6 103340847.71946  25236906.000                    25236907.660
     -3351.376       -2611.462          37.900          38.100



 23 11  9  8 20 30.0000000  0 12G03G04G06G07G09G11G17G19G20G26G30G31
 123758812.491 7  96435435.70247  23550525.800                    23550530.700
     -3123.680       -2434.042          42.800          42.350    92417292.983 7
  23550532.020       -2332.599          47.200


 110935672.716 8  86443372.95547  21110355.980                    21110355.520
     -2011.799       -1567.637          49.900          47.050    82841576.784 8
  21110360.800       -1502.237          53.750


 108066848.159 8  84207933.39548  20564442.080                    20564443.040
       207.892         161.992          51.800          51.800    80699269.777 9
  20564444.240         155.316          55.450


 123247945.739 7  96037404.34847  23453292.160                    23453294.080
      3143.675        2449.626          45.350          45.050



 105881634.952 8  82505178.13148  20148604.180                    20148604.120
       119.024          92.745          52.100          51.950    79067471.007 9
  20148605.620          88.850          57.150


 117978669.739 8  91931419.23047  22450594.760                    22450594.300
      2546.691        1984.435          48.050          43.850    88100956.115 8
  22450599.540        1901.713          52.700


 132189633.142 6 103004880.20946  25154871.680                    25154875.840
     -3193.937       -2488.783          36.850          36.300



 125569406.463 6  97846280.81046  23895076.020                    23895075.840
     -3402.274       -2651.130          41.850          39.700



 127077651.983 6  99021523.49846  24182078.260                    24182076.060
      3284.141        2559.070          41.650          36.400



 130635377.821 6 101793830.50746  24859081.880                    24859088.980
       840.336         654.813          39.350          39.550    97552432.254 7
  24859090.260         627.604          42.600


 135516521.021 6 105597333.95246  25787936.940                    25787945.460
      3618.792        2819.842          39.700          40.200   101197466.821 6
  25787948.760        2702.517          41.900


 132721462.301 6 103419300.27646  25256064.940                    25256066.540
     -3360.747       -2618.770          38.500          38.400



 23 11  9  8 21  0.0000000  0 12G03G04G06G07G09G11G17G19G20G26G30G31
 123852586.460 7  96508506.14747  23568370.520                    23568375.480
     -3128.343       -2437.676          42.750          43.400    92487318.787 7
  23568376.480       -2336.019          46.400


 110996191.667 8  86490530.54547  21121872.520                    21121871.960
     -2023.294       -1576.594          50.000          46.550    82886769.458 8
  21121877.460       -1510.843          53.650


 108060896.490 8  84203295.70448  20563309.560                    20563310.680
       188.283         146.713          52.150          52.100    80694825.313 9
  20563311.760         140.687          55.550


 123153718.699 7  95963980.91047  23435361.280                    23435363.080
      3137.753        2445.011          45.950          45.750



 105878296.129 8  82502576.42848  20147968.880                    20147968.620
       103.092          80.331          52.250          52.450    79064977.706 9
  20147970.280          77.075          57.050


 117902458.955 8  91872034.17947  22436092.220                    22436091.740
      2533.511        1974.164          48.000          44.800    88044045.441 8
  22436097.100        1892.039          52.550


 132285410.034 6 103079511.46346  25173097.560                    25173101.440
     -3191.386       -2486.797          39.600          39.850



 125671544.181 7  97925868.48146  23914512.660                    23914512.360
     -3407.434       -2655.149          43.150          41.500



 126979143.435 7  98944763.54546  24163332.760                    24163330.720
      3283.076        2558.234          42.550          38.750



 130610412.325 6 101774377.06046  24854330.940                    24854337.880
       823.414         641.628          39.400          39.300    97533789.406 7
  24854339.100         614.899          42.250


 135407903.592 6 105512697.15846  25767267.520                    25767276.260
      3621.632        2822.058          39.250          39.950   101116356.580 6
  25767279.600        2704.690          41.850


 132822415.287 6 103497964.89146  25275275.800                    25275277.180
     -3369.501       -2625.585          38.750          38.300



 23 11  9  8 21 30.0000000  0 12G03G04G06G07G09G11G17G19G20G26G30G31
 123946500.885 7  96581686.02147  23586242.080                    23586247.020
     -3133.068       -2441.358          42.500          42.750    92557449.462 7
  23586247.680       -2339.520          45.650


 111057057.411 8  86537958.34847  21133454.960                    21133454.400
     -2034.873       -1585.617          49.400          46.550    82932221.103 8
  21133459.920       -1519.559          53.600


 108055534.286 8  84199117.33748  20562289.200                    20562290.520
       168.508         131.304          51.850          52.100    80690821.042 9
  20562291.580         125.911          55.850


 123059671.434 7  95890697.54547  23417464.540                    23417466.340
      3131.554        2440.180          45.700          45.750



 105875431.738 8  82500344.41648  20147423.860                    20147423.380
        87.207          67.953          52.150          52.200    79062838.687 9
  20147425.240          65.199          57.250


 117826641.886 7  91812955.93147  22421664.640                    22421664.180
      2520.175        1963.772          47.350          44.900    87987428.789 8
  22421669.580        1882.078          52.550


 132381118.623 5 103154089.54545  25191310.520                    25191313.920
     -3188.843       -2484.812          35.200          35.500



 125773835.964 7  98005576.17546  23933978.580                    23933977.900
     -3412.539       -2659.130          43.150          40.150



 126880674.454 6  98868034.47346  24144594.920                    24144593.000
      3281.270        2556.834          41.350          38.100



 130585954.305 6 101755319.08046  24849676.300                    24849683.420
       806.498         628.449          37.100          37.900    97515525.559 7
  24849684.640         602.259          42.450


 135299207.085 6 105427998.72746  25746583.120                    25746592.060
      3624.289        2824.127          38.950          39.600   101035187.293 6
  25746595.220        2706.406          40.850


 132923636.685 6 103576838.54746  25294537.900                    25294539.500
     -3378.616       -2632.689          39.350          38.800



 23 11  9  8 22  0.0000000  0 12G03G04G06G07G09G11G17G19G20G26G30G31
 124040556.364 7  96654975.81847  23604140.540                    23604145.420
     -3137.543       -2444.845          42.650          43.000    92627685.494 7
  23604145.740       -2342.962          44.950


 111118269.533 8  86585656.06647  21145103.300                    21145102.740
     -2046.264       -1594.493          49.300          46.350    82977931.401 8
  21145108.120       -1528.027          53.100


 108050763.678 8  84195399.95648  20561381.400                    20561382.840
       149.103         116.183          51.850          51.800    80687258.546 9
  20561384.020         111.354          55.800


 122965807.935 7  95817557.35747  23399602.800                    23399604.520
      3125.675        2435.598          45.900          45.850



 105873042.654 8  82498482.77848  20146969.320                    20146968.700
        71.627          55.813          52.300          52.250    79061054.615 9
  20146970.660          53.526          57.000


 117751222.468 7  91754187.54747  22407312.740                    22407312.360
      2507.228        1953.684          47.400          45.550    87931109.088 8
  22407317.760        1872.351          52.150


 132476758.180 6 103228613.73446  25209510.300                    25209513.920
     -3187.127       -2483.483          38.850          38.250



 125876279.491 7  98085402.11246  23953473.340                    23953472.560
     -3417.444       -2662.952          43.750          39.700



 126782247.582 7  98791338.16646  24125865.120                    24125863.220
      3279.989        2555.836          42.400          39.800



 130562006.730 6 101736658.83445  24845118.780                    24845126.080
       789.709         615.364          36.000          35.800    97497642.875 6
  24845127.360         589.671          41.650


 135190435.101 6 105343241.41446  25725884.360                    25725892.260
      3626.869        2826.138          38.400          37.600   100953961.577 6
  25725896.240        2708.452          39.350


 133025125.438 6 103655920.61946  25313850.800                    25313852.620
     -3387.475       -2639.593          39.350          39.800



 23 11  9  8 22 30.0000000  0 12G03G04G06G07G09G11G17G19G20G26G30G31
 124134753.143 7  96728375.72547  23622065.840                    23622070.740
     -3142.161       -2448.442          42.100          42.250    92698027.050 7
  23622070.720       -2346.424          44.700


 111179827.132 8  86633622.98547  21156817.360                    21156816.720
     -2057.595       -1603.321          49.050          46.150    83023899.684 8
  21156821.920       -1536.490          52.900


 108046586.301 8  84192144.82548  20560586.520                    20560587.960
       129.435         100.857          52.000          52.000    80684139.038 9
  20560589.260          96.618          55.850


 122872131.234 7  95744562.69347  23381776.580                    23381778.040
      3119.493        2430.778          45.800          46.150



 105871129.283 8  82496991.81948  20146605.280                    20146604.640
        55.965          43.608          52.150          52.150    79059625.781 9
  20146606.560          41.783          56.950


 117676204.181 7  91695731.74147  22393037.260                    22393036.860
      2493.972        1943.354          47.650          46.100    87875088.938 8
  22393042.400        1862.371          52.150


 132572326.376 6 103303082.35246  25227696.380                    25227699.760
     -3184.276       -2481.261          39.050          40.400



 125978872.224 7  98165344.29246  23972996.320                    23972995.440
     -3422.159       -2666.626          43.700          40.400



 126683865.020 6  98714676.38546  24107143.620                    24107141.880
      3278.713        2554.843          41.600          38.150



 130538572.017 5 101718398.22245  24840658.700                    24840666.740
       772.563         602.004          35.800          35.300    97480143.127 6
  24840667.560         576.986          41.500


 135081590.628 6 105258427.63746  25705171.780                    25705179.300
      3629.488        2828.176          39.000          38.650   100872681.767 6
  25705183.420        2710.374          40.050


 133126879.804 6 103735209.53446  25333214.200                    25333216.000
     -3396.349       -2646.513          38.100          38.150



 23 11  9  8 23  0.0000000  0 13G03G04G06G07G09G11G16G17G19G20G26G30
                                G31
 124229086.124 6  96801881.76246  23640016.860                    23640021.820
     -3146.702       -2451.982          41.750          41.900    92768470.297 7
  23640021.700       -2349.705          44.500


 111241724.085 8  86681854.33247  21168595.900                    21168595.140
     -2068.788       -1612.044          48.600          45.950    83070121.386 8
  21168600.260       -1544.914          53.000


 108042998.470 8  84189349.08948  20559903.780                    20559905.240
       109.784          85.545          51.950          52.250    80681459.779 9
  20559906.700          81.955          56.050


 122778639.539 7  95671712.18347  23363985.620                    23363986.980
      3113.177        2425.857          45.750          46.500



 105869686.736 8  82495867.74048  20146330.800                    20146330.160
        40.111          31.256          52.550          52.750    79058548.531 9
  20146332.000          30.009          57.100


 117601585.249 7  91637587.12147  22378837.780                    22378837.340
      2480.593        1932.931          47.200          46.500    87819366.993 8
  22378843.040        1852.392          52.250


 134124953.416 6 104512975.00746  25523130.560                    25523135.680
      2460.467        1917.257          40.200          37.800



 132667816.810 6 103377490.36646  25245867.700                    25245871.020
     -3181.112       -2478.791          37.100          36.250



 126081606.707 7  98245396.97446  23992546.280                    23992545.080
     -3426.605       -2670.089          43.050          39.750



 126585523.595 6  98638046.61946  24088429.960                    24088428.200
      3277.164        2553.630          41.700          39.600



 130515647.269 6 101700534.95046  24836296.180                    24836304.040
       755.433         588.655          37.200          37.650    97463024.199 7
  24836305.020         564.135          42.500


 134972671.460 6 105173555.66946  25684445.040                    25684452.480
      3631.712        2829.909          37.300          37.050   100791346.129 6
  25684456.220        2712.090          39.950


 133228892.562 6 103814699.92446  25352626.600                    25352628.240
     -3404.682       -2652.995          40.100          39.600



 23 11  9  8 23 30.0000000  0 13G03G04G06G07G09G11G16G17G19G20G26G30
                                G31
 124323562.687 6  96875499.67447  23657995.100                    23658000.180
     -3151.779       -2455.937          41.950          42.200    92839020.758 7
  23657999.820       -2353.475          44.050


 111303966.758 8  86730355.07847  21180440.160                    21180439.280
     -2080.486       -1621.159          48.700          46.250    83116601.243 8
  21180444.560       -1553.568          53.050


 108040008.962 8  84187019.57348  20559334.900                    20559336.260
        89.751          69.935          51.900          51.850    80679227.320 9
  20559337.900          67.031          55.950


 122685343.644 7  95599014.19447  23346231.840                    23346232.820
      3106.669        2420.785          45.950          45.650



 105868722.597 8  82495116.44148  20146147.320                    20146146.700
        24.226          18.876          51.950          52.050    79057828.538 9
  20146148.520          18.094          57.150


 117527376.276 7  91579761.95347  22364716.400                    22364715.800
      2466.833        1922.208          47.900          45.350    87763951.204 8
  22364721.720        1842.106          52.150


 134051296.309 6 104455574.28545  25509113.780                    25509122.220
      2450.354        1909.367          36.300          32.450



 132763235.146 5 103451842.19545  25264025.100                    25264028.440
     -3179.402       -2477.459          35.650          35.050



 126184488.002 7  98325563.98846  24012124.000                    24012123.020
     -3431.976       -2674.273          42.350          41.500



 126487232.841 6  98561456.35546  24069725.840                    24069723.940
      3275.619        2552.428          41.850          37.600



 130493241.963 6 101683076.44246  24832032.540                    24832040.200
       738.135         575.176          38.550          38.350    97446293.162 7
  24832041.460         551.299          43.000


 134863687.905 6 105088633.49246  25663706.240                    25663713.300
      3634.072        2831.746          36.400          36.300   100709962.429 6
  25663716.880        2713.486          40.600


 133331168.992 6 103894395.74346  25372089.100                    25372090.940
     -3413.314       -2659.729          38.600          37.550



 23 11  9  8 24  0.0000000  0 13G03G04G06G07G09G11G16G17G19G20G26G30
                                G31
 124418173.115 7  96949221.90247  23675998.920                    23676004.100
     -3155.859       -2459.117          42.900          43.050    92909671.209 7
  23676003.400       -2356.704          44.500


 111366544.412 8  86779116.83547  21192348.200                    21192347.420
     -2091.562       -1629.791          48.350          46.950    83163331.243 8
  21192352.700       -1561.884          53.300


 108037609.473 8  84185149.81948  20558878.300                    20558879.540
        70.074          54.603          51.850          51.900    80677435.469 9
  20558881.280          52.301          56.150


 122592236.870 7  95526463.57447  23328514.040                    23328514.960
      3100.315        2415.835          45.300          45.100



 105868227.355 8  82494730.52148  20146052.980                    20146052.580
         8.649           6.739          51.550          51.450    79057458.691 9
  20146054.340           6.384          57.400


 117453570.888 7  91522251.25947  22350671.820                    22350671.080
      2453.434        1911.767          47.750          45.800    87708836.781 8
  22350677.140        1832.036          52.500


 133977941.626 5 104398415.00345  25495154.660                    25495161.180
      2440.159        1901.427          34.450          32.850



 132858569.745 6 103526128.68046  25282166.640                    25282170.380
     -3176.546       -2475.238          37.000          36.550



 126287503.678 7  98405835.74546  24031727.240                    24031726.180
     -3436.199       -2677.564          42.350          40.700



 126388985.043 7  98484899.55946  24051029.820                    24051028.060
      3274.103        2551.244          42.400          38.200



 130471348.637 6 101666016.86446  24827866.520                    24827873.920
       721.331         562.081          39.000          39.500    97429944.450 7
  24827875.200         538.415          43.350


 134754633.517 6 105003656.06146  25642953.780                    25642961.100
      3635.966        2833.221          38.300          39.000   100628525.699 6
  25642964.420        2715.208          41.200


 133433697.469 6 103974287.94046  25391599.760                    25391601.460
     -3421.521       -2666.125          38.550          37.950



 23 11  9  8 24 30.0000000  0 13G03G04G06G07G09G11G16G17G19G20G26G30
                                G31
 124512916.334 7  97023047.61447  23694028.100                    23694033.280
     -3161.030       -2463.146          43.150          42.850    92980420.817 7
  23694032.640       -2360.397          45.200


 111429454.896 8  86828137.92547  21204319.660                    21204319.140
     -2103.187       -1638.849          48.850          46.350    83210309.780 8
  21204324.180       -1570.499          53.150


 108035800.285 8  84183740.03648  20558534.080                    20558535.120
        49.770          38.781          51.750          51.850    80676084.415 9
  20558537.080          37.253          56.150


 122499321.421 7  95454062.00547  23310832.800                    23310833.280
      3093.393        2410.438          46.250          46.250



 105868200.123 8  82494709.27548  20146047.720                    20146047.660
        -7.519          -5.859          51.850          51.750    79057438.324 9
  20146049.240          -5.600          57.350


 117380171.266 7  91465056.73647  22336704.420                    22336703.500
      2439.122        1900.613          47.950          45.650    87654025.350 8
  22336709.740        1821.570          52.450


 133904891.830 5 104341493.42845  25481253.360                    25481257.640
      2429.217        1892.920          35.250          33.900



 132953818.088 6 103600348.06046  25300291.900                    25300295.980
     -3174.081       -2473.311          37.400          37.350



 126390650.345 7  98486209.55646  24051355.420                    24051354.160
     -3441.108       -2681.389          42.500          40.750



 126290781.265 7  98408377.08646  24032342.380                    24032340.600
      3272.279        2549.828          42.350          39.800



 130449968.406 6 101649357.09246  24823798.120                    24823805.380
       703.314         548.042          39.650          39.100    97413978.851 7
  24823806.840         525.298          43.000


 134645509.770 6 104918624.51746  25622188.220                    25622195.600
      3637.903        2834.729          39.650          39.800   100547037.102 6
  25622198.640        2716.709          41.800


 133536475.056 6 104054374.19546  25411157.520                    25411159.240
     -3430.447       -2673.083          37.300          38.250



 23 11  9  8 25  0.0000000  0 12G03G04G06G07G09G11G17G19G20G26G30G31
 124607797.113 7  97096980.49947  23712083.480                    23712088.540
     -3165.002       -2466.241          42.600          42.650    93051273.125 7
  23712088.380       -2363.512          46.200


 111492701.922 8  86877421.25747  21216355.260                    21216354.860
     -2113.975       -1647.255          48.450          46.850    83257539.624 8
  21216359.660       -1578.595          53.250


 108034587.447 8  84182794.94448  20558303.360                    20558304.320
        30.368          23.663          51.450          51.350    80675178.702 9
  20558306.360          22.664          56.300


 122406605.556 7  95381815.94247  23293189.440                    23293189.840
      3086.974        2405.436          45.950          45.850



 105868645.763 8  82495056.50948  20146132.500                    20146132.740
       -22.935         -17.871          51.950          52.000    79057771.084 9
  20146134.120         -17.071          57.450


 117307185.393 8  91408184.62547  22322815.760                    22322814.660
      2425.820        1890.250          48.000          45.100    87599522.909 8
  22322821.000        1811.503          52.700


 133048983.730 6 103674502.84746  25318401.420                    25318405.560
     -3171.054       -2470.958          36.700          36.850



 126493929.803 6  98566686.85946  24071008.940                    24071007.160
     -3444.941       -2684.374          41.200          40.000



 126192628.125 7  98331894.05046  24013664.700                    24013662.700
      3270.935        2548.778          43.050          37.550



 130429108.031 6 101633102.37746  24819828.300                    24819835.860
       686.450         534.899          37.550          36.850    97398401.478 7
  24819837.120         512.629          42.800


 134536324.532 6 104833544.95746  25601411.280                    25601418.500
      3640.628        2836.847          39.000          39.500   100465502.489 6
  25601421.500        2718.485          41.550


 133639504.417 6 104134656.73446  25430763.760                    25430765.120
     -3438.514       -2679.364          40.350          40.700



 23 11  9  8 25 30.0000000  0 12G03G04G06G07G09G11G17G19G20G26G30G31
 124702811.242 6  97171017.31447  23730164.140                    23730169.020
     -3169.315       -2469.601          41.550          42.100    93122225.026 7
  23730169.520       -2366.982          46.600


 111556280.310 8  86926962.79147  21228453.940                    21228453.620
     -2124.886       -1655.758          48.650          46.500    83305016.913 8
  21228458.100       -1586.872          53.100


 108033968.101 8  84182312.31948  20558185.600                    20558186.560
        10.645           8.294          51.800          51.800    80674716.182 9
  20558188.660           7.830          56.200


 122314087.913 7  95309724.34047  23275583.860                    23275584.200
      3080.364        2400.286          45.250          45.550



 105869560.287 8  82495769.09848  20146306.540                    20146306.900
       -38.449         -29.962          51.700          51.800    79058453.989 9
  20146308.220         -28.812          57.400


 117234612.388 8  91351634.22047  22309005.620                    22309004.340
      2411.990        1879.473          48.050          44.300    87545328.777 8
  22309010.800        1801.087          52.750


 133144060.551 6 103748588.39746  25336494.060                    25336498.340
     -3168.019       -2468.600          37.550          36.850



 126597335.617 7  98647262.59346  24090686.280                    24090684.420
     -3449.280       -2687.756          43.000          39.350



 126094523.665 7  98255448.94946  23994996.260                    23994994.060
      3269.187        2547.414          42.450          38.900



 130408765.576 6 101617251.25746  24815957.060                    24815964.840
       669.153         521.424          38.250          37.950    97383210.831 6
  24815965.500         499.570          41.800


 134427076.614 6 104748416.62346  25580622.180                    25580629.640
      3642.554        2838.353          40.150          40.000   100383921.138 7
  25580632.580        2719.856          43.650


 133742778.999 6 104215130.31646  25450416.460                    25450417.720
     -3447.047       -2686.015          37.900          37.500



 23 11  9  8 26  0.0000000  0 12G03G04G06G07G09G11G17G19G20G26G30G31
 124797963.825 7  97245162.00847  23748271.140                    23748276.100
     -3174.082       -2473.315          42.000          42.400    93193280.277 7
  23748276.940       -2370.191          46.900


 111620193.967 8  86976765.58347  21240616.460                    21240616.260
     -2136.055       -1664.460          49.350          46.950    83352744.568 8
  21240620.420       -1595.006          53.050


 108033948.547 8  84182297.06048  20558182.020                    20558182.940
        -9.251          -7.209          52.450          52.400    80674701.547 9
  20558184.980          -6.874          56.050


 122221776.804 7  95237793.64247  23258017.620                    23258017.700
      3073.682        2395.077          46.400          46.200



 105870948.840 8  82496851.05548  20146570.700                    20146571.100
       -54.105         -42.161          51.350          51.400    79059490.853 9
  20146572.480         -40.382          57.350


 117162460.491 8  91295411.94047  22295275.680                    22295274.080
      2398.062        1868.617          48.900          44.050    87491449.094 8
  22295280.680        1790.806          52.750


 133239051.536 6 103822607.18146  25354570.320                    25354574.580
     -3165.018       -2466.254          38.250          38.000



 126700869.732 7  98727938.27346  24110388.420                    24110386.740
     -3453.093       -2690.727          43.450          36.800



 125996474.980 7  98179047.33546  23976338.440                    23976336.240
      3267.454        2546.067          43.950          38.300



 130388948.101 6 101601809.17146  24812185.940                    24812193.640
       651.622         507.762          39.100          38.550    97368412.158 6
  24812193.400         486.779          41.650


 134317774.323 6 104663245.92546  25559822.800                    25559830.380
      3644.345        2839.746          41.150          41.600   100302299.216 7
  25559833.520        2721.474          43.650


 133846301.768 6 104295797.25346  25470116.300                    25470117.880
     -3455.088       -2692.277          38.800          38.900



 23 11  9  8 26 30.0000000  0 13G03G04G06G07G09G11G16G17G19G20G26G30
                                G31
 124893247.844 6  97319409.12046  23766403.280                    23766408.520
     -3178.544       -2476.794          41.700          41.850    93264433.695 7
  23766409.220       -2373.581          46.850


 111684434.979 8  87026823.45347  21252841.320                    21252841.160
     -2147.066       -1673.041          48.900          46.800    83400716.675 8
  21252845.100       -1603.300          53.000


 108034523.162 8  84182744.78248  20558291.380                    20558292.360
       -29.345         -22.867          51.850          52.050    80675130.609 9
  20558294.280         -21.870          55.900


 122129668.637 7  95166021.11247  23240489.880                    23240490.320
      3066.590        2389.553          45.650          45.700



 105872804.643 8  82498297.10848  20146923.780                    20146924.120
       -69.855         -54.434          50.950          51.000    79060876.648 9
  20146925.700         -52.157          57.350


 117090726.062 8  91239514.96447  22281625.100                    22281623.280
      2383.912        1857.594          48.400          43.650    87437881.168 8
  22281629.940        1780.214          52.700


 133615834.303 6 104116244.71245  25426249.560                    25426254.980
      2387.169        1860.137          41.550          34.400



 133333948.362 6 103896552.52646  25372628.800                    25372633.380
     -3161.961       -2463.873          36.550          37.050



 126804523.286 6  98808707.08946  24130113.360                    24130110.940
     -3457.260       -2693.977          41.550          39.800



 125898477.073 7  98102685.27546  23957690.240                    23957687.980
      3265.495        2544.541          43.550          36.850



 130369650.676 6 101586772.30646  24808513.780                    24808521.040
       634.461         494.390          39.500          38.800    97354001.844 6
  24808520.720         473.656          41.950


 134208413.724 6 104578029.89446  25539012.240                    25539019.480
      3646.195        2841.193          39.350          39.900   100220633.916 6
  25539023.080        2722.728          41.700


 133950064.220 6 104376650.99346  25489861.760                    25489863.440
     -3462.899       -2698.369          41.250          41.150



 23 11  9  8 27  0.0000000  0 13G03G04G06G07G09G11G16G17G19G20G26G30
                                G31
 124988663.507 6  97393758.81746  23784560.460                    23784566.000
     -3182.565       -2479.927          41.300          41.500    93335685.455 7
  23784566.460       -2376.604          46.200


 111749002.449 8  87077135.70547  21265128.160                    21265128.100
     -2157.575       -1681.229          49.000          46.650    83448932.566 8
  21265132.060       -1611.172          52.850


 108035693.311 8  84183656.57148  20558513.940                    20558514.960
       -48.808         -38.033          51.350          51.250    80676004.392 9
  20558516.800         -36.453          55.700


 122037766.776 7  95094409.29747  23223001.620                    23223001.780
      3060.296        2384.647          46.450          46.550



 105875127.944 8  82500107.45448  20147365.860                    20147366.180
       -85.148         -66.351          51.600          51.650    79062611.565 9
  20147367.900         -63.563          57.050


 117019412.501 8  91183945.92847  22268054.560                    22268052.660
      2370.267        1846.960          48.100          44.800    87384627.525 8
  22268059.260        1769.951          52.450


 133544374.722 6 104060562.03445  25412651.220                    25412655.240
      2376.383        1851.731          36.800          31.000



 133428749.562 6 103970423.34546  25390669.120                    25390673.640
     -3158.336       -2461.048          37.250          36.200



 126908294.085 7  98889567.17846  24149860.440                    24149858.060
     -3460.822       -2696.753          43.150          37.700



 125800532.411 7  98026364.70846  23939052.040                    23939049.800
      3264.145        2543.486          44.150          39.600



 130350875.493 6 101572142.39446  24804940.820                    24804947.820
       617.300         481.019          38.950          38.550    97339981.529 7
  24804947.960         461.017          42.050


 134098998.021 6 104492771.06046  25518191.180                    25518198.560
      3648.409        2842.926          38.800          38.050   100138927.561 6
  25518201.580        2724.251          40.300


 134054064.512 6 104457690.13646  25509652.440                    25509653.720
     -3470.395       -2704.208          38.800          38.550



 23 11  9  8 27 30.0000000  0 13G03G04G06G07G09G11G16G17G19G20G26G30
                                G31
 125084212.286 6  97468212.21646  23802742.960                    23802748.800
     -3187.487       -2483.764          41.350          41.250    93407036.596 7
  23802749.080       -2380.331          46.400


 111813896.819 8  87127702.67747  21277477.060                    21277477.180
     -2168.876       -1690.036          49.200          46.800    83497392.563 8
  21277481.280       -1619.594          52.900


 108037461.694 8  84185034.51348  20558850.320                    20558851.280
       -69.224         -53.941          51.750          51.700    80677324.916 9
  20558853.260         -51.685          55.800


 121946075.914 7  95022961.92747  23205553.360                    23205553.840
      3052.632        2378.676          46.800          46.800



 105877920.354 8  82502283.34248  20147897.180                    20147897.520
      -101.181         -78.843          51.800          51.750    79064696.781 9
  20147899.240         -75.537          57.100


 116948524.511 8  91128708.52747  22254564.920                    22254563.120
      2355.554        1835.496          48.600          44.300    87331691.682 8
  22254569.600        1758.969          52.550


 133473243.616 6 104005135.32545  25399115.300                    25399120.320
      2365.070        1842.921          37.250          35.950



 133523455.349 6 104044219.81946  25408691.240                    25408695.920
     -3155.520       -2458.858          40.550          39.900



 127012180.750 7  98970517.58646  24169629.740                    24169627.580
     -3465.199       -2700.169          43.350          38.550



 125702644.409 7  97950088.30346  23920424.500                    23920422.560
      3261.726        2541.604          44.100          36.650



 130332626.110 6 101557922.15146  24801467.940                    24801474.640
       599.151         466.872          39.950          39.900    97326353.836 7
  24801475.160         447.425          42.400


 133989531.778 6 104407472.89646  25497360.220                    25497368.040
      3649.151        2843.502          39.850          39.800   100057183.530 6
  25497370.620        2725.146          40.600


 134158301.806 6 104538913.94046  25529488.080                    25529489.200
     -3478.917       -2710.837          38.900          38.700



 23 11  9  8 28  0.0000000  0 13G03G04G06G07G09G11G16G17G19G20G26G30
                                G31
 125179891.831 6  97542767.51146  23820950.280                    23820956.460
     -3191.170       -2486.632          40.850          40.700    93478485.394 7
  23820956.580       -2383.104          46.650


 111879114.699 8  87178521.73547  21289887.600                    21289887.860
     -2179.176       -1698.061          48.700          47.400    83546094.147 8
  21289891.980       -1627.285          52.850


 108039827.166 8  84186877.71248  20559300.480                    20559301.180
       -88.705         -69.122          51.700          51.750    80679091.311 9
  20559303.380         -66.225          55.900


 121854596.774 7  94951679.52847  23188145.560                    23188146.080
      3045.913        2373.440          46.550          46.550



 105881179.651 8  82504823.02748  20148517.380                    20148517.680
      -116.281         -90.608          51.250          51.400    79067130.642 9
  20148519.360         -86.816          57.150


 116878062.998 8  91073803.44247  22241156.540                    22241154.840
      2341.642        1824.655          48.250          44.750    87279074.307 8
  22241161.140        1748.718          52.550


 133402442.003 5 103949980.17144  25385641.660                    25385647.180
      2354.378        1834.564          34.500          26.750



 133618173.674 6 104118071.64446  25426694.020                    25426698.860
     -3151.901       -2456.044          38.300          38.700



 127116178.561 6  99051554.62346  24189420.080                    24189418.220
     -3468.187       -2702.493          41.900          40.350



 125604812.822 7  97873855.84346  23901807.620                    23901805.940
      3260.205        2540.418          43.350          38.950



 130314902.221 6 101544111.38446  24798095.300                    24798101.220
       582.061         453.555          40.300          40.250    97313118.525 7
  24798102.340         434.657          42.650


 133880015.404 6 104322135.74046  25476519.720                    25476528.020
      3651.697        2845.490          40.550          41.000    99975402.150 6
  25476529.760        2726.694          41.350


 134262772.150 6 104620319.23546  25549367.960                    25549369.780
     -3486.023       -2716.388          40.700          40.750



 23 11  9  8 28 30.0000000  0 13G03G04G06G07G09G11G16G17G19G20G26G30
                                G31
 125275697.173 6  97617420.83746  23839181.540                    23839187.760
     -3195.646       -2490.120          40.250          40.300    93550028.121 7
  23839188.200       -2386.274          46.400


 111944650.102 8  87229588.21747  21302358.620                    21302358.880
     -2189.792       -1706.334          48.800          46.850    83595032.845 8
  21302363.000       -1635.115          52.750


 108042785.977 8  84189183.24648  20559863.680                    20559864.120
      -108.448         -84.506          52.050          52.100    80681300.771 9
  20559866.400         -80.984          55.950


 121763327.378 7  94880560.60047  23170777.460                    23170778.180
      3038.925        2367.999          46.650          46.550



 105884900.925 8  82507722.70748  20149225.620                    20149225.800
      -131.560        -102.514          51.850          51.950    79069909.500 9
  20149227.460         -98.278          57.300


 116808026.216 8  91019229.32047  22227829.040                    22227827.400
      2327.576        1813.695          48.900          45.250    87226774.115 8
  22227833.540        1738.059          52.300


 133331969.731 7 103895072.81345  25372231.400                    25372237.140
      2343.714        1826.268          42.450          34.750



                                  25444678.200                    25444682.240
     -3147.369       -2452.504          34.400          34.350



 127220280.015 7  99132672.39946  24209230.200                    24209228.760
     -3471.635       -2705.180          42.100          40.650



 125507034.789 7  97797665.11446  23883200.840                    23883199.420
      3258.475        2539.067          43.550          38.600



 130297700.737 6 101530707.65546  24794822.020                    24794827.660
       564.813         440.114          40.500          41.200    97300273.314 7
  24794828.860         421.662          42.550


 133770447.189 6 104236758.24446  25455669.380                    25455678.020
      3653.384        2846.807          40.050          40.200    99893582.134 6
  25455678.940        2728.076          40.650


 134367468.190 6 104701900.54346  25569291.060                    25569292.500
     -3493.533       -2722.230          36.700          37.750



 23 11  9  8 29  0.0000000  0 12G03G04G06G07G09G11G16G19G20G26G30G31
 125371634.068 6  97692176.67046  23857437.920                    23857444.080
     -3199.986       -2493.502          40.750          40.650    93621669.073 7
  23857444.760       -2389.439          46.350


 112010507.691 8  87280905.75847  21314890.900                    21314891.100
     -2200.341       -1714.554          48.050          47.300    83644212.153 8
  21314895.340       -1643.119          52.750


 108046345.005 8  84191956.47548  20560541.120                    20560541.400
      -128.410        -100.061          51.850          51.850    80683958.442 9
  20560543.760         -95.890          56.100


 121672277.446 7  94809612.67347  23153451.280                    23153452.220
      3031.310        2362.063          46.300          46.100



 105889089.993 8  82510986.90748  20150022.880                    20150023.040
      -147.245        -114.736          51.800          51.750    79073037.686 9
  20150024.780        -109.931          57.450


 116738423.153 8  90964993.15347  22214584.160                    22214582.440
      2313.121        1802.432          48.900          45.900    87174797.780 8
  22214588.420        1727.299          52.000


 133261835.654 6 103840422.87145  25358885.480                    25358891.200
      2332.152        1817.266          37.600          32.700



 127324488.306 6  99213873.38346  24229060.480                    24229059.700
     -3475.046       -2707.838          40.950          39.900



 125409318.398 7  97721522.43146  23864605.900                    23864604.660
      3256.335        2537.402          42.900          39.700



 130281029.447 6 101517717.00446  24791649.740                    24791655.200
       547.352         426.507          39.400          40.050    97287823.965 7
  24791656.520         408.504          42.400


 133660835.949 6 104151347.35547  25434810.680                    25434819.760
      3654.602        2847.759          41.350          42.100    99811730.065 6
  25434819.860        2729.301          41.600


 134472393.899 6 104783660.68446  25589257.820                    25589259.600
     -3500.902       -2727.981          38.300          37.550



 23 11  9  8 29 30.0000000  0 12G03G04G06G07G09G11G16G19G20G26G30G31
 125467700.825 6  97767033.69346  23875718.980                    23875725.280
     -3204.511       -2497.030          40.800          39.900    93693407.002 7
  23875726.120       -2392.878          46.800


 112076684.846 8  87332472.30147  21327483.960                    21327484.260
     -2211.310       -1723.102          48.250          46.750    83693630.072 8
  21327488.500       -1651.184          52.900


 108050503.714 8  84195196.98948  20561332.600                    20561332.900
      -148.640        -115.824          51.950          51.900    80687063.926 9
  20561335.280        -110.949          56.150


 121581447.874 7  94738836.45647  23136166.860                    23136167.940
      3023.906        2356.293          46.950          46.950



 105893745.318 8  82514614.41348  20150908.880                    20150908.980
      -162.887        -126.925          51.650          51.700    79076514.044 9
  20150910.800        -121.670          57.650


 116669255.365 8  90911096.15647  22201422.040                    22201420.280
      2298.196        1790.802          49.200          45.400    87123146.480 8
  22201425.960        1716.282          51.650


 133192042.304 6 103786038.38346  25345604.140                    25345609.440
      2320.766        1808.387          40.800          38.050



 127428799.181 6  99295154.38846  24248910.260                    24248909.840
     -3478.633       -2710.630          40.600          39.900



 125311663.727 7  97645427.83946  23846022.860                    23846021.680
      3254.065        2535.635          43.600          39.550



 130264888.598 6 101505139.68646  24788578.160                    24788583.860
       529.148         412.324          39.900          40.400    97275770.666 7
  24788585.120         395.100          42.050


 133551182.839 6 104065903.86746  25413943.940                    25413953.280
      3655.682        2848.602          40.200          39.950    99729846.838 7
  25413953.520        2729.932          43.800


 134577545.834 6 104865597.14646  25609267.640                    25609269.680
     -3508.895       -2734.206          39.300          39.350



 23 11  9  8 30  0.0000000  0 12G03G04G06G07G09G11G16G19G20G26G30G31
 125563890.852 6  97841986.78047  23894023.720                    23894029.800
     -3208.411       -2500.066          41.900          42.900    93765237.023 7
  23894030.860       -2395.946          46.550


 112143173.870 8  87384281.87047  21340136.460                    21340136.680
     -2221.511       -1731.050          48.400          46.350    83743280.904 8
  21340141.020       -1659.013          52.750


 108055256.634 8  84198900.52048  20562236.960                    20562237.520
      -168.445        -131.257          51.800          51.700    80690613.135 9
  20562239.740        -125.815          55.850


 121490835.473 7  94668229.48547  23118923.920                    23118925.120
      3016.765        2350.729          46.500          46.200



 105898860.347 8  82518600.12348  20151882.280                    20151882.400
      -178.257        -138.902          52.100          52.050    79080333.663 9
  20151884.160        -133.171          57.400


 116600519.406 8  90857535.65547  22188342.000                    22188340.280
      2283.845        1779.619          49.600          44.900    87071817.658 8
  22188345.560        1705.435          51.100


 133122586.928 6 103731917.20745  25332387.260                    25332392.680
      2309.342        1799.483          38.150          34.200



 127533203.801 6  99376508.35646  24268777.780                    24268777.780
     -3481.746       -2713.061          40.200          40.050



 125214066.685 7  97569378.16846  23827450.840                    23827449.920
      3252.181        2534.167          43.650          39.700



 130249273.520 6 101492972.03646  24785606.880                    24785612.920
       511.519         398.586          40.000          39.650    97264109.984 6
  24785613.680         382.047          41.600


 133441484.341 6 103980425.03046  25393068.500                    25393077.980
      3657.493        2850.011          39.350          39.300    99647929.753 7
  25393078.640        2731.026          43.400


 134682914.947 6 104947702.83846  25629318.740                    25629320.700
     -3515.887       -2739.660          39.850          39.850



 23 11  9  8 30 30.0000000  0 12G03G04G06G07G09G11G16G19G20G26G30G31
 125660210.213 7  97917040.65247  23912352.940                    23912358.980
     -3212.636       -2503.357          42.050          42.150    93837163.613 7
  23912360.440       -2399.167          46.750


 112209979.767 7  87436338.36447  21352849.240                    21352849.380
     -2232.048       -1739.260          47.850          46.700    83793168.353 8
  21352853.860       -1666.827          53.000


 108060610.847 8  84203072.60648  20563255.620                    20563256.500
      -188.517        -146.896          51.250          51.300    80694611.373 9
  20563258.540        -140.704          55.850


 121400449.578 7  94597799.02747  23101723.940                    23101725.180
      3009.079        2344.741          46.850          47.200



 105904441.094 8  82522948.73548  20152944.240                    20152944.580
      -193.764        -150.985          51.650          51.600    79084501.079 9
  20152946.060        -144.657          57.650


 116532224.566 8  90804318.88447  22175345.920                    22175344.380
      2269.180        1768.191          49.200          45.350    87020818.243 8
  22175349.080        1694.509          51.150


 133053479.704 6 103678067.26445  25319236.600                    25319241.540
      2297.737        1790.430          36.550          35.350



 127637705.399 6  99457937.91746  24288663.680                    24288664.280
     -3484.962       -2715.563          39.900          39.550



 125116535.360 7  97493379.68446  23808891.400                    23808890.680
      3250.017        2532.479          43.300          40.000



 130234192.147 6 101481220.21046  24782737.080                    24782743.400
       494.108         385.019          38.250          38.050    97252847.830 6
  24782743.200         368.789          41.150


 133331749.568 6 103894917.89146  25372186.320                    25372195.740
      3658.980        2851.170          40.500          40.200    99565985.514 7
  25372196.500        2732.071          42.900


 134788505.865 6 105029981.43246  25649412.320                    25649414.220
     -3523.339       -2745.467          39.550          39.650



 23 11  9  8 31  0.0000000  0 12G03G04G06G07G09G11G16G19G20G26G30G31
 125756653.974 6  97992191.45846  23930705.700                    23930711.760
     -3216.370       -2506.268          41.750          41.600    93909183.096 7
  23930713.440       -2402.173          46.900


 112277096.625 7  87488637.16047  21365621.120                    21365621.280
     -2242.344       -1747.282          47.700          46.850    83843288.005 8
  21365625.800       -1674.499          52.550


 108066562.551 8  84207710.26648  20564388.000                    20564389.120
      -208.332        -162.337          51.200          51.100    80699055.781 9
  20564390.940        -155.557          55.300


 121310288.156 7  94527543.48947  23084566.700                    23084567.980
      3001.678        2338.974          46.300          46.400



 105910482.817 8  82527656.53448  20154093.840                    20154094.440
      -209.143        -162.970          51.100          51.150    79089012.711 9
  20154095.840        -156.140          57.450


 116464369.162 8  90751444.52747  22162433.500                    22162432.080
      2254.350        1756.636          49.550          45.900    86970146.974 8
  22162436.320        1683.521          50.900


 132984719.620 6 103624487.88146  25306152.000                    25306157.420
      2286.063        1781.344          38.750          37.400



 127742296.933 6  99539437.58246  24308566.600                    24308567.900
     -3487.734       -2717.723          39.700          40.200



 125019066.930 7  97417430.23746  23790343.860                    23790343.320
      3247.951        2530.872          43.900          39.950



 130219641.503 6 101469881.97846  24779968.160                    24779974.360
       476.235         371.093          37.750          38.100    97241982.007 6
  24779974.260         355.423          40.400


 133221976.562 6 103809380.93546  25351296.820                    25351306.080
      3659.539        2851.604          40.100          40.200    99484012.703 7
  25351307.040        2732.899          42.900


 134894311.611 7 105112427.30647  25669546.520                    25669548.760
     -3530.433       -2750.988          42.350          42.200



 23 11  9  8 31 30.0000000  0 12G03G04G06G07G09G11G16G19G20G26G30G31
 125853224.326 6  98067440.88546  23949082.420                    23949088.640
     -3220.928       -2509.820          41.300          41.550    93981297.093 7
  23949090.700       -2405.446          47.300


 112344525.520 7  87541179.09247  21378452.420                    21378452.700
     -2252.781       -1755.416          47.700          46.800    83893640.682 8
  21378457.060       -1682.309          52.600


 108073114.881 8  84212815.93748  20565634.920                    20565636.020
      -228.587        -178.121          51.400          51.400    80703948.712 9
  20565637.560        -170.605          55.250


 121220356.730 7  94457467.18847  23067453.160                    23067454.480
      2993.752        2332.798          46.800          46.750



 105916987.557 8  82532725.13248  20155331.680                    20155332.260
      -224.664        -175.063          51.350          51.300    79093870.116 9
  20155333.900        -167.709          57.650


 116396958.434 8  90698916.67547  22149605.740                    22149604.480
      2239.391        1744.979          49.850          45.950    86919807.775 8
  22149608.340        1672.396          51.300


 132916312.314 6 103571183.37245  25293134.740                    25293139.800
      2273.762        1771.760          38.050          34.750



 127846977.893 6  99621006.94546  24328486.820                    24328488.560
     -3490.464       -2719.843          38.500          37.600



 124921665.555 7  97341533.05346  23771809.080                    23771808.720
      3245.449        2528.922          44.050          41.000



 130205625.506 6 101458960.32246  24777300.920                    24777307.240
       458.271         357.091          39.600          39.200    97231515.383 6
  24777307.140         342.380          40.700


 133112170.410 6 103723818.07446  25330401.020                    25330410.140
      3660.733        2852.531          40.550          39.850    99402015.044 6
  25330411.160        2733.699          41.850


 135000332.414 6 105195040.90946  25689721.540                    25689723.800
     -3537.411       -2756.422          37.750          37.050



 23 11  9  8 32  0.0000000  0 12G03G04G06G07G09G11G16G19G20G26G30G31
 125949918.771 6  98142787.00546  23967482.680                    23967488.940
     -3224.985       -2512.983          41.250          41.250    94053503.746 7
  23967491.400       -2408.327          47.250


 112412262.982 7  87593961.46947  21391342.400                    21391342.940
     -2262.742       -1763.178          47.900          46.650    83944223.774 8
  21391347.020       -1689.741          52.250


 108080266.430 8  84218388.52948  20566995.940                    20566996.920
      -248.247        -193.441          52.200          52.200    80709289.101 9
  20566998.300        -185.315          55.050


 121130655.862 7  94387570.54347  23050383.500                    23050384.840
      2986.272        2326.971          46.600          46.450



 105923952.936 8  82538152.67548  20156657.200                    20156657.600
      -239.732        -186.805          52.100          52.150    79099071.502 9
  20156659.500        -178.896          57.600


 116329993.181 8  90646735.93347  22136862.840                    22136861.600
      2224.913        1733.698          50.250          46.050    86869801.229 8
  22136865.360        1661.520          51.450


 132848259.728 6 103518155.26346  25280185.060                    25280189.860
      2262.863        1763.269          39.200          36.700



 127951743.744 6  99702642.40846  24348423.020                    24348425.400
     -3493.488       -2722.205          38.200          38.700



 124824331.000 7  97265687.91746  23753286.880                    23753286.760
      3243.607        2527.486          44.200          38.750



 130192143.584 6 101448454.83646  24774735.560                    24774741.880
       440.683         343.384          39.600          39.500    97221447.604 6
  24774741.700         329.261          41.100


 133002331.727 6 103638229.78446  25309499.120                    25309508.020
      3662.120        2853.610          39.450          38.300    99319993.011 7
  25309509.300        2734.551          42.700


 135106564.272 6 105277818.81246  25709937.040                    25709939.080
     -3544.124       -2761.657          38.950          38.750



 23 11  9  8 32 30.0000000  0 12G03G04G06G07G09G11G16G19G20G26G30G31
 126046734.118 6  98218227.32846  23985906.140                    23985912.220
     -3229.237       -2516.297          41.600          40.850    94125800.685 7
  23985915.040       -2411.508          47.500


 112480304.793 7  87646980.99047  21404290.320                    21404290.980
     -2273.146       -1771.286          47.750          47.100    83995034.140 8
  21404294.940       -1697.520          51.900


 108088015.038 8  84224426.35848  20568470.700                    20568471.480
      -268.341        -209.098          52.250          52.150    80715075.352 9
  20568472.780        -200.399          55.050


 121041185.546 7  94317853.55947  23033357.700                    23033359.060
      2978.382        2320.822          46.700          46.800



 105931375.810 8  82543936.70448  20158069.860                    20158070.000
      -255.160        -198.827          52.050          51.900    79104614.530 9
  20158071.980        -190.568          57.300


 116263473.386 8  90594902.29447  22124204.600                    22124203.480
      2209.802        1721.922          50.050          45.650    86820127.315 8
  22124207.220        1650.147          51.550


 132780562.070 6 103465403.78345  25267302.800                    25267307.720
      2249.963        1753.213          39.650          31.000



 128056588.562 6  99784339.44246  24368374.600                    24368376.540
     -3496.376       -2724.463          39.050          38.700



 124727062.382 7  97189894.17246  23734777.260                    23734777.140
      3241.021        2525.470          43.700          37.650



 130179194.330 6 101438364.45746  24772271.280                    24772277.820
       422.751         329.413          39.350          38.850    97211777.648 6
  24772278.460         315.576          41.500


 132892460.365 6 103552615.95546  25288590.960                    25288599.820
      3662.794        2854.132          38.350          37.800    99237946.423 7
  25288601.300        2735.302          43.400


 135213001.326 6 105360756.75646  25730191.420                    25730193.320
     -3551.452       -2767.366          38.350          38.650



 23 11  9  8 33  0.0000000  0 12G03G04G06G07G09G11G16G19G20G26G30G31
 126143674.453 7  98293765.07247  24004353.480                    24004359.260
     -3233.482       -2519.604          42.950          43.500    94198190.952 7
  24004362.320       -2414.529          47.300


 112548653.989 8  87700240.04247  21417296.820                    21417297.480
     -2283.380       -1779.260          48.550          46.800    84046074.043 8
  21417301.500       -1705.125          51.850


 108096365.738 8  84230933.35348  20570059.920                    20570060.700
      -288.258        -224.618          52.150          52.000    80721311.218 9
  20570061.980        -215.338          55.200


 120951952.974 7  94248321.79947  23016377.140                    23016378.520
      2970.503        2314.682          46.850          46.850



 105939260.268 8  82550080.40148  20159570.340                    20159570.220
      -270.653        -210.899          52.050          52.050    79110502.224 9
  20159572.140        -201.957          57.150


 116197406.248 8  90543421.38747  22111632.420                    22111631.380
      2194.701        1710.156          49.800          46.250    86770791.427 8
  22111635.260        1638.955          51.800


 132713227.464 6 103412935.23745  25254489.580                    25254494.240
      2238.238        1744.088          36.700          33.900



 128161513.903 6  99866099.17346  24388341.420                    24388342.980
     -3498.625       -2726.210          39.050          38.350



 124629865.897 7  97114156.62946  23716281.320                    23716281.180
      3238.588        2523.574          43.800          39.400



 130166783.634 6 101428693.68446  24769909.540                    24769915.680
       404.791         315.417          40.600          40.900    97202509.806 6
  24769917.780         302.168          41.350


 132782563.492 6 103466982.10446  25267678.180                    25267686.600
      3663.736        2854.860          39.350          38.650    99155880.679 7
  25267688.760        2735.804          44.700


 135319646.606 5 105443856.86646  25750485.420                    25750487.520
     -3557.757       -2772.282          35.950          36.200



 23 11  9  8 33 30.0000000  0 11G03G04G06G07G09G11G16G19G20G26G30
 126240734.147 7  98369395.80747  24022823.680                    24022829.080
     -3236.519       -2521.968          43.400          43.400    94270670.403 7
  24022832.380       -2417.050          47.350


 112617304.014 8  87753733.49747  21430360.640                    21430361.300
     -2293.113       -1786.844          48.800          46.550    84097338.579 8
  21430365.380       -1712.185          51.650


 108105313.955 8  84237905.95048  20571762.680                    20571763.720
      -307.719        -239.783          52.100          51.950    80727993.273 9
  20571765.020        -229.795          55.550


 120862955.837 7  94178973.54147  22999441.380                    22999442.800
      2963.073        2308.894          47.300          47.400



 105947600.682 8  82556579.39848  20161157.540                    20161157.340
      -285.146        -222.192          52.450          52.700    79116730.429 9
  20161158.960        -212.865          57.050


 116131789.394 8  90492291.34647  22099145.800                    22099144.900
      2180.222        1698.873          49.350          46.100    86721791.808 8
  22099149.000        1628.108          52.050


 132646254.583 6 103360748.51745  25241744.960                    25241749.760
      2226.953        1735.287          39.350          34.150



 128266511.561 6  99947915.26446  24408322.100                    24408322.860
     -3500.740       -2727.860          41.000          39.100



 124532738.246 7  97038472.72946  23697798.480                    23697798.240
      3236.779        2522.163          43.950          38.150



 130154907.671 6 101419439.59346  24767649.920                    24767655.480
       387.234         301.738          41.050          40.900    97193641.257 6
  24767658.240         289.372          41.700


 132672638.626 6 103381326.34046  25246760.120                    25246768.280
      3665.218        2856.013          39.750          40.500    99073793.914 7
  25246771.160        2736.908          44.350


 23 11  9  8 34  0.0000000  0 11G03G04G06G07G09G11G16G19G20G26G30
 126337912.501 7  98445119.00247  24041316.400                    24041321.420
     -3240.937       -2525.412          43.100          43.250    94343238.419 7
  24041324.940       -2420.389          47.200


 112686253.041 7  87807459.94147  21443481.340                    21443482.000
     -2303.273       -1794.761          47.950          47.400    84148826.433 8
  21443485.960       -1719.979          51.250


 108114859.782 8  84245344.22648  20573579.100                    20573580.440
      -328.142        -255.695          51.650          51.750    80735121.613 9
  20573581.840        -245.075          55.600


 120774196.633 7  94109810.66647  22982550.960                    22982552.340
      2954.675        2302.349          46.900          47.050



 105956396.322 8  82563433.12548  20162831.320                    20162831.140
      -300.729        -234.335          51.850          52.000    79123298.582 9
  20162832.540        -224.614          56.900


 116066625.218 8  90441514.05847  22086745.280                    22086744.480
      2164.478        1686.605          48.950          45.900    86673130.234 8
  22086748.860        1616.402          51.900


 132579646.393 6 103308846.06446  25229069.780                    25229074.960
      2214.096        1725.276          37.500          36.200



 128371578.662 7 100029785.50746  24428316.260                    24428316.600
     -3503.330       -2729.876          42.300          38.600



 124435680.610 7  96962843.36946  23679329.060                    23679328.700
      3233.892        2519.914          44.250          38.750



 130143567.399 6 101410602.90946  24765492.340                    24765497.420
       369.101         287.607          41.050          41.250    97185172.743 7
  24765500.780         275.474          42.100


 132562688.152 6 103295650.50846  25225837.280                    25225845.180
      3665.565        2856.280          39.050          38.850    98991687.819 7
  25225848.280        2737.167          44.500


 23 11  9  8 34 30.0000000  0 11G03G04G06G07G09G11G16G19G20G26G30
 126435212.176 7  98520936.71346  24059832.180                    24059837.000
     -3245.399       -2528.890          42.400          41.850    94415897.014 7
  24059840.640       -2423.575          47.250


 112755502.774 8  87861420.69647  21456659.220                    21456659.840
     -2313.554       -1802.771          48.300          46.950    84200538.825 8
  21456663.720       -1727.627          51.350


 108125006.819 8  84253250.97448  20575509.980                    20575511.460
      -348.419        -271.496          52.150          52.050    80742698.909 9
  20575513.040        -260.172          55.700


 120685680.968 7  94040837.58047  22965706.800                    22965708.220
      2946.189        2295.737          46.700          46.750



 105965649.840 8  82570643.63448  20164592.240                    20164592.060
      -316.322        -246.486          52.050          51.900    79130208.645 9
  20164593.380        -236.183          56.850


 116001919.543 8  90391094.03547  22074432.040                    22074431.260
      2148.970        1674.521          48.750          45.600    86624811.043 8
  22074435.860        1604.772          51.900


 132513408.763 6 103257232.41845  25216465.000                    25216470.420
      2201.811        1715.705          36.250          35.950



 128476715.331 6 100111709.97246  24448323.720                    24448323.740
     -3505.749       -2731.760          41.500          40.650



 124338698.072 7  96887272.53346  23660874.020                    23660873.400
      3231.291        2517.888          44.800          39.100



 130132767.256 6 101402187.11146  24763437.640                    24763442.560
       350.923         273.444          41.500          41.400    97177107.557 7
  24763446.060         262.063          42.600


 132452717.906 6 103209959.15046  25204910.800                    25204918.040
      3665.181        2855.974          39.750          39.550    98909566.938 7
  25204922.200        2737.441          44.700


 23 11  9  8 35  0.0000000  0 11G03G04G06G07G09G11G16G19G20G26G30
 126532632.404 7  98596848.35847  24078370.800                    24078375.620
     -3249.088       -2531.764          42.600          42.550    94488645.601 7
  24078379.380       -2426.103          47.000


 112825051.384 8  87915614.34547  21469894.000                    21469894.560
     -2322.774       -1809.956          48.350          47.400    84252474.394 8
  21469898.580       -1734.547          51.450


 108135755.230 8  84261626.32448  20577555.380                    20577556.820
      -367.788        -286.590          52.150          52.100    80750725.278 9
  20577558.620        -274.698          55.650


 120597411.341 7  93972056.19247  22948909.500                    22948910.880
      2938.663        2289.871          46.150          46.350



 105975360.397 8  82578210.28148  20166440.120                    20166439.860
      -330.834        -257.794          52.100          52.000    79137460.012 9
  20166441.240        -247.082          56.800


 115937674.703 8  90341033.10147  22062206.580                    22062205.780
      2134.251        1663.052          48.950          45.850    86576835.977 8
  22062210.420        1593.733          51.700


 132447545.186 6 103205910.33346  25203931.420                    25203937.020
      2189.698        1706.271          37.550          36.350



 128581918.304 6 100193686.06046  24468343.840                    24468343.460
     -3507.355       -2733.008          41.900          37.750



 124241792.020 7  96811761.32646  23642433.480                    23642432.580
      3229.325        2516.356          44.550          38.900



 130122508.239 6 101394192.97146  24761485.680                    24761490.160
       333.175         259.615          40.850          41.200    97169446.476 7
  24761494.160         248.792          42.000


 132342730.242 6 103124254.26646  25183980.940                    25183988.140
      3666.780        2857.225          40.250          40.050    98827433.061 7
  25183992.180        2738.356          42.550


 23 11  9  8 35 30.0000000  0 11G03G04G06G07G09G11G16G19G20G26G30
 126630170.855 7  98672852.13947  24096931.980                    24096936.720
     -3253.084       -2534.878          42.850          42.800    94561482.509 7
  24096940.520       -2429.105          46.650


 112894895.579 8  87970038.30947  21483185.040                    21483185.540
     -2332.853       -1817.810          48.450          47.350    84304630.681 8
  21483189.720       -1741.911          51.800


 108147103.524 8  84270469.11148  20579715.000                    20579716.240
      -387.990        -302.331          52.150          52.050    80759199.610 9
  20579718.260        -289.682          55.800


 120509388.545 7  93903467.15847  22932159.120                    22932160.420
      2930.306        2283.360          46.150          45.700



 105985525.669 8  82586131.24448  20168374.520                    20168374.220
      -345.983        -269.598          52.050          51.950    79145050.920 9
  20168375.680        -258.373          57.000


 115873891.534 8  90291331.92247  22050069.020                    22050068.140
      2118.648        1650.895          48.900          45.850    86529205.663 8
  22050072.740        1582.188          51.800


 132382056.907 5 103154880.59145  25191469.440                    25191475.520
      2176.682        1696.121          35.300          32.700



 128687183.146 6 100275710.30346  24488375.260                    24488374.700
     -3509.602       -2734.766          39.200          38.850



 124144962.426 7  96736309.70146  23624007.360                    23624006.380
      3226.650        2514.272          43.700          39.900



 130112789.689 6 101386620.00447  24759636.420                    24759640.360
       315.170         245.585          41.550          42.200    97162189.041 7
  24759644.720         235.446          42.550


 132232726.217 6 103038536.73346  25163048.180                    25163055.580
      3667.279        2857.618          38.950          40.150    98745287.027 7
  25163058.820        2738.698          43.700


 23 11  9  8 36  0.0000000  0 11G03G04G06G07G09G11G16G19G20G26G30
 126727825.933 7  98748946.78847  24115515.320                    24115520.240
     -3257.047       -2537.966          42.450          42.400    94634406.504 7
  24115523.840       -2432.222          46.100


 112965032.714 8  88024690.53647  21496531.900                    21496532.140
     -2342.795       -1825.558          48.850          46.800    84357005.722 8
  21496536.460       -1749.377          51.850


 108159050.973 8  84279778.77748  20581988.600                    20581989.660
      -408.327        -318.179          51.750          51.550    80768121.353 9
  20581991.840        -304.807          55.700


 120421614.129 7  93835071.61647  22915456.080                    22915457.260
      2921.664        2276.625          45.300          45.200



 105996144.046 8  82594405.26748  20170395.200                    20170395.020
      -361.559        -281.735          52.150          52.050    79152980.179 9
  20170396.380        -269.908          57.100


 115810571.589 8  90241991.68447  22038019.760                    22038018.680
      2102.869        1638.598          49.200          45.750    86481921.261 8
  22038023.260        1570.406          52.050


 132316946.492 6 103104145.39145  25179079.280                    25179085.620
      2163.929        1686.189          36.650          34.300



 128792505.715 6 100357779.58246  24508417.900                    24508417.820
     -3511.711       -2736.410          41.700          41.050



 124048209.688 7  96660917.97946  23605595.880                    23605594.880
      3223.508        2511.823          44.000          39.950



 130103611.730 6 101379468.32746  24757889.720                    24757893.960
       297.068         231.480          40.350          40.700    97155335.354 7
  24757898.740         221.585          42.650


 132122707.451 6 102952807.79246  25142112.480                    25142119.640
      3667.558        2857.838          39.750          39.700    98663130.135 7
  25142123.040        2738.769          44.800


 23 11  9  8 36 30.0000000  0 11G03G04G06G07G09G11G16G19G20G26G30
 126825600.416 6  98825134.48046  24134121.300                    24134126.400
     -3261.271       -2541.256          41.700          41.050    94707419.670 7
  24134129.880       -2435.439          45.450


 113035464.554 8  88079572.41447  21509934.820                    21509934.640
     -2352.787       -1833.344          48.900          46.150    84409600.839 8
  21509939.240       -1756.978          51.600


 108171601.133 8  84289558.08148  20584376.780                    20584377.840
      -428.645        -334.010          51.400          51.400    80777493.181 9
  20584379.960        -320.067          55.350


 120334094.338 7  93766874.51947  22898801.380                    22898802.520
      2912.753        2269.681          46.250          46.250



 106007218.193 8  82603034.43148  20172502.620                    20172502.720
      -376.995        -293.763          52.750          52.550    79161249.789 9
  20172503.920        -281.479          56.950


 115747720.752 8  90193016.97847  22026059.780                    22026058.460
      2086.893        1626.149          49.950          45.600    86434987.165 8
  22026063.200        1558.455          52.150


 132252220.289 5 103053709.49944  25166761.960                    25166767.980
      2151.189        1676.264          35.000          28.600



 128897886.329 6 100439894.09246  24528471.620                    24528471.880
     -3513.564       -2737.851          41.600          38.050



 123951539.151 7  96585590.29646  23587200.040                    23587199.000
      3220.791        2509.707          44.400          39.350



 130094978.734 6 101372741.34646  24756246.560                    24756250.880
       278.549         217.054          39.900          39.750    97148888.664 6
  24756255.780         207.796          41.300


 132012679.818 6 102867072.08646  25121174.960                    25121182.460
      3667.622        2857.895          40.300          40.000    98580966.759 7
  25121185.520        2738.808          43.300


 23 11  9  8 37  0.0000000  0 11G03G04G06G07G09G11G16G19G20G26G30
 126923485.018 7  98901407.96047  24152748.180                    24152753.640
     -3264.584       -2543.839          42.400          42.850    94780515.052 7
  24152756.720       -2437.906          44.450


 113106180.860 8  88134675.94447  21523391.740                    21523391.300
     -2361.984       -1840.510          48.800          46.200    84462408.377 8
  21523396.080       -1763.864          51.800


 108184745.511 8  84299800.42348  20586877.960                    20586879.180
      -447.964        -349.064          50.850          51.000    80787308.753 9
  20586881.100        -334.632          55.400


 120246822.503 7  93698870.60747  22882194.000                    22882195.020
      2904.949        2263.601          45.350          45.650



 106018738.765 8  82612011.45448  20174694.980                    20174695.240
      -391.375        -304.969          52.350          52.350    79169852.766 9
  20174696.400        -292.346          57.100


 115685332.790 8  90144402.96047  22014187.940                    22014186.260
      2071.893        1614.461          50.250          45.450    86388398.740 8
  22014191.440        1547.096          52.650


 132187873.252 5 103003568.98045  25154517.020                    25154522.260
      2138.568        1666.434          35.850          31.950



 129003313.303 6 100522044.68746  24548533.920                    24548534.800
     -3515.006       -2738.977          41.600          40.000



 123854943.588 7  96510321.02646  23568818.580                    23568817.500
      3218.508        2507.929          43.850          39.200



 130086883.050 6 101366433.11946  24754705.520                    24754710.600
       260.992         203.373          38.950          39.050    97142843.309 6
  24754715.020         194.754          41.950


 131902637.165 6 102781324.79246  25100234.520                    25100241.880
      3668.221        2858.360          39.900          40.100    98498792.298 7
  25100244.840        2739.251          45.100


 23 11  9  8 37 30.0000000  0 11G03G04G06G07G09G11G16G19G20G26G30
 127021488.392 7  98977773.98846  24171397.820                    24171403.340
     -3268.493       -2546.887          42.400          41.950    94853699.123 7
  24171406.100       -2440.896          44.200


 113177189.259 8  88190007.08947  21536904.200                    21536903.560
     -2371.748       -1848.118          49.100          45.050    84515434.020 8
  21536908.560       -1771.005          51.600


 108198493.545 8  84310513.14148  20589493.960                    20589495.420
      -468.166        -364.806          50.600          50.600    80797575.089 9
  20589497.160        -349.580          55.250


 120159810.475 7  93631069.14147  22865636.120                    22865636.940
      2896.156        2256.748          45.950          45.800



 106030714.373 8  82621343.05848  20176973.920                    20176974.160
      -406.677        -316.893          52.400          52.250    79178795.542 9
  20176975.500        -303.675          57.050


 115623419.468 8  90096158.78947  22002406.360                    22002404.480
      2055.978        1602.060          50.100          45.850    86342164.736 8
  22002410.080        1535.319          52.800


 132123917.027 6 102953732.95045  25142346.580                    25142351.380
      2125.677        1656.362          37.550          30.850



 129108792.929 6 100604236.32446  24568606.180                    24568607.560
     -3516.712       -2740.305          40.100          38.750



 123758433.857 7  96435118.63946  23550453.260                    23550452.300
      3215.796        2505.815          43.550          39.600



 130079334.927 6 101360551.60446  24753268.840                    24753275.080
       242.640         189.074          37.350          37.500    97137206.838 6
  24753277.960         181.255          41.350


 131792591.147 6 102695574.91246  25079293.400                    25079300.420
      3668.539        2858.609          39.850          40.200    98416615.496 7
  25079303.760        2739.317          44.500


 23 11  9  8 38  0.0000000  0 11G03G04G06G07G09G11G16G19G20G26G30
 127119607.133 7  99054229.91647  24190069.520                    24190075.060
     -3272.251       -2549.813          43.150          43.400    94926969.363 7
  24190077.640       -2443.689          44.550


 113248485.313 8  88245562.38447  21550471.380                    21550470.660
     -2380.960       -1855.296          49.000          44.700    84568674.490 8
  21550475.840       -1778.058          51.750


 108212842.598 8  84321694.18448  20592224.360                    20592225.960
      -488.108        -380.345          50.700          50.700    80808290.246 9
  20592227.560        -364.481          55.550


 120073058.205 7  93563470.08247  22849127.640                    22849128.280
      2887.571        2250.059          45.950          46.050



 106043141.649 8  82631026.60848  20179338.860                    20179338.940
      -421.430        -328.388          52.900          52.750    79188075.607 9
  20179340.540        -314.746          57.400


 115561980.507 8  90048284.24547  21990714.940                    21990713.120
      2040.189        1589.757          49.650          45.950    86296284.965 8
  21990719.000        1523.573          53.350


 132060352.325 6 102904202.08745  25130250.500                    25130255.860
      2112.097        1645.800          38.300          34.050



 129214319.485 6 100686464.54146  24588687.200                    24588689.080
     -3518.040       -2741.335          41.200          40.050



 123662008.681 7  96359982.14846  23532103.920                    23532103.300
      3212.940        2503.591          42.700          37.700



 130072332.440 6 101355095.31346  24751935.660                    24751942.840
       224.375         174.843          37.750          37.600    97131977.963 6
  24751944.520         167.691          41.650


 131682541.487 6 102609822.34446  25058351.460                    25058358.720
      3668.801        2858.816          39.950          40.500    98334436.007 7
  25058361.340        2739.516          42.750


 23 11  9  8 38 30.0000000  0 11G03G04G06G07G09G11G16G19G20G26G30
 127217836.862 7  99130772.35847  24208762.320                    24208767.740
     -3276.214       -2552.901          43.000          42.850    95000322.488 7
  24208770.180       -2446.451          44.850


 113320063.725 8  88301337.69047  21564092.260                    21564091.700
     -2390.647       -1862.845          48.700          45.050    84622125.801 8
  21564096.800       -1785.222          51.650


 108227789.007 8  84333340.69348  20595068.540                    20595070.100
      -508.264        -396.051          50.600          50.650    80819451.480 9
  20595071.740        -379.525          55.800


 119986564.250 7  93496072.28347  22832668.360                    22832668.760
      2878.624        2243.088          45.800          46.100



 106056015.869 8  82641058.43148  20181788.800                    20181788.820
      -436.687        -340.276          52.650          52.550    79197689.419 9
  20181790.540        -326.017          57.650


 115501014.568 8  90000778.29647  21979113.520                    21979111.880
      2024.207        1577.303          49.700          46.050    86250758.428 8
  21979117.820        1511.627          53.700


 131997178.606 6 102854975.79245  25118228.880                    25118234.620
      2099.059        1635.628          38.200          34.850



 129319885.983 6 100768723.90846  24608775.860                    24608778.100
     -3519.534       -2742.500          41.300          39.050



 123565666.234 7  96284910.13646  23513770.260                    23513770.220
      3210.106        2501.383          42.100          39.400



 130065872.838 6 101350062.04346  24750706.180                    24750713.340
       206.113         160.615          38.550          37.850    97127154.479 6
  24750714.100         154.110          41.350


 131572486.798 6 102524065.82046  25037408.580                    25037415.580
      3668.805        2858.820          39.350          39.250    98252252.769 7
  25037417.840        2739.408          44.300


 23 11  9  8 39  0.0000000  0 11G03G04G06G07G09G11G16G19G20G26G30
 127316181.149 7  99207404.06147  24227476.860                    24227482.240
     -3279.964       -2555.822          42.950          42.750    95073761.167 7
  24227484.540       -2449.486          44.500


 113391927.013 8  88357334.96147  21577767.380                    21577767.120
     -2400.136       -1870.238          48.550          45.400    84675789.837 8
  21577771.900       -1792.326          50.950


 108243337.028 8  84345455.99948  20598027.300                    20598028.620
      -528.265        -411.636          50.550          50.550    80831061.976 9
  20598030.440        -394.499          55.450


 119900335.563 7  93428881.18247  22816259.620                    22816259.920
      2869.870        2236.266          46.400          46.550



 106069340.631 8  82651441.33048  20184324.440                    20184324.440
      -451.628        -351.919          52.400          52.400    79207639.690 9
  20184326.240        -337.245          57.250


 115440528.324 8  89953646.14347  21967603.380                    21967601.900
      2008.304        1564.911          49.250          46.300    86205590.112 8
  21967607.780        1499.652          53.400


 131934402.975 6 102806059.72845  25106283.220                    25106288.740
      2086.188        1625.604          38.200          35.550



 129425493.682 6 100851015.41346  24628872.200                    24628875.060
     -3520.812       -2743.499          38.850          38.500



 123469412.422 7  96209907.18046  23495453.580                    23495454.060
      3207.041        2498.995          42.700          39.350



 130059961.133 6 101345455.71646  24749581.300                    24749588.120
       187.594         146.185          38.550          39.200    97122740.157 6
  24749588.260         140.335          40.650


 131462433.838 6 102438310.61446  25016466.060                    25016473.280
      3668.266        2858.403          39.600          39.700    98170070.733 7
  25016475.040        2739.383          43.750


 23 11  9  8 39 30.0000000  0 11G03G04G06G07G09G11G16G19G20G26G30
 127414634.535 7  99284120.77247  24246212.120                    24246217.500
     -3284.047       -2559.006          43.000          43.000    95147281.277 7
  24246219.840       -2452.265          45.050


 113464068.684 8  88413549.15847  21591495.540                    21591495.520
     -2409.694       -1877.687          48.600          46.550    84729661.768 8
  21591500.040       -1799.465          51.100


 108259481.903 8  84358036.37648  20601099.600                    20601100.860
      -548.495        -427.400          50.800          50.700    80843118.160 9
  20601102.720        -409.544          55.400


 119814369.630 7  93361894.82147  22799900.840                    22799901.020
      2860.751        2229.159          47.150          47.200



 106083110.393 8  82662170.97748  20186944.680                    20186944.680
      -466.736        -363.692          52.100          52.050    79217922.265 9
  20186946.600        -348.524          57.150


 115380519.353 8  89906885.88047  21956184.040                    21956182.580
      1991.921        1552.145          49.350          46.300    86160778.200 8
  21956188.440        1487.502          53.350


 131872023.998 6 102757452.69246  25094412.940                    25094418.520
      2072.265        1614.749          39.300          37.100



 129531135.077 6 100933333.12546  24648974.300                    24648978.260
     -3522.218       -2744.592          38.250          37.150



 123373244.030 7  96134970.78346  23477153.400                    23477153.880
      3203.767        2496.444          44.050          40.650



 130054593.306 6 101341273.22746  24748559.860                    24748566.940
       169.379         131.993          39.150          39.600    97118731.968 6
  24748566.000         126.569          40.900


 131352380.050 6 102352554.74246  24995522.920                    24995530.480
      3667.997        2858.187          40.500          40.800    98087888.041 7
  24995531.840        2739.154          44.300


 23 11  9  8 40  0.0000000  0 11G03G04G06G07G09G11G16G19G20G26G30
 127513196.977 7  99360922.44847  24264967.900                    24264973.700
     -3287.176       -2561.443          43.000          43.150    95220882.833 7
  24264976.100       -2454.653          45.400


 113536487.836 8  88469979.57247  21605276.460                    21605276.720
     -2418.448       -1884.509          48.250          46.500    84783740.891 8
  21605281.240       -1805.880          51.450


 108276224.291 8  84371082.36648  20604285.580                    20604286.860
      -567.812        -442.451          50.600          50.650    80855620.556 9
  20604288.680        -424.032          55.300


 119728669.340 7  93295115.44447  22783592.640                    22783592.780
      2852.285        2222.563          46.700          46.550



 106097325.053 8  82673247.30448  20189649.600                    20189649.660
      -481.199        -374.962          52.250          52.150    79228537.060 9
  20189651.500        -359.216          57.000


 115320990.708 8  89860499.90447  21944856.040                    21944854.620
      1976.266        1539.946          49.150          45.850    86116324.971 8
  21944860.340        1475.949          53.000


 131810045.277 6 102709157.59146  25082619.000                    25082624.440
      2059.282        1604.633          39.550          36.800



 129636807.889 6 101015675.36546  24669082.800                    24669087.460
     -3523.009       -2745.211          38.650          37.500



 123277163.313 7  96060102.65746  23458870.160                    23458870.260
      3201.234        2494.466          44.400          40.900



 130049770.897 6 101337515.72246  24747642.420                    24747649.280
       151.956         118.414          39.150          37.950    97115131.109 6
  24747648.260         113.536          41.950


 131242328.664 6 102266800.65246  24974580.400                    24974587.880
      3668.470        2858.555          38.950          39.300    98005707.137 7
  24974589.880        2739.465          45.350


 23 11  9  8 40 30.0000000  0 11G03G04G06G07G09G11G16G19G20G26G30
 127611873.308 7  99437812.87647  24283745.440                    24283751.540
     -3291.086       -2564.490          42.900          42.850    95294569.419 7
  24283754.080       -2457.599          45.950


 113609188.259 8  88526629.16047  21619110.940                    21619111.400
     -2428.041       -1891.982          48.050          45.800    84838030.072 8
  21619116.040       -1813.189          51.700


 108293569.665 8  84384598.20748  20607586.360                    20607587.760
      -588.350        -458.456          51.400          51.300    80868573.223 9
  20607589.380        -439.304          55.550


 119643243.040 8  93228549.55948  22767336.560                    22767336.720
      2842.794        2215.165          48.000          48.000



 106111989.298 8  82684673.95548  20192440.120                    20192440.320
      -496.422        -386.824          52.350          52.300    79239487.595 9
  20192441.840        -370.662          57.000


 115261950.258 8  89814494.35147  21933620.940                    21933619.600
      1959.731        1527.063          49.100          46.050    86072236.328 8
  21933625.040        1463.459          52.950


 131748475.674 6 102661181.29745  25070902.840                    25070908.160
      2045.288        1593.729          39.700          34.000



 129742514.420 6 101098043.88345  24689198.180                    24689203.040
     -3524.035       -2746.010          38.400          35.650



 123181177.331 7  95985308.35746  23440605.000                    23440604.700
      3197.864        2491.842          45.250          40.100



 130045500.145 6 101334188.09346  24746829.840                    24746836.620
       132.961         103.612          40.300          40.000    97111942.156 7
  24746835.840          99.393          43.250


 131132287.664 6 102181054.66446  24953640.020                    24953647.420
      3667.519        2857.813          40.400          40.300    97923533.930 7
  24953649.780        2738.902          44.350


 23 11  9  8 41  0.0000000  0 11G03G04G06G07G09G11G16G19G20G26G30
 127710655.266 7  99514785.60347  24302543.100                    24302549.600
     -3294.051       -2566.800          43.150          43.250    95368334.900 7
  24302552.140       -2460.053          45.900


 113682160.741 7  88583490.73647  21632997.180                    21632997.820
     -2436.784       -1898.796          47.550          46.200    84892522.398 8
  21633002.560       -1819.707          51.750


 108311510.322 8  84398577.91248  20611000.460                    20611001.860
      -607.849        -473.648          51.300          51.250    80881970.428 9
  20611003.400        -453.881          55.100


 119558085.174 7  93162192.83047  22751131.560                    22751131.760
      2834.309        2208.555          47.250          47.300



 106127094.735 8  82696444.38648  20195314.560                    20195314.860
      -510.831        -398.052          52.400          52.400    79250767.584 9
  20195316.160        -381.428          56.700


 115203392.723 8  89768865.10247  21922477.700                    21922476.600
      1944.002        1514.808          48.800          46.800    86028508.296 8
  21922481.620        1451.651          52.450


 131687310.337 6 102613520.08845  25059263.620                    25059268.580
      2032.246        1583.575          40.150          31.850



 129848243.902 6 101180430.37046  24709318.220                    24709322.520
     -3524.720       -2746.537          41.450          38.950



 123085280.086 7  95910583.18846  23422356.700                    23422356.020
      3195.133        2489.711          45.750          40.950



 130041774.165 6 101331284.92546  24746120.800                    24746127.700
       115.084          89.684          39.300          38.800    97109160.008 7
  24746127.380          85.970          42.800


 131022251.982 6 102095312.66946  24932700.840                    24932707.780
      3668.026        2858.209          38.800          38.800    97841364.608 7
  24932710.460        2738.924          44.200


 23 11  9  8 41 30.0000000  0 11G03G04G06G07G09G11G16G19G20G26G30
 127809544.318 7  99591841.77447  24321361.120                    24321367.700
     -3298.336       -2570.139          43.100          43.550    95442180.329 7
  24321370.480       -2463.110          45.650


 113755405.722 7  88640564.66147  21646935.260                    21646935.920
     -2446.449       -1906.326          47.700          45.600    84947218.215 8
  21646940.840       -1826.875          52.200


 108330048.306 8  84413023.06148  20614528.300                    20614529.600
      -628.199        -489.507          51.600          51.600    80895813.692 9
  20614531.100        -469.139          55.400


 119473200.289 8  93096048.81348  22734978.560                    22734978.840
      2824.572        2200.966          48.100          48.100



 106142642.643 8  82708559.60448  20198273.220                    20198273.500
      -525.820        -409.731          52.000          51.950    79262378.003 9
  20198274.820        -392.779          57.000


 115145322.550 8  89723615.61747  21911427.220                    21911426.420
      1927.268        1501.768          48.850          47.150    85985144.198 8
  21911431.040        1439.091          52.850


 131626554.205 6 102566177.66445  25047702.360                    25047707.220
      2018.329        1572.729          39.850          33.400



 129953995.547 6 101262834.11046  24729442.660                    24729446.800
     -3525.971       -2747.521          41.550          40.550



 122989475.175 7  95835929.95546  23404125.920                    23404124.840
      3191.806        2487.119          45.700          40.000



 130038595.727 6 101328808.41146  24745515.900                    24745522.880
        96.521          75.217          39.250          38.150    97106786.686 7
  24745523.160          72.012          43.600


 130912226.275 6 102009578.52746  24911763.440                    24911770.580
      3667.060        2857.455          40.400          40.550    97759202.746 7
  24911772.940        2738.239          43.700


 23 11  9  8 42  0.0000000  0 11G03G04G06G07G09G11G16G19G20G26G30
 127908543.114 7  99668983.42747  24340200.100                    24340206.800
     -3301.383       -2572.516          43.150          42.800    95516107.709 7
  24340209.420       -2465.313          45.850


 113828924.945 8  88697852.28447  21660925.620                    21660926.160
     -2454.746       -1912.791          48.150          44.750    85002118.830 8
  21660931.060       -1833.117          52.250


 108349186.882 8  84427936.21148  20618170.420                    20618171.520
      -647.574        -504.604          51.350          51.300    80910105.449 9
  20618173.140        -483.559          55.750


 119388594.352 8  93030122.17248  22718878.600                    22718878.880
      2816.019        2194.304          48.200          48.050



 106158635.597 8  82721021.61448  20201316.580                    20201316.780
      -540.085        -420.847          52.350          52.200    79274320.752 9
  20201318.220        -403.372          57.100


 115087745.485 8  89678750.37047  21900470.760                    21900470.100
      1911.349        1489.362          49.350          47.150    85942148.323 8
  21900474.420        1427.347          53.150


 131566214.304 6 102519159.63945  25036220.140                    25036224.960
      2004.710        1562.113          38.750          35.700



 130059769.876 7 101345255.55646  24749571.540                    24749574.720
     -3525.633       -2747.247          42.200          38.050



 122893767.846 7  95761352.75946  23385913.480                    23385912.160
      3189.130        2485.033          45.450          39.850



 130035969.027 6 101326761.77846  24745016.020                    24745023.020
        78.997          61.563          40.200          40.550    97104825.359 7
  24745023.660          58.813          44.250


 130802216.448 6 101923856.82246  24890828.980                    24890836.300
      3667.045        2857.443          41.050          40.750    97677052.801 7
  24890838.680        2738.322          44.400


 23 11  9  8 42 30.0000000  0 11G03G04G06G07G09G11G16G19G20G26G30
 128007647.439 7  99746207.31447  24359059.160                    24359065.760
     -3304.933       -2575.281          42.500          42.350    95590113.887 7
  24359068.320       -2467.930          44.300


 113902713.181 8  88755349.54347  21674967.220                    21674967.660
     -2463.967       -1919.977          48.600          45.100    85057220.343 8
  21674972.380       -1839.937          52.050


 108368922.438 8  84443314.52948  20621926.020                    20621927.060
      -667.688        -520.277          51.000          51.000    80924842.995 9
  20621928.840        -498.573          55.600


 119304266.081 7  92964411.86547  22702831.580                    22702831.860
      2806.430        2186.830          47.750          47.700



 106175069.288 8  82733827.05748  20204443.900                    20204443.920
      -555.069        -432.522          52.650          52.600    79286592.627 9
  20204445.400        -414.462          56.800


 115030660.322 8  89634268.42247  21889607.940                    21889607.320
      1894.722        1476.407          49.700          47.000    85899519.782 8
  21889611.500        1414.909          52.850


 131506289.531 6 102472465.09945  25024816.760                    25024821.500
      1991.062        1551.481          37.950          30.200



 130165560.296 6 101427689.50646  24769703.520                    24769705.600
     -3526.727       -2748.104          40.300          37.900



 122798156.262 7  95686850.16446  23367719.160                    23367717.780
      3185.598        2482.281          44.900          40.400



 130033891.159 6 101325142.71246  24744620.520                    24744627.320
        60.027          46.775          39.800          39.850    97103273.776 7
  24744628.880          45.010          44.900


 130692221.500 6 101838146.77046  24869897.600                    24869904.900
      3666.459        2856.990          41.600          41.000    97594914.053 7
  24869907.480        2737.827          44.000


 23 11  9  8 43  0.0000000  0 11G03G04G06G07G09G11G16G19G20G26G30
 128106856.119 6  99823512.48846  24377938.100                    24377944.660
     -3308.642       -2578.174          41.500          41.550    95664197.978 7
  24377946.920       -2470.744          44.150


 113976768.326 8  88813054.77947  21689059.640                    21689059.880
     -2472.892       -1926.932          48.550          44.600    85112521.162 8
  21689064.580       -1846.667          52.000


 108389254.226 8  84459157.44248  20625795.060                    20625796.120
      -687.723        -535.889          51.050          51.100    80940025.785 9
  20625798.000        -513.535          55.600


 119220217.532 8  92898919.53548  22686837.620                    22686837.900
      2797.013        2179.491          48.650          48.450



 106191942.314 8  82746974.84448  20207654.880                    20207654.700
      -569.743        -443.956          52.850          52.750    79299192.592 9
  20207656.180        -425.463          56.700


 114974068.821 8  89590171.13947  21878839.040                    21878838.480
      1878.163        1463.504          49.750          47.250    85857259.879 8
  21878842.520        1402.499          52.700


 131446782.532 6 102426096.15846  25013492.620                    25013498.060
      1976.295        1539.977          38.150          36.400



 130271363.241 7 101510133.22045  24789837.540                    24789839.280
     -3526.759       -2748.126          42.200          35.450



 122702641.536 7  95612423.04846  23349543.220                    23349541.860
      3182.017        2479.492          44.850          40.700



 130032362.210 6 101323951.39246  24744329.160                    24744335.900
        41.911          32.659          40.050          39.900    97102132.122 7
  24744338.300          31.197          44.600


 130582243.356 7 101752449.73847  24848969.420                    24848975.920
      3665.942        2856.583          42.100          42.650    97512787.823 7
  24848979.220        2737.353          45.850


 23 11  9  8 43 30.0000000  0 11G03G04G06G07G09G11G16G19G20G26G30
 128206171.872 6  99900901.12346  24396837.720                    24396843.720
     -3312.139       -2580.896          41.550          41.750    95738362.030 7
  24396845.860       -2473.493          43.850


 114051092.177 8  88870969.38847  21703203.100                    21703203.380
     -2481.856       -1933.917          48.250          45.100    85168022.635 8
  21703208.020       -1853.393          51.850


 108410185.521 8  84475467.51348  20629778.140                    20629779.260
      -707.710        -551.463          51.300          51.300    80955656.267 9
  20629781.180        -528.514          55.250


 119136454.558 7  92833649.74647  22670898.020                    22670898.320
      2787.270        2171.900          47.800          47.700



 106209257.285 8  82760467.00748  20210949.960                    20210949.600
      -584.549        -455.493          53.050          52.950    79312122.568 9
  20210951.160        -436.483          56.500


 114917976.748 8  89546463.02047  21868165.120                    21868164.600
      1861.322        1450.381          49.750          46.550    85815372.920 8
  21868168.520        1389.988          52.400


 131387699.666 6 102380057.63946  25002249.260                    25002254.900
      1962.243        1529.030          37.950          36.000



 130377179.166 7 101592587.13746  24809974.120                    24809975.420
     -3527.640       -2748.811          42.850          37.400



 122607228.695 7  95538075.34046  23331386.600                    23331385.340
      3178.835        2477.013          44.300          38.850



 130031386.418 6 101323191.07446  24744143.360                    24744150.320
        23.202          18.082          40.000          39.450    97101403.499 7
  24744152.440          17.460          43.600


 130472287.835 6 101666770.36146  24828045.420                    24828052.040
      3664.906        2855.781          41.200          41.250    97430678.461 7
  24828055.040        2736.558          44.200


 23 11  9  8 44  0.0000000  0 11G03G04G06G07G09G11G16G19G20G26G30
 128305591.473 6  99978370.64746  24415757.120                    24415762.660
     -3315.543       -2583.552          40.650          40.500    95812603.641 7
  24415764.700       -2476.104          44.550


 114125680.458 7  88929090.04947  21717396.820                    21717397.280
     -2490.657       -1940.774          47.550          45.550    85223721.578 8
  21717401.820       -1859.951          51.800


 108431713.557 8  84492242.56948  20633874.800                    20633875.980
      -727.536        -566.913          51.450          51.400    80971732.358 9
  20633877.880        -543.367          55.450


 119052976.732 8  92768602.11348  22655012.720                    22655012.700
      2777.873        2164.576          48.350          48.550



 106227010.739 8  82774300.83748  20214328.440                    20214327.960
      -599.062        -466.803          52.750          52.900    79325379.986 9
  20214329.660        -447.354          56.850


 114862383.760 8  89503143.79847  21857586.120                    21857585.600
      1844.776        1437.487          49.150          46.850    85773858.660 8
  21857589.480        1377.555          52.750


 131329041.649 6 102334350.17145  24991086.740                    24991092.680
      1948.227        1518.097          37.950          31.100



 130483002.836 6 101675047.05046  24830111.880                    24830112.920
     -3527.552       -2748.744          41.900          37.100



 122511916.877 7  95463806.35646  23313249.060                    23313248.060
      3175.328        2474.280          44.050          40.050



 130030961.698 6 101322860.15846  24744062.580                    24744069.480
         4.912           3.829          40.050          40.050    97101086.387 7
  24744070.920           3.714          43.100


 130362354.858 7 101581108.49147  24807125.840                    24807132.240
      3664.079        2855.134          42.900          42.850    97348585.867 7
  24807135.080        2736.193          43.300


 23 11  9  8 44 30.0000000  0 11G03G04G06G07G09G11G16G19G20G26G30
 128405114.325 6 100055920.65346  24434696.120                    24434701.220
     -3318.781       -2586.072          40.700          40.950    95886922.301 7
  24434703.540       -2478.255          44.850


 114200531.738 7  88987415.63847  21731640.520                    21731641.020
     -2499.138       -1947.382          47.800          45.100    85279616.909 8
  21731645.600       -1866.159          51.900


 108453838.202 8  84509482.50748  20638085.100                    20638086.340
      -747.059        -582.125          51.850          51.800    80988253.958 9
  20638088.020        -557.862          55.250


 118969786.833 8  92703778.83948  22639182.200                    22639182.020
      2768.480        2157.259          48.000          48.250



 106245201.970 8  82788475.79748  20217790.200                    20217789.640
      -613.342        -477.930          52.850          52.650    79338964.317 9
  20217791.540        -457.965          56.850


 114807292.275 8  89460215.35447  21847102.460                    21847101.920
      1828.367        1424.702          48.850          46.600    85732718.895 8
  21847106.020        1365.358          52.900


 131270811.368 6 102288976.09945  24980005.620                    24980011.880
      1934.450        1507.367          37.750          35.500



 130588830.851 7 101757510.37846  24850250.440                    24850250.980
     -3527.347       -2748.583          42.600          37.850



 122416708.002 7  95389617.61246  23295131.240                    23295130.420
      3172.313        2471.933          44.650          38.050



 130031088.838 6 101322959.25746  24744086.760                    24744093.440
       -13.331         -10.386          40.350          40.150    97101181.328 6
  24744094.160          -9.703          41.750


 130252447.165 7 101495466.39147  24786210.920                    24786217.300
      3663.379        2854.591          42.850          42.800    97266512.270 7
  24786220.100        2735.721          44.250


 23 11  9  8 45  0.0000000  0 11G03G04G06G07G09G11G16G19G20G26G30
 128504736.589 6 100133548.10246  24453654.000                    24453658.820
     -3323.234       -2589.542          40.750          40.900    95961315.207 7
  24453661.180       -2481.475          44.200


 114275641.119 8  89045942.34647  21745933.440                    21745933.760
     -2508.521       -1954.693          48.300          44.750    85335704.993 8
  21745938.680       -1873.256          51.850


 108476556.054 8  84527184.69148  20642408.300                    20642409.580
      -767.771        -598.264          51.900          51.950    81005218.538 9
  20642411.020        -573.306          54.850


 118886884.000 8  92639179.26048  22623406.240                    22623405.800
      2757.860        2148.983          48.200          48.200



 106263826.945 8  82802988.74748  20221334.440                    20221333.920
      -628.671        -489.874          52.900          52.850    79352872.554 9
  20221335.960        -469.466          56.650


 114752701.353 8  89417676.95747  21836714.020                    21836713.380
      1810.805        1411.016          48.850          46.200    85691952.935 8
  21836717.940        1352.132          53.050


 131213008.448 6 102243934.94445  24969006.180                    24969012.020
      1919.215        1495.495          39.200          35.100



 130694657.357 6 101839972.48646  24870388.380                    24870389.020
     -3527.992       -2749.090          40.650          38.400



 122321600.559 7  95315507.89846  23277032.860                    23277032.280
      3167.857        2468.461          44.650          40.300



 130031765.188 6 101323486.28346  24744215.440                    24744221.060
       -32.278         -25.151          39.900          39.950    97101686.384 6
  24744221.720         -24.089          41.450


 130142564.176 7 101409843.62947  24765300.800                    24765306.920
      3661.792        2853.355          42.550          42.850    97184457.159 7
  24765309.300        2734.418          43.550


 23 11  9  8 45 30.0000000  0 11G03G04G06G07G09G11G16G19G20G26G30
 128604462.656 6 100211256.42146  24472631.540                    24472636.340
     -3325.629       -2591.409          40.500          40.550    96035785.610 7
  24472638.720       -2483.489          44.500


 114351012.136 7  89104672.92047  21760276.140                    21760276.400
     -2516.590       -1960.981          47.700          46.250    85391988.442 8
  21760281.700       -1879.268          52.300


 108499871.942 8  84545352.87048  20646845.300                    20646846.680
      -786.979        -613.231          52.050          51.850    81022629.697 9
  20646847.680        -587.672          54.900


 118804275.413 7  92574808.95047  22607686.280                    22607685.660
      2748.813        2141.935          47.400          47.400



 106282889.894 8  82817842.96248  20224961.960                    20224961.540
      -642.501        -500.650          52.600          52.600    79367107.842 9
  20224963.560        -479.844          56.850


 114698618.365 8  89375534.35447  21826422.460                    21826421.600
      1794.422        1398.250          49.300          46.000    85651566.274 8
  21826426.620        1339.996          53.600


 131155640.842 6 102199233.03045  24958089.580                    24958095.020
      1905.104        1484.497          37.950          34.500



 130800484.519 6 101922435.11446  24890526.200                    24890527.660
     -3527.644       -2748.818          38.500          36.650



 122226601.381 7  95241482.57146  23258955.160                    23258954.580
      3165.023        2466.253          44.950          39.750



 130032996.382 6 101324445.61646  24744449.760                    24744454.680
       -49.921         -38.900          39.400          39.250    97102605.751 7
  24744455.200         -37.439          42.100


 130032713.561 7 101324246.22647  24744396.660                    24744402.480
      3661.502        2853.134          43.000          43.350    97102426.452 7
  24744405.360        2734.011          44.900


 23 11  9  8 46  0.0000000  0 11G03G04G06G07G09G11G16G19G20G26G30
 128704287.023 6 100289041.34146  24491627.700                    24491632.620
     -3329.378       -2594.330          39.950          39.500    96110329.433 7
  24491634.700       -2486.329          43.650


 114426638.271 7  89163602.27847  21774667.280                    21774667.660
     -2525.519       -1967.939          47.150          46.400    85448462.390 8
  21774673.160       -1885.920          52.450


 108523780.690 8  84563983.02748  20651395.040                    20651396.540
      -807.251        -629.028          51.850          51.900    81040483.579 9
  20651397.220        -602.785          55.050


 118721958.961 7  92510666.28547  22592021.880                    22592021.180
      2738.647        2134.012          47.400          47.600



 106302385.066 8  82833033.97448  20228671.640                    20228671.380
      -657.439        -512.291          51.900          51.800    79381665.890 9
  20228673.400        -490.993          56.950


 114645040.703 8  89333785.49847  21816227.040                    21816226.100
      1777.016        1384.688          49.150          46.900    85611556.950 8
  21816231.460        1327.054          53.950


 131098706.645 6 102154868.84745  24947255.320                    24947260.640
      1890.211        1472.894          38.800          35.650



 130906304.756 6 102004892.36046  24910662.840                    24910664.600
     -3527.155       -2748.432          39.850          38.850



 122131707.257 7  95167539.09546  23240897.600                    23240896.800
      3161.075        2463.177          44.550          41.200



 130034778.110 6 101325833.95146  24744788.900                    24744793.860
       -69.102         -53.847          40.050          40.250    97103936.224 6
  24744793.620         -51.514          41.350


 129922892.921 6 101238672.25046  24723498.140                    24723504.040
      3659.889        2851.883          41.600          41.900    97020418.164 7
  24723506.840        2732.941          44.800


 23 11  9  8 46 30.0000000  0 11G03G04G06G07G09G11G16G19G20G26G30
 128804213.238 6 100366905.62146  24510643.400                    24510648.580
     -3332.772       -2596.978          40.600          40.700    96184949.297 7
  24510650.160       -2488.538          42.650


 114502522.163 7  89222732.48347  21789107.580                    21789108.080
     -2533.494       -1974.154          47.850          46.700    85505128.831 8
  21789113.560       -1892.012          52.300


 108548286.234 8  84583078.20948  20656058.240                    20656059.820
      -826.649        -644.144          51.900          51.900    81058783.115 9
  20656060.480        -617.336          55.100


 118639940.919 7  92446756.15747  22576414.180                    22576413.660
      2728.961        2126.465          46.900          46.900



 106322315.826 8  82848564.40648  20232464.280                    20232464.160
      -671.436        -523.197          52.700          52.650    79396549.212 9
  20232465.980        -501.399          56.800


 114591974.795 8  89292435.40347  21806129.020                    21806128.060
      1760.449        1371.776          49.400          47.050    85571929.776 8
  21806133.640        1314.609          53.800


 131042213.234 6 102110848.15145  24936504.720                    24936510.320
      1875.923        1461.758          39.550          34.900



 131012119.236 6 102087345.04846  24930798.400                    24930800.640
     -3526.986       -2748.311          41.200          38.950



 122036924.103 7  95093682.10646  23222861.000                    23222860.240
      3157.624        2460.486          44.550          41.350



 130037115.113 6 101327654.97446  24745233.680                    24745239.040
       -86.987         -67.782          40.200          39.850    97105681.344 6
  24745238.100         -64.863          41.650


 129813108.934 7 101153126.85247  24702606.640                    24702612.260
      3658.932        2851.137          43.200          42.850    96938437.278 7
  24702615.040        2732.379          44.950


 23 11  9  8 47  0.0000000  0 11G03G04G06G07G09G11G16G19G20G26G30
 128904238.153 6 100444846.81746  24529677.880                    24529683.220
     -3335.735       -2599.285          40.550          40.500    96259642.892 6
  24529684.260       -2490.780          41.700


 114578659.815 7  89282060.43447  21803596.180                    21803596.820
     -2541.638       -1980.499          47.250          46.950    85561984.762 8
  21803602.200       -1898.040          52.200


 108573385.805 8  84602636.26948  20660834.520                    20660836.120
      -846.149        -659.339          51.600          51.550    81077526.244 9
  20660836.920        -631.892          55.100


 118558221.218 7  92383078.49947  22560863.360                    22560863.100
      2719.469        2119.067          46.550          46.300



 106342678.897 8  82864431.69748  20236339.240                    20236339.320
      -685.547        -534.193          52.250          52.250    79411755.366 9
  20236340.780        -511.948          56.600


 114539420.447 8  89251483.92847  21796128.280                    21796127.420
      1743.578        1358.632          49.000          47.700    85532684.606 8
  21796133.080        1302.079          53.650


 130986161.168 6 102067171.37746  24925838.340                    24925843.680
      1861.632        1450.628          39.400          37.900



 131117922.331 6 102169788.92746  24950932.000                    24950934.940
     -3526.245       -2747.726          41.350          39.400



 121942251.149 7  95019911.00946  23204845.280                    23204844.540
      3154.152        2457.782          44.350          41.750



 130040005.504 6 101329907.17946  24745783.860                    24745789.620
      -104.861         -81.712          40.350          40.300    97107839.719 6
  24745788.440         -78.464          40.950


 129703361.576 7 101067610.01147  24681721.800                    24681727.320
      3657.785        2850.241          42.600          42.700    96856483.755 7
  24681729.940        2731.604          43.750


 23 11  9  8 47 30.0000000  0 11G03G04G06G07G09G11G16G19G20G26G30
 129004360.300 6 100522863.75246  24548730.640                    24548736.500
     -3339.084       -2601.896          40.250          40.250    96334409.124 6
  24548737.200       -2493.621          41.600


 114655048.826 7  89341584.25347  21818132.560                    21818133.440
     -2550.751       -1987.602          47.100          47.050    85619028.396 8
  21818138.640       -1904.745          52.050


 108599078.304 8  84622656.35548  20665723.620                    20665725.140
      -866.409        -675.126          51.100          51.250    81096712.154 9
  20665726.360        -647.113          55.300


 118476801.729 7  92319634.78447  22545369.640                    22545369.680
      2708.691        2110.671          46.600          46.850



 106363472.576 8  82880634.53948  20240296.220                    20240296.440
      -700.485        -545.834          52.450          52.300    79427283.082 9
  20240297.720        -523.112          56.750


 114487379.118 8  89210932.20947  21786225.120                    21786224.420
      1725.914        1344.868          48.850          47.550    85493822.538 8
  21786230.000        1288.871          53.600


 130930552.591 6 102023840.20445  24915256.400                    24915261.460
      1845.877        1438.349          39.850          32.650



 131223710.598 6 102252221.23946  24971062.720                    24971066.160
     -3526.184       -2747.681          41.100          37.900



 121847689.519 7  94946226.66047  23186850.720                    23186850.220
      3150.008        2454.552          43.550          42.050



 130043448.981 6 101332590.36146  24746439.280                    24746445.260
      -124.336         -96.887          38.950          38.450    97110411.071 6
  24746443.860         -92.709          41.850


 129593652.539 7 100982123.05047  24660844.260                    24660849.840
      3656.146        2848.962          42.100          42.400    96774558.864 7
  24660852.360        2730.148          43.850


 23 11  9  8 48  0.0000000  0 11G03G04G06G07G09G11G16G19G20G26G30
 129104578.829 6 100600955.81646  24567801.740                    24567808.060
     -3342.654       -2604.673          40.700          41.600    96409247.269 6
  24567808.500       -2495.898          41.800


 114731687.352 7  89401302.48247  21832716.420                    21832717.560
     -2558.928       -1993.973          47.750          46.450    85676258.354 8
  21832722.540       -1910.946          51.850


 108625363.130 8  84643137.98848  20670725.460                    20670726.820
      -886.190        -690.539          51.600          51.450    81116340.382 9
  20670728.460        -661.813          55.350


 118395684.547 7  92256426.65047  22529933.540                    22529933.900
      2698.527        2102.751          47.550          47.250



 106384695.762 8  82897172.04348  20244334.880                    20244335.020
      -714.793        -556.983          52.550          52.250    79443131.520 9
  20244336.460        -533.830          56.750


 114435852.768 8  89170781.77547  21776419.960                    21776419.400
      1708.726        1331.474          49.400          46.950    85455345.033 8
  21776424.820        1275.968          53.550


 130875389.813 6 101980856.34445  24904759.180                    24904764.040
      1831.006        1426.765          39.000          34.900



 131329481.049 6 102334639.68846  24991189.960                    24991193.860
     -3525.524       -2747.165          38.350          36.300



 121753240.645 7  94872630.17447  23168877.720                    23168877.060
      3146.216        2451.599          43.700          42.250



 130047445.649 6 101335704.60046  24747199.600                    24747205.980
      -142.705        -111.198          39.350          39.350    97113395.564 7
  24747205.160        -106.594          42.350


 129483984.098 7 100896667.62747  24639974.520                    24639979.840
      3655.064        2848.117          42.600          42.450    96692664.253 7
  24639982.940        2729.030          43.950


 23 11  9  8 48 30.0000000  0 11G03G04G06G07G09G11G16G19G20G26G30
 129204895.688 6 100679124.47546  24586891.400                    24586898.180
     -3345.309       -2606.743          40.550          40.650    96484158.848 7
  24586898.780       -2498.129          42.600


 114808576.461 7  89461215.96747  21847348.060                    21847349.320
     -2566.855       -2000.151          47.850          46.650    85733675.426 8
  21847354.020       -1916.856          51.550


 108652242.494 8  84664082.90048  20675840.420                    20675841.560
      -905.609        -705.671          51.150          51.050    81136412.577 9
  20675843.540        -676.276          55.250


 118314874.233 7  92193457.62747  22514555.860                    22514556.440
      2688.536        2094.966          47.700          47.550



 106406350.210 8  82914045.59648  20248455.600                    20248455.600
      -728.666        -567.794          52.450          52.550    79459301.996 9
  20248457.300        -544.199          56.700


 114384846.219 8  89131036.38647  21766713.720                    21766713.320
      1691.882        1318.349          49.650          47.300    85417255.692 8
  21766718.580        1263.352          53.600


 130820678.430 6 101938224.26145  24894347.800                    24894352.760
      1816.471        1415.434          38.150          34.650



 131435233.538 6 102417044.07146  25011313.800                    25011318.160
     -3524.590       -2746.438          37.000          36.650



 121658909.033 7  94799125.02446  23150927.020                    23150926.080
      3142.599        2448.778          44.050          41.250



 130051998.614 6 101339252.30446  24748065.780                    24748072.460
      -160.449        -125.028          38.850          38.850    97116795.455 6
  24748072.700        -120.110          41.900


 129374361.456 7 100811247.84047  24619113.460                    24619118.560
      3653.782        2847.117          43.000          42.750    96610803.731 7
  24619122.100        2728.247          45.000


 23 11  9  8 49  0.0000000  0 11G03G04G06G07G09G11G16G19G20G26G30
 129305306.833 6 100757366.62746  24605998.960                    24606006.320
     -3348.382       -2609.139          40.650          40.850    96559140.849 7
  24606007.120       -2500.571          43.750


 114885711.227 8  89521320.87347  21862026.460                    21862027.740
     -2574.944       -2006.453          48.300          45.900    85791275.942 8
  21862032.220       -1922.875          51.100


 108679712.598 8  84685488.12748  20681067.800                    20681068.800
      -925.182        -720.923          51.350          51.200    81156925.916 9
  20681071.020        -690.958          55.300


 118234370.390 8  92130727.39948  22499236.580                    22499237.220
      2678.560        2087.191          48.550          48.100



 106428431.646 8  82931251.86348  20252657.620                    20252657.540
      -742.896        -578.882          52.750          52.750    79475791.329 9
  20252659.360        -554.797          56.700


 114334358.256 8  89091695.08747  21757106.220                    21757105.840
      1674.618        1304.896          49.800          46.550    85379553.614 8
  21757111.060        1250.402          53.800


 130766417.935 6 101895943.54246  24884022.240                    24884027.160
      1801.484        1403.764          38.300          36.750



 131540961.759 6 102499429.60246  25031433.180                    25031437.700
     -3523.301       -2745.437          38.350          38.450



 121564692.934 7  94725709.88646  23132998.220                    23132997.080
      3138.824        2445.838          44.650          38.600



 130057104.963 6 101343231.22146  24749037.300                    24749044.040
      -179.105        -139.566          39.350          39.050    97120608.565 7
  24749045.020        -133.879          42.450


 129264783.657 6 100725862.90546  24598261.140                    24598266.000
      3652.031        2845.751          41.850          41.650    96528976.566 7
  24598269.380        2727.221          44.900


 23 11  9  8 49 30.0000000  0 11G03G04G06G07G09G11G16G19G20G26G30
 129405810.758 6 100835681.07646  24625124.060                    24625131.940
     -3351.753       -2611.765          40.600          39.800    96634192.087 7
  24625132.940       -2502.949          43.700


 114963089.210 7  89581615.31147  21876751.120                    21876752.160
     -2583.319       -2012.980          47.800          46.850    85849058.092 8
  21876756.660       -1929.144          50.650


 108707772.212 8  84707352.71048  20686407.420                    20686408.240
      -945.285        -736.588          51.600          51.650    81177879.463 9
  20686410.520        -705.814          55.200


 118154173.730 8  92068236.57948  22483975.720                    22483976.380
      2668.023        2078.981          48.850          48.900



 106450938.332 8  82948789.50248  20256940.580                    20256940.480
      -757.471        -590.238          52.750          52.700    79492598.223 9
  20256942.240        -565.587          56.650


 114284390.231 8  89052758.92747  21747597.640                    21747597.280
      1656.742        1290.967          49.600          46.800    85342239.780 8
  21747602.560        1237.255          53.950


 130712610.260 6 101854015.65844  24873782.660                    24873787.880
      1785.882        1391.597          38.650          28.750



 131646661.976 6 102581793.27846  25051547.520                    25051551.880
     -3523.056       -2745.241          39.550          38.450



 121470593.289 7  94652385.47746  23115091.620                    23115090.520
      3134.774        2442.682          44.650          38.450



 130062764.242 6 101347641.02646  24750114.240                    24750121.180
      -198.014        -154.296          39.350          39.800    97124834.587 7
  24750122.600        -147.783          42.850


 129155252.411 7 100640514.20047  24577417.660                    24577422.600
      3650.070        2844.219          42.100          42.250    96447184.119 7
  24577425.800        2725.661          44.350


 23 11  9  8 50  0.0000000  0 11G03G04G06G07G09G11G16G19G20G26G30
 129506410.227 6 100914069.97446  24644267.500                    24644275.880
     -3355.086       -2614.364          41.150          41.800    96709314.712 7
  24644276.780       -2505.386          44.650


 115040712.329 7  89642100.76047  21891522.340                    21891523.180
     -2591.625       -2019.451          47.600          45.650    85907023.284 8
  21891527.760       -1935.240          50.400


 108736424.321 8  84729678.97548  20691859.820                    20691860.580
      -965.099        -752.026          51.750          51.600    81199275.451 9
  20691862.820        -720.628          55.300


 118074290.406 8  92005989.89748  22468774.480                    22468775.060
      2657.346        2070.662          48.400          48.300



 106473872.789 8  82966660.45848  20261304.940                    20261304.940
      -771.665        -601.299          52.700          52.750    79509724.552 9
  20261306.520        -576.212          56.900


 114234947.693 8  89014232.23947  21738188.980                    21738188.720
      1639.232        1277.323          49.400          46.750    85305318.371 9
  21738194.000        1224.138          54.100


 130659261.876 6 101812445.68345  24863630.420                    24863635.780
      1770.243        1379.408          38.200          32.300



 131752334.853 6 102664135.64145  25071656.760                    25071660.500
     -3522.303       -2744.653          39.000          35.450



 121376615.488 7  94579156.01546  23097208.200                    23097207.280
      3130.508        2439.356          44.850          38.850



 130068980.214 6 101352484.61346  24751297.080                    24751303.700
      -216.448        -168.662          40.000          39.750    97129476.333 7
  24751305.980        -161.650          43.100


 129045773.747 7 100555206.36847  24556584.340                    24556589.080
      3648.432        2842.937          42.050          42.200    96365430.831 7
  24556592.320        2724.362          44.400


 23 11  9  8 50 30.0000000  0 11G03G04G06G07G09G11G16G19G20G26G30
 129607098.869 6 100992528.37446  24663427.980                    24663436.460
     -3357.635       -2616.348          40.550          40.650    96784503.916 7
  24663437.460       -2507.254          43.750


 115118573.231 7  89702771.48947  21906338.780                    21906339.580
     -2599.092       -2025.270          47.750          45.300    85965166.056 8
  21906344.020       -1940.901          49.700


 108765662.637 8  84752462.02848  20697423.860                    20697424.480
      -984.193        -766.905          52.000          52.050    81221109.202 9
  20697426.660        -734.952          55.100


 117994716.994 8  91943984.73648  22453632.140                    22453632.680
      2647.489        2062.980          49.300          49.450



 106497228.360 8  82984859.56648  20265749.480                    20265749.540
      -785.291        -611.917          52.900          52.800    79527165.364 9
  20265751.000        -586.469          56.600


 114186027.076 8  88976112.25747  21728879.660                    21728879.460
      1622.197        1264.049          49.450          46.800    85268786.723 8
  21728884.640        1211.353          53.550


 130606369.747 6 101771231.19945  24853565.220                    24853570.320
      1755.783        1368.150          39.250          33.950



 131857971.747 7 102746449.91846  25091759.360                    25091762.000
     -3520.459       -2743.223          42.150          37.250



 121282755.625 7  94506018.46246  23079347.240                    23079346.720
      3126.751        2436.431          44.500          39.850



 130075747.443 6 101357757.72246  24752585.020                    24752590.900
      -234.376        -182.634          39.700          40.400    97134529.748 7
  24752593.920        -175.195          42.700


 128936344.489 6 100469936.96346  24535760.480                    24535764.980
      3646.628        2841.533          41.750          41.250    96283714.334 7
  24535768.400        2723.397          44.100


 23 11  9  8 51  0.0000000  0 11G03G04G06G07G09G11G16G19G20G26G30
 129707881.721 6 101071060.17146  24682606.600                    24682615.100
     -3361.057       -2619.017          40.550          40.300    96859763.504 7
  24682616.020       -2509.692          43.500


 115196676.128 7  89763630.79847  21921201.420                    21921201.980
     -2607.254       -2031.629          47.900          45.700    86023489.539 8
  21921206.480       -1946.919          49.600


 108795492.496 8  84775706.01948  20703100.400                    20703101.020
     -1003.965        -782.312          51.850          51.850    81243384.679 9
  20703103.240        -749.687          55.300


 117915461.820 8  91882227.54048  22438550.360                    22438550.760
      2636.771        2054.631          49.000          48.850



 106521009.931 8  83003390.61548  20270275.040                    20270275.100
      -799.567        -623.042          52.800          52.800    79544924.282 9
  20270276.680        -597.080          56.800


 114137636.273 8  88938405.10847  21719671.220                    21719671.060
      1604.358        1250.148          49.400          46.850    85232650.692 8
  21719675.940        1198.066          53.350


 130553942.476 6 101730378.83545  24843588.680                    24843593.260
      1739.891        1355.758          39.100          34.700



 131963575.631 6 102828738.55246  25111855.760                    25111857.940
     -3519.477       -2742.452          40.200          38.200



 121189021.376 7  94432978.77746  23061510.320                    23061510.120
      3122.572        2433.173          44.400          41.150



 130083072.054 6 101363465.20846  24753979.080                    24753984.140
      -253.154        -197.262          40.050          39.800    97139999.388 7
  24753987.640        -189.151          42.000


 128826972.915 6 100384712.43046  24514947.660                    24514952.180
      3645.008        2840.271          39.750          39.000    96202040.862 7
  24514955.080        2721.854          44.850


 23 11  9  8 51 30.0000000  0 11G03G04G06G07G09G11G16G19G20G26G30
 129808753.162 6 101149661.01046  24701802.040                    24701810.580
     -3364.265       -2621.514          39.850          38.800    96935089.231 7
  24701811.380       -2512.171          43.250


 115275014.510 7  89824673.58747  21936108.880                    21936109.340
     -2615.433       -2038.003          47.350          46.700    86081988.875 8
  21936113.940       -1953.072          49.850


 108825908.415 8  84799406.68048  20708888.400                    20708889.060
     -1023.793        -797.763          51.550          51.650    81266097.801 9
  20708891.300        -764.621          55.650


 117836521.981 8  91820716.04648  22423528.580                    22423528.800
      2625.754        2046.045          48.800          48.900



 106545211.606 8  83022249.02548  20274880.520                    20274880.440
      -814.082        -634.351          52.750          52.500    79562996.910 9
  20274882.300        -607.916          57.050


 114089772.438 8  88901108.57647  21710563.180                    21710562.900
      1586.408        1236.161          49.750          47.500    85196908.178 8
  21710567.480        1184.628          53.550


 130501977.655 6 101689886.89645  24833700.000                    24833704.260
      1724.014        1343.388          39.900          34.800



 132069138.484 6 102910995.13245  25131944.160                    25131946.340
     -3518.371       -2741.596          37.000          34.900



 121095409.273 7  94360034.28947  23043696.600                    23043696.720
      3117.979        2429.595          44.950          42.250



 130090949.286 6 101369603.27346  24755478.120                    24755482.420
      -271.921        -211.885          40.150          40.250    97145881.689 7
  24755485.980        -203.210          42.450


 128717656.755 6 100299531.05046  24494145.400                    24494150.080
      3642.527        2838.337          39.650          38.750    96120408.669 7
  24494152.220        2720.166          44.850


 23 11  9  8 52  0.0000000  0 11G03G04G06G07G09G11G16G19G20G26G30
 129909717.945 6 101228334.58946  24721015.220                    24721023.760
     -3366.969       -2623.620          40.200          39.250    97010484.671 7
  24721024.580       -2514.177          42.950


 115353592.280 7  89885902.91447  21951061.860                    21951062.500
     -2623.181       -2044.040          47.800          45.900    86140666.964 8
  21951067.220       -1958.791          49.950


 108856915.277 8  84823567.82148  20714788.760                    20714789.540
     -1043.312        -812.972          51.600          51.500    81289252.211 9
  20714791.940        -779.109          55.600


 117757905.365 8  91759456.41848  22408568.280                    22408568.300
      2615.271        2037.876          49.450          49.850



 106569837.874 8  83041438.28848  20279566.720                    20279566.520
      -827.782        -645.027          52.800          52.900    79581386.608 9
  20279568.620        -618.197          56.950


 114042443.085 8  88864228.52147  21701556.820                    21701556.420
      1568.929        1222.540          49.900          47.000    85161564.784 8
  21701560.880        1171.521          53.550


 130450483.702 6 101649761.85245  24823901.220                    24823904.900
      1708.500        1331.304          40.400          31.250



 132174663.477 6 102993222.22645  25152025.100                    25152026.620
     -3516.611       -2740.216          40.350          34.500



 121001926.569 7  94287190.63646  23025907.440                    23025907.840
      3114.167        2426.623          45.600          41.350



 130099385.011 6 101376176.49746  24757083.600                    24757087.280
      -290.581        -226.429          39.850          39.250    97152181.010 7
  24757091.060        -216.790          43.700


 128608404.008 6 100214399.05346  24473355.300                    24473359.760
      3640.656        2836.879          39.800          39.250    96038823.882 7
  24473362.040        2718.635          43.050


 23 11  9  8 52 30.0000000  0 12G03G04G06G07G09G11G16G19G20G26G29G30
 130010766.407 6 101307073.37446  24740244.260                    24740252.900
     -3369.437       -2625.544          40.850          41.200    97085942.622 7
  24740253.800       -2516.158          43.200


 115432398.881 7  89947310.55047  21966058.280                    21966059.420
     -2630.480       -2049.729          47.600          46.300    86199515.943 8
  21966063.980       -1964.353          49.900


 108888503.453 8  84848181.94548  20720799.760                    20720800.640
     -1062.437        -827.874          51.250          51.300    81312840.738 9
  20720803.020        -793.412          55.400


 117679604.937 8  91698443.16948  22393668.220                    22393667.980
      2604.868        2029.769          49.400          49.450



 106594878.801 8  83060950.65848  20284331.720                    20284331.640
      -841.475        -655.696          51.850          51.950    79600085.953 9
  20284333.840        -628.399          56.750


 113995641.295 8  88827759.55547  21692650.800                    21692650.280
      1551.402        1208.884          49.850          46.700    85126615.349 8
  21692654.860        1158.510          53.600


 130399454.452 6 101609998.88045  24814190.840                    24814194.440
      1693.306        1319.463          40.750          31.550



 132280138.692 6 103075410.64544  25172096.440                    25172097.220
     -3514.978       -2738.942          38.700          29.950



 120908566.284 7  94214442.38547  23008141.580                    23008141.960
      3110.215        2423.545          45.900          42.000



 130108370.244 6 101383177.90446  24758793.360                    24758797.280
      -308.632        -240.496          39.550          39.600    97158890.713 7
  24758801.020        -230.398          43.850


 135752200.155 5 105780931.38646  25832784.100                    25832784.420
      2016.088        1570.979          35.500          36.450



 128499208.265 6 100129311.51246  24452575.960                    24452580.540
      3639.259        2835.790          40.200          40.350    95957281.677 7
  24452582.840        2717.372          44.650


 23 11  9  8 53  0.0000000  0 12G03G04G06G07G09G11G16G19G20G26G29G30
 130111909.712 6 101385886.06646  24759491.460                    24759500.020
     -3372.354       -2627.818          40.300          40.400    97161471.410 7
  24759501.100       -2518.420          43.450


 115511444.615 7  90008904.52247  21981100.160                    21981101.760
     -2638.218       -2055.758          47.500          45.650    86258543.486 8
  21981106.040       -1970.155          49.950


 108920684.220 8  84873257.82148  20726923.580                    20726924.520
     -1082.080        -843.181          51.450          51.600    81336871.770 9
  20726926.880        -807.999          55.350


 117601635.043 8  91637687.47548  22378831.100                    22378830.620
      2593.996        2021.298          49.800          49.850



 106620345.283 8  83080794.63048  20289177.620                    20289177.840
      -855.470        -666.601          51.500          51.400    79619103.079 9
  20289179.940        -638.836          56.750


 113949380.960 8  88791712.50247  21683847.800                    21683847.220
      1533.529        1194.956          49.500          47.200    85092070.260 8
  21683852.000        1145.132          53.650


 130348904.150 6 101570609.13945  24804571.540                    24804574.960
      1677.716        1307.313          40.500          32.800



 132385573.186 5 103157567.15645  25192159.420                    25192160.560
     -3512.541       -2737.060          32.850          32.250



 120815341.771 7  94141799.90146  22990401.760                    22990401.720
      3105.645        2419.982          46.150          41.500



 130117917.088 6 101390616.92746  24760610.080                    24760614.360
      -326.957        -254.774          39.400          39.800    97166019.789 7
  24760617.420        -244.429          44.050


 135691945.075 6 105733979.15846  25821318.180                    25821318.360
      2001.719        1559.775          40.750          40.400



 128390084.020 6 100044279.70846  24431810.120                    24431815.100
      3636.769        2833.849          40.700          40.650    95875792.827 7
  24431816.760        2715.734          44.550


 23 11  9  8 53 30.0000000  0 12G03G04G06G07G09G11G16G19G20G26G29G30
 130213135.135 6 101464762.75746  24778754.240                    24778763.000
     -3375.942       -2630.611          40.850          41.100    97237061.511 7
  24778764.300       -2521.175          44.350


 115590715.895 8  90070674.25747  21996185.100                    21996186.580
     -2646.690       -2062.359          48.700          43.900    86317739.461 8
  21996190.800       -1976.453          49.800


 108953444.908 8  84898785.57848  20733157.780                    20733158.800
     -1102.364        -858.986          51.900          51.900    81361335.851 9
  20733160.900        -823.125          55.200


 117523985.691 8  91577181.55148  22364054.920                    22364054.180
      2582.345        2012.220          49.650          49.650



 106646224.310 8  83100960.04848  20294102.100                    20294102.500
      -870.147        -678.039          51.950          51.850    79638428.255 9
  20294104.480        -649.787          56.600


 113903652.088 8  88756079.57647  21675145.880                    21675145.440
      1514.834        1180.388          50.050          46.750    85057922.035 8
  21675150.260        1131.168          53.550


 130298823.865 6 101531585.65945  24795041.560                    24795044.880
      1660.772        1294.112          40.200          34.900



 132490952.215 6 103239680.47645  25212212.140                    25212214.120
     -3512.347       -2736.899          39.650          35.900



 120722242.995 7  94069255.39846  22972685.840                    22972685.280
      3100.382        2415.882          46.650          40.900



 130128013.698 6 101398484.31346  24762531.420                    24762536.420
      -346.353        -269.888          39.550          38.850    97173559.335 7
  24762539.180        -258.646          44.350


 135632138.796 6 105687376.85546  25809937.640                    25809937.600
      1985.647        1547.258          38.650          38.850



 128281021.749 6  99959296.24846  24411056.220                    24411061.620
      3633.854        2831.581          40.100          40.400    95794350.350 7
  24411062.680        2713.561          44.800


 23 11  9  8 54  0.0000000  0 12G03G04G06G07G09G11G16G19G20G26G29G30
 130314452.393 6 101543711.03446  24798034.700                    24798042.980
     -3379.126       -2633.094          40.900          40.800    97312720.180 7
  24798045.000       -2523.129          45.000


 115670221.478 8  90132626.58447  22011314.700                    22011316.000
     -2654.207       -2068.216          48.250          44.550    86377110.416 8
  22011320.120       -1981.951          49.950


 108986795.226 8  84924772.79048  20739504.180                    20739505.280
     -1121.478        -873.880          51.800          51.900    81386240.253 9
  20739507.120        -837.532          55.200


 117446669.597 8  91516935.29448  22349342.180                    22349341.380
      2571.499        2003.767          49.750          49.650



 106672525.279 8  83121454.26248  20299106.960                    20299107.400
      -883.886        -688.743          52.150          52.000    79658068.536 9
  20299109.260        -660.023          56.650


 113858467.036 8  88720870.40847  21666547.500                    21666547.160
      1497.050        1166.530          49.900          47.200    85024179.910 8
  21666551.920        1117.890          53.600


 130249226.661 6 101492938.54045  24785603.340                    24785606.520
      1645.193        1281.973          40.550          31.300



 132596283.108 6 103321756.45045  25232256.100                    25232258.120
     -3510.237       -2735.251          41.300          33.900



 120629282.527 7  93996818.63746  22954996.220                    22954995.080
      3096.189        2412.613          46.350          40.150



 130138670.610 6 101406788.26346  24764559.360                    24764564.580
      -364.881        -284.326          39.800          38.900    97181517.251 7
  24764567.660        -272.373          44.000


 135572794.353 6 105641134.33145  25798645.040                    25798645.060
      1969.869        1534.955          36.550          35.800



 128172034.434 6  99874371.21946  24390316.460                    24390321.860
      3631.279        2829.579          39.550          39.250    95712963.896 7
  24390323.060        2711.924          44.600


 23 11  9  8 54 30.0000000  0 12G03G04G06G07G09G11G16G19G20G26G29G30
 130415850.811 6 101622722.53746  24817330.580                    24817338.740
     -3381.157       -2634.678          40.200          40.050    97388439.500 7
  24817341.160       -2524.960          45.550


 115749950.017 7  90194752.62647  22026486.640                    22026487.880
     -2661.236       -2073.694          47.350          44.200    86436647.861 8
  22026492.060       -1987.348          50.550


 109020724.620 8  84951211.22948  20745960.680                    20745961.940
     -1140.560        -888.749          51.400          51.350    81411577.079 9
  20745963.580        -851.754          55.450


 117369679.191 8  91456942.83348  22334691.300                    22334690.440
      2560.842        1995.463          49.400          49.400



 106699237.336 8  83142268.81348  20304190.160                    20304190.620
      -897.086        -699.029          52.150          52.150    79678015.805 9
  20304192.220        -669.970          56.650


 113813817.945 8  88686078.88647  21658051.000                    21658050.920
      1479.291        1152.693          49.650          47.150    84990838.019 8
  21658055.460        1104.714          53.550


 130200104.820 6 101454661.84145  24776255.300                    24776258.660
      1629.636        1269.850          38.950          32.550



 132701553.423 6 103403785.17546  25252288.640                    25252290.500
     -3507.812       -2733.362          39.550          36.500



 120536452.146 7  93924483.26346  22937331.140                    22937329.620
      3092.201        2409.507          45.850          39.750



 130149878.048 6 101415521.20946  24766692.220                    24766697.380
      -382.648        -298.172          40.200          38.900    97189886.296 7
  24766700.720        -285.757          44.500


 135513903.748 5 105595245.49945  25787438.480                    25787438.740
      1955.317        1523.626          32.600          31.350



 128063114.646 6  99789498.85746  24369589.580                    24369595.040
      3629.498        2828.188          40.250          39.650    95631627.967 7
  24369596.700        2710.287          44.700


 23 11  9  8 55  0.0000000  0 12G03G04G06G07G09G11G16G19G20G26G29G30
 130517334.735 6 101701800.66946  24836642.780                    24836650.780
     -3384.130       -2636.991          40.750          41.000    97464222.631 7
  24836653.440       -2527.089          45.200


 115829904.946 7  90257055.07547  22041701.540                    22041702.740
     -2668.752       -2079.550          47.850          44.200    86496354.352 8
  22041707.020       -1992.930          50.500


 109055237.378 8  84978104.24148  20752528.120                    20752529.600
     -1160.051        -903.937          51.050          51.050    81437349.534 9
  20752531.200        -866.274          55.200


 117293021.619 8  91397209.71348  22320103.800                    22320103.080
      2549.830        1986.884          49.250          49.250



 106726364.526 8  83163406.84048  20309352.400                    20309352.940
      -910.988        -709.862          52.550          52.600    79698273.060 9
  20309354.260        -680.290          56.350


 113769711.786 8  88651710.42447  21649657.760                    21649657.980
      1461.254        1138.639          49.350          47.750    84957901.568 8
  21649662.240        1091.200          53.050


 130151466.206 6 101416761.71645  24766999.180                    24767002.980
      1613.150        1257.000          40.000          34.700



 132806765.245 6 103485768.20045  25272309.900                    25272312.080
     -3505.916       -2731.889          37.850          35.950



 120443758.618 7  93852254.53846  22919691.960                    22919690.480
      3087.798        2406.074          46.300          40.150



 130161641.153 6 101424687.08346  24768930.840                    24768936.300
      -401.248        -312.668          40.650          40.600    97198670.221 7
  24768939.240        -299.670          43.600


 135455474.257 5 105549716.09545  25776319.960                    25776320.120
      1939.662        1511.424          31.950          32.100



 127954269.960 6  99704685.05446  24348877.040                    24348882.580
      3626.760        2826.055          39.700          39.900    95550348.082 7
  24348884.160        2708.425          45.400


 23 11  9  8 55 30.0000000  0 12G03G04G06G07G09G11G16G19G20G26G29G30
 130618904.265 6 101780945.51246  24855971.140                    24855978.860
     -3386.878       -2639.133          40.600          40.250    97540069.727 7
  24855981.740       -2529.216          45.100


 115910085.546 7  90319533.37747  22056959.440                    22056960.540
     -2676.181       -2085.339          47.050          44.150    86556229.366 8
  22056965.120       -1998.569          50.700


 109090333.576 8  85005451.89548  20759206.620                    20759208.300
     -1179.442        -919.046          50.750          50.650    81463557.701 9
  20759210.000        -880.729          55.450


 117216700.174 8  91337738.47648  22305580.140                    22305579.580
      2538.567        1978.104          48.800          48.950



 106753906.645 8  83184868.18648  20314593.580                    20314594.120
      -924.836        -720.652          51.900          51.850    79718840.182 9
  20314595.380        -690.616          56.400


 113726151.349 8  88617767.20847  21641368.300                    21641368.820
      1442.972        1124.393          49.100          47.800    84925372.641 8
  21641372.800        1077.571          53.050


 130103314.792 6 101379241.25445  24757836.120                    24757840.240
      1596.983        1244.405          41.200          35.900



 132911916.813 6 103567704.30646  25292319.580                    25292322.300
     -3503.710       -2730.170          39.950          39.600



 120351204.555 7  93780134.48146  22902079.440                    22902077.940
      3082.949        2402.298          45.900          41.050



 130173960.796 6 101434286.63246  24771275.320                    24771280.780
      -420.026        -327.301          40.350          40.850    97207869.750 7
  24771283.120        -313.396          42.900


 135397509.989 6 105504553.10746  25765289.580                    25765289.680
      1924.443        1499.560          41.800          41.600



 127845503.685 6  99619932.37046  24328179.280                    24328184.880
      3624.527        2824.313          41.050          41.150    95469126.805 7
  24328186.620        2706.537          45.650


 23 11  9  8 56  0.0000000  0 12G03G04G06G07G09G11G16G19G20G26G29G30
 130720556.271 6 101860154.62346  24875315.140                    24875322.760
     -3389.819       -2641.425          40.650          41.150    97615978.390 7
  24875325.980       -2531.127          45.700


 115990487.789 7  90382184.37347  22072259.480                    22072260.620
     -2683.535       -2091.070          46.300          43.650    86616269.872 8
  22072265.240       -2003.976          50.750


 109126009.994 8  85033251.66448  20765995.580                    20765997.460
     -1198.801        -934.131          50.900          50.800    81490199.132 9
  20765999.240        -895.144          55.550


 117140714.209 8  91278528.69448  22291120.360                    22291120.080
      2527.240        1969.279          48.700          48.750



 106781860.194 8  83206650.13048  20319913.040                    20319913.440
      -938.459        -731.269          52.050          52.100    79739714.539 9
  20319914.780        -700.873          56.300


 113683136.091 8  88584248.80847  21633182.680                    21633183.300
      1424.895        1110.307          49.100          47.800    84893250.830 8
  21633187.160        1063.984          53.150


 130055650.267 6 101342100.15845  24748765.840                    24748770.040
      1580.537        1231.591          40.300          33.800



 133017002.950 6 103649589.34846  25312316.920                    25312319.960
     -3501.356       -2728.338          37.350          36.100



 120258789.333 7  93708122.61746  22884493.560                    22884492.060
      3078.298        2398.673          47.000          40.600



 130186834.555 6 101444317.98446  24773725.340                    24773730.960
      -438.074        -341.360          40.350          40.200    97217483.093 7
  24773732.600        -327.246          42.400


 135340007.909 5 105459746.15845  25754347.440                    25754347.220
      1909.271        1487.734          33.950          34.650



 127736815.894 6  99535240.83346  24307496.480                    24307502.120
      3621.768        2822.165          40.600          41.050    95387964.140 7
  24307503.940        2704.506          46.050


 23 11  9  8 56 30.0000000  0 12G03G04G06G07G09G11G16G19G20G26G29G30
 130822287.622 6 101939425.58546  24894674.100                    24894681.760
     -3392.398       -2643.436          39.850          39.600    97691946.340 7
  24894684.980       -2533.235          44.100


 116071107.779 7  90445005.04847  22087600.880                    22087602.160
     -2690.887       -2096.798          46.200          44.100    86676472.993 8
  22087606.680       -2009.503          50.400


 109162263.514 8  85061501.12548  20772894.460                    20772896.420
     -1218.166        -949.222          50.400          50.350    81517271.527 9
  20772898.240        -909.661          55.250


 117065063.814 8  91219580.36948  22276724.460                    22276724.440
      2516.059        1960.566          48.400          48.450



 106810221.862 8  83228750.08848  20325310.140                    20325310.440
      -952.255        -742.019          51.700          51.650    79760893.661 9
  20325311.800        -711.109          55.950


 113640665.612 8  88551154.90647  21625100.880                    21625101.300
      1406.581        1096.036          49.100          47.600    84861535.832 8
  21625105.320        1050.323          53.100


 130008472.721 6 101305338.59645  24739788.260                    24739792.780
      1564.327        1218.963          40.100          31.650



 133122018.573 5 103731419.48845  25332300.780                    25332304.020
     -3499.724       -2727.063          35.900          35.350



 120166512.539 7  93636218.62446  22866934.120                    22866932.600
      3073.484        2394.923          47.600          40.800



 130200260.130 6 101454779.32146  24776280.320                    24776286.380
      -456.489        -355.711          39.550          38.850    97227508.536 7
  24776287.460        -341.168          42.600


 135282969.620 6 105415300.64846  25743493.340                    25743493.260
      1893.405        1475.384          39.400          39.550



 127628206.757 6  99450610.59046  24286828.720                    24286834.320
      3618.964        2819.982          40.800          40.650    95306860.194 7
  24286836.160        2702.436          45.400


 23 11  9  8 57  0.0000000  0 12G03G04G06G07G09G11G16G19G20G26G29G30
 130924104.662 6 102018763.29546  24914049.280                    24914057.080
     -3394.798       -2645.308          39.750          40.100    97767978.316 7
  24914059.940       -2535.400          43.500


 116151951.029 7  90507999.70747  22102985.040                    22102986.040
     -2698.289       -2102.565          47.000          43.350    86736842.837 8
  22102990.480       -2015.010          50.700


 109199100.316 8  85090205.08448  20779904.440                    20779906.300
     -1237.388        -964.199          51.100          51.350    81544779.488 9
  20779908.160        -924.040          55.350


 116989758.131 8  91160900.66648  22262394.240                    22262394.280
      2504.573        1951.616          49.200          49.150



 106838997.664 8  83251172.74548  20330786.020                    20330786.360
      -965.931        -752.675          52.150          52.000    79782382.036 9
  20330787.540        -721.288          56.050


 113598748.866 8  88518492.47047  21617124.560                    21617124.560
      1388.195        1081.709          49.800          47.050    84830234.321 8
  21617129.020        1036.622          53.600


 129961792.068 6 101268964.17946  24730905.300                    24730909.900
      1547.904        1206.164          39.800          36.350



 133227088.064 5 103813328.13845  25352272.020                    25352275.400
     -3496.360       -2724.445          35.500          35.900



 120074382.942 8  93564429.31947  22849402.720                    22849401.160
      3068.731        2391.219          48.100          42.300



 130214244.684 6 101465676.24946  24778941.500                    24778948.360
      -475.441        -370.479          38.250          38.250    97237951.364 7
  24778949.180        -354.918          42.950


 135226403.979 6 105371223.41946  25732729.020                    25732729.300
      1877.551        1463.026          37.350          36.700



 127519685.800 6  99366048.99846  24266177.660                    24266183.000
      3615.938        2817.621          40.800          40.950    95225822.072 7
  24266185.240        2700.199          45.550


 23 11  9  8 57 30.0000000  0 12G03G04G06G07G09G11G16G19G20G26G29G30
 131025999.298 6 102098161.49546  24933439.060                    24933446.980
     -3398.091       -2647.872          40.300          40.200    97844068.217 7
  24933449.840       -2537.526          43.550


 116233008.603 7  90571161.36347  22118410.000                    22118410.900
     -2705.667       -2108.314          47.800          43.650    86797372.730 8
  22118415.340       -2020.447          50.800


 109236512.230 8  85119357.18048  20787023.900                    20787025.600
     -1256.781        -979.312          51.500          51.600    81572716.909 9
  20787027.340        -938.526          55.100


 116914791.860 8  91102485.42648  22248128.600                    22248128.820
      2493.139        1942.707          48.450          48.450



 106868179.196 8  83273911.56148  20336339.160                    20336339.460
      -979.634        -763.353          51.750          51.800    79804173.397 9
  20336340.580        -731.518          56.200


 113557380.320 8  88486257.20247  21609252.560                    21609252.220
      1369.567        1067.194          49.700          46.800    84799342.188 8
  21609257.100        1022.788          53.800


 129915603.322 6 101232973.05845  24722115.800                    24722120.320
      1530.913        1192.922          39.150          35.850



 133331961.475 6 103895047.41345  25372229.080                    25372232.340
     -3494.934       -2723.337          37.450          34.800



 119982394.650 7  93492750.12246  22831898.120                    22831896.580
      3063.676        2387.280          47.900          41.500



 130228780.677 6 101477002.86246  24781707.660                    24781714.900
      -493.751        -384.746          38.000          38.150    97248806.015 7
  24781715.920        -368.717          43.000


 135170306.031 5 105327510.79646  25722053.780                    25722054.120
      1861.378        1450.428          35.100          36.250



 127411248.175 6  99281552.31946  24245542.600                    24245547.580
      3613.250        2815.521          41.350          41.350    95144846.137 7
  24245550.080        2697.988          46.750


 23 11  9  8 58  0.0000000  0 12G03G04G06G07G09G11G16G19G20G26G29G30
 131127974.341 6 102177622.38146  24952844.180                    24952852.220
     -3400.661       -2649.874          38.150          37.650    97920218.168 7
  24952854.900       -2539.256          43.000


 116314282.519 7  90634491.59747  22133876.080                    22133877.120
     -2712.646       -2113.754          47.000          43.950    86858064.175 8
  22133881.540       -2025.637          50.800


 109274501.959 8  85148959.51348  20794253.340                    20794254.760
     -1275.856        -994.176          52.100          52.250    81601085.801 9
  20794256.360        -952.703          54.650


 116840170.735 8  91044339.12248  22233928.640                    22233928.760
      2481.784        1933.859          48.950          48.900



 106897768.948 8  83296968.47348  20341969.900                    20341970.260
      -992.984        -773.755          51.650          51.700    79826269.594 9
  20341971.540        -741.490          56.300


 113516565.387 8  88454453.31947  21601485.800                    21601485.320
      1351.433        1053.063          50.100          46.700    84768863.473 8
  21601490.500        1009.182          53.700


 129869912.620 6 101197370.01845  24713421.160                    24713425.560
      1514.693        1180.282          40.800          33.900



 133436759.681 6 103976708.20546  25392171.980                    25392174.960
     -3491.846       -2720.926          41.250          39.750



 119890553.892 7  93421185.90047  22814421.220                    22814420.060
      3059.039        2383.667          46.550          42.250



 130243871.678 6 101488762.03046  24784579.440                    24784586.800
      -511.985        -398.948          38.900          39.900    97260075.196 7
  24784588.000        -382.439          42.900


 135114681.421 6 105284166.72246  25711468.820                    25711469.160
      1846.207        1438.604          36.850          36.750



 127302899.977 6  99197125.30846  24224924.560                    24224929.340
      3610.239        2813.177          41.550          41.100    95063936.921 7
  24224931.700        2695.951          46.350


 23 11  9  8 58 30.0000000  0 12G03G04G06G07G09G11G16G19G20G26G29G30
 131230029.219 6 102257145.47046  24972264.400                    24972272.420
     -3403.086       -2651.760          38.550          37.600    97996427.795 7
  24972275.300       -2541.301          42.600


 116395771.471 7  90697989.37747  22149382.860                    22149384.240
     -2719.879       -2119.390          46.150          44.650    86918916.187 8
  22149388.720       -2031.161          50.800


 109313068.769 8  85179011.52048  20801592.480                    20801593.800
     -1295.244       -1009.284          51.750          51.700    81629885.637 9
  20801595.000        -967.221          54.450


 116765897.086 8  90986463.58848  22219794.780                    22219795.040
      2469.898        1924.597          48.400          48.550



 106927766.054 8  83320342.80148  20347678.140                    20347678.600
     -1006.778        -784.504          51.600          51.600    79848669.986 9
  20347680.200        -751.829          56.650


 113476306.109 8  88423082.42847  21593824.700                    21593824.240
      1332.680        1038.451          49.600          47.050    84738799.704 8
  21593829.500         995.090          53.800


 129824722.736 6 101162157.19145  24704821.860                    24704826.300
      1497.769        1167.094          40.850          33.600



 133541479.989 5 104058308.19745  25412100.040                    25412102.880
     -3489.677       -2719.237          34.000          34.100



 119798862.494 7  93349738.06546  22796972.420                    22796971.820
      3053.791        2379.579          45.300          41.000



 130259517.744 6 101500953.73746  24787556.980                    24787564.260
      -530.718        -413.547          38.250          37.850    97271758.881 7
  24787565.680        -396.370          43.250


                                  25700976.120                    25700976.620
      1830.358        1426.254          27.800          26.600



 127194643.934 6  99112770.08146  24204323.900                    24204328.860
      3607.178        2810.789          41.350          40.850    94983096.529 7
  24204331.180        2693.461          45.950


 23 11  9  8 59  0.0000000  0 12G03G04G06G07G09G11G16G19G20G26G29G30
 131332160.168 6 102336727.84646  24991699.260                    24991707.300
     -3405.582       -2653.703          38.750          38.300    98072694.190 7
  24991710.340       -2543.114          44.050


 116477470.801 7  90761651.04947  22164929.460                    22164931.400
     -2726.629       -2124.650          46.200          44.750    86979925.274 8
  22164935.760       -2036.109          51.050


 109352208.628 8  85209510.06648  20809040.560                    20809041.920
     -1313.921       -1023.837          51.600          51.450    81659113.391 9
  20809042.780        -981.199          54.650


 116691969.961 8  90928858.05548  22205726.800                    22205726.940
      2458.719        1915.887          48.650          48.800



 106958166.366 8  83344031.32148  20353463.120                    20353463.580
     -1019.810        -794.659          52.150          52.050    79871371.462 9
  20353465.480        -761.540          56.900


 113436601.163 8  88392143.48347  21586269.120                    21586268.700
      1314.385        1024.195          49.850          47.250    84709149.870 9
  21586273.880         981.600          54.000


 129780032.669 6 101127333.76245  24696317.660                    24696321.780
      1481.332        1154.279          40.600          34.100



 133646116.931 5 104139847.16443  25432012.040                    25432014.520
     -3486.052       -2716.407          32.650          23.750



 119707319.116 7  93278405.57346  22779551.920                    22779551.560
      3048.935        2375.792          45.650          41.550



 130275715.747 6 101513575.55046  24790639.420                    24790646.440
      -548.886        -427.703          39.400          39.900    97283854.729 7
  24790647.760        -409.904          42.550


 135004854.569 5 105198584.83345  25690569.220                    25690570.280
      1814.918        1414.215          31.250          32.850



 127086479.450 6  99028486.19846  24183740.900                    24183745.900
      3604.313        2808.559          41.900          41.950    94902324.480 7
  24183748.000        2691.486          46.750


 23 11  9  8 59 30.0000000  0 12G03G04G06G07G09G11G16G19G20G26G29G30
 131434366.722 6 102416369.10646  25011148.620                    25011156.480
     -3408.032       -2655.618          37.700          37.100    98149017.018 7
  25011160.300       -2544.891          43.750


 116559379.360 7  90825475.78647  22180516.000                    22180518.100
     -2733.386       -2129.915          46.550          44.650    87041090.621 8
  22180522.680       -2041.205          50.900


 109391921.029 8  85240454.74648  20816597.500                    20816599.140
     -1333.003       -1038.705          51.600          51.650    81688768.688 9
  20816599.520        -995.373          54.400


 116618391.900 8  90871524.52748  22191725.300                    22191725.460
      2446.917        1906.688          49.100          49.050



 106988969.250 8  83368033.53848  20359324.720                    20359325.140
     -1033.110        -805.022          52.300          52.200    79894373.579 9
  20359327.120        -771.506          56.400


 113397452.788 8  88361638.22947  21578819.400                    21578819.060
      1296.009        1009.876          49.500          47.350    84679915.664 8
  21578824.180         967.757          53.800


 129735845.519 6 101092902.21245  24687908.860                    24687913.440
      1464.510        1141.175          41.150          31.700



 133750668.182 5 104221315.51045  25451907.680                    25451909.940
     -3483.355       -2714.317          34.700          33.400



 119615926.009 7  93207190.17847  22762160.260                    22762159.860
      3044.092        2372.021          46.150          43.000



 130292465.844 6 101526627.62146  24793826.520                    24793833.880
      -567.458        -442.173          38.950          38.350    97296362.964 7
  24793834.960        -423.610          43.000


 134950656.080 5 105156352.14445  25680256.500                    25680256.920
      1799.313        1402.059          32.300          33.050



 126978409.559 6  98944275.96946  24163175.860                    24163180.400
      3600.784        2805.808          41.700          41.900    94821623.054 7
  24163182.960        2689.024          47.100


                            4  1
RINEX FILE SPLICE; other post-header comments skipped       COMMENT
 23 11  9  9  0  0.0000000  0 12G03G04G06G07G09G11G16G19G20G26G29G30
 131536648.491 6 102496068.97146  25030612.260                    25030620.060
     -3411.260       -2658.133          40.050          39.950    98225396.036 7
  25030624.160       -2547.221          43.350


 116641495.905 7  90889462.59347  22196142.440                    22196144.460
     -2740.920       -2135.786          47.150          44.850    87102411.296 8
  22196149.240       -2046.918          51.450


 109432205.282 8  85271845.03348  20824263.280                    20824265.120
     -1352.675       -1054.034          51.350          51.350    81718851.028 9
  20824265.440       -1010.128          54.700


 116545165.254 8  90814464.82348  22177790.680                    22177790.700
      2434.507        1897.020          48.850          48.750



 107020173.906 8  83392348.81948  20365262.760                    20365263.240
     -1047.258        -816.047          52.000          51.950    79917675.719 9
  20365265.120        -782.065          56.350


 113358863.039 8  88331568.27547  21571475.980                    21571475.760
      1276.590         994.744          49.100          47.250    84651098.615 8
  21571480.800         953.271          53.900


 129692163.705 6 101058864.35145  24679596.280                    24679601.280
      1447.209        1127.688          39.650          34.050



 133855132.041 6 104302716.73546  25471786.680                    25471789.140
     -3481.053       -2712.522          39.600          37.700



 119524684.994 7  93136093.29947  22744797.840                    22744797.200
      3038.535        2367.691          47.050          42.450



 130309768.212 6 101540110.10346  24797119.180                    24797126.480
      -586.302        -456.854          40.050          39.650    97309283.702 7
  24797126.960        -437.811          43.000


 134896936.543 6 105114492.69546  25670034.680                    25670034.220
      1782.416        1388.893          39.100          38.900



 126870436.959 6  98860141.60146  24142629.220                    24142633.600
      3597.142        2802.972          41.400          41.200    94740994.324 7
  24142636.420        2686.069          47.700


 23 11  9  9  0 30.0000000  0 11G03G04G06G07G09G11G16G20G26G29G30
 131639007.746 6 102575829.25346  25050090.800                    25050098.360
     -3413.175       -2659.625          39.650          39.500    98301832.957 7
  25050102.680       -2548.761          43.150


 116723822.061 7  90953612.74047  22211808.920                    22211810.520
     -2747.230       -2140.702          47.750          44.100    87163888.492 8
  22211815.820       -2051.752          51.200


 109473063.587 8  85303682.62648  20832038.360                    20832040.340
     -1371.313       -1068.558          51.650          51.600    81749362.044 9
  20832040.780       -1024.102          54.800


 116472295.324 8  90757683.06848  22163924.000                    22163923.820
      2423.204        1888.211          49.550          49.600



 107051782.389 8  83416978.76948  20371277.700                    20371278.260
     -1060.144        -826.087          51.850          51.900    79941279.418 9
  20371279.980        -791.699          56.150


 113320836.812 8  88301937.42647  21564239.740                    21564239.640
      1258.176         980.396          48.750          47.150    84622702.373 8
  21564244.700         939.568          53.700


 129648993.071 6 101025224.77546  24671380.860                    24671386.780
      1430.281        1114.501          38.400          36.200



 119433601.392 7  93065119.05447  22727465.480                    22727464.420
      3033.724        2363.939          47.250          43.000



 130327625.839 6 101554025.22446  24800517.320                    24800524.480
      -604.472        -471.018          39.450          39.250    97322619.081 7
  24800524.220        -451.297          42.000


 134843701.342 6 105073010.62746  25659904.600                    25659904.040
      1766.187        1376.247          39.000          38.400



 126762567.435 7  98776087.55747  24122102.320                    24122106.780
      3594.022        2800.541          42.050          42.550    94660442.543 7
  24122109.460        2683.826          47.250


 23 11  9  9  1  0.0000000  0 12G03G04G06G07G09G11G16G19G20G26G29G30
 131741442.053 6 102655647.94346  25069583.600                    25069590.960
     -3416.508       -2662.227          39.600          38.150    98378325.810 7
  25069596.040       -2551.045          43.800


 116806354.513 7  91017923.63147  22227514.480                    22227515.940
     -2755.190       -2146.905          46.650          44.550    87225519.714 8
  22227521.400       -2057.277          50.950


 109514493.068 8  85335965.28948  20839922.180                    20839924.200
     -1391.020       -1083.913          51.700          51.800    81780299.580 9
  20839924.980       -1038.730          54.800


 116399782.346 8  90701179.47948  22150125.240                    22150124.940
      2410.521        1878.330          49.250          49.250



 107083791.801 8  83441921.12948  20377368.960                    20377369.500
     -1074.027        -836.905          51.800          51.700    79965182.521 9
  20377371.120        -802.064          55.950


 113283373.995 8  88272745.60247  21557110.720                    21557110.600
      1239.042         965.486          48.650          47.750    84594726.879 8
  21557115.780         925.131          53.500


 129606334.963 6 100991984.55246  24663263.180                    24663269.240
      1412.666        1100.773          38.250          37.350



 134063805.146 5 104465326.36945  25511494.140                    25511498.480
     -3474.903       -2707.692          33.550          30.350



 119342675.823 7  92994267.96547  22710163.140                    22710161.900
      3027.660        2359.217          46.950          43.650



 130346036.614 6 101568371.43446  24804020.820                    24804027.660
      -623.405        -485.766          39.450          38.900    97336367.575 7
  24804027.200        -465.531          42.400


 134790950.610 6 105031906.07746  25649866.480                    25649866.120
      1749.490        1363.238          40.150          39.800



 126654801.639 6  98692114.34746  24101595.220                    24101599.660
      3589.807        2797.256          41.850          41.650    94579968.247 7
  24101602.320        2680.743          46.850


 23 11  9  9  1 30.0000000  0 11G03G04G06G07G09G11G16G20G26G29G30
 131843944.202 6 102735519.52746  25089089.380                    25089096.420
     -3417.976       -2663.372          40.500          40.200    98454869.354 7
  25089101.640       -2552.399          42.850


 116889085.430 7  91082389.15047  22243257.660                    22243258.960
     -2761.048       -2151.472          46.650          45.300    87287299.130 8
  22243264.520       -2061.808          53.050


 109556486.440 8  85368687.35048  20847913.320                    20847915.260
     -1409.239       -1098.109          50.800          50.850    81811658.218 9
  20847916.560       -1052.395          55.000


 116327622.098 7  90644950.73847  22136393.620                    22136393.020
      2399.483        1869.730          47.250          47.150



 107116194.736 8  83467170.13248  20383535.080                    20383535.480
     -1086.649        -846.744          50.600          50.550    79989379.486 9
  20383537.220        -811.549          55.050


 113246470.038 7  88243989.27247  21550087.980                    21550087.880
      1220.785         951.268          46.600          44.250    84567168.727 8
  21550093.220         911.507          51.600


 129564183.984 6 100959139.39645  24655242.300                    24655248.120
      1395.983        1087.769          37.650          34.300



 119251903.530 7  92923536.32746  22692889.720                    22692888.520
      3023.038        2355.618          44.300          41.400



 130364994.073 6 101583143.65446  24807628.220                    24807634.580
      -640.875        -499.381          39.000          39.400    97350524.313 6
  24807634.440        -478.943          41.700


 134738679.973 6 104991175.65746  25639919.700                    25639919.560
      1734.177        1351.299          38.800          39.550



 126547135.803 6  98608219.06445  24081107.080                    24081111.560
      3587.688        2795.610          36.300          35.750    94499568.706 7
  24081114.460        2678.646          43.200


 23 11  9  9  2  0.0000000  0 11G03G04G06G07G09G11G16G20G26G29G30
 131946632.199 6 102815586.21746  25108609.620                    25108616.520
     -3419.739       -2664.738          39.700          40.000    98531469.540 7
  25108621.820       -2554.030          42.900


 116972021.968 7  91147014.91547  22259039.980                    22259041.380
     -2767.474       -2156.477          47.400          43.950    87349232.143 8
  22259046.600       -2066.559          51.150


 109599051.244 8  85401854.67148  20856013.200                    20856015.080
     -1427.937       -1112.681          51.650          51.550    81843443.561 9
  20856016.820       -1066.286          55.750


 116255825.313 8  90589005.22348  22122731.120                    22122730.480
      2387.591        1860.462          49.600          49.700



 107148998.896 8  83492731.80148  20389777.580                    20389777.800
     -1099.644        -856.866          52.350          52.250    80013876.054 9
  20389779.800        -821.096          56.650


 113210135.406 8  88215676.51747  21543173.580                    21543173.420
      1202.133         936.727          48.700          46.300    84540035.654 9
  21543178.940         897.702          54.100


 129522551.906 6 100926698.67046  24647320.420                    24647325.820
      1379.371        1074.830          39.850          37.650



 119161294.979 7  92852932.28547  22675647.220                    22675646.320
      3018.018        2351.703          45.700          43.200



 130384506.456 6 101598348.32346  24811341.280                    24811347.280
      -658.763        -513.313          40.500          40.600    97365095.519 6
  24811346.680        -492.202          41.350


 134686899.838 6 104950827.45146  25630066.020                    25630066.400
      1718.082        1338.757          38.800          39.050



 126439581.223 7  98524410.46047  24060640.060                    24060644.760
      3583.787        2792.568          43.300          43.300    94419252.122 8
  24060647.520        2676.143          48.000


 23 11  9  9  2 30.0000000  0 11G03G04G06G07G09G11G16G20G26G29G30
 132049280.181 6 102895571.35146  25128142.940                    25128150.060
     -3422.634       -2666.996          40.000          39.300    98608121.915 7
  25128155.220       -2555.945          42.350


 117055157.546 7  91211795.77747  22274860.360                    22274861.640
     -2774.401       -2161.875          47.400          44.250    87411313.771 8
  22274866.560       -2071.776          50.300


 109642181.396 8  85435462.52648  20864220.660                    20864222.460
     -1446.986       -1127.523          52.000          52.000    81875651.081 9
  20864224.580       -1080.595          55.650


 116184388.826 8  90533340.47148  22109137.220                    22109136.500
      2375.335        1850.912          49.800          49.700



 107182197.971 8  83518601.18448  20396095.300                    20396095.300
     -1113.096        -867.348          52.850          52.750    80038667.538 9
  20396097.480        -831.198          56.300


 113174366.566 8  88187804.67447  21536366.940                    21536366.780
      1182.952         921.780          48.750          46.650    84513325.141 8
  21536372.320         883.372          53.950


 129481435.947 6 100894660.12345  24639496.580                    24639501.660
      1361.840        1061.171          39.600          35.950



 119070846.940 7  92782453.30846  22658435.300                    22658434.560
      3012.425        2347.345          46.200          41.700



 130404568.476 6 101613981.22146  24815158.900                    24815164.660
      -677.764        -528.125          39.800          39.750    97380077.112 6
  24815163.900        -506.312          41.550


 134635607.394 6 104910859.27546  25620305.100                    25620305.920
      1701.743        1326.034          38.900          39.400



 126332135.189 7  98440686.47247  24040193.700                    24040198.360
      3579.896        2789.537          43.250          43.050    94339016.661 7
  24040201.140        2673.229          47.600


 23 11  9  9  3  0.0000000  0 11G03G04G06G07G09G11G16G20G26G29G30
 132151999.539 6 102975612.06146  25147690.040                    25147697.300
     -3424.507       -2668.458          39.600          38.500    98684827.547 6
  25147702.200       -2557.342          41.800


 117138492.784 7  91276732.21547  22290718.720                    22290720.060
     -2780.564       -2166.677          47.650          44.050    87473544.521 8
  22290724.460       -2076.485          50.350


 109685877.954 8  85469511.74148  20872535.920                    20872537.460
     -1465.487       -1141.939          51.850          51.750    81908281.561 9
  20872539.960       -1094.306          55.850


 116113316.925 8  90477959.82348  22095612.720                    22095611.980
      2363.462        1841.660          50.100          50.000



 107215793.055 8  83544779.13948  20402488.400                    20402488.120
     -1125.850        -877.286          52.900          52.750    80063754.739 9
  20402490.300        -840.744          56.450


 113139167.390 8  88160376.73147  21529668.800                    21529668.620
      1164.300         907.245          49.150          47.050    84487040.026 9
  21529674.120         869.470          54.450


 129440841.660 6 100863028.17045  24631772.000                    24631776.440
      1345.056        1048.094          40.600          34.750



 118980563.418 7  92712102.50846  22641254.880                    22641254.080
      3007.110        2343.203          46.650          41.700



 130425181.841 6 101630043.74846  24819081.120                    24819086.900
      -695.853        -542.218          39.450          39.350    97395470.402 6
  24819086.260        -519.567          41.200


 134584806.420 6 104871274.02046  25610637.940                    25610638.900
      1685.984        1313.752          38.950          39.350



 126224802.492 7  98357050.77947  24019769.020                    24019773.420
      3576.464        2786.860          44.000          44.000    94258865.833 8
  24019776.240        2670.664          48.300


 23 11  9  9  3 30.0000000  0 11G03G04G06G07G09G11G16G20G26G29G30
 132254788.816 6 103055707.24946  25167250.420                    25167257.880
     -3427.089       -2670.470          38.300          38.350    98761585.343 6
  25167262.720       -2559.418          40.850


 117222025.601 7  91341822.59147  22306614.520                    22306615.720
     -2787.521       -2172.098          47.850          44.700    87535922.768 8
  22306620.200       -2081.607          49.750


 109730139.082 8  85504000.88048  20880958.660                    20880959.900
     -1484.679       -1156.895          51.650          51.450    81941333.645 9
  20880962.600       -1108.658          55.250


 116042610.859 8  90422864.23048  22082157.840                    22082157.180
      2350.775        1831.773          49.800          50.050



 107249782.388 8  83571264.30748  20408956.400                    20408956.140
     -1139.444        -887.880          52.600          52.650    80089136.344 9
  20408958.200        -850.844          56.000


 113104538.845 8  88133393.43147  21523079.380                    21523079.060
      1144.869         892.105          49.400          47.500    84461181.028 8
  21523084.440         854.989          53.950


 129400769.384 6 100831803.03845  24624146.760                    24624151.060
      1326.953        1033.993          40.300          35.450



 118890445.856 7  92641881.04146  22624106.100                    22624105.320
      3001.036        2338.469          47.400          41.350



 130446345.577 6 101646535.08146  24823108.080                    24823114.560
      -714.419        -556.687          39.550          40.050    97411274.663 6
  24823113.320        -533.586          41.650


 134534498.234 5 104832072.80345  25601064.600                    25601065.180
      1668.899        1300.438          35.100          34.650



 126117584.884 7  98273504.80747  23999366.100                    23999370.520
      3572.066        2783.436          43.850          43.300    94178800.995 7
  23999373.340        2667.509          47.850


 23 11  9  9  4  0.0000000  0 11G03G04G06G07G09G11G16G20G26G29G30
 132357644.850 6 103135854.41346  25186823.580                    25186831.300
     -3430.089       -2672.812          36.600          36.500    98838392.950 6
  25186835.720       -2561.197          40.200


 117305751.977 7  91407063.80647  22322547.280                    22322548.460
     -2794.273       -2177.360          46.850          45.000    87598445.579 8
  22322552.960       -2086.614          50.050


 109774961.234 8  85538927.17348  20889488.160                    20889488.940
     -1503.606       -1171.644          51.600          51.650    81974804.660 9
  20889491.840       -1122.804          55.100


 115972270.452 8  90368053.55548  22068772.560                    22068771.880
      2338.390        1822.123          49.600          49.550



 107284162.423 8  83598053.90348  20415498.680                    20415498.820
     -1152.742        -898.242          52.250          52.200    80114809.705 9
  20415500.540        -860.778          56.100


 113070480.125 8  88106854.16047  21516598.420                    21516598.020
      1125.627         877.112          49.850          47.250    84435747.556 8
  21516603.160         840.540          53.950


 129361218.923 6 100800984.58345  24616620.560                    24616624.960
      1309.378        1020.297          40.500          35.700



 118800493.451 8  92571788.26047  22606988.880                    22606988.040
      2995.373        2334.057          48.100          42.200



 130468056.893 6 101663453.09246  24827239.460                    24827245.960
      -733.258        -571.366          37.550          38.250    97427487.735 6
  24827245.260        -547.360          41.950


 134484682.613 6 104793255.37146  25591584.880                    25591585.320
      1651.735        1287.060          40.050          40.700



 126010482.455 7  98190048.58547  23978985.000                    23978989.600
      3568.043        2780.300          44.200          44.200    94098822.170 7
  23978992.260        2664.397          47.350


 23 11  9  9  4 30.0000000  0 11G03G04G06G07G09G11G16G20G26G29G30
 132460568.141 6 103216053.91146  25206409.620                    25206417.840
     -3431.830       -2674.181          36.300          36.250    98915250.763 6
  25206421.640       -2562.862          38.050


 117389671.787 7  91472455.74347  22338516.860                    22338517.780
     -2800.515       -2182.225          46.900          45.300    87661112.823 8
  22338522.840       -2091.299          50.100


 109820344.574 8  85574290.75948  20898124.420                    20898124.900
     -1522.293       -1186.206          51.400          51.300    82008694.748 9
  20898127.760       -1136.695          54.900


 115902298.795 8  90313530.21348  22055457.440                    22055456.980
      2326.156        1812.589          49.400          49.600



 107318933.350 8  83625148.09948  20422115.380                    20422116.040
     -1165.561        -908.231          52.650          52.650    80140774.977 9
  20422117.180        -870.400          56.150


 113036994.148 8  88080761.16847  21510226.640                    21510225.860
      1106.631         862.307          50.100          47.150    84410741.777 8
  21510230.880         826.368          53.850


 129322194.509 6 100770576.11545  24609194.380                    24609199.180
      1292.097        1006.836          39.750          34.950



 118710709.874 8  92501827.01547  22589903.880                    22589902.580
      2989.876        2329.770          48.000          42.450



 130490316.698 6 101680798.44146  24831475.160                    24831481.120
      -751.385        -585.489          38.650          39.250    97444110.381 7
  24831479.800        -560.959          43.100


 134435362.376 6 104754823.96246  25582199.680                    25582199.920
      1635.582        1274.477          38.200          37.700



 125903499.040 7  98106685.07947  23958626.660                    23958630.980
      3564.226        2777.324          44.150          44.200    94018932.190 7
  23958633.880        2661.534          47.300


 23 11  9  9  5  0.0000000  0 11G03G04G06G07G09G11G16G20G26G29G30
 132563560.354 6 103296307.13546  25226008.700                    25226016.840
     -3434.014       -2675.871          37.300          37.650    98992159.930 6
  25226020.820       -2564.301          37.800


 117473785.853 7  91537999.04847  22354523.560                    22354524.360
     -2806.620       -2186.980          47.850          44.600    87723925.127 8
  22354529.520       -2095.784          49.950


 109866290.195 8  85610092.48748  20906867.560                    20906868.000
     -1540.434       -1200.339          51.400          51.300    82043004.727 9
  20906870.640       -1150.319          54.850


 115832700.554 8  90259297.85648  22042213.180                    22042212.940
      2313.991        1803.110          49.250          49.350



 107354096.390 8  83652547.83448  20428806.740                    20428807.420
     -1178.235        -918.107          52.650          52.450    80167033.042 9
  20428808.600        -879.799          56.300


 113004084.838 8  88055117.54247  21503964.260                    21503963.600
      1087.757         847.603          49.800          47.800    84386166.623 8
  21503968.360         812.337          53.850


 129283700.628 6 100740581.13546  24601868.900                    24601873.760
      1274.764         993.332          38.850          36.600



 118621099.412 8  92432000.69347  22572851.740                    22572850.460
      2984.526        2325.604          48.050          42.300



 130513126.951 6 101698572.65146  24835815.920                    24835821.580
      -768.953        -599.184          38.650          38.250    97461143.983 7
  24835821.660        -574.343          43.150


 134386541.798 6 104716781.88646  25572909.480                    25572909.740
      1619.112        1261.645          37.650          37.000



 125796639.526 7  98023418.13847  23938291.760                    23938296.380
      3560.430        2774.370          44.350          44.250    93939134.746 7
  23938298.700        2658.688          47.550


 23 11  9  9  5 30.0000000  0 11G03G04G06G07G09G11G16G20G26G29G30
 132666613.833 6 103376608.04246  25245619.720                    25245628.020
     -3436.195       -2677.573          36.900          36.450    99069114.828 6
  25245631.520       -2566.043          38.600


 117558085.960 7  91603687.35147  22370565.600                    22370566.180
     -2813.287       -2192.175          47.150          43.750    87786876.390 8
  22370571.700       -2100.831          49.950


 109912790.199 8  85646326.19248  20915716.040                    20915716.900
     -1559.315       -1215.053          50.950          50.850    82077728.677 9
  20915719.120       -1164.498          54.650


 115763470.527 8  90205352.41848  22029038.940                    22029038.960
      2301.226        1793.165          48.750          48.900



 107389643.683 8  83680246.98248  20435571.160                    20435571.640
     -1191.530        -928.467          52.400          52.600    80193578.048 9
  20435573.260        -889.739          56.300


 112971747.010 8  88029919.21847  21497810.600                    21497810.000
      1068.259         832.408          49.750          47.400    84362018.232 8
  21497814.700         797.669          53.700


 129245732.892 6 100710996.13845  24594643.460                    24594648.840
      1256.614         979.182          40.150          34.050



 118531656.924 7  92362305.25047  22555831.380                    22555830.360
      2978.339        2320.784          47.650          43.250



 130536480.445 6 101716770.14346  24840259.940                    24840265.520
      -787.878        -613.933          39.050          39.000    97478583.203 7
  24840266.360        -588.206          42.400


 134338215.688 6 104679125.08346  25563713.520                    25563713.620
      1602.336        1248.572          39.550          39.100



 125689899.679 7  97940244.42847  23917979.860                    23917984.540
      3555.584        2770.593          44.750          45.100    93859426.631 7
  23917986.400        2655.367          47.350


 23 11  9  9  6  0.0000000  0 11G03G04G06G07G09G11G16G20G26G29G30
 132769734.440 6 103456961.18646  25265243.260                    25265251.720
     -3438.355       -2679.255          37.050          36.450    99146119.785 6
  25265255.060       -2567.991          39.700


 117642577.143 7  91669524.51047  22386643.880                    22386644.620
     -2819.947       -2197.365          47.200          44.050    87849970.330 8
  22386650.160       -2105.853          49.550


 109959849.798 8  85682995.95948  20924671.000                    20924672.380
     -1578.407       -1229.929          50.150          50.050    82112870.515 9
  20924674.220       -1178.723          54.600


 115694617.355 8  90151700.63448  22015936.480                    22015936.740
      2288.397        1783.169          48.850          48.900



 107425580.569 8  83708249.70848  20442409.740                    20442409.980
     -1204.787        -938.796          52.550          52.400    80220413.989 9
  20442412.020        -899.734          56.100


 112939988.676 8  88005172.44847  21491767.120                    21491766.660
      1048.471         816.990          49.700          47.550    84338302.575 8
  21491771.440         782.914          53.600


 129208299.269 6 100681827.36645  24587520.040                    24587524.960
      1238.039         964.712          40.250          34.500



 118442390.972 7  92292747.36947  22538844.520                    22538843.700
      2972.079        2315.904          47.150          42.800



 130560383.160 6 101735395.54146  24844808.600                    24844814.420
      -806.075        -628.116          39.400          39.050    97496432.576 6
  24844814.980        -602.289          40.900


 134290392.453 5 104641860.16145  25554613.080                    25554613.500
      1585.372        1235.349          34.450          34.400



 125583288.417 7  97857170.89747  23897692.320                    23897697.000
      3551.011        2767.027          44.550          44.650    93779814.569 7
  23897698.540        2651.731          47.050


 23 11  9  9  6 30.0000000  0 11G03G04G06G07G09G11G16G20G26G29G30
 132872921.150 6 103537365.80846  25284879.740                    25284888.140
     -3440.437       -2680.878          38.600          39.400    99223174.091 6
  25284891.320       -2569.095          38.000


 117727257.725 7  91735509.27447  22402757.980                    22402758.960
     -2825.438       -2201.645          46.450          43.800    87913205.690 8
  22402764.940       -2109.853          49.750


 110007467.564 8  85720100.65248  20933732.220                    20933734.160
     -1596.148       -1243.754          50.300          50.300    82148429.162 9
  20933735.640       -1191.869          54.600


 115626142.714 8  90098343.80848  22002906.120                    22002906.340
      2276.547        1773.934          49.350          49.350



 107461905.742 8  83736554.99648  20449322.220                    20449322.320
     -1216.921        -948.252          52.600          52.450    80247539.875 9
  20449324.540        -908.648          56.200


 112908811.134 8  87980878.24947  21485834.200                    21485833.880
      1030.002         802.600          49.800          47.800    84315020.636 8
  21485838.760         769.130          53.700


 129171401.905 6 100653076.44545  24580498.520                    24580503.120
      1221.406         951.751          40.150          35.450



 118353303.459 7  92223328.54047  22521891.660                    22521890.940
      2966.968        2311.924          47.100          42.850



 130584834.546 6 101754448.44846  24849461.640                    24849467.600
      -823.836        -641.954          38.900          39.250    97514691.589 7
  24849468.460        -615.192          43.100


 134243073.878 6 104604988.48246  25545608.600                    25545609.080
      1569.220        1222.765          37.000          37.200



 125476808.145 7  97774199.43547  23877429.640                    23877434.520
      3547.413        2764.224          45.350          45.300    93700300.270 7
  23877435.600        2649.127          47.350


 23 11  9  9  7  0.0000000  0 12G03G04G05G06G07G09G11G16G20G26G29G30
 132976169.874 6 103617818.76846  25304527.980                    25304536.460
     -3441.998       -2682.097          39.050          39.050    99300274.701 6
  25304539.020       -2570.344          40.250


 117812122.869 7  91801637.83747  22418907.120                    22418908.520
     -2831.291       -2206.205          45.100          44.300    87976578.869 8
  22418914.600       -2114.297          49.250


 134797753.610 5                  25651159.600
      3553.252                          35.050



 110055638.890 8  85757636.68248  20942898.900                    20942901.240
     -1614.321       -1257.915          50.650          50.550    82184401.179 9
  20942902.620       -1205.521          55.000


 115558045.337 8  90045280.96248  21989947.660                    21989947.920
      2264.123        1764.253          50.050          50.050



 107498614.661 8  83765159.29548  20456307.680                    20456307.960
     -1229.331        -957.922          52.300          52.200    80274952.328 9
  20456310.180        -918.069          56.700


 112878212.584 8  87957035.19847  21480011.540                    21480011.280
      1010.870         787.690          50.150          47.850    84292171.044 9
  21480016.220         754.839          54.000


 129135039.771 6 100624742.61045  24573578.840                    24573583.220
      1203.866         938.091          40.150          35.050



 118264392.886 7  92154047.57047  22504972.420                    22504971.720
      2961.271        2307.484          47.200          42.300



 130609830.737 6 101773925.86746  24854218.340                    24854224.580
      -841.844        -655.987          37.550          36.800    97533357.370 7
  24854225.760        -628.536          43.300


 134196258.288 6 104568508.76346  25536699.800                    25536700.460
      1552.898        1210.052          37.600          38.050



 125370457.941 7  97691329.31847  23857191.780                    23857196.880
      3543.311        2761.027          44.650          44.850    93620883.112 8
  23857197.620        2645.978          48.000


 23 11  9  9  7 30.0000000  0 12G03G04G05G06G07G09G11G16G20G26G29G30
 133079480.374 6 103698319.81246  25324188.180                    25324196.540
     -3444.812       -2684.296          38.500          38.300    99377421.452 6
  25324199.160       -2572.822          40.150


 117897171.635 7  91867909.47847  22435091.160                    22435093.040
     -2838.276       -2211.647          45.300          44.150    88040089.174 8
  22435099.000       -2119.552          48.900


 134691168.787 6 104954149.06945  25630876.920                    25630876.820
      3552.810        2768.417          38.150          34.700



 110104362.990 8  85795603.45248  20952170.900                    20952173.380
     -1633.601       -1272.937          50.550          50.500    82220785.981 9
  20952174.700       -1219.905          55.050


 115490327.544 8  89992513.89148  21977061.540                    21977061.500
      2250.697        1753.792          50.300          50.200



 107535706.779 8  83794062.18948  20463366.120                    20463366.580
     -1243.033        -968.599          52.700          52.750    80302650.913 9
  20463368.740        -928.297          56.650


 112848194.999 8  87933644.85248  21474299.440                    21474299.280
       990.576         771.876          49.750          48.600    84269755.289 8
  21474304.120         739.726          53.850


 129099215.842 6 100596828.15746  24566761.500                    24566766.260
      1184.901         923.316          38.200          36.500



 118175661.712 7  92084906.40847  22488087.400                    22488086.760
      2954.526        2302.229          47.100          43.200



 130635371.749 6 101793827.78046  24859078.700                    24859085.040
      -860.271        -670.346          37.900          38.150    97552429.989 6
  24859086.380        -642.804          41.550


 134149948.044 5 104532422.76245  25527887.360                    25527887.940
      1534.774        1195.928          35.550          35.500



 125264240.878 7  97608562.94647  23836979.160                    23836984.440
      3538.053        2756.931          44.400          44.900    93541565.383 7
  23836985.040        2642.037          47.900


 23 11  9  9  8  0.0000000  0 12G03G04G05G06G07G09G11G16G20G26G29G30
 133182853.241 6 103778869.55346  25343860.040                    25343868.360
     -3446.659       -2685.727          39.800          39.900    99454614.756 6
  25343871.060       -2573.950          41.600


 117982403.928 7  91934324.14547  22451310.280                    22451312.340
     -2843.958       -2216.074          45.100          44.200    88103736.547 8
  22451318.200       -2123.763          48.400


 134584559.570 5 104871076.71445  25610590.220                    25610590.420
      3554.346        2769.629          34.100          34.400



 110153639.959 8  85834001.03448  20961548.100                    20961550.580
     -1651.702       -1287.042          50.550          50.400    82257583.647 9
  20961552.140       -1233.398          54.950


 115422992.733 8  89940045.24648  21964248.300                    21964248.020
      2238.235        1744.081          50.100          50.150



 107573182.311 8  83823263.83948  20470497.560                    20470498.060
     -1255.342        -978.190          52.900          52.850    80330635.819 9
  20470500.200        -937.501          56.500


 112818761.256 8  87910709.44647  21468698.440                    21468698.280
       971.460         756.981          50.150          47.850    84247775.523 8
  21468703.020         725.408          53.600


 129063933.043 6 100569335.31846  24560046.880                    24560052.500
      1167.109         909.445          37.250          36.300



 118087113.321 7  92015907.66847  22471237.180                    22471236.520
      2948.676        2297.671          47.600          42.850



 130661458.386 6 101814154.88746  24864042.900                    24864049.900
      -878.578        -684.609          38.350          38.200    97571910.109 6
  24864050.540        -656.112          41.300


 134104146.111 6 104496732.84846  25519171.660                    25519172.120
      1518.260        1183.057          38.250          38.100



 125158160.977 7  97525903.42847  23816792.700                    23816798.040
      3533.931        2753.718          45.650          45.900    93462350.038 8
  23816798.600        2638.926          48.100


