     2.11           OBSERVATION DATA    G (GPS)             RINEX VERSION / TYPE
teqc  2019Feb25                         20231112 14:24:50UTCPGM / RUN BY / DATE
Linux 2.6.32-573.12.1.x86_64|x86_64|gcc|Linux 64|=+         COMMENT
teqc  2019Feb25                         20231112 14:24:48UTCCOMMENT
teqc  2019Feb25     IGN-RGP             20231110 08:10:03UTCCOMMENT
teqc  2019Feb25     Administrateur RGP  20231110 08:10:02UTCCOMMENT
teqc  2019Feb25     Observatoire de Pari20231110 00:53:05UTCCOMMENT
BIT 2 OF LLI FLAGS DATA COLLECTED UNDER A/S CONDITION       COMMENT
OPMT                                                        MARKER NAME
10001S006                                                   MARKER NUMBER
Automatic           OP                                      OBSERVER / AGENCY
02942               ASHTECH Z-XII3T     1L01-1D04           REC # / TYPE / VERS
00019               3S-02-TSADM     NONE                    ANT # / TYPE
  4202777.6190   171367.7570  4778659.9730                  APPROX POSITION XYZ
        0.0000        0.0000        0.0000                  ANTENNA: DELTA H/E/N
     1     1                                                WAVELENGTH FACT L1/2
     7    L1    L2    C1    P1    P2    S1    S2            # / TYPES OF OBSERV
    30.0000                                                 INTERVAL
 SNR is mapped to RINEX snr flag value [0-9]                COMMENT
  L1 & L2: min(max(int(snr_dBHz/6), 0), 9)                  COMMENT
pseudorange smoothing corrections not applied               COMMENT
Forced Modulo Decimation to 30 seconds                      COMMENT
teqc_2019 edited: GLONASS # 25 - 30 excluded                COMMENT
teqc_2019 edited: all GLONASS satellites excluded           COMMENT
teqc_2019 edited: all SBAS satellites excluded              COMMENT
teqc_2019 edited: all Galileo satellites excluded           COMMENT
  2023    11     9     0     0    0.0000000     GPS         TIME OF FIRST OBS
                                                            END OF HEADER
 23 11  9  0  0  0.0000000  0  8G27G18G10G26G23G08G07G16
 -16483570.24548 -12823702.93048  20445434.462    20445434.7084   20445439.6154
        54.7004         51.8004
 -12561019.87145  -9744101.51547  22037110.146    22037111.2214   22037113.9814
        45.5004         42.6004
 -12619796.48146  -9808948.95547  22762771.494    22762771.9184   22762778.1994
        49.3004         46.5004
  -7500751.68947  -5831819.88848  21783759.845    21783759.7104   21783766.2104
        51.4004         48.4004
 -13455823.48545 -10466962.27347  21695963.987    21695963.9094   21695966.8444
        45.3004         42.5004
  -1028037.16546   -781262.00747  23175126.528    23175126.5074   23175132.6604
        46.9004         44.0004
  -2517828.35744  -1953001.34946  24696370.978    24696371.2924   24696373.1514
        43.0004         40.6004
 -11700776.58546  -9100903.94447  20580284.158    20580283.5294   20580285.4224
        47.9004         45.2004
 23 11  9  0  0 30.0000000  0  8G27G18G10G26G23G08G07G16
 -16521948.76948 -12853608.27148  20438131.489    20438131.5934   20438136.5634
        54.7004         52.0004
 -12484197.05445  -9684239.58947  22051729.427    22051728.9834   22051732.9064
        45.5004         42.6004
 -12707615.48346  -9877379.33147  22746060.689    22746060.6854   22746066.7184
        49.5004         46.5004
  -7415209.59647  -5765163.73448  21800038.132    21800037.7154   21800043.9774
        51.2004         48.2004
 -13485852.57645 -10490361.54747  21690249.363    21690249.9244   21690252.5284
        45.5004         42.5004
  -1117742.64246   -851162.34947  23158056.641    23158056.2804   23158062.2944
        47.0004         44.4004
  -2558483.05544  -1984680.33346  24688634.168    24688634.6464   24688636.7654
        43.2004         40.6004
 -11663695.31946  -9072009.45547  20587340.045    20587339.3854   20587342.0314
        47.9004         45.1004
 23 11  9  0  1  0.0000000  0  8G27G18G10G26G23G08G07G16
 -16559957.78548 -12883225.68148  20430898.649    20430898.8844   20430903.2654
        54.7004         51.8004
 -12407085.09545  -9624152.34547  22066403.613    22066403.9324   22066406.9264
        45.5004         42.3004
 -12795123.01747  -9945566.99547  22729409.085    22729408.4924   22729414.6384
        49.8004         46.8004
  -7329317.86047  -5698235.12348  21816381.839    21816382.6304   21816388.7064
        51.2004         48.2004
 -13515294.90245 -10513303.59747  21684646.580    21684646.6344   21684650.4514
        45.6004         42.8004
  -1207308.91146   -920954.22847  23141012.059    23141012.1774   23141018.8234
        47.2004         44.4004
  -2598657.19744  -2015984.86046  24680990.499    24680990.3654   24680991.1754
        43.0004         40.7004
 -11626063.11346  -9042685.66347  20594501.430    20594500.7874   20594503.5284
        47.9004         45.1004
 23 11  9  0  1 30.0000000  0  8G27G18G10G26G23G08G07G16
 -16597596.46548 -12912554.51248  20423735.744    20423736.0434   20423740.9084
        54.7004         51.8004
 -12329686.09545  -9563841.43347  22081131.414    22081132.1674   22081135.6254
        45.5004         42.6004
 -12882316.27747 -10013509.76347  22712815.578    22712815.5304   22712822.2704
        49.8004         47.0004
  -7243078.51747  -5631035.66448  21832792.992    21832793.1584   21832800.0864
        51.2004         48.2004
 -13544149.20245 -10535787.45047  21679155.779    21679155.8304   21679159.5334
        45.6004         42.8004
  -1296734.54246   -990636.49247  23123994.907    23123994.9124   23124001.3854
        47.2004         44.4004
  -2638349.39144  -2046913.84146  24673437.309    24673437.3304   24673439.1154
        43.4004         40.9004
 -11587881.13646  -9012933.48047  20601766.584    20601766.7234   20601769.3644
        47.7004         44.9004
 23 11  9  0  2  0.0000000  0  8G27G18G10G26G23G08G07G16
 -16634863.96548 -12941594.12248  20416644.437    20416644.7434   20416649.3444
        54.7004         52.0004
 -12252002.06845  -9503308.43247  22095915.324    22095915.3904   22095917.1204
        45.5004         42.3004
 -12969192.53547 -10081205.53247  22696283.354    22696283.9524   22696290.1954
        49.8004         46.8004
  -7156493.68547  -5563566.98248  21849269.427    21849270.0924   21849276.4784
        51.0004         48.2004
 -13572414.33445 -10557812.21247  21673776.680    21673777.2524   21673780.5734
        45.6004         42.8004
  -1386018.61046  -1060208.46247  23107004.665    23107004.5164   23107011.0134
        47.2004         44.4004
  -2677558.68944  -2077466.49846  24665975.453    24665975.5954   24665977.1864
        43.4004         40.9004
 -11549149.94246  -8982753.33647  20609136.899    20609136.8314   20609139.5914
        47.7004         44.9004
 23 11  9  0  2 30.0000000  0  8G27G18G10G26G23G08G07G16
 -16671759.47548 -12970343.85948  20409623.591    20409623.7064   20409628.3984
        54.8004         52.0004
 -12174035.08445  -9442554.94147  22110751.985    22110752.6134   22110754.1514
        45.3004         42.5004
 -13055749.09047 -10148652.16047  22679813.238    22679812.9644   22679819.7144
        49.8004         47.0004
  -7069565.37947  -5495830.66648  21865812.079    21865812.1574   21865818.4744
        51.0004         48.0004
 -13600089.14545 -10579376.97147  21668509.906    21668510.6224   21668514.7044
        45.6004         42.6004
  -1475159.74846  -1129669.07347  23090041.748    23090042.0314   23090048.0224
        47.4004         44.4004
  -2716283.96745  -2107642.04146  24658605.846    24658606.5704   24658607.9844
        43.7004         41.1004
 -11509869.94046  -8952145.55547  20616611.992    20616611.5734   20616614.2644
        47.7004         44.9004
 23 11  9  0  3  0.0000000  0  8G27G18G10G26G23G08G07G16
 -16708282.12548 -12998803.06548  20402673.706    20402673.6464   20402678.5444
        54.8004         51.8004
 -12095787.24145  -9381582.59047  22125642.175    22125642.5884   22125644.5534
        45.3004         42.5004
 -13141983.32147 -10215847.64847  22663402.618    22663402.9394   22663409.2564
        49.8004         46.8004
  -6982295.72047  -5427828.33948  21882419.009    21882419.2054   21882424.8804
        51.0004         48.0004
 -13627172.56445 -10600480.91947  21663356.930    21663357.5554   21663360.6754
        45.8004         43.0004
  -1564157.02046  -1199017.56147  23073106.111    23073106.1604   23073112.2404
        47.4004         44.5004
  -2754523.73545  -2137439.23946  24651328.943    24651328.7754   24651331.4114
        43.7004         41.1004
 -11470042.33446  -8921111.06547  20624191.075    20624190.4574   20624193.0804
        47.7004         44.9004
 23 11  9  0  3 30.0000000  0  8G27G18G10G26G23G08G07G16
 -16744431.16148 -13026971.13548  20395794.865    20395794.6304   20395799.2474
        54.8004         51.8004
 -12017260.58345  -9320393.00047  22140585.817    22140585.7034   22140587.8054
        45.3004         42.3004
 -13227892.43147 -10282789.78447  22647055.500    22647055.1144   22647061.1244
        49.8004         46.8004
  -6894686.76547  -5359561.64148  21899089.865    21899090.2144   21899096.9304
        51.0004         48.0004
 -13653663.48445 -10621123.18147  21658316.602    21658316.4024   21658319.7554
        46.0004         43.0004
  -1653009.43646  -1268253.19247  23056198.415    23056198.1424   23056203.9404
        47.4004         44.5004
  -2792276.96145  -2166857.34146  24644144.976    24644145.0974   24644147.6964
        43.9004         41.2004
 -11429667.74346  -8889650.36047  20631873.610    20631873.0904   20631876.0994
        47.7004         44.9004
 23 11  9  0  4  0.0000000  0  8G27G18G10G26G23G08G07G16
 -16780205.66948 -13054847.37648  20388987.496    20388987.1454   20388991.6554
        54.8004         52.0004
 -11938457.21345  -9258987.79447  22155580.921    22155581.2704   22155584.0634
        45.5004         42.6004
 -13313473.58547 -10349476.37147  22630769.084    22630769.2574   22630775.3104
        49.8004         46.8004
  -6806740.62447  -5291032.20147  21915824.950    21915825.4564   21915831.8344
        50.8004         47.8004
 -13679560.88445 -10641302.95547  21653387.564    21653387.9974   21653391.1634
        46.0004         43.0004
  -1741715.51246  -1337374.77447  23039317.374    23039317.4524   23039324.0124
        47.4004         44.5004
  -2829542.93644  -2195895.73546  24637052.801    24637052.8094   24637055.0284
        43.4004         40.6004
 -11388747.27746  -8857764.30647  20639660.990    20639660.2294   20639663.0344
        47.5004         44.7004
 23 11  9  0  4 30.0000000  0  8G27G18G10G26G23G08G07G16
 -16815604.89948 -13082431.18448  20382250.692    20382250.7954   20382255.6404
        54.8004         52.2004
 -11859379.08545  -9197368.46847  22170629.266    22170629.2524   22170631.4624
        45.3004         42.1004
 -13398724.60747 -10415905.73147  22614546.837    22614546.3194   22614553.1774
        49.8004         47.0004
  -6718459.35947  -5222241.62547  21932625.237    21932624.7374   21932631.7914
        50.8004         47.8004
 -13704863.66045 -10661019.39147  21648572.019    21648572.7154   21648576.0674
        46.0004         43.2004
  -1830274.35546  -1406381.63447  23022465.518    23022465.1734   23022471.4284
        47.2004         44.4004
  -2866320.47244  -2224553.52346  24630054.689    24630054.4854   24630057.9204
        43.0004         40.4004
 -11347281.83146  -8825453.58847  20647550.935    20647550.8104   20647553.7734
        47.5004         44.9004
 23 11  9  0  5  0.0000000  0  8G27G18G10G26G23G08G07G16
 -16850627.97448 -13109721.90148  20375586.169    20375586.1204   20375590.8604
        54.8004         52.0004
 -11780028.31545  -9135536.71547  22185729.167    22185730.2044   22185731.1744
        45.1004         42.3004
 -13483642.52747 -10482075.51547  22598387.600    22598386.8934   22598393.2894
        50.0004         47.0004
  -6629845.08247  -5153191.56148  21949488.057    21949487.8484   21949494.8394
        50.8004         48.0004
 -13729570.86145 -10680271.72147  21643870.635    21643870.7134   21643874.2994
        46.2004         43.0004
  -1918684.95346  -1475272.97147  23005641.362    23005641.3404   23005647.9774
        47.2004         44.4004
  -2902608.60644  -2252830.01446  24623148.783    24623149.3094   24623152.4234
        42.9004         40.4004
 -11305272.37946  -8792718.96147  20655545.705    20655544.8594   20655547.7674
        47.5004         44.9004
 23 11  9  0  5 30.0000000  0  8G27G18G10G26G23G08G07G16
 -16885274.13448 -13136718.89148  20368992.586    20368992.5774   20368997.8524
        54.8004         52.0004
 -11700406.95445  -9073494.08447  22200879.893    22200880.6374   22200882.7844
        45.1004         42.1004
 -13568224.94647 -10547983.86447  22582291.689    22582291.9594   22582298.4674
        50.2004         47.3004
  -6540899.97247  -5083883.70247  21966413.661    21966413.5934   21966419.6394
        50.8004         47.8004
 -13753681.47745 -10699059.19547  21639283.052    21639283.2684   21639286.3214
        46.2004         43.2004
  -2006945.79946  -1544047.62847  22988845.666    22988845.9094   22988852.5224
        47.0004         44.0004
  -2938405.69044  -2280723.86046  24616336.943    24616337.2434   24616338.3674
        42.3004         39.5004
 -11262719.83646  -8759561.15247  20663643.687    20663642.6604   20663644.8854
        47.7004         44.9004
 23 11  9  0  6  0.0000000  0  8G27G18G10G26G23G08G07G16
 -16919542.52448 -13163421.53748  20362472.247    20362472.0174   20362476.6484
        54.8004         52.0004
 -11620517.02745  -9011242.19847  22216082.626    22216082.6084   22216084.9104
        45.1004         42.1004
 -13652469.03247 -10613628.58547  22566261.143    22566261.3444   22566267.3734
        50.3004         47.5004
  -6451626.09747  -5014319.65547  21983401.635    21983401.6344   21983408.2744
        50.8004         47.8004
 -13777194.56545 -10717381.05947  21634808.565    21634809.2314   21634811.8804
        46.2004         43.3004
  -2095056.02046  -1612704.92747  22972079.609    22972079.1274   22972085.9764
        46.9004         44.0004
  -2973711.09144  -2308234.51646  24609617.951    24609618.9104   24609622.5054
        42.0004         39.5004
 -11219625.32146  -8725981.01547  20671843.706    20671843.5004   20671846.0094
        47.7004         45.1004
 23 11  9  0  6 30.0000000  0  8G27G18G10G26G23G08G07G16
 -16953432.34048 -13189829.18548  20356022.891    20356022.8414   20356027.6924
        54.8004         52.0004
 -11540360.59645  -8948782.65947  22231335.853    22231336.2424   22231338.2674
        45.1004         42.1004
 -13736372.18647 -10679007.63747  22550294.474    22550294.8364   22550301.3014
        50.5004         47.7004
  -6362025.59747  -4944501.09247  22000452.090    22000451.8314   22000458.7274
        50.8004         47.8004
 -13800109.16445 -10735236.57347  21630448.838    21630449.3144   21630451.1594
        46.2004         43.3004
  -2183014.61946  -1681244.07347  22955340.934    22955341.4464   22955347.6794
        46.9004         44.0004
  -3008523.79044  -2335361.27046  24602994.168    24602994.7534   24602997.7054
        42.0004         39.5004
 -11175989.62046  -8691979.18547  20680147.700    20680147.3904   20680148.9774
        47.7004         45.1004
 23 11  9  0  7  0.0000000  0  8G27G18G10G26G23G08G07G16
 -16986942.78048 -13215941.20648  20349646.057    20349646.1284   20349650.8664
        54.8004         52.0004
 -11459939.68445  -8886117.02146  22246639.185    22246639.6474   22246642.7264
        44.9004         41.9004
 -13819931.50247 -10744118.76147  22534394.652    22534393.6284   22534399.7784
        50.7004         47.7004
  -6272100.60347  -4874429.69047  22017564.597    22017564.2124   22017570.5694
        50.8004         47.7004
 -13822424.36045 -10752625.02547  21626202.247    21626202.6224   21626204.0684
        46.3004         43.3004
  -2270820.61646  -1749664.30947  22938632.117    22938632.4724   22938638.1734
        46.7004         44.0004
  -3042842.94244  -2362103.45846  24596462.811    24596462.5584   24596466.5914
        41.5004         38.6004
 -11131813.69746  -8657556.39747  20688553.946    20688553.3274   20688556.2304
        47.9004         45.1004
 23 11  9  0  7 30.0000000  0  8G27G18G10G26G23G08G07G16
 -17020073.06048 -13241757.00448  20343341.582    20343341.7384   20343346.2484
        54.8004         52.0004
 -11379256.35745  -8823246.88446  22261992.269    22261992.1534   22261995.1874
        44.8004         41.6004
 -13903144.54547 -10808960.07247  22518558.594    22518559.2354   22518564.9674
        50.7004         47.8004
  -6181853.26547  -4804107.10247  22034737.581    22034737.5214   22034744.1054
        50.8004         47.8004
 -13844139.26345 -10769545.70947  21622069.632    21622069.9054   21622072.3434
        46.2004         43.3004
  -2358472.56546  -1817964.51847  22921953.725    22921953.0414   22921959.0524
        47.0004         44.2004
  -3076667.21744  -2388460.03046  24590026.289    24590027.8154   24590029.0884
        40.9004         38.3004
 -11087098.64046  -8622713.50447  20697062.813    20697062.1974   20697065.0214
        47.7004         44.9004
 23 11  9  0  8  0.0000000  0  8G27G18G10G26G23G08G07G16
 -17052822.35848 -13267275.93548  20337109.924    20337109.7204   20337114.1874
        54.8004         52.0004
 -11298312.63245  -8760173.85746  22277396.071    22277396.2894   22277398.9584
        44.6004         41.8004
 -13986009.06847 -10873529.79247  22502789.890    22502790.0664   22502796.3184
        50.8004         47.8004
  -6091285.71347  -4733535.00347  22051971.922    22051972.2684   22051979.1404
        50.7004         47.8004
 -13865253.01445 -10785997.95447  21618051.785    21618051.8274   21618054.7304
        46.2004         43.0004
  -2445969.50346  -1886143.92347  22905302.921    22905302.6324   22905308.7344
        47.2004         44.4004
  -3109995.98044  -2414430.45546  24583685.612    24583686.1454   24583687.6354
        41.5004         39.0004
 -11041845.60346  -8587451.42047  20705674.415    20705673.8874   20705676.3594
        47.7004         44.7004
 23 11  9  0  8 30.0000000  0  8G27G18G10G26G23G08G07G16
 -17085189.89548 -13292497.38048  20330950.000    20330950.1294   20330954.5424
        54.8004         51.8004
 -11217110.51945  -8696899.48246  22292847.979    22292847.4154   22292851.1584
        44.6004         41.4004
 -14068522.07947 -10937825.61247  22487089.477    22487089.0644   22487094.5014
        50.8004         47.8004
  -6000400.10847  -4662715.06447  22069267.822    22069267.2864   22069274.1014
        50.7004         47.8004
 -13885764.78545 -10801981.13347  21614148.372    21614148.3994   21614151.3964
        46.0004         43.0004
  -2533310.33346  -1954201.68647  22888682.327    22888682.3884   22888687.8564
        47.4004         44.4004
  -3142827.62544  -2440013.53246  24577437.208    24577436.5564   24577441.5144
        41.3004         38.6004
 -10996055.26746  -8551770.64547  20714387.606    20714387.1014   20714390.2974
        47.5004         44.9004
 23 11  9  0  9  0.0000000  0  8G27G18G10G26G23G08G07G16
 -17117174.85648 -13317420.73148  20324863.379    20324863.7424   20324868.4384
        54.8004         52.0004
 -11135652.07445  -8633425.37746  22308348.953    22308349.8034   22308351.3434
        44.4004         41.2004
 -14150681.23247 -11001845.68747  22471454.504    22471453.6654   22471460.2304
        50.8004         47.8004
  -5909198.61647  -4591648.98447  22086622.491    22086621.9744   22086629.2294
        50.7004         47.7004
 -13905673.75945 -10817494.59247  21610359.826    21610360.0864   21610363.6284
        46.0004         43.0004
  -2620493.87346  -2022136.88547  22872092.906    22872092.1894   22872097.6394
        47.4004         44.5004
  -3175162.01244  -2465209.15246  24571283.414    24571283.2124   24571289.1294
        41.1004         38.5004
 -10949728.95446  -8515672.23847  20723203.004    20723203.0824   20723206.1634
        47.5004         44.7004
 23 11  9  0  9 30.0000000  0  8G27G18G10G26G23G08G07G16
 -17148776.45648 -13342045.34448  20318850.306    20318850.0544   20318854.8414
        54.8004         52.0004
 -11053939.28445  -8569753.08146  22323898.583    22323899.0864   22323900.8314
        44.2004         41.4004
 -14232483.75747 -11065587.89248  22455888.311    22455888.5524   22455893.3454
        51.0004         48.0004
  -5817683.40647  -4520338.45447  22104036.898    22104037.4854   22104043.3134
        50.5004         47.5004
 -13924979.12945 -10832537.71647  21606685.621    21606686.3944   21606690.0134
        46.2004         43.2004
  -2707518.93846  -2089948.61047  22855531.253    22855531.5204   22855537.5474
        47.5004         44.5004
  -3206998.33044  -2490016.68546  24565227.826    24565228.6704   24565225.7324
        40.6004         37.8004
 -10902867.90746  -8479157.13947  20732120.684    20732119.8224   20732122.7314
        47.5004         44.5004
 23 11  9  0 10  0.0000000  0  8G27G18G10G26G23G08G07G16
 -17179993.92548 -13366370.64648  20312909.670    20312909.7584   20312914.0864
        54.8004         52.0004
 -10971974.23745  -8505884.18246  22339494.821    22339495.2684   22339498.9034
        44.1004         41.2004
 -14313926.92547 -11129050.06948  22440390.538    22440390.2394   22440395.4964
        51.2004         48.0004
  -5725856.62447  -4448785.13047  22121510.770    22121510.6894   22121518.0444
        50.3004         47.5004
 -13943680.14445 -10847109.92647  21603127.594    21603128.0364   21603131.4164
        46.2004         43.3004
  -2794384.45746  -2157636.00047  22839001.759    22839001.4364   22839007.1454
        47.4004         44.5004
  -3238335.20743  -2514435.02946  24559260.825    24559260.6684   24559267.1934
        40.4004         37.6004
 -10855472.92946  -8442226.00047  20741139.770    20741139.1284   20741142.3984
        47.5004         44.7004
 23 11  9  0 10 30.0000000  0  8G27G18G10G26G23G08G07G16
 -17210826.45548 -13390395.98448  20307042.217    20307042.4334   20307046.9464
        55.0004         52.2004
 -10889758.85745  -8441820.27046  22355140.432    22355141.2144   22355143.4834
        44.1004         41.1004
 -14395008.46447 -11192230.47148  22424960.260    22424960.8054   22424966.2474
        51.0004         48.0004
  -5633720.48447  -4376990.75347  22139043.734    22139044.1604   22139050.4064
        50.3004         47.3004
 -13961776.06645 -10861210.61847  21599684.046    21599684.6824   21599687.1884
        46.3004         43.3004
  -2881089.10546  -2225198.05147  22822501.970    22822501.8224   22822507.9154
        47.4004         44.4004
  -3269171.94253  -2538463.69255  24553394.462    24553392.1444   24553402.0064
        38.7004         35.9004
 -10807545.20546  -8404879.74847  20750259.984    20750259.7284   20750262.3644
        47.5004         44.9004
 23 11  9  0 11  0.0000000  0  8G27G18G10G26G23G08G07G16
 -17241273.25748 -13414120.76348  20301248.624    20301248.7284   20301253.0484
        55.0004         52.2004
 -10807295.22045  -8377562.86446  22370831.982    22370833.1044   22370836.0344
        43.9004         40.9004
 -14475725.65447 -11255126.95248  22409600.628    22409600.7344   22409606.3284
        51.0004         48.0004
  -5541277.17747  -4304957.02547  22156635.048    22156635.6494   22156641.8434
        50.2004         47.2004
 -13979266.16645 -10874839.25547  21596355.622    21596356.2334   21596359.4674
        46.3004         43.3004
  -2967631.49846  -2292633.65747  22806032.913    22806033.2434   22806039.5674
        47.4004         44.5004
  -3299507.71943  -2562101.92946  24547621.462    24547630.4604   24547617.3984
        38.7004         36.0004
 -10759086.00046  -8367119.33747  20759481.717    20759481.2974   20759483.5984
        47.5004         44.7004
 23 11  9  0 11 30.0000000  0  8G27G18G10G26G23G08G07G16
 -17271333.60848 -13437544.40948  20295528.374    20295528.4414   20295532.8364
        55.0004         52.2004
 -10724585.31645  -8313113.60146  22386572.051    22386572.2184   22386575.9734
        43.7004         40.9004
 -14556076.02647 -11317737.60047  22394309.868    22394309.6574   22394315.2624
        50.8004         47.8004
  -5448528.85247  -4232685.62347  22174285.186    22174285.3084   22174291.7804
        50.2004         47.3004
 -13996149.78045 -10887995.30047  21593142.164    21593142.7544   21593145.5304
        46.2004         43.0004
  -3054010.83146  -2359942.20147  22789596.269    22789595.8724   22789602.0224
        47.4004         44.5004
  -3329341.78242  -2585349.26945  24541944.704    24541955.2694   24541938.4094
        37.5004         34.8004
 -10710096.65846  -8328945.83147  20768803.706    20768803.3494   20768806.2424
        47.5004         44.7004
 23 11  9  0 12  0.0000000  0  8G27G18G10G26G23G08G07G16
 -17301006.67948 -13460666.27848  20289881.942    20289881.7454   20289886.2424
        55.0004         52.2004
 -10641631.16745  -8248474.01246  22402358.028    22402357.6764   22402359.4484
        43.7004         40.6004
 -14636056.88947 -11380060.34148  22379090.741    22379090.7914   22379096.0764
        51.0004         48.0004
  -5355477.76847  -4160178.29647  22191991.393    22191991.8924   22191997.9254
        50.2004         47.2004
 -14012426.21545 -10900678.22647  21590045.187    21590045.4114   21590047.9794
        46.0004         43.2004
  -3140226.13146  -2427122.93747  22773189.192    22773189.7394   22773195.5584
        47.4004         44.7004
  -3358672.88852  -2608204.69355  24536361.357    24536369.3454   24536358.6694
        37.5004         35.2004
 -10660578.10746  -8290359.96747  20778226.797    20778226.6904   20778228.9714
        47.5004         44.7004
 23 11  9  0 12 30.0000000  0  8G27G18G10G26G23G08G07G16
 -17330291.72448 -13483485.78648  20284309.096    20284308.9164   20284313.7294
        55.0004         52.2004
 -10558434.73845  -8183645.62546  22418189.685    22418190.2724   22418192.7184
        43.6004         41.1004
 -14715666.01047 -11442093.40148  22363940.728    22363941.0194   22363946.7404
        51.2004         48.2004
  -5262126.04847  -4087436.71647  22209757.603    22209756.8574   22209762.7934
        50.0004         47.2004
 -14028094.88745 -10912887.55447  21587063.518    21587064.1014   21587066.9864
        46.0004         43.2004
  -3226275.86846  -2494174.66047  22756815.377    22756815.2964   22756820.9634
        47.4004         44.5004
                  -2630667.84755  24530875.587                    24530878.1704
                        35.7004
 -10610531.33046  -8251362.49247  20787750.585    20787749.6544   20787753.1744
        47.5004         44.9004
 23 11  9  0 13  0.0000000  0  7G27G18G10G26G23G08G16
 -17359187.98448 -13506002.35048  20278810.482    20278810.1014   20278814.9654
        55.0004         52.4004
 -10474998.03445  -8118630.01046  22434067.466    22434067.8024   22434069.6954
        43.7004         41.1004
 -14794900.80247 -11503834.77848  22348862.786    22348863.5054   22348868.6324
        51.4004         48.4004
  -5168475.97347  -4014462.64147  22227576.998    22227577.4854   22227583.7584
        50.0004         47.2004
 -14043155.08245 -10924622.76047  21584197.939    21584198.2994   21584201.0844
        46.2004         43.3004
  -3312159.03146  -2561096.58747  22740471.927    22740472.0704   22740478.0884
        47.4004         44.5004
 -10559958.20446  -8211954.87747  20797374.185    20797373.6104   20797376.6704
        47.5004         44.7004
 23 11  9  0 13 30.0000000  0  7G27G18G10G26G23G08G16
 -17387694.67448 -13528215.35248  20273385.450    20273385.6124   20273390.2814
        55.0004         52.4004
 -10391323.03645  -8053428.73146  22449989.977    22449989.5454   22449992.9414
        43.7004         40.7004
 -14873758.40647 -11565282.21948  22333857.380    22333856.8824   22333863.1774
        51.4004         48.4004
  -5074529.68947  -3941257.76847  22245455.218    22245454.7794   22245460.9374
        50.0004         47.0004
 -14057606.27745 -10935883.41747  21581448.219    21581448.1104   21581451.1054
        46.2004         43.2004
  -3397874.09246  -2627887.52347  22724161.132    22724161.2554   22724166.9934
        47.5004         44.7004
 -10508859.28046  -8172137.54347  20807098.327    20807097.5194   20807100.0314
        47.5004         44.7004
 23 11  9  0 14  0.0000000  0  7G27G18G10G26G23G08G16
 -17415811.07248 -13550124.22148  20268034.898    20268035.1754   20268040.2844
        55.0004         52.5004
 -10307411.80845  -7988043.36046  22465958.608    22465957.8024   22465960.3824
        43.7004         40.7004
 -14952236.76247 -11626434.15848  22318922.271    22318922.3104   22318929.1904
        51.4004         48.4004
  -4980289.47347  -3867823.84547  22263386.049    22263387.3644   22263394.5524
        49.8004         46.8004
 -14071447.92645 -10946669.10247  21578814.310    21578814.0984   21578817.0534
        46.2004         43.0004
  -3483420.79246  -2694547.27947  22707882.317    22707881.6134   22707887.5144
        47.5004         44.7004
 -10457236.15946  -8131911.73947  20816921.671    20816921.1394   20816924.0314
        47.5004         44.7004
 23 11  9  0 14 30.0000000  0  7G27G18G10G26G23G08G16
 -17443536.37748 -13571728.35248  20262758.919    20262758.9424   20262763.8084
        55.0004         52.4004
 -10223266.22145  -7922475.37046  22481970.047    22481970.6964   22481972.7844
        43.6004         40.6004
 -15030333.20947 -11687288.51248  22304062.060    22304061.5944   22304067.3914
        51.4004         48.4004
  -4885757.51747  -3794162.60347  22281377.735    22281377.0014   22281383.1054
        49.8004         47.0004
 -14084679.44745 -10956979.35647  21576296.062    21576296.3144   21576298.6454
        46.0004         42.8004
  -3568797.35946  -2761074.45647  22691633.969    22691634.6644   22691640.9674
        47.5004         44.7004
 -10405089.91446  -8091278.32547  20826844.973    20826844.3224   20826847.5304
        47.5004         44.7004
 23 11  9  0 15  0.0000000  0  7G27G18G10G26G23G08G16
 -17470869.83848 -13593027.15748  20257557.945    20257557.9754   20257562.7004
        55.2004         52.4004
 -10138888.31345  -7856726.35746  22498027.604    22498027.8724   22498029.3174
        43.6004         40.9004
 -15108045.17147 -11747843.26148  22289272.931    22289272.6034   22289279.5724
        51.4004         48.4004
  -4790936.06447  -3720275.77747  22299420.164    22299420.0494   22299427.6014
        49.8004         47.0004
 -14097300.32245 -10966813.78647  21573893.635    21573893.8304   21573897.1184
        45.8004         42.8004
  -3654002.19646  -2827467.82247  22675421.424    22675421.0534   22675427.3114
        47.7004         45.1004
 -10352422.56646  -8050238.84547  20836866.761    20836866.7234   20836869.1844
        47.5004         44.7004
 23 11  9  0 15 30.0000000  0  7G27G18G10G26G23G08G16
 -17497810.74248 -13614020.05448  20252430.912    20252431.1104   20252436.0614
        55.2004         52.4004
 -10054280.08345  -7790797.87046  22514127.456    22514128.0534   22514130.1674
        43.7004         40.9004
 -15185369.89347 -11808096.25948  22274558.582    22274558.4584   22274565.2634
        51.4004         48.4004
  -4695827.33147  -3646165.09147  22317519.304    22317519.5734   22317525.6124
        49.8004         47.0004
 -14109310.11345 -10976172.04247  21571608.286    21571608.3954   21571611.7314
        45.8004         42.6004
  -3739034.22546  -2893726.53447  22659240.475    22659240.2694   22659245.8874
        48.1004         45.4004
 -10299234.74546  -8008793.80447  20846988.898    20846987.4004   20846990.7214
        47.5004         44.7004
 23 11  9  0 16  0.0000000  0  7G27G18G10G26G23G08G16
 -17524358.35648 -13634706.50348  20247379.415    20247379.3324   20247384.1724
        55.2004         52.4004
  -9969443.46245  -7724691.41546  22530271.642    22530272.0764   22530273.4154
        43.7004         40.6004
 -15262305.46147 -11868046.04548  22259918.343    22259918.4504   22259924.8794
        51.4004         48.4004
  -4600433.56247  -3571832.31047  22335671.280    22335672.0724   22335678.0164
        49.8004         46.8004
 -14120708.33245 -10985053.76647  21569439.614    21569439.8234   21569443.3264
        45.8004         42.8004
  -3823892.91746  -2959850.17347  22643092.095    22643092.1674   22643098.0294
        48.4004         45.8004
 -10245527.52846  -7966944.03847  20857208.357    20857207.6814   20857210.4984
        47.5004         44.7004
 23 11  9  0 16 30.0000000  0  8G27G18G10G26G23G08G15G16
 -17550511.91848 -13655085.88948  20242401.909    20242402.1974   20242407.1164
        55.0004         52.4004
  -9884380.44045  -7658408.53646  22546457.381    22546458.1644   22546460.6114
        43.6004         40.4004
 -15338849.15947 -11927690.45748  22245353.062    22245352.7254   22245358.4644
        51.2004         48.2004
  -4504757.04147  -3497279.17747  22353879.834    22353879.3104   22353885.4314
        49.6004         46.8004
 -14131494.51145 -10993458.56547  21567387.423    21567387.8244   21567390.0564
        45.8004         43.0004
  -3908576.88946  -3025837.65547  22626976.968    22626977.6074   22626983.0104
        48.6004         45.9004
                    -53298.64556  24540836.230
                        37.9004
 -10191302.74246  -7924690.97047  20867527.615    20867527.0924   20867529.1404
        47.5004         44.7004
 23 11  9  0 17  0.0000000  0  8G27G18G10G26G23G08G15G16
 -17576270.70348 -13675157.67348  20237500.538    20237500.5614   20237505.2714
        55.0004         52.4004
  -9799092.96245  -7591950.76946  22562688.085    22562687.8674   22562689.9164
        43.6004         40.6004
 -15414998.47347 -11987027.53548  22230862.018    22230861.8994   22230868.0964
        51.2004         48.2004
  -4408799.97347  -3422507.45747  22372138.635    22372138.8974   22372145.3594
        49.6004         46.6004
 -14141668.27845 -11001386.16947  21565451.408    21565451.4274   21565454.1774
        46.0004         43.2004
  -3993084.70946  -3091687.88647  22610897.210    22610896.6154   22610901.5954
        48.9004         46.3004
                    -78331.55046  24534723.228                    24534723.5864
                        38.1004
 -10136561.27746  -7882035.29647  20877944.277    20877944.1714   20877946.4384
        47.5004         44.5004
 23 11  9  0 17 30.0000000  0  8G27G18G10G26G23G08G15G16
 -17601633.95548 -13694921.23748  20232673.501    20232674.0564   20232679.0734
        55.0004         52.4004
  -9713582.99344  -7525319.63046  22578960.339    22578960.6554   22578962.3364
        43.4004         40.6004
 -15490751.24947 -12046055.64248  22216446.332    22216446.7534   22216452.7044
        51.2004         48.4004
  -4312564.61546  -3347518.86947  22390450.614    22390451.2464   22390458.4214
        49.3004         46.3004
 -14151229.23045 -11008836.23947  21563631.946    21563632.0224   21563634.7444
        46.0004         43.0004
  -4077415.15046  -3157399.90247  22594848.813    22594849.1424   22594854.2484
        49.1004         46.5004
   -138740.91843   -102945.51146  24528709.864    24528711.0254   24528712.3924
        39.7004         37.6004
 -10081304.67846  -7838978.22347  20888459.478    20888458.9304   20888461.5434
        47.5004         44.7004
 23 11  9  0 18  0.0000000  0  8G27G18G10G26G23G08G15G16
 -17626600.96948 -13714376.05548  20227923.047    20227922.9964   20227927.8194
        55.0004         52.4004
  -9627852.47944  -7458516.64646  22595273.976    22595274.3574   22595276.8684
        43.4004         40.6004
 -15566104.98547 -12104772.80148  22202106.972    22202107.5574   22202113.2854
        51.4004         48.5004
  -4216053.25846  -3272315.25747  22408817.304    22408817.3784   22408824.1424
        49.1004         46.1004
 -14160177.00345 -11015808.51947  21561928.691    21561928.5234   21561933.1514
        46.0004         43.2004
  -4161567.04346  -3222972.80247  22578835.155    22578835.3374   22578840.4504
        49.3004         46.5004
   -169789.88943   -127139.48846  24522802.140    24522802.8674   24522804.7864
        40.3004         38.1004
 -10025534.59246  -7795521.03747  20899071.824    20899071.5864   20899074.3614
        47.4004         44.7004
 23 11  9  0 18 30.0000000  0  8G27G18G10G26G23G08G15G16
 -17651171.01148 -13733521.53348  20223247.142    20223247.1594   20223252.6424
        55.0004         52.4004
  -9541903.38744  -7391543.33946  22611629.817    22611629.2694   22611632.4184
        43.2004         40.2004
 -15641056.92847 -12163176.88848  22187843.889    22187844.8884   22187851.2104
        51.7004         48.7004
  -4119268.14946  -3196898.30647  22427233.465    22427233.8354   22427241.3184
        48.9004         45.9004
 -14168511.30045 -11022302.76647  21560342.596    21560343.6304   21560346.7274
        46.2004         43.2004
  -4245539.00346  -3288405.47047  22562855.527    22562855.6584   22562861.2764
        49.3004         46.5004
   -200297.21154   -150911.42556  24516996.612    24516996.5464   24516999.1364
        40.8004         38.5004
  -9969252.20046  -7751664.64147  20909781.893    20909781.6974   20909784.5904
        47.4004         44.5004
 23 11  9  0 19  0.0000000  0  8G27G18G10G26G23G08G15G16
 -17675343.38448 -13752357.14248  20218647.664    20218647.8624   20218652.3564
        55.0004         52.4004
  -9455737.62144  -7324401.17146  22628025.067    22628025.1224   22628030.1164
        43.2004         40.2004
 -15715605.26147 -12221266.45048  22173658.808    22173658.3484   22173664.5244
        51.7004         48.9004
  -4022211.53546  -3121269.79747  22445704.241    22445704.2514   22445711.2174
        48.8004         45.9004
 -14176231.75945 -11028318.67947  21558874.413    21558874.2584   21558877.0514
        46.2004         43.2004
  -4329330.23646  -3353697.31347  22546910.350    22546910.2664   22546916.3754
        49.3004         46.3004
   -230261.69044   -174260.38046  24511296.383    24511296.8264   24511297.0494
        41.5004         39.3004
  -9912458.98546  -7707410.20747  20920589.796    20920589.2694   20920591.7804
        47.4004         44.5004
 23 11  9  0 19 30.0000000  0  8G27G18G10G26G23G08G15G16
 -17699117.35348 -13770882.31948  20214123.468    20214123.6254   20214128.5184
        55.0004         52.4004
  -9369357.15544  -7257091.73646  22644465.501    22644464.9344   22644466.2194
        43.0004         40.4004
 -15789747.01047 -12279039.19348  22159549.568    22159549.2184   22159555.9214
        51.7004         48.9004
  -3924885.69346  -3045431.49947  22464224.432    22464224.2924   22464231.2574
        48.9004         45.9004
 -14183338.16245 -11033856.12047  21557522.218    21557522.0104   21557524.7194
        46.2004         43.2004
  -4412938.97746  -3418846.95747  22531000.765    22531000.3164   22531006.5954
        49.3004         46.3004
   -259681.57044   -197184.97446  24505697.582    24505698.7384   24505700.3214
        41.8004         39.3004
  -9855156.55646  -7662758.97847  20931493.748    20931493.2424   20931495.8184
        47.4004         44.5004
 23 11  9  0 20  0.0000000  0  8G27G18G10G26G23G08G15G16
 -17722492.23148 -13789096.49548  20209675.067    20209675.6134   20209680.3464
        55.0004         52.4004
  -9282763.91844  -7189616.46746  22660941.046    22660941.6634   22660944.7984
        43.0004         40.2004
 -15863480.09347 -12336493.50548  22145518.666    22145518.7794   22145525.0524
        51.9004         48.9004
  -3827292.90146  -2969385.19447  22482795.433    22482795.8074   22482802.5974
        48.8004         45.9004
 -14189830.17645 -11038914.82047  21556286.832    21556286.7994   21556289.9204
        46.2004         43.2004
  -4496364.44446  -3483853.79547  22515124.979    22515125.1084   22515130.7574
        49.3004         46.5004
   -288555.33744   -219684.00246  24500207.052    24500203.8404   24500205.2024
        41.6004         39.2004
  -9797346.03146  -7617711.82247  20942494.772    20942494.6454   20942496.8004
        47.4004         44.5004
 23 11  9  0 20 30.0000000  0  8G27G18G10G26G23G08G15G16
 -17745467.27548 -13806999.12348  20205303.192    20205303.4014   20205308.6074
        55.2004         52.4004
  -9195959.81144  -7121976.90946  22677459.742    22677460.4344   22677463.9614
        43.0004         40.2004
 -15936802.04047 -12393627.43948  22131565.665    22131565.6984   22131571.7774
        51.9004         48.9004
  -3729435.46046  -2893132.66047  22501417.731    22501417.6204   22501424.5544
        48.8004         45.9004
 -14195707.57645 -11043494.61147  21555168.173    21555168.9544   21555171.0744
        46.2004         43.3004
  -4579605.27046  -3548716.75247  22499285.274    22499285.1714   22499290.7854
        49.3004         46.5004
   -316881.33544   -241756.20746  24494813.971    24494813.0554   24494815.6394
        41.6004         39.2004
  -9739029.02546  -7572270.00947  20953591.993    20953591.4904   20953594.3204
        47.4004         44.4004
 23 11  9  0 21  0.0000000  0  8G27G18G10G26G23G08G15G16
 -17768041.81648 -13824589.67548  20201007.618    20201007.8774   20201012.9164
        55.0004         52.5004
  -9108946.83444  -7054174.59446  22694018.670    22694018.1954   22694021.2964
        42.9004         40.0004
 -16009710.81347 -12450439.43048  22117691.959    22117691.9414   22117697.2414
        51.9004         48.9004
  -3631315.60546  -2816675.65647  22520088.686    22520089.0334   22520096.0984
        48.8004         45.8004
 -14200970.22945 -11047595.36647  21554166.950    21554166.3224   21554169.3204
        46.2004         43.2004
  -4662660.00046  -3613434.70847  22483480.181    22483480.5064   22483485.6284
        49.3004         46.3004
   -344657.42444   -263399.90946  24489526.749    24489528.4084   24489530.4604
        41.5004         39.0004
  -9680207.08146  -7526434.73847  20964785.405    20964785.0794   20964788.4754
        47.2004         44.5004
 23 11  9  0 21 30.0000000  0  8G27G18G10G26G23G08G15G16
 -17790215.13448 -13841867.58148  20196788.643    20196788.2554   20196793.2094
        55.0004         52.4004
  -9021726.77244  -6986210.91946  22710615.421    22710616.0874   22710618.7774
        42.7004         39.9004
 -16082203.47747 -12506927.17148  22103896.020    22103896.6814   22103902.7504
        51.9004         49.1004
  -3532935.70446  -2740016.01847  22538810.651    22538810.0744   22538816.8174
        48.6004         45.8004
 -14205617.87545 -11051216.89247  21553281.744    21553282.2734   21553284.7304
        46.2004         43.2004
  -4745527.41746  -3678006.70547  22467711.062    22467711.3104   22467716.8144
        49.3004         46.1004
   -371882.48844   -284614.23546  24484345.606    24484346.2644   24484349.1564
        41.5004         39.0004
  -9620882.16546  -7480207.55447  20976074.965    20976074.5444   20976077.0714
        47.2004         44.4004
 23 11  9  0 22  0.0000000  0  8G27G18G10G26G23G08G15G16
 -17811986.56348 -13858832.33148  20192645.308    20192644.9584   20192650.4214
        55.2004         52.4004
  -8934301.60344  -6918087.41346  22727252.350    22727252.1314   22727254.6854
        42.7004         40.0004
 -16154278.32947 -12563089.37348  22090181.839    22090181.9504   22090187.2874
        52.1004         49.1004
  -3434297.96846  -2663155.47247  22557580.430    22557580.3564   22557586.9954
        48.8004         45.8004
 -14209650.38545 -11054359.09047  21552514.112    21552513.7684   21552517.6494
        46.2004         43.2004
  -4828206.23346  -3742431.73047  22451978.210    22451978.2404   22451983.5044
        49.1004         46.3004
   -398554.71544   -305397.79346  24479272.283    24479270.1754   24479273.1834
        41.3004         39.0004
  -9561054.83546  -7433588.86947  20987459.516    20987458.9474   20987462.3104
        47.2004         44.4004
 23 11  9  0 22 30.0000000  0  8G27G18G10G26G23G08G15G16
 -17833355.37948 -13875483.35648  20188578.766    20188579.0444   20188583.9214
        55.2004         52.4004
  -8846673.26544  -6849805.59546  22743927.426    22743927.3304   22743929.7464
        42.7004         40.0004
 -16225932.62547 -12618923.85648  22076546.601    22076546.2284   22076551.9644
        52.2004         49.2004
  -3335404.79346  -2586095.88447  22576399.042    22576399.2714   22576406.0194
        48.6004         45.8004
 -14213067.63845 -11057021.88447  21551864.243    21551864.8984   21551867.3374
        46.2004         43.3004
  -4910695.94346  -3806709.41047  22436280.429    22436280.6064   22436286.4134
        48.9004         45.9004
   -424672.75144   -325749.50046  24474299.051    24474300.0164   24474303.1694
        41.1004         38.8004
  -9500726.80446  -7386580.03347  20998939.161    20998939.1724   20998942.2194
        47.2004         44.2004
 23 11  9  0 23  0.0000000  0  8G27G18G10G26G23G08G15G16
 -17854320.93748 -13891820.15348  20184589.556    20184589.7104   20184594.1514
        55.2004         52.5004
  -8758843.60644  -6781366.90646  22760640.901    22760641.4554   22760644.2704
        42.7004         39.9004
 -16297164.05547 -12674428.83448  22062991.696    22062991.5444   22062997.2454
        52.2004         49.2004
  -3236258.39246  -2508838.98047  22595267.056    22595266.6644   22595272.9594
        48.6004         45.8004
 -14215869.51545 -11059205.14447  21551331.097    21551331.7184   21551334.1474
        46.3004         43.3004
  -4992994.68846  -3870838.27147  22420619.859    22420619.5894   22420625.0114
        48.8004         45.8004
   -450234.56744   -345667.77446  24469433.467    24469435.2784   24469438.4654
        41.1004         38.6004
  -9439899.90846  -7339182.46647  21010514.348    21010514.1354   21010516.7224
        47.0004         44.2004
 23 11  9  0 23 30.0000000  0  8G27G18G10G26G23G08G15G16
 -17874882.55248 -13907842.19248  20180676.700    20180676.6724   20180681.4424
        55.2004         52.4004
  -8670814.56044  -6712772.83446  22777392.799    22777393.0494   22777394.8984
        42.7004         39.7004
 -16367970.74047 -12729602.82848  22049517.623    22049517.3854   22049523.1164
        52.4004         49.4004
  -3136861.06146  -2431386.53847  22614180.791    22614180.4604   22614188.0944
        48.4004         45.4004
 -14218055.92045 -11060908.82347  21550915.212    21550915.7484   21550917.8544
        46.3004         43.5004
  -5075101.06846  -3934817.24247  22404995.647    22404994.9934   22405001.0874
        48.8004         45.6004
   -475238.81844   -365151.57746  24464678.631    24464678.1364   24464680.5374
        41.3004         39.0004
  -9378575.78246  -7291397.44647  21022184.206    21022183.9654   21022186.3334
        47.0004         44.2004
 23 11  9  0 24  0.0000000  0  8G27G18G10G26G23G08G15G16
 -17895039.51848 -13923548.89648  20176840.946    20176840.9854   20176845.9724
        55.2004         52.4004
  -8582588.00244  -6644024.87346  22794180.574    22794180.6274   22794183.3304
        42.5004         39.5004
 -16438349.95148 -12784443.73948  22036124.873    22036125.2454   22036130.6534
        52.6004         49.6004
  -3037215.15346  -2353740.40147  22633142.410    22633142.9294   22633149.4764
        48.2004         45.4004
 -14219626.82246 -11062132.89547  21550616.433    21550616.8184   21550619.4684
        46.5004         43.5004
  -5157014.22846  -3998645.66247  22389407.822    22389407.8174   22389413.1004
        48.6004         45.4004
   -499684.10544   -384199.84046  24460024.709    24460025.1604   24460029.4914
        41.3004         38.8004
  -9316756.04746  -7243226.23547  21033948.177    21033947.7904   21033950.3384
        47.0004         44.2004
 23 11  9  0 24 30.0000000  0  8G27G18G10G26G23G08G15G16
 -17914791.20148 -13938939.82948  20173082.469    20173082.4364   20173087.0994
        55.2004         52.5004
  -8494165.84344  -6575124.50146  22811007.508    22811007.6224   22811009.1624
        42.3004         39.3004
 -16508299.62448 -12838949.95348  22022814.254    22022814.2194   22022819.3034
        52.6004         49.6004
  -2937322.98046  -2275902.39047  22652151.284    22652151.6664   22652158.3414
        48.2004         45.4004
 -14220582.20046 -11062877.33947  21550435.084    21550434.6274   21550437.7054
        46.5004         43.5004
  -5238732.88646  -4062322.52947  22373857.676    22373857.3684   22373862.7734
        48.4004         45.6004
   -523569.19844   -402811.62746  24455480.158    24455481.1474   24455482.8124
        41.3004         39.0004
  -9254442.22746  -7194670.03247  21045805.991    21045805.6604   21045808.4204
        47.0004         44.2004
 23 11  9  0 25  0.0000000  0  8G27G18G10G26G23G08G15G16
 -17934136.93048 -13954014.41548  20169400.963    20169400.8854   20169405.7834
        55.2004         52.5004
  -8405549.89344  -6506073.11446  22827870.960    22827870.8004   22827872.9084
        42.3004         39.7004
 -16577817.65548 -12893119.80648  22009585.871    22009585.6004   22009590.0294
        52.6004         49.6004
  -2837186.85846  -2197874.27747  22671207.092    22671207.0874   22671214.0974
        48.2004         45.4004
 -14220922.03645 -11063142.12747  21550369.415    21550369.7734   21550373.0534
        46.3004         43.3004
  -5320255.39446  -4125846.52747  22358344.247    22358344.1924   22358349.9244
        48.6004         45.8004
   -546892.30244   -420985.46946  24451043.504    24451043.7534   24451044.9554
        41.5004         39.2004
  -9191635.64246  -7145729.85547  21057757.612    21057757.1654   21057759.7624
        47.0004         44.0004
 23 11  9  0 25 30.0000000  0  8G27G18G10G26G23G08G15G16
 -17953076.02248 -13968772.14948  20165797.146    20165797.2674   20165801.7764
        55.2004         52.5004
  -8316742.11244  -6436872.25746  22844771.158    22844770.7564   22844772.5334
        42.3004         39.7004
 -16646901.32348 -12946951.20248  21996438.475    21996438.4824   21996444.3274
        52.6004         49.4004
  -2736809.07946  -2119657.85347  22690308.497    22690308.3714   22690315.1904
        48.4004         45.6004
 -14220646.36045 -11062927.29447  21550421.661    21550422.0814   21550425.9344
        46.3004         43.5004
  -5401580.45246  -4189216.67247  22342868.798    22342868.5864   22342874.1344
        48.8004         45.9004
   -569651.61344   -438719.98846  24446710.463    24446712.5234   24446714.8674
        41.5004         39.2004
  -9128338.14546  -7096407.14847  21069802.255    21069802.0174   21069805.0974
        46.9004         43.9004
 23 11  9  0 26  0.0000000  0  9G27G21G18G10G26G23G08G15G16
 -17971607.85248 -13983212.53248  20162270.821    20162270.8304   20162275.5434
        55.2004         52.5004
                   -107409.73755  23446999.109
                        34.8004
  -8227744.31144  -6367523.30146  22861706.212    22861705.6514   22861708.6074
        42.2004         39.2004
 -16715548.83047 -13000442.73448  21983374.861    21983375.1654   21983380.7264
        52.4004         49.4004
  -2636191.98046  -2041254.95347  22709455.488    22709455.5494   22709461.9934
        48.4004         45.6004
 -14219755.21345 -11062232.88247  21550592.005    21550591.0394   21550595.2084
        46.3004         43.2004
  -5482707.38346  -4252432.44347  22327430.216    22327430.8664   22327436.2494
        48.8004         45.9004
   -591846.01644   -456014.30846  24442489.198    24442489.3264   24442490.9504
        42.0004         39.9004
  -9064551.68646  -7046703.43947  21081940.995    21081940.4644   21081943.0044
        46.7004         43.7004
 23 11  9  0 26 30.0000000  0  9G27G21G18G10G26G23G08G15G16
 -17989731.77748 -13997335.07448  20158821.349    20158821.4874   20158826.4094
        55.2004         52.4004
                   -179966.27345  23429279.549
                        35.3004
  -8138558.39044  -6298027.79546  22878677.417    22878677.3644   22878680.0834
        42.3004         39.7004
 -16783757.99848 -13053592.70148  21970395.347    21970395.1714   21970401.1594
        52.6004         49.4004
  -2535337.87746  -1962667.37047  22728646.739    22728647.0114   22728654.0454
        48.4004         45.4004
 -14218248.67545 -11061058.94647  21550878.898    21550878.7254   21550881.7234
        46.3004         43.3004
  -5563634.49446  -4315492.52947  22312030.633    22312030.7684   22312035.5844
        48.9004         45.9004
   -613474.31044   -472867.54046  24438373.132    24438373.5134   24438374.9554
        42.3004         39.9004
  -9000277.33346  -6996619.53947  21094171.554    21094171.2314   21094173.7934
        46.7004         43.7004
 23 11  9  0 27  0.0000000  0  9G27G21G18G10G26G23G08G15G16
 -18007447.11648 -14011139.22748  20155450.780    20155450.6634   20155455.2414
        55.2004         52.5004
   -350234.24742   -252340.76445  23411606.992    23411603.9984   23411607.2724
        36.4004         35.3004
  -8049186.15344  -6228387.07846  22895684.332    22895683.9464   22895686.9894
        42.5004         39.7004
 -16851526.19148 -13106399.05648  21957500.114    21957499.5084   21957505.2594
        52.6004         49.6004
  -2434249.09746  -1883896.92247  22747884.067    22747883.4954   22747890.3834
        48.1004         45.1004
 -14216126.80145 -11059405.52947  21551282.600    21551282.6984   21551285.4864
        46.3004         43.3004
  -5644360.42946  -4378395.82847  22296669.010    22296668.8614   22296674.1484
        48.9004         45.6004
   -634534.98444   -489278.46146  24434365.635    24434366.8744   24434367.9204
        42.2004         39.7004
  -8935517.20046  -6946157.11747  21106495.752    21106495.0464   21106497.6354
        46.7004         43.9004
 23 11  9  0 27 30.0000000  0  9G27G21G18G10G26G23G08G15G16
 -18024753.26148 -14024624.53448  20152157.322    20152157.0484   20152162.1594
        55.4004         52.5004
   -442880.20842   -324532.37845  23393974.452    23393974.1254   23393978.0274
        37.5004         35.5004
  -7959629.53544  -6158602.69646  22912726.614    22912726.2544   22912728.9734
        42.5004         39.9004
 -16918851.47248 -13158860.28048  21944688.059    21944687.6804   21944693.3424
        52.6004         49.6004
  -2332927.97046  -1804945.43447  22767164.134    22767164.1194   22767171.0134
        47.7004         44.7004
 -14213389.77345 -11057272.77947  21551803.017    21551803.3964   21551806.0314
        46.3004         43.2004
  -5724883.98646  -4441141.44547  22281345.632    22281345.8544   22281351.0034
        48.8004         45.9004
   -655026.65444   -505246.00346  24430465.198    24430465.9694   24430468.1684
        42.2004         39.7004
  -8870272.68746  -6895317.24847  21118911.462    21118911.0914   21118913.5154
        46.7004         44.0004
 23 11  9  0 28  0.0000000  0  9G27G21G18G10G26G23G08G15G16
 -18041649.54048 -14037790.45648  20148941.813    20148942.0684   20148946.8694
        55.2004         52.5004
   -535290.24853   -396540.13655  23376389.696    23376389.7644   23376392.7384
        37.6004         35.5004
  -7869890.30144  -6088676.02946  22929802.927    22929802.9444   22929806.8524
        42.5004         39.7004
 -16985731.75348 -13210974.75348  21931960.642    21931961.1804   21931966.8254
        52.8004         49.8004
  -2231376.81646  -1725814.70147  22786488.287    22786489.0344   22786495.9984
        47.5004         44.5004
 -14210037.72145 -11054660.78647  21552440.149    21552441.1974   21552444.1154
        46.2004         43.0004
  -5805203.90146  -4503728.36947  22266062.187    22266061.8604   22266066.7574
        48.9004         46.1004
   -674948.09344   -520769.22346  24426674.758    24426674.9584   24426676.0034
        42.3004         40.0004
  -8804545.61346  -6844101.36447  21131418.257    21131418.0814   21131421.4124
        46.9004         44.0004
 23 11  9  0 28 30.0000000  0  9G27G21G18G10G26G23G08G15G16
 -18058135.38148 -14050636.56748  20145805.277    20145804.9884   20145809.7164
        55.4004         52.5004
   -627463.51843   -468363.42945  23358848.343    23358847.4644   23358852.2114
        37.6004         35.5004
  -7779970.36344  -6018608.54846  22946914.152    22946914.7884   22946917.6644
        42.3004         39.7004
 -17052164.83848 -13262740.75748  21919319.335    21919319.1684   21919324.5274
        52.8004         49.8004
  -2129597.95746  -1646506.54347  22805856.519    22805856.8584   22805863.6684
        47.2004         44.2004
 -14206070.81745 -11051569.67347  21553194.963    21553195.4774   21553199.0184
        45.8004         42.8004
  -5885319.12446  -4566155.81347  22250816.698    22250816.1864   22250820.8154
        48.9004         45.9004
   -694297.83844   -535846.92746  24422991.627    24422991.8214   24422995.4354
        42.2004         39.7004
  -8738337.51946  -6792510.67247  21144017.663    21144017.1744   21144020.2134
        46.9004         44.0004
 23 11  9  0 29  0.0000000  0  9G27G21G18G10G26G23G08G15G16
 -18074210.12248 -14063162.33148  20142745.584    20142745.7354   20142750.5604
        55.2004         52.4004
   -719398.86243   -540001.33745  23341356.422    23341354.7114   23341357.8724
        38.0004         35.9004
  -7689871.47544  -5948401.62346  22964059.484    22964059.6164   22964063.2334
        42.3004         39.9004
 -17118148.55248 -13314156.60448  21906762.782    21906762.9334   21906768.0544
        52.8004         49.8004
  -2027593.81046  -1567022.81247  22825267.367    22825267.3624   22825274.2424
        47.2004         44.2004
 -14201489.25945 -11047999.61847  21554066.882    21554067.6644   21554070.2214
        45.8004         42.8004
  -5965228.00446  -4628422.45747  22235610.156    22235610.2304   22235615.5494
        48.9004         46.1004
   -713074.76344   -550478.30246  24419416.727    24419418.9824   24419422.1294
        42.2004         39.9004
  -8671650.15846  -6740546.51447  21156707.265    21156707.0274   21156710.6434
        46.9004         44.0004
 23 11  9  0 29 30.0000000  0  9G27G21G18G10G26G23G08G15G16
 -18089873.14448 -14075367.28848  20139765.195    20139765.0814   20139769.9404
        55.2004         52.4004
   -811095.08843   -611452.90045  23323905.170    23323904.3394   23323908.5494
        38.0004         35.9004
  -7599595.53744  -5878056.74446  22981238.705    22981238.1654   22981241.6574
        42.5004         39.9004
 -17183680.68648 -13365220.58548  21894292.355    21894292.7854   21894297.3094
        52.8004         49.8004
  -1925366.65246  -1487365.31747  22844722.011    22844721.6584   22844727.8164
        47.2004         44.4004
 -14196293.25445 -11043950.77647  21555055.872    21555056.2174   21555059.1514
        45.8004         42.8004
  -6044929.33146  -4690527.37847  22220443.510    22220443.2434   22220448.4694
        48.8004         45.9004
   -731277.68444   -564662.39346  24415955.378    24415953.9694   24415958.6324
        42.0004         39.5004
  -8604485.53246  -6688210.46547  21169489.227    21169488.4684   21169491.3864
        46.9004         44.0004
 23 11  9  0 30  0.0000000  0  9G27G21G18G10G26G23G08G15G16
 -18105123.83148 -14087250.93448  20136863.124    20136863.3124   20136867.9354
        55.2004         52.5004
   -902551.05543   -682717.24845  23306502.047    23306501.5084   23306505.2364
        37.8004         35.7004
  -7509144.32944  -5807575.30046  22998450.883    22998450.9764   22998454.3604
        42.3004         39.2004
 -17248759.07748 -13415930.99748  21881907.801    21881908.2534   21881913.0294
        52.9004         49.8004
  -1822918.84846  -1407535.88847  22864217.712    22864216.7784   22864222.7354
        47.2004         44.4004
 -14190483.07845 -11039423.37147  21556162.212    21556162.2484   21556164.6704
        45.8004         43.0004
  -6124421.91646  -4752469.62647  22205315.920    22205315.7684   22205321.6874
        48.8004         45.8004
   -748905.39444   -578398.28546  24412601.249    24412601.2864   24412604.6344
        42.0004         39.5004
  -8536845.61746  -6635504.05347  21182360.287    21182360.0084   21182363.3414
        46.9004         44.0004
 23 11  9  0 30 30.0000000  0  9G27G21G18G10G26G23G08G15G16
 -18119961.59348 -14098812.82948  20134040.268    20134039.8844   20134044.1304
        55.4004         52.4004
   -993765.83043   -753793.65945  23289143.879    23289143.8314   23289148.3664
        37.8004         35.7004
  -7418519.67644  -5736958.66546  23015695.964    23015696.6064   23015700.1734
        42.2004         39.3004
 -17313381.76348 -13466286.30448  21869611.117    21869610.7014   21869616.4334
        52.9004         49.8004
  -1720252.73246  -1327536.34747  22883752.537    22883753.2354   22883759.6564
        47.2004         44.4004
 -14184058.96345 -11034417.55647  21557384.828    21557385.1834   21557386.8864
        46.0004         43.0004
  -6203703.94946  -4814247.81047  22190229.620    22190229.0054   22190234.5004
        48.8004         45.8004
   -765956.82744   -591685.11146  24409354.750    24409356.8474   24409360.8824
        41.8004         39.5004
  -8468731.71946  -6582428.30747  21195322.365    21195321.5194   21195324.2114
        46.7004         43.9004
 23 11  9  0 31  0.0000000  0  9G27G21G18G10G26G23G08G15G16
 -18134385.83548 -14110052.50048  20131295.493    20131295.1454   20131299.5574
        55.4004         52.5004
  -1084738.64743   -824681.49945  23271832.521    23271831.1184   23271836.1754
        38.0004         35.7004
  -7327723.40044  -5666208.33746  23032973.906    23032974.0204   23032977.1884
        42.0004         39.2004
 -17377546.54248 -13516284.81348  21857401.591    21857400.8844   21857406.3304
        52.9004         49.9004
  -1617370.66546  -1247368.53947  22903331.317    22903331.5444   22903337.6214
        47.2004         44.2004
 -14177021.23445 -11028933.61147  21558723.056    21558723.5164   21558727.0884
        46.0004         43.0004
  -6282774.79846  -4875861.45147  22175182.078    22175182.0724   22175188.2384
        48.8004         45.8004
   -782430.39944   -604521.69746  24406223.684    24406222.1204   24406225.0724
        42.2004         40.0004
  -8400145.51346  -6528984.53247  21208374.069    21208373.5324   21208375.7534
        46.7004         43.7004
 23 11  9  0 31 30.0000000  0  9G27G21G18G10G26G23G08G15G16
 -18148395.95148 -14120969.46948  20128628.877    20128628.8904   20128633.5144
        55.4004         52.5004
  -1175468.46143   -895380.00645  23254566.537    23254565.9694   23254570.9454
        37.8004         35.7004
  -7236757.26944  -5595325.64546  23050283.166    23050283.8964   23050287.0034
        42.0004         39.0004
 -17441251.34548 -13565924.89648  21845278.575    21845278.6994   21845283.8404
        53.1004         50.1004
  -1514275.02946  -1167034.29547  22922948.243    22922948.8754   22922955.2724
        47.0004         44.0004
 -14169370.22845 -11022971.78547  21560179.905    21560180.2574   21560182.5654
        46.0004         43.0004
  -6361632.77146  -4937309.19647  22160175.975    22160175.9464   22160181.8654
        48.8004         45.9004
   -798324.93344   -616907.08846  24403197.378    24403198.5694   24403200.5784
        42.3004         40.0004
  -8331088.93246  -6475174.22947  21221514.623    21221514.2364   21221516.4334
        46.5004         43.5004
 23 11  9  0 32  0.0000000  0  9G27G21G18G10G26G23G08G15G16
 -18161991.33448 -14131563.27348  20126041.734    20126041.9044   20126046.3374
        55.4004         52.5004
  -1265953.85743   -965888.04445  23237348.597    23237347.8994   23237350.4434
        38.0004         35.9004
  -7145623.12444  -5524312.03246  23067625.891    23067626.0734   23067629.2884
        41.8004         39.2004
 -17504494.29448 -13615205.08648  21833243.761    21833243.7824   21833249.4384
        53.1004         49.9004
  -1410968.10546  -1086535.43347  22942609.332    22942608.6954   22942614.1254
        47.0004         44.2004
 -14161106.29945 -11016532.34047  21561751.762    21561752.1814   21561755.3154
        46.0004         43.2004
  -6440276.94946  -4998590.35947  22145209.768    22145210.2064   22145216.3334
        48.9004         46.1004
   -813639.69344   -628840.70346  24400282.085    24400282.7594   24400287.4214
        42.3004         40.0004
  -8261563.97045  -6420998.95647  21234744.332    21234744.1654   21234746.9154
        46.3004         43.3004
 23 11  9  0 32 30.0000000  0  9G27G21G18G10G26G23G08G15G16
 -18175171.42448 -14141833.47548  20123533.767    20123533.8524   20123538.2484
        55.4004         52.7004
  -1356193.87543  -1036204.90045  23220176.248    23220176.0354   23220179.2474
        37.8004         35.7004
  -7054322.77544  -5453168.91246  23085000.515    23085000.8014   23085004.0064
        41.8004         39.0004
 -17567272.96248 -13664123.50448  21821297.464    21821297.3194   21821302.7614
        53.1004         49.9004
  -1307452.26746  -1005873.77647  22962307.232    22962306.3214   22962312.8884
        47.0004         44.0004
 -14152229.79245 -11009615.56547  21563440.677    21563441.1514   21563444.3494
        45.8004         43.0004
  -6518705.73046  -5059703.68347  22130286.041    22130285.8504   22130291.5914
        49.1004         46.3004
   -828373.28044   -640321.46746  24397477.603    24397478.2544   24397480.6544
        41.6004         39.2004
  -8191572.26845  -6366459.98447  21248063.936    21248063.5204   21248066.0824
        46.2004         43.5004
 23 11  9  0 33  0.0000000  0  9G27G21G18G10G26G23G08G15G16
 -18187935.60948 -14151779.59348  20121104.704    20121104.8914   20121109.4344
        55.4004         52.7004
  -1446187.59243  -1106329.85446  23203051.485    23203051.0304   23203054.1644
        38.2004         36.0004
  -6962857.91844  -5381897.60346  23102405.595    23102406.0044   23102407.8444
        41.6004         38.8004
 -17629585.61248 -13712678.78648  21809439.621    21809439.7564   21809444.7454
        53.1004         49.9004
  -1203729.93946   -925051.20647  22982042.901    22982043.7024   22982050.4514
        46.9004         43.9004
 -14142741.12245 -11002221.79047  21565246.442    21565246.9604   21565249.6674
        46.0004         43.0004
  -6596917.79346  -5120648.12847  22115402.776    22115402.3834   22115408.3234
        49.3004         46.5004
   -842524.81744   -651348.63746  24394784.972    24394784.3564   24394788.7904
        40.9004         38.8004
  -8121115.62545  -6311558.72447  21261471.046    21261470.4644   21261473.5664
        46.2004         43.3004
 23 11  9  0 33 30.0000000  0  9G27G21G18G10G26G23G08G15G16
 -18200283.36348 -14161401.22148  20118754.483    20118754.8124   20118759.8044
        55.4004         52.7004
  -1535934.35543  -1176262.33146  23185972.530    23185972.0924   23185975.1824
        38.2004         36.0004
  -6871230.39744  -5310499.51546  23119840.745    23119841.8474   23119845.0254
        41.6004         38.8004
 -17691430.34748 -13760869.47048  21797670.743    21797670.8724   21797675.7774
        53.1004         49.9004
  -1099803.38846   -844069.51547  23001821.163    23001821.2384   23001826.8834
        46.7004         43.7004
 -14132640.71045 -10994351.31947  21567169.089    21567169.6164   21567172.5094
        46.0004         43.3004
  -6674911.57346  -5181422.48547  22100560.999    22100560.4504   22100566.6554
        49.5004         46.5004
   -856093.17154   -661921.42156  24392198.421    24392202.6994   24392208.5404
        41.1004         39.2004
  -8050196.36245  -6256296.98147  21274967.178    21274966.7334   21274969.2854
        46.2004         43.3004
 23 11  9  0 34  0.0000000  0  9G27G21G18G10G26G23G08G15G16
 -18212214.05848 -14170697.86848  20116484.856    20116484.6674   20116489.4024
        55.4004         52.7004
  -1625432.59243  -1246001.19546  23168942.642    23168941.3964   23168945.4744
        38.2004         36.0004
  -6779441.97444  -5238976.08646  23137308.475    23137308.4574   23137311.2704
        41.6004         38.8004
 -17752804.93748 -13808693.80248  21785991.388    21785991.4644   21785996.7204
        53.1004         49.9004
   -995674.99746   -762930.53747  23021635.930    23021635.6504   23021642.3304
        46.5004         43.7004
 -14121929.00345 -10986004.54347  21569207.457    21569207.4674   21569210.3344
        46.2004         43.0004
  -6752685.82146  -5242025.78047  22085760.699    22085760.7134   22085766.3534
        49.5004         46.5004
   -869077.35744   -672038.99246  24389734.186    24389732.6284   24389735.4914
        41.8004         39.7004
  -7978815.83545  -6200675.80447  21288550.288    21288549.8044   21288552.2054
        46.2004         43.3004
 23 11  9  0 34 30.0000000  0  9G27G21G18G10G26G23G08G15G16
 -18223727.15548 -14179669.10848  20114293.687    20114293.8024   20114298.8614
        55.4004         52.9004
  -1714681.29043  -1315545.56546  23151959.255    23151958.5964   23151960.1254
        38.7004         36.4004
  -6687494.42444  -5167328.62646  23154805.880    23154805.0844   23154809.2024
        41.6004         39.0004
 -17813707.26648 -13856150.13448  21774401.496    21774402.0804   21774407.6214
        53.1004         49.9004
   -891347.19246   -681636.17647  23041488.804    23041488.4344   23041496.8864
        46.5004         43.7004
 -14110606.45845 -10977181.76947  21571361.761    21571361.9984   21571364.5534
        46.0004         43.0004
  -6830239.01746  -5302456.83247  22071002.585    22071002.5624   22071008.6994
        49.5004         46.6004
   -881476.18344   -681700.41246  24387372.929    24387373.1604   24387375.1134
        41.5004         39.0004
  -7906975.73445  -6144696.51747  21302220.352    21302220.0074   21302222.6584
        46.2004         43.2004
 23 11  9  0 35  0.0000000  0  9G27G21G18G10G26G23G08G15G16
 -18234822.11349 -14188314.53148  20112182.699    20112182.6674   20112187.2864
        55.5004         52.9004
  -1803679.72243  -1384894.90546  23135023.220    23135022.5424   23135025.1504
        39.0004         36.7004
  -6595389.48344  -5095558.57146  23172331.301    23172332.8734   23172335.4224
        41.5004         38.6004
 -17874135.21248 -13903236.82848  21762902.558    21762902.9714   21762908.8004
        53.1004         50.1004
   -786822.23046   -600188.20547  23061379.342    23061379.4744   23061385.8014
        46.5004         43.7004
 -14098673.59745 -10967883.43147  21573632.509    21573631.8304   21573635.0824
        45.8004         42.8004
  -6907570.02147  -5362714.73247  22056287.321    22056287.3834   22056292.7244
        49.8004         47.0004
   -893288.90444   -690905.16446  24385125.127    24385126.0164   24385128.6924
        41.8004         39.7004
  -7834678.57845  -6088361.10247  21315978.236    21315977.6424   21315980.7024
        46.2004         43.2004
 23 11  9  0 35 30.0000000  0  9G27G21G18G10G26G23G08G15G16
 -18245498.37548 -14196633.69748  20110150.609    20110150.8514   20110155.6404
        55.4004         52.9004
  -1892427.29543  -1454048.80546  23118134.449    23118133.7734   23118137.5214
        39.0004         36.6004
  -6503128.91744  -5023667.21046  23189889.890    23189888.8904   23189891.3224
        41.5004         38.6004
 -17934087.77748 -13949953.08748  21751495.071    21751494.4494   21751500.2624
        53.3004         50.1004
   -682102.57146   -518588.50047  23081306.434    23081306.2824   23081313.9714
        46.5004         43.7004
 -14086130.96345 -10958109.93847  21576018.455    21576019.8954   21576022.4554
        45.6004         42.8004
  -6984677.88147  -5422798.76147  22041613.857    22041614.1884   22041619.6154
        50.0004         47.2004
   -904514.43144   -699652.37146  24382990.178    24382991.8404   24382991.4994
        41.8004         39.3004
  -7761925.66745  -6031670.54547  21329823.386    21329822.5264   21329825.5424
        46.2004         43.5004
 23 11  9  0 36  0.0000000  0  9G27G21G18G10G26G23G08G15G16
 -18255755.38649 -14204626.17448  20108198.996    20108198.9934   20108203.6884
        55.5004         52.9004
  -1980922.29843  -1523005.89046  23101294.317    23101293.9814   23101296.7254
        39.0004         36.6004
  -6410714.52144  -4951655.99946  23207474.131    23207474.4164   23207477.9034
        41.1004         38.3004
 -17993562.19048 -13996296.76448  21740176.476    21740176.8174   21740182.1134
        53.3004         50.1004
   -577190.57846   -436838.94847  23101270.854    23101270.9934   23101277.8044
        46.5004         43.7004
 -14072979.06345 -10947861.68347  21578522.469    21578522.5674   21578524.8504
        45.6004         42.8004
  -7061560.92847  -5482707.62547  22026984.366    22026984.4754   22026989.0984
        50.3004         47.5004
   -915151.74944   -707941.18046  24380964.595    24380966.4014   24380968.5184
        42.5004         40.0004
  -7688719.60345  -5974626.88447  21343753.020    21343752.5944   21343756.3304
        46.2004         43.5004
 23 11  9  0 36 30.0000000  0  9G27G21G18G10G26G23G08G15G16
 -18265592.62748 -14212291.56048  20106326.726    20106326.9424   20106331.5214
        55.4004         52.7004
  -2069163.90543  -1591765.51146  23084502.051    23084501.5004   23084505.4614
        39.0004         36.7004
  -6318148.00144  -4879526.23346  23225091.301    23225090.8814   23225092.1544
        41.3004         38.5004
 -18052556.49648 -14042266.32948  21728950.838    21728950.5874   21728955.5634
        53.1004         49.9004
   -472088.62846   -354941.35947  23121272.364    23121271.6874   23121278.3444
        46.5004         43.7004
 -14059218.45145 -10937139.10947  21581141.227    21581141.0564   21581143.1804
        45.8004         42.8004
  -7138217.81747  -5542440.26247  22012397.302    22012397.2194   22012401.6864
        50.5004         47.7004
   -925200.23644   -715771.19146  24379053.627    24379054.9044   24379055.1914
        42.7004         40.0004
  -7615062.02245  -5917231.38847  21357770.262    21357769.5624   21357772.5754
        46.3004         43.5004
 23 11  9  0 37  0.0000000  0  9G27G21G18G10G26G23G08G15G16
 -18275009.50948 -14219629.39448  20104535.004    20104534.8954   20104539.6974
        55.4004         52.9004
  -2157151.40743  -1660327.15346  23067758.975    23067759.0964   23067762.3634
        39.4004         37.1004
  -6225431.03544  -4807279.24546  23242733.479    23242733.9024   23242735.5494
        40.9004         38.5004
 -18111069.24648 -14087860.66048  21717816.147    21717815.8854   21717821.1934
        53.1004         49.9004
   -366799.00845   -272897.53347  23141307.362    23141307.3254   23141313.9074
        46.3004         43.5004
 -14044849.71745 -10925942.70447  21583875.376    21583875.8064   21583877.9234
        46.0004         43.2004
  -7214647.32147  -5601995.71347  21997852.881    21997852.6224   21997857.8674
        50.7004         47.8004
   -934658.90744   -723141.62946  24377251.511    24377247.8004   24377261.4834
        42.0004         38.8004
  -7540954.69545  -5859485.44847  21371872.018    21371871.7884   21371875.0654
        46.2004         43.2004
 23 11  9  0 37 30.0000000  0  9G27G21G18G10G26G23G08G15G16
 -18284005.58448 -14226639.31848  20102822.842    20102822.9694   20102828.0524
        55.4004         52.9004
  -2244883.69743  -1728689.92746  23051063.796    23051063.7054   23051067.4944
        39.6004         37.1004
  -6132565.41144  -4734916.43946  23260405.767    23260405.4924   23260407.9544
        41.1004         38.5004
 -18169098.42148 -14133078.17748  21706772.984    21706773.2914   21706778.8854
        53.1004         49.9004
   -261324.18345   -190709.39847  23161378.135    23161378.1964   23161385.1834
        46.2004         43.2004
 -14029873.54645 -10914272.95447  21586726.016    21586725.4284   21586727.7324
        46.0004         43.2004
  -7290847.63247  -5661372.56448  21983352.606    21983352.7454   21983357.6694
        51.0004         48.2004
   -943526.89044   -730051.71546  24375563.734    24375566.1514   24375569.1074
        42.2004         39.7004
  -7466399.38345  -5801390.42847  21386059.433    21386059.0574   21386061.8294
        46.0004         43.2004
 23 11  9  0 38  0.0000000  0  9G27G21G18G10G26G23G08G15G16
 -18292580.28048 -14233320.90348  20101191.273    20101191.4174   20101196.2494
        55.4004         52.7004
  -2332359.99743  -1796853.23846  23034418.147    23034417.7284   23034420.3074
        39.0004         36.6004
  -6039552.82444  -4662439.08446  23278105.064    23278105.3934   23278107.5664
        41.1004         38.3004
 -18226641.90448 -14177917.24248  21695823.442    21695823.1734   21695828.4604
        53.1004         49.9004
   -155666.50945   -108378.76247  23181483.888    23181483.9294   23181490.9364
        45.8004         43.0004
 -14014290.53045 -10902130.33747  21589690.268    21589690.5074   21589693.0064
        46.2004         43.2004
  -7366817.95847  -5720570.21348  21968895.550    21968896.0834   21968900.9174
        51.2004         48.4004
   -951803.52044   -736501.00746  24373990.146    24373989.4144   24373994.4074
        42.0004         39.3004
  -7391398.64645  -5742948.30947  21400331.088    21400331.2094   21400334.1994
        46.0004         43.2004
 23 11  9  0 38 30.0000000  0  9G27G21G18G10G26G23G08G15G16
 -18300733.09849 -14239673.74648  20099640.701    20099640.1984   20099644.7124
        55.5004         52.9004
  -2419579.21643  -1864816.22446  23017819.928    23017819.0164   23017822.2854
        38.5004         36.2004
  -5946395.03244  -4589848.58746  23295832.585    23295832.7354   23295833.7724
        41.1004         38.6004
 -18283697.83948 -14222376.39148  21684966.589    21684965.8804   21684971.0084
        53.1004         50.1004
    -49828.30145    -25907.46147  23201624.212    23201623.8544   23201631.4044
        45.6004         42.8004
 -13998101.36145 -10889515.39947  21592770.433    21592770.4864   21592773.7974
        46.0004         43.0004
  -7442556.65047  -5779587.36448  21954483.011    21954482.9584   21954488.2394
        51.4004         48.4004
   -959488.04844   -742488.98846  24372526.805    24372528.8444   24372531.5884
        42.2004         39.7004
  -7315953.88745  -5684160.21247  21414688.376    21414688.2204   21414691.0694
        46.0004         43.3004
 23 11  9  0 39  0.0000000  0  9G27G21G18G10G26G23G08G15G16
 -18308463.51649 -14245697.44548  20098169.150    20098169.3104   20098173.5474
        55.5004         52.9004
  -2506540.40143  -1932578.14146  23001271.990    23001272.1104   23001274.5664
        38.3004         36.0004
  -5853093.70644  -4517146.26046  23313588.000    23313588.2854   23313589.2514
        41.1004         38.6004
 -18340264.57848 -14266454.34748  21674201.822    21674201.6454   21674206.5824
        53.3004         50.1004
     56188.00445     56702.59847  23221798.287    23221798.0524   23221805.7764
        45.6004         42.6004
 -13981306.72145 -10876428.63547  21595965.356    21595965.7744   21595970.1664
        45.8004         43.0004
  -7518062.02747  -5838422.70048  21940115.031    21940114.3934   21940120.5554
        51.4004         48.5004
   -966579.31544   -748014.67246  24371179.387    24371179.7714   24371182.4944
        42.0004         39.5004
  -7240067.52245  -5625028.01347  21429129.103    21429128.7144   21429131.2864
        46.2004         43.3004
 23 11  9  0 39 30.0000000  0  9G27G21G18G10G26G23G08G15G16
 -18315771.04049 -14251391.61648  20096778.442    20096778.6124   20096782.9014
        55.5004         52.7004
  -2593242.73043  -2000138.38646  22984774.129    22984773.4164   22984775.5574
        38.3004         36.0004
  -5759650.56144  -4444333.42346  23331369.086    23331369.3244   23331371.3864
        41.3004         38.6004
 -18396340.42648 -14310149.80048  21663530.360    21663530.6934   21663536.0774
        53.5004         50.3004
    162380.06645    139449.61447  23242006.380    23242005.7374   23242013.3904
        45.6004         42.8004
 -13963907.31445 -10862870.65847  21599276.712    21599277.0214   21599281.0414
        45.8004         43.0004
  -7593333.39547  -5897075.70648  21925791.697    21925791.0654   21925796.7484
        51.4004         48.5004
   -973076.66844   -753077.58846  24369943.074    24369943.4564   24369945.3114
        41.8004         39.3004
  -7163741.33445  -5565553.08947  21443653.353    21443652.6554   21443656.7884
        46.0004         43.3004
 23 11  9  0 40  0.0000000  0  9G27G21G18G10G26G23G08G15G16
 -18322655.17549 -14256755.87748  20095468.560    20095468.7104   20095473.0424
        55.5004         52.7004
  -2679685.44643  -2067496.30846  22968323.827    22968323.1964   22968327.6734
        38.5004         36.4004
  -5666067.27444  -4371411.38146  23349177.051    23349176.9004   23349179.1484
        41.1004         38.3004
 -18451923.16948 -14353461.00548  21652953.681    21652954.0844   21652959.0234
        53.5004         50.3004
    268745.45845    222331.69947  23262245.463    23262246.0104   23262254.0964
        45.6004         42.8004
 -13945903.85845 -10848841.97947  21602703.643    21602703.3824   21602706.8944
        46.0004         43.0004
  -7668369.10147  -5955545.06348  21911512.016    21911512.0254   21911517.9154
        51.4004         48.4004
   -978979.58444   -757677.32946  24368821.119    24368820.7474   24368821.3634
        41.5004         39.2004
  -7086977.21645  -5505736.92747  21458261.661    21458261.4444   21458263.8374
        46.0004         43.2004
 23 11  9  0 40 30.0000000  0  9G27G21G18G10G26G23G08G15G16
 -18329115.41449 -14261789.83548  20094239.132    20094239.1934   20094243.4314
        55.5004         52.7004
  -2765867.43143  -2134651.08946  22951923.958    22951922.5554   22951926.9314
        38.7004         36.6004
  -5572345.57844  -4298381.47446  23367012.000    23367012.5334   23367014.3534
        41.1004         38.5004
 -18507011.25348 -14396386.76248  21642471.103    21642470.6464   21642476.3414
        53.3004         50.3004
    375281.87145    305347.03447  23282520.458    23282520.2264   23282527.7014
        45.6004         43.0004
 -13927297.15945 -10834343.24247  21606244.089    21606244.5044   21606247.4724
        46.2004         43.2004
  -7743167.63047  -6013829.61148  21897278.294    21897278.3094   21897284.1614
        51.2004         48.4004
   -984287.57144   -761813.42446  24367809.489    24367810.4344   24367812.0174
        41.8004         39.7004
  -7009777.20545  -5445581.09447  21472952.377    21472951.7604   21472955.1324
        46.2004         43.3004
 23 11  9  0 41  0.0000000  0  9G27G21G18G10G26G23G08G15G16
 -18335151.31249 -14266493.12848  20093090.563    20093090.7264   20093094.7514
        55.5004         52.7004
  -2851787.88143  -2201602.03546  22935574.010    22935572.7214   22935576.3864
        38.9004         36.4004
  -5478487.14144  -4225245.03546  23384873.315    23384873.2894   23384875.3794
        41.1004         38.5004
 -18561602.90448 -14438925.68648  21632081.947    21632082.4574   21632086.9714
        53.3004         50.3004
    481986.88545    388493.75547  23302824.474    23302824.9824   23302833.0254
        45.6004         42.8004
 -13908087.99945 -10819375.06347  21609900.207    21609900.2414   21609903.2814
        46.2004         43.3004
  -7817727.48447  -6071928.18148  21883089.799    21883089.9934   21883096.2954
        51.0004         48.0004
   -988999.69344   -765485.19246  24366912.829    24366913.2274   24366915.0474
        42.0004         40.0004
  -6932143.90845  -5385087.63947  21487725.137    21487725.1524   21487727.4324
        46.2004         43.3004
 23 11  9  0 41 30.0000000  0  9G27G21G18G10G26G23G08G15G16
 -18340762.36249 -14270865.36848  20092023.003    20092023.1084   20092027.2024
        55.5004         52.7004
  -2937445.76743  -2268348.38546  22919272.806    22919271.9844   22919276.6474
        38.5004         36.2004
  -5384493.59244  -4152003.32246  23402757.914    23402758.1294   23402761.1674
        40.9004         38.3004
 -18615696.14648 -14481076.24948  21621788.645    21621788.6024   21621793.7844
        53.3004         50.1004
    588858.08345    471769.96647  23323161.960    23323162.3454   23323170.1634
        45.6004         42.8004
 -13888277.15245 -10803938.03547  21613670.082    21613670.4314   21613673.5244
        46.2004         43.0004
  -7892047.78547  -6129840.09747  21868948.020    21868947.9184   21868953.4504
        50.7004         47.8004
   -993115.48144   -768692.33546  24366130.895    24366130.9224   24366132.1224
        42.3004         40.0004
  -6854078.53445  -5324257.49847  21502580.651    21502580.2334   21502583.3704
        46.2004         43.3004
 23 11  9  0 42  0.0000000  0  9G27G21G18G10G26G23G08G15G16
 -18345948.09549 -14274906.20548  20091036.616    20091036.4434   20091040.1814
        55.5004         52.9004
  -3022840.13243  -2334889.40545  22903022.042    22903022.4024   22903026.5134
        38.2004         35.9004
  -5290366.65444  -4078657.62946  23420671.158    23420670.5474   23420673.9694
        40.9004         38.3004
 -18669289.85048 -14522837.55148  21611590.094    21611589.9154   21611595.3014
        53.3004         50.1004
    695893.08645    555173.83347  23343531.034    23343530.4814   23343537.8484
        45.6004         42.8004
 -13867865.47245 -10788032.83647  21617553.333    21617553.9894   21617557.0394
        46.2004         43.2004
  -7966126.70047  -6187563.90847  21854850.258    21854850.5174   21854856.8614
        50.5004         47.7004
   -996633.86744   -771433.94046  24365460.746    24365460.5184   24365461.6604
        41.8004         39.2004
  -6775583.93645  -5263092.91247  21517517.066    21517517.3124   21517520.0094
        46.0004         43.2004
 23 11  9  0 42 30.0000000  0  9G27G21G18G10G26G23G08G15G16
 -18350708.07249 -14278615.28148  20090130.716    20090130.5314   20090134.8054
        55.7004         52.9004
  -3107970.22943  -2401224.52245  22886823.946    22886823.2454   22886826.6074
        38.0004         35.9004
  -5196107.96644  -4005209.30346  23438606.042    23438607.6924   23438610.1444
        40.8004         38.1004
 -18722381.50248 -14564207.66348  21601486.870    21601486.9004   21601492.8624
        53.3004         50.3004
    803089.56245    638703.52047  23363929.130    23363929.4504   23363936.7164
        45.3004         42.5004
 -13846853.80745 -10771660.10047  21621552.382    21621551.5654   21621555.2494
        46.0004         42.8004
  -8039963.03047  -6245098.69147  21840799.064    21840800.0834   21840806.3914
        50.3004         47.7004
   -999554.77644   -773710.02746  24364903.138    24364904.6984   24364906.4324
        41.3004         39.2004
  -6696661.64245  -5201595.05447  21532536.465    21532536.0114   21532538.7554
        46.0004         43.0004
 23 11  9  0 43  0.0000000  0  9G27G21G18G10G26G23G08G15G16
 -18355041.80649 -14281992.21148  20089305.771    20089306.0464   20089309.6494
        55.5004         52.9004
  -3192834.93943  -2467352.83245  22870673.534    22870673.1194   22870676.5584
        38.2004         35.9004
  -5101719.16244  -3931659.58746  23456568.375    23456568.3764   23456572.7134
        40.6004         38.1004
 -18774969.68048 -14605185.44148  21591479.914    21591480.3344   21591485.6734
        53.5004         50.6004
    910445.17345    722357.21147  23384357.841    23384358.3054   23384366.6024
        45.1004         42.3004
 -13825243.08645 -10754820.58047  21625663.559    21625664.3254   21625666.6584
        45.8004         42.8004
  -8113555.46647  -6302443.43647  21826794.877    21826795.7374   21826801.8514
        50.3004         47.8004
  -1001877.37444   -775519.84446  24364463.688    24364463.5584   24364464.1814
        41.3004         39.3004
  -6617313.94545  -5139765.71047  21547634.827    21547635.1404   21547638.0214
        45.8004         43.0004
 23 11  9  0 43 30.0000000  0  9G27G21G18G10G26G23G08G15G16
 -18358948.86249 -14285036.63748  20088561.958    20088562.0654   20088566.8354
        55.5004         52.9004
  -3277433.63343  -2533273.85146  22854577.063    22854576.2354   22854576.9084
        38.2004         36.0004
  -5007201.95344  -3858009.78346  23474555.536    23474554.7144   23474558.1644
        40.6004         38.3004
 -18827052.88648 -14645769.69448  21581568.512    21581568.5814   21581574.5474
        53.5004         50.5004
   1017957.40445    806132.95746  23404816.806    23404817.1424   23404824.9524
        44.8004         41.9004
 -13803034.11745 -10737514.85047  21629890.533    21629891.2404   21629892.6704
        45.6004         42.8004
  -8186902.44247  -6359596.86047  21812837.972    21812838.4294   21812845.0554
        50.3004         47.7004
  -1003601.01144   -776862.92846  24364134.042    24364134.6164   24364137.1954
        41.8004         39.5004
  -6537542.80245  -5077606.36847  21562815.022    21562814.6334   21562817.9704
        45.6004         42.8004
 23 11  9  0 44  0.0000000  0  9G27G21G18G10G26G23G08G15G16
 -18362428.79449 -14287748.29048  20087899.897    20087899.8284   20087905.0194
        55.5004         53.1004
  -3361765.41643  -2598986.91246  22838526.771    22838526.3794   22838530.5714
        38.2004         36.0004
  -4912557.86743  -3784261.18546  23492563.951    23492564.6424   23492567.6494
        40.4004         37.9004
 -18878629.46048 -14685959.22548  21571753.715    21571753.9144   21571760.2554
        53.5004         50.6004
   1125623.94445    890028.91246  23425303.836    23425305.1104   23425313.2524
        44.6004         41.8004
 -13780227.86745 -10719743.75747  21634230.790    21634231.0224   21634233.2914
        45.8004         43.0004
  -8260002.54247  -6416557.97548  21798927.578    21798928.1304   21798934.0914
        50.5004         48.0004
  -1004725.47544   -777739.16346  24363919.853    24363920.3644   24363923.3534
        42.0004         39.7004
  -6457350.34245  -5015118.78547  21578075.444    21578075.1614   21578078.5154
        45.6004         42.8004
 23 11  9  0 44 30.0000000  0  9G27G21G18G10G26G23G08G15G16
 -18365481.16949 -14290126.78348  20087318.880    20087318.9304   20087323.3244
        55.5004         52.7004
  -3445829.50643  -2664491.37246  22822530.421    22822529.8614   22822532.7714
        38.3004         36.0004
  -4817788.68243  -3710415.06346  23510598.351    23510599.0174   23510601.4874
        40.3004         37.8004
 -18929697.64048 -14725752.60748  21562035.773    21562035.9284   21562041.2284
        53.5004         50.5004
   1233442.38245    974043.21846  23445822.710    23445822.7894   23445830.1734
        44.4004         41.8004
 -13756825.30645 -10701508.01347  21638684.322    21638684.7064   21638686.5324
        46.0004         43.2004
  -8332854.34347  -6473325.61148  21785064.945    21785065.4624   21785070.6524
        50.7004         48.0004
  -1005250.28544   -778148.16246  24363819.473    24363819.9144   24363822.6634
        41.8004         39.5004
  -6376738.78645  -4952304.62247  21593414.993    21593414.5214   21593417.7204
        45.5004         42.6004
 23 11  9  0 45  0.0000000  0  9G27G21G18G10G26G23G08G15G16
 -18368105.54249 -14292171.75848  20086819.679    20086819.4994   20086823.9234
        55.5004         52.5004
  -3529624.79643  -2729786.34146  22806583.994    22806583.3734   22806588.5474
        38.9004         36.7004
  -4722895.97843  -3636472.68546  23528655.999    23528656.0014   23528659.0264
        40.3004         37.8004
 -18980255.64448 -14765148.44348  21552415.751    21552415.5674   21552420.2554
        53.5004         50.5004
   1341410.43145   1058174.12546  23466369.846    23466368.2974   23466375.9454
        44.4004         41.6004
 -13732827.37845 -10682808.34047  21643251.251    21643251.5914   21643253.7544
        46.0004         43.0004
  -8405456.12947  -6529898.43548  21771249.769    21771249.8904   21771255.5104
        50.8004         48.2004
  -1005175.10344   -778089.63246  24363832.393    24363834.0494   24363837.9584
        42.0004         39.9004
  -6295710.40245  -4889165.67147  21608834.760    21608834.3134   21608837.3994
        45.6004         42.8004
 23 11  9  0 45 30.0000000  0  9G27G21G18G10G26G23G08G15G16
 -18370301.52348 -14293882.91648  20086401.855    20086401.8904   20086406.0454
        55.4004         52.7004
  -3613150.58043  -2794871.34346  22790691.207    22790690.9224   22790694.1704
        39.4004         37.1004
  -4627881.28843  -3562435.27746  23546736.754    23546737.8884   23546740.0944
        40.4004         37.8004
 -19030302.09248 -14804145.66248  21542892.296    21542892.1364   21542896.6714
        53.5004         50.5004
   1449525.56045   1142419.64646  23486940.428    23486942.0204   23486949.7854
        44.4004         41.6004
 -13708235.05645 -10663645.49147  21647930.364    21647930.6404   21647933.6804
        46.0004         43.0004
  -8477806.94647  -6586275.67548  21757481.378    21757481.5134   21757487.3514
        50.8004         48.0004
  -1004499.36644   -777563.13146  24363963.956    24363964.0284   24363966.9654
        42.3004         39.9004
  -6214267.12645  -4825703.41047  21624333.089    21624332.6014   21624335.4164
        45.6004         42.8004
 23 11  9  0 46  0.0000000  0  9G27G21G18G10G26G23G08G15G16
 -18372068.64949 -14295259.88948  20086065.132    20086065.2774   20086070.0104
        55.5004         52.7004
  -3696406.61243  -2859746.12146  22774848.100    22774847.4724   22774850.9834
        39.9004         37.6004
  -4532746.32043  -3488304.13246  23564840.298    23564840.3154   23564842.9184
        40.3004         37.6004
 -19079835.22948 -14842742.88748  21533465.806    21533465.7134   21533470.7804
        53.5004         50.3004
   1557785.46045   1226777.98746  23507543.990    23507544.0204   23507551.0044
        44.6004         41.8004
 -13683049.39545 -10644020.28747  21652723.136    21652723.3974   21652726.6864
        46.0004         43.2004
  -8549905.29947  -6642456.20148  21743761.977    21743761.8894   21743767.4414
        50.8004         48.0004
  -1003222.67844   -776568.35446  24364208.250    24364207.6024   24364209.6244
        42.2004         39.9004
  -6132410.80445  -4761919.28347  21639909.457    21639909.2664   21639912.4524
        45.8004         43.0004
 23 11  9  0 46 30.0000000  0  9G27G21G18G10G26G23G08G15G16
 -18373406.53649 -14296302.40148  20085810.953    20085810.7514   20085815.5064
        55.5004         52.7004
  -3779391.32443  -2924409.51346  22759056.786    22759056.0964   22759059.3494
        40.1004         37.6004
  -4437492.64543  -3414080.49646  23582965.811    23582966.5514   23582969.3334
        40.1004         37.6004
 -19128853.51248 -14880938.92348  21524137.834    21524137.8504   21524143.0104
        53.5004         50.5004
   1666187.71845   1311247.24246  23528172.931    23528172.5464   23528179.1254
        44.6004         41.9004
 -13657271.43945 -10623933.55747  21657627.859    21657627.9904   21657631.1644
        46.0004         42.8004
  -8621750.15447  -6698439.19747  21730090.273    21730090.1804   21730095.5444
        50.8004         47.8004
  -1001344.70344   -775104.99046  24364565.920    24364565.2874   24364566.4594
        42.2004         39.9004
  -6050143.96645  -4697815.29147  21655564.929    21655564.1774   21655567.0814
        45.8004         43.0004
 23 11  9  0 47  0.0000000  0  9G27G21G18G10G26G23G08G15G16
 -18374314.78148 -14297010.12648  20085637.672    20085638.0144   20085642.9194
        55.4004         52.7004
  -3862104.04943  -2988860.97346  22743317.338    22743316.4134   22743319.0834
        40.4004         37.9004
  -4342121.88743  -3339765.61346  23601115.180    23601114.1954   23601117.0624
        39.9004         37.3004
 -19177355.48548 -14918732.65748  21514908.045    21514908.5414   21514913.7164
        53.5004         50.5004
   1774730.02445   1395825.64246  23548827.011    23548827.1564   23548834.5074
        44.6004         41.9004
 -13630902.18345 -10603386.08147  21662645.402    21662646.2014   21662649.2514
        45.8004         42.8004
  -8693339.51447  -6754223.10948  21716467.541    21716467.2994   21716472.5374
        50.8004         48.0004
   -998864.85844   -773172.65846  24365034.588    24365036.3084   24365040.0984
        42.2004         39.7004
  -5967468.56245  -4633392.93547  21671296.655    21671296.7074   21671299.8084
        45.6004         42.8004
 23 11  9  0 47 30.0000000  0  9G27G21G18G10G26G23G08G15G16
 -18374792.99748 -14297382.76948  20085547.016    20085546.7374   20085551.3984
        55.4004         52.5004
  -3944544.12944  -3053099.98146  22727629.146    22727628.6514   22727632.0974
        40.6004         38.1004
  -4246635.61843  -3265360.73346  23619283.862    23619284.1024   23619288.4064
        39.9004         37.3004
 -19225339.21948 -14956122.56048  21505777.009    21505777.2524   21505782.4944
        53.5004         50.5004
   1883409.85045   1480511.18446  23569508.217    23569508.6084   23569515.4724
        44.6004         41.8004
 -13603942.75745 -10582378.72747  21667776.063    21667776.4354   21667779.9114
        45.8004         43.0004
  -8764672.26347  -6809807.04748  21702893.184    21702893.2334   21702898.1934
        51.0004         48.2004
   -995782.90944   -770771.17646  24365624.314    24365623.0014   24365625.3044
        42.2004         39.7004
  -5884387.24845  -4568654.29147  21687107.191    21687106.4704   21687110.1154
        45.6004         42.8004
 23 11  9  0 48  0.0000000  0  9G27G21G18G10G26G23G08G15G16
 -18374840.75048 -14297419.98148  20085537.971    20085538.0704   20085542.7034
        55.4004         52.7004
  -4026710.73943  -3117125.85546  22711991.708    22711991.7074   22711995.9014
        40.3004         37.6004
  -4151035.40043  -3190867.07346  23637478.057    23637479.1524   23637480.3674
        39.9004         37.6004
 -19272803.54048 -14993107.72248  21496745.508    21496745.2284   21496750.5364
        53.5004         50.5004
   1992224.98545   1565302.16046  23590215.934    23590215.5714   23590222.2074
        44.6004         41.8004
 -13576394.24445 -10560912.34747  21673019.605    21673019.4894   21673021.8034
        46.0004         43.0004
  -8835747.03347  -6865189.96748  21689367.937    21689368.2384   21689372.9164
        51.0004         48.2004
   -992098.93844   -767900.52146  24366322.000    24366322.5494   24366326.9414
        41.8004         39.5004
  -5800901.75745  -4503600.69647  21702993.938    21702993.6404   21702996.6414
        45.6004         42.6004
 23 11  9  0 48 30.0000000  0  9G27G21G18G10G26G23G08G15G16
 -18374457.69948 -14297121.49148  20085610.537    20085610.8444   20085614.9034
        55.4004         52.5004
  -4108603.04643  -3180937.99946  22696408.515    22696408.1294   22696412.3084
        39.9004         37.3004
  -4055322.89743  -3116285.88046  23655690.854    23655690.6214   23655693.6824
        39.9004         37.4004
 -19319746.77648 -15029686.84248  21487812.812    21487812.0594   21487817.9194
        53.6004         50.6004
   2101172.83045   1650196.56646  23610947.470    23610947.6764   23610954.7744
        44.8004         41.9004
 -13548257.81245 -10538987.85547  21678373.896    21678373.6444   21678376.2814
        46.0004         43.0004
  -8906562.28647  -6920370.66848  21675892.751    21675892.2424   21675897.2324
        51.0004         48.2004
   -987812.41744   -764560.42346  24367137.649    24367139.3924   24367143.1114
        41.6004         39.5004
  -5717014.49945  -4438234.03247  21718956.595    21718956.6994   21718959.6374
        45.5004         42.5004
 23 11  9  0 49  0.0000000  0  9G27G21G18G10G26G23G08G15G16
 -18373643.48348 -14296487.04148  20085765.672    20085765.6264   20085770.0914
        55.4004         52.5004
  -4190220.43843  -3244535.93146  22680877.332    22680876.5724   22680880.0754
        39.6004         37.1004
  -3959499.59743  -3041618.39746  23673923.126    23673924.8654   23673929.3624
        39.4004         36.9004
 -19366167.48748 -15065858.80248  21478979.020    21478978.4624   21478984.2654
        53.6004         50.6004
   2210251.22745   1735192.69546  23631704.136    23631704.3074   23631711.2944
        44.8004         41.8004
 -13519534.55245 -10516606.08747  21683839.033    21683839.0454   21683841.8604
        45.8004         42.8004
  -8977116.14347  -6975347.68148  21662465.725    21662465.9254   21662470.8844
        51.0004         48.2004
   -982922.93844   -760750.46346  24368069.587    24368069.7274   24368072.8774
        41.8004         39.5004
  -5632727.17645  -4372555.63747  21734996.996    21734996.1094   21734998.8384
        45.5004         42.6004
 23 11  9  0 49 30.0000000  0  9G27G21G18G10G26G23G08G15G16
 -18372397.72348 -14295516.31648  20086002.333    20086002.4844   20086007.0854
        55.4004         52.5004
  -4271561.68843  -3307918.64246  22665398.197    22665397.6254   22665401.3984
        39.2004         36.6004
  -3863567.09243  -2966865.78346  23692180.454    23692180.1984   23692182.9484
        39.6004         36.9004
 -19412064.53448 -15101622.72048  21470244.144    21470244.2844   21470249.6244
        53.6004         50.5004
   2319457.64345   1820288.56446  23652487.722    23652486.6674   23652492.1794
        44.8004         41.9004
 -13490225.66445 -10493767.99247  21689415.700    21689416.1694   21689419.4364
        45.8004         42.8004
  -9047408.03047  -7030120.57848  21649089.877    21649089.7864   21649094.9144
        51.2004         48.4004
   -977430.63544   -756470.75446  24369115.384    24369114.8314   24369117.9134
        42.5004         40.0004
  -5548042.41545  -4306567.55347  21751111.321    21751110.9734   21751113.7064
        45.5004         42.8004
 23 11  9  0 50  0.0000000  0  9G27G21G18G10G26G23G08G15G16
 -18370720.02548 -14294209.02248  20086321.898    20086321.7174   20086326.2954
        55.4004         52.5004
  -4352626.29243  -3371085.80946  22649973.153    22649972.0694   22649975.8744
        39.0004         36.6004
  -3767526.95643  -2892029.31046  23710456.291    23710456.5614   23710459.0364
        39.6004         37.3004
 -19457436.11448 -15136977.17648  21461610.924    21461610.0924   21461615.9014
        53.5004         50.5004
   2428789.75945   1905482.39046  23673291.155    23673291.2334   23673298.1934
        44.8004         41.9004
 -13460332.32245 -10470474.47847  21695105.508    21695105.5804   21695107.9824
        45.6004         42.6004
  -9117436.22547  -7084687.98848  21635763.635    21635764.3934   21635769.5874
        51.2004         48.5004
   -971335.26544   -751721.24946  24370275.603    24370276.0704   24370278.8734
        42.5004         40.0004
  -5462962.63145  -4240271.64347  21767301.282    21767301.5594   21767304.3764
        45.5004         42.8004
 23 11  9  0 50 30.0000000  0  9G27G21G18G10G26G23G08G15G16
 -18368610.07148 -14292564.89348  20086723.547    20086723.5464   20086727.5274
        55.4004         52.5004
  -4433413.54243  -3434036.86746  22634600.267    22634598.8254   22634602.1504
        39.0004         36.7004
  -3671380.72743  -2817110.17346  23728752.453    23728752.7244   23728754.5614
        39.6004         37.1004
 -19502280.81148 -15171921.05948  21453077.638    21453076.9774   21453081.9614
        53.5004         50.6004
   2538245.18045   1990772.29046  23694118.271    23694119.2284   23694125.9144
        44.6004         41.6004
 -13429855.71545 -10446726.45347  21700904.838    21700904.9414   21700906.5884
        45.8004         42.8004
  -9187198.45647  -7139048.15048  21622488.844    21622488.4054   21622493.9714
        51.2004         48.5004
   -964636.36244   -746501.31346  24371550.226    24371550.8754   24371553.7184
        42.0004         39.3004
  -5377489.75245  -4173669.41647  21783567.031    21783566.4844   21783568.9254
        45.6004         43.0004
 23 11  9  0 51  0.0000000  0  9G27G21G18G10G26G23G08G15G16
 -18366067.51048 -14290583.68848  20087207.302    20087207.3314   20087211.5214
        55.4004         52.5004
  -4513922.47043  -3496771.02746  22619278.917    22619277.5704   22619280.5124
        39.0004         36.7004
  -3575129.97743  -2742109.58946  23747068.362    23747068.3344   23747071.3774
        39.9004         37.4004
 -19546597.38148 -15206453.44848  21444643.721    21444643.6134   21444649.0514
        53.5004         50.5004
   2647821.44645   2076156.37146  23714971.761    23714971.5734   23714978.2374
        44.6004         41.8004
 -13398797.16745 -10422524.99447  21706815.213    21706814.5184   21706817.2814
        45.8004         42.6004
  -9256693.83147  -7193200.38948  21609263.867    21609263.7914   21609269.4934
        51.2004         48.2004
   -957334.13844   -740811.31146  24372940.065    24372940.7564   24372940.3904
        41.8004         39.3004
  -5291626.05945  -4106762.68547  21799906.494    21799905.9954   21799909.0154
        45.8004         43.0004
 23 11  9  0 51 30.0000000  0  9G27G21G18G10G26G23G08G15G16
 -18363092.01748 -14288265.11548  20087773.351    20087773.4754   20087777.8534
        55.4004         52.5004
  -4594152.49743  -3559287.88246  22604011.913    22604011.3904   22604014.7244
        39.4004         37.3004
  -3478776.19643  -2667028.72846  23765403.241    23765404.0644   23765405.9824
        39.7004         37.3004
 -19590384.32348 -15240573.13148  21436311.181    21436311.2554   21436316.4784
        53.6004         50.5004
   2757516.22745   2161632.77846  23735846.155    23735845.8564   23735852.8934
        44.6004         41.8004
 -13367157.82545 -10397870.95647  21712834.935    21712835.5214   21712838.9134
        45.6004         42.8004
  -9325921.11947  -7247143.72948  21596090.231    21596090.2884   21596095.8524
        51.2004         48.2004
   -949428.51344   -734651.14346  24374446.347    24374446.3184   24374446.4744
        42.0004         39.7004
  -5205374.11045  -4039553.40447  21816319.652    21816319.3684   21816321.9444
        45.8004         43.0004
 23 11  9  0 52  0.0000000  0  9G27G21G18G10G26G23G08G15G16
 -18359683.21949 -14285608.91348  20088422.675    20088422.6194   20088426.5744
        55.5004         52.7004
  -4674102.89343  -3621586.82846  22588799.748    22588798.5494   22588800.8034
        40.1004         37.8004
  -3382320.94543  -2591868.77946  23783758.401    23783758.4654   23783762.5084
        39.7004         37.3004
 -19633640.21548 -15274279.00748  21428080.911    21428080.1854   21428085.0894
        53.6004         50.5004
   2867327.17045   2247199.72046  23756740.396    23756741.8284   23756748.7614
        44.6004         41.8004
 -13334938.98545 -10372765.36947  21718966.139    21718966.1504   21718968.6804
        45.6004         42.6004
  -9394878.86347  -7300877.02148  21582968.506    21582968.5944   21582973.9624
        51.4004         48.5004
   -940918.87944   -728020.24346  24376063.962    24376063.9944   24376065.8554
        41.5004         39.0004
  -5118736.07645  -3972043.27147  21832805.641    21832805.4254   21832808.6674
        45.6004         42.6004
 23 11  9  0 52 30.0000000  0  9G27G21G18G10G26G23G08G15G16
 -18355840.83349 -14282614.84748  20089153.593    20089153.6794   20089158.0774
        55.5004         52.7004
  -4753772.92543  -3683667.31046  22573638.441    22573637.3464   22573639.5474
        40.3004         37.8004
  -3285765.74943  -2516630.96146  23802130.560    23802131.3964   23802135.7044
        39.6004         37.1004
 -19676363.63448 -15307569.97248  21419950.809    21419949.9704   21419954.9554
        53.6004         50.5004
   2977251.84545   2332855.27746  23777659.904    23777659.4104   23777666.1794
        44.6004         41.6004
 -13302141.97445 -10347209.25047  21725207.300    21725207.6484   21725210.1394
        45.5004         42.5004
  -9463565.46347  -7354399.04048  21569898.006    21569898.0894   21569903.6044
        51.5004         48.7004
   -931805.64444   -720919.00446  24377797.572    24377798.2084   24377798.2234
        40.9004         38.6004
  -5031713.62845  -3904233.59947  21849365.531    21849365.7084   21849368.1414
        45.5004         42.5004
 23 11  9  0 53  0.0000000  0  9G27G21G18G10G26G23G08G15G16
 -18351564.55449 -14279282.67948  20089967.737    20089967.4594   20089971.5684
        55.5004         52.7004
  -4833161.91043  -3745528.81546  22558529.021    22558528.9634   22558532.9214
        40.4004         37.8004
  -3189112.11143  -2441316.46846  23820523.948    23820524.0354   23820527.5724
        39.4004         36.7004
 -19718553.54548 -15340445.19848  21411921.094    21411921.1154   21411926.4674
        53.6004         50.5004
   3087287.95545   2418597.67446  23798597.625    23798598.0604   23798605.4504
        44.4004         41.4004
 -13268768.12145 -10321203.63947  21731558.602    21731558.6094   21731561.2564
        45.5004         42.3004
  -9531979.90747  -7407708.97248  21556878.665    21556878.8844   21556884.3204
        51.4004         48.5004
   -922088.93444   -713347.63946  24379645.820    24379646.1484   24379648.7974
        40.8004         38.5004
  -4944309.32945  -3836126.38247  21865997.494    21865997.1764   21866000.8384
        45.3004         42.3004
 23 11  9  0 53 30.0000000  0  9G27G21G18G10G26G23G08G15G16
 -18346854.03849 -14275612.14548  20090863.730    20090863.8324   20090868.0834
        55.5004         52.7004
  -4912268.80944  -3807170.55346  22543476.925    22543476.4004   22543479.3444
        40.8004         38.3004
  -3092361.53943  -2365926.38746  23838933.600    23838935.1324   23838938.4664
        39.0004         36.6004
 -19760208.30548 -15372903.43348  21403994.770    21403995.0734   21404000.2644
        53.8004         50.6004
   3197433.05145   2504424.98046  23819559.720    23819559.1264   23819565.6814
        44.4004         41.4004
 -13234818.71545 -10294749.54547  21738018.367    21738018.9374   21738021.5434
        45.5004         42.5004
  -9600120.21347  -7460805.30948  21543912.159    21543912.0514   21543917.7454
        51.4004         48.7004
   -911768.44544   -705305.74446  24381607.804    24381609.5374   24381612.2004
        41.1004         39.0004
  -4856525.71145  -3767723.57747  21882702.823    21882702.7974   21882705.6344
        45.3004         42.5004
 23 11  9  0 54  0.0000000  0  9G27G21G18G10G26G23G08G15G16
 -18341709.00949 -14271603.03948  20091842.350    20091842.3434   20091847.0624
        55.5004         52.7004
  -4991093.22144  -3868592.14546  22528477.853    22528476.9854   22528479.6494
        41.1004         38.6004
  -2995515.48243  -2290461.94546  23857366.669    23857365.2084   23857368.5804
        39.2004         36.7004
 -19801326.86648 -15404943.85248  21396170.759    21396170.5184   21396175.1944
        53.8004         50.8004
   3307684.71545   2590335.33846  23840538.024    23840538.7584   23840545.3064
        44.1004         41.2004
 -13200295.13945 -10267848.05147  21744587.822    21744587.8694   21744590.9434
        45.5004         42.3004
  -9667985.26847  -7513687.15748  21530998.226    21530998.1354   21531002.8324
        51.5004         48.7004
   -900844.53444   -696793.63346  24383685.398    24383686.9774   24383692.4704
        40.6004         37.9004
  -4768365.09445  -3699027.02447  21899479.743    21899479.1914   21899482.0494
        45.3004         42.5004
 23 11  9  0 54 30.0000000  0  9G27G21G18G10G26G23G08G15G16
 -18336129.14949 -14267255.09748  20092904.422    20092904.2144   20092909.2434
        55.5004         52.7004
  -5069634.56844  -3929793.17746  22513530.878    22513529.8294   22513533.0154
        40.9004         38.3004
  -2898575.55943  -2214924.35046  23875810.883    23875812.8484   23875816.2654
        39.2004         37.1004
 -19841907.88948 -15436565.40548  21388447.867    21388447.8784   21388453.2694
        54.0004         50.8004
   3418040.64845   2676326.94246  23861536.994    23861537.9994   23861546.0014
        43.9004         40.9004
 -13165198.76445 -10240500.23847  21751266.251    21751266.6914   21751269.7134
        45.3004         42.1004
  -9735573.23447  -7566353.09948  21518136.084    21518136.4194   21518141.6134
        51.7004         48.9004
   -889317.15643   -687811.33346  24385882.856    24385882.8614   24385883.5974
        40.3004         37.9004
  -4679829.45745  -3630038.23347  21916327.420    21916326.8644   21916329.1524
        45.1004         42.3004
 23 11  9  0 55  0.0000000  0  9G27G21G18G10G26G23G08G15G16
 -18330114.20648 -14262568.12948  20094048.797    20094048.7314   20094053.5904
        55.4004         52.7004
  -5147891.68544  -3990772.73646  22498638.592    22498638.2814   22498641.3224
        40.8004         38.1004
  -2801543.20243  -2139314.69946  23894278.701    23894277.4134   23894280.7314
        39.6004         37.1004
 -19881950.11048 -15467767.12548  21380827.828    21380827.8894   21380833.7364
        54.0004         50.8004
   3528498.43544   2762397.90346  23882556.004    23882557.3014   23882565.4964
        43.4004         40.6004
 -13129530.99845 -10212707.16946  21758054.092    21758054.0654   21758056.2484
        45.1004         41.9004
  -9802883.27647  -7618802.46748  21505327.715    21505327.7564   21505332.8804
        51.9004         48.9004
   -877186.37343   -678358.80046  24388185.150    24388188.9974   24388193.3464
        40.3004         37.9004
  -4590921.19745  -3560759.10046  21933246.141    21933244.5134   21933248.0214
        44.9004         41.9004
 23 11  9  0 55 30.0000000  0  9G27G21G18G10G26G23G08G15G16
 -18323663.87449 -14257541.89648  20095276.787    20095276.5554   20095281.0814
        55.5004         52.7004
  -5225863.98744  -4051530.32846  22483801.353    22483800.2074   22483803.8414
        40.9004         38.5004
  -2704419.83243  -2063634.18246  23912759.420    23912760.0054   23912761.9804
        39.6004         37.1004
 -19921452.12948 -15498547.90148  21373311.387    21373311.0104   21373316.2294
        54.0004         50.8004
   3639055.67244   2848546.35246  23903598.384    23903596.5364   23903603.6584
        43.0004         40.2004
 -13093293.25445 -10184469.95646  21764949.837    21764950.0364   21764952.5394
        44.9004         41.9004
  -9869913.64947  -7671033.93448  21492572.551    21492572.2444   21492577.0284
        51.9004         48.7004
   -864452.29444   -668436.31546  24390613.676    24390613.6174   24390618.5514
        40.6004         38.5004
  -4501642.95445  -3491191.64846  21950234.224    21950234.2764   21950237.0354
        44.8004         41.8004
 23 11  9  0 56  0.0000000  0  9G27G21G18G10G26G23G08G15G16
 -18316777.91249 -14252176.21148  20096586.897    20096587.1754   20096591.4074
        55.5004         52.9004
  -5303551.00244  -4112065.60546  22469017.723    22469017.0164   22469020.1424
        41.1004         38.3004
  -2607206.98743  -1987883.89846  23931258.881    23931259.5064   23931261.5984
        39.6004         37.1004
 -19960412.96348 -15528906.98448  21365896.942    21365896.9904   21365902.0784
        54.0004         50.8004
   3749710.09744   2934770.51646  23924652.627    23924653.9874   23924660.8654
        42.9004         40.0004
 -13056486.95245 -10155789.72746  21771953.151    21771953.9544   21771956.2824
        44.9004         41.8004
  -9936662.81247  -7723046.26348  21479870.461    21479870.5324   21479875.4054
        51.7004         48.7004
   -851114.82643   -658043.61046  24393150.016    24393151.1904   24393153.5524
        40.4004         38.1004
  -4411996.84645  -3421337.55546  21967294.087    21967293.4074   21967297.0794
        44.6004         41.8004
 23 11  9  0 56 30.0000000  0  9G27G21G18G10G26G23G08G15G16
 -18309456.04449 -14246470.86048  20097979.953    20097979.9674   20097984.7314
        55.5004         52.9004
  -5380952.01944  -4172378.03946  22454287.916    22454287.9174   22454290.2534
        40.6004         37.8004
  -2509906.15043  -1912065.02546  23949774.357    23949774.3084   23949777.8144
        39.6004         37.1004
 -19998831.49348 -15558843.48148  21358586.067    21358585.7694   21358591.4964
        54.0004         50.8004
   3860459.20144   3021068.47746  23945727.654    23945727.5794   23945734.8774
        42.7004         39.9004
 -13019113.51545 -10126667.56847  21779065.708    21779066.1424   21779068.5884
        44.9004         42.1004
 -10003128.80547  -7774837.93848  21467222.376    21467222.2144   21467226.9964
        51.5004         48.5004
   -837174.20244   -647180.73746  24395804.325    24395803.7174   24395808.2674
        40.6004         38.5004
  -4321985.13445  -3351198.57147  21984421.952    21984422.0284   21984424.9914
        44.8004         42.1004
 23 11  9  0 57  0.0000000  0  9G27G21G18G10G26G23G08G15G16
 -18301697.99949 -14240425.63448  20099456.144    20099456.4314   20099460.8904
        55.5004         52.7004
  -5458066.46943  -4232467.18446  22439614.223    22439613.4764   22439617.0044
        40.4004         37.9004
  -2412518.74543  -1836178.77646  23968308.162    23968308.1484   23968309.2504
        39.9004         37.4004
 -20036706.27948 -15588356.29148  21351378.461    21351378.7164   21351383.9844
        54.1004         50.8004
   3971300.64544   3107438.38946  23966822.035    23966821.1354   23966827.6554
        42.9004         40.2004
 -12981174.48245 -10097104.68347  21786286.346    21786286.7704   21786288.0874
        45.1004         42.3004
 -10069311.10047  -7826408.54548  21454628.349    21454628.1824   21454633.3204
        51.5004         48.7004
   -822630.59644   -635848.17946  24398570.255    24398572.5354   24398575.3714
        41.3004         39.0004
  -4231610.03345  -3280776.43347  22001620.840    22001620.8584   22001623.3964
        44.9004         42.1004
 23 11  9  0 57 30.0000000  0  9G27G21G18G10G26G23G08G15G16
 -18293503.52349 -14234040.33248  20101015.804    20101015.6694   20101020.7704
        55.5004         52.9004
  -5534893.66044  -4292332.48946  22424994.881    22424994.5664   22424996.9844
        40.9004         38.6004
  -2315046.17143  -1760226.11046  23986854.751    23986855.4494   23986857.9054
        39.7004         37.1004
 -20074036.33148 -15617444.62548  21344275.707    21344275.3644   21344280.6034
        54.1004         51.0004
   4082232.12844   3193878.47046  23987932.040    23987931.0434   23987937.7794
        42.9004         40.4004
 -12942671.27045 -10067102.17447  21793612.594    21793612.3954   21793615.3344
        45.3004         42.3004
 -10135207.55047  -7877756.41848  21442088.036    21442088.4194   21442093.6054
        51.5004         48.7004
   -807484.54644   -624046.07446  24401454.918    24401454.9314   24401455.5394
        41.3004         38.8004
  -4140874.01645  -3210073.05147  22018887.081    22018887.3794   22018889.3434
        44.9004         42.1004
 23 11  9  0 58  0.0000000  0  9G27G21G18G10G26G23G08G15G16
 -18284872.47949 -14227314.84248  20102658.348    20102658.4264   20102662.9054
        55.5004         52.9004
  -5611432.54144  -4351973.11146  22410430.558    22410429.9404   22410432.5404
        41.3004         38.8004
  -2217490.04443  -1684208.35946  24005419.072    24005419.6074   24005422.2004
        39.2004         36.7004
 -20110820.44748 -15646107.55448  21337275.751    21337275.4574   21337281.1204
        54.3004         51.1004
   4193251.13844   3280386.75146  24009058.103    24009057.5464   24009064.1244
        43.0004         40.4004
 -12903605.53045 -10036661.32947  21801046.667    21801046.9034   21801050.0444
        45.3004         42.3004
 -10200816.95847  -7928880.62148  21429603.084    21429603.4604   21429608.5964
        51.9004         49.1004
   -791736.34544   -611774.91146  24404449.650    24404450.7014   24404452.9004
        40.8004         38.5004
  -4049779.72445  -3139090.49647  22036221.710    22036221.6534   22036225.2084
        44.9004         42.1004
 23 11  9  0 58 30.0000000  0  9G27G21G18G10G26G23G08G15G16
 -18275804.51549 -14220248.90148  20104384.309    20104384.3864   20104388.5304
        55.7004         52.9004
  -5687682.79844  -4411388.86146  22395919.675    22395918.4844   22395922.9314
        41.3004         38.6004
  -2119851.60043  -1608126.43446  24023999.140    24023998.8824   24024002.8984
        39.2004         36.7004
 -20147057.72648 -15674344.38748  21330379.203    21330379.7424   21330385.2154
        54.3004         51.1004
   4304355.38844   3366961.47846  24030199.054    24030198.9834   24030206.3974
        43.2004         40.4004
 -12863978.68445 -10005783.26447  21808587.125    21808587.1614   21808590.7764
        45.5004         42.3004
 -10266137.75047  -7979779.93848  21417173.311    21417173.2534   21417178.6604
        52.2004         49.4004
   -775385.65044   -599034.21246  24407562.787    24407563.3004   24407564.1144
        40.8004         38.3004
  -3958328.89045  -3067830.13146  22053624.548    22053624.2244   22053627.3004
        44.8004         41.9004
 23 11  9  0 59  0.0000000  0  9G27G21G18G10G26G23G08G15G16
 -18266299.48449 -14212842.37948  20106192.548    20106192.6104   20106197.5704
        55.7004         53.1004
  -5763643.70344  -4470579.13046  22381463.952    22381463.6404   22381467.8514
        41.1004         38.6004
  -2022132.38343  -1531981.58346  24042595.744    24042595.4814   24042597.6254
        39.2004         36.7004
 -20182746.60248 -15702153.88548  21323587.781    21323588.1594   21323594.0214
        54.5004         51.1004
   4415542.53744   3453600.76946  24051357.384    24051357.3364   24051364.6344
        43.2004         40.4004
 -12823792.30345  -9974469.20347  21816234.399    21816234.5914   21816237.6154
        45.5004         42.6004
 -10331168.35347  -8030453.11948  21404798.294    21404798.1324   21404803.5554
        52.2004         49.2004
   -758433.33444   -585824.67946  24410788.214    24410789.9144   24410790.2394
        40.8004         38.5004
  -3866524.27245  -2996294.08546  22071093.748    22071093.8864   22071097.2024
        44.8004         41.9004
 23 11  9  0 59 30.0000000  0  9G27G21G18G10G26G23G08G15G16
 -18256357.14349 -14205095.11248  20108084.450    20108084.4494   20108089.3334
        55.7004         53.1004
  -5839314.56144  -4529543.39646  22367065.881    22367064.5454   22367067.6484
        41.5004         39.0004
  -1924333.84143  -1455774.94346  24061204.729    24061205.4794   24061208.6254
        39.0004         36.7004
 -20217886.32848 -15729535.47148  21316901.562    21316901.5434   21316906.6304
        54.3004         51.1004
   4526810.16144   3540302.79546  24072532.494    24072530.8904   24072537.8864
        43.0004         40.4004
 -12783047.95845  -9942720.35447  21823987.384    21823988.0804   21823990.9094
        45.3004         42.3004
 -10395908.05647  -8080899.64048  21392478.666    21392478.6884   21392483.8474
        52.2004         49.2004
   -740879.91843   -572146.83846  24414129.336    24414129.1944   24414130.1534
        40.4004         38.1004
  -3774368.49045  -2924484.39946  22088630.417    22088630.2724   22088633.6894
        44.6004         41.6004
 23 11  9  1  0  0.0000000  0  9G27G21G18G10G26G23G08G15G16
 -18245977.29249 -14197006.91848  20110059.834    20110059.9814   20110064.5454
        55.7004         53.1004
  -5914694.98944  -4588281.34446  22352721.669    22352721.0624   22352723.1344
        41.8004         39.3004
  -1826457.35243  -1379507.55746  24079831.206    24079830.6224   24079833.8464
        39.0004         36.7004
 -20252476.17648 -15756488.58148  21310318.672    21310318.5424   21310324.1094
        54.3004         51.0004
   4638155.99644   3627065.72646  24093720.088    24093719.9254   24093726.7774
        43.0004         40.2004
 -12741747.26545  -9910537.99247  21831846.507    21831847.0084   21831849.8464
        45.3004         42.1004
 -10460354.68547  -8131117.79248  21380214.561    21380214.6574   21380220.1404
        52.1004         49.1004
   -722725.19343   -558000.38646  24417584.816    24417584.9424   24417585.9914
        40.3004         38.1004
  -3681863.92645  -2852402.95046  22106233.693    22106233.6664   22106236.7804
        44.4004         41.6004
 23 11  9  1  0 30.0000000  0  9G27G21G18G10G26G23G08G15G16
 -18235159.70449 -14188577.62548  20112118.445    20112118.2254   20112123.1714
        55.7004         53.1004
  -5989784.39744  -4646792.55346  22338431.385    22338431.3084   22338434.3334
        41.6004         38.8004
  -1728504.29243  -1303180.49946  24098470.549    24098471.1374   24098472.6384
        39.0004         36.7004
 -20286514.48348 -15783011.92348  21303841.748    21303841.4914   21303846.8494
        54.3004         51.0004
   4749577.56344   3713887.68946  24114923.546    24114922.8514   24114929.7494
        42.9004         40.0004
 -12699891.78145  -9877923.33246  21839811.796    21839811.9834   21839814.6794
        45.1004         41.9004
 -10524506.75547  -8181106.41348  21368006.764    21368006.9534   21368012.8324
        52.1004         49.1004
   -703969.42644   -543385.41446  24421154.221    24421154.2434   24421156.3074
        40.9004         39.0004
  -3589012.38145  -2780051.10046  22123902.804    22123902.4744   22123905.6004
        44.2004         41.4004
 23 11  9  1  1  0.0000000  0  9G27G21G18G10G26G23G08G15G16
 -18223904.22649 -14179807.12848  20114260.561    20114260.4104   20114264.8484
        55.7004         53.1004
  -6064582.34244  -4705076.65246  22324197.895    22324197.5634   22324200.6564
        41.5004         38.8004
  -1630476.10843  -1226794.89646  24117125.026    24117124.6744   24117127.3664
        39.0004         36.6004
 -20320000.30648 -15809104.75648  21297469.989    21297470.2124   21297474.9544
        54.3004         51.1004
   4861072.56244   3800766.87546  24136138.347    24136138.1674   24136146.1284
        42.7004         39.9004
 -12657483.13345  -9844877.62746  21847881.234    21847881.9024   21847884.9254
        44.9004         41.9004
 -10588363.20547  -8230864.67148  21355855.467    21355855.2884   21355861.1924
        52.1004         48.9004
   -684613.84744   -528303.23446  24424835.292    24424836.4114   24424840.3554
        41.3004         39.0004
  -3495816.59645  -2707431.03546  22141637.200    22141637.0164   22141640.8974
        44.2004         41.4004
 23 11  9  1  1 30.0000000  0  9G27G21G18G10G26G23G08G15G16
 -18212210.67749 -14170695.27448  20116485.450    20116485.4564   20116490.3414
        55.7004         53.1004
  -6139087.58044  -4763132.65946  22310020.868    22310019.0644   22310023.2694
        41.6004         39.2004
  -1532374.13343  -1150351.80346  24135793.391    24135793.8104   24135795.5214
        38.9004         36.4004
 -20352933.26748 -15834766.79448  21291203.320    21291202.9754   21291208.3914
        54.5004         51.3004
   4972638.61044   3887701.41646  24157367.118    24157368.2854   24157376.5694
        42.3004         39.5004
 -12614523.03645  -9811402.21447  21856056.516    21856056.4294   21856059.6234
        44.9004         42.1004
 -10651921.97347  -8280390.98348  21343760.029    21343760.2264   21343766.5534
        52.1004         49.1004
   -664658.24444   -512753.51146  24428634.998    24428635.4714   24428635.6534
        41.3004         38.8004
  -3402278.99845  -2634544.62646  22159436.809    22159436.4254   22159440.2674
        44.1004         41.2004
 23 11  9  1  2  0.0000000  0  9G27G21G18G10G26G23G08G15G16
 -18200078.87449 -14161241.91548  20118794.229    20118793.9734   20118798.9424
        55.7004         53.1004
  -6213299.55744  -4820960.14246  22295897.710    22295897.6234   22295901.3454
        42.0004         39.7004
  -1434199.89443  -1073852.37046  24154474.173    24154474.8184   24154477.0374
        38.9004         36.6004
 -20385312.01648 -15859996.97848  21285041.416    21285041.6274   21285047.0884
        54.7004         51.5004
   5084273.33744   3974689.48646  24178610.499    24178611.9064   24178620.0754
        42.3004         39.7004
 -12571013.08545  -9777498.36446  21864335.690    21864336.7244   21864339.3434
        44.9004         41.9004
 -10715182.14447  -8329684.62048  21331722.540    21331722.5584   21331728.1894
        52.1004         49.1004
   -644103.19244   -496736.67546  24432546.120    24432546.2524   24432549.0254
        40.9004         38.5004
  -3308401.89145  -2561393.65446  22177301.258    22177300.7884   22177304.7374
        44.1004         41.2004
 23 11  9  1  2 30.0000000  0  9G27G21G18G10G26G23G08G15G16
 -18187508.65949 -14151446.94848  20121185.986    20121186.3024   20121190.8214
        55.7004         53.1004
  -6287218.03344  -4878558.91646  22281832.056    22281831.7124   22281834.8614
        42.3004         39.7004
  -1335954.64043   -997297.64746  24173171.622    24173169.9574   24173173.0334
        38.9004         36.4004
 -20417135.62848 -15884794.58448  21278985.336    21278985.4474   21278991.1794
        54.7004         51.5004
   5195974.34744   4061729.19846  24199868.596    24199867.9964   24199876.1724
        42.2004         39.5004
 -12526954.95345  -9743167.34046  21872719.938    21872719.9794   21872723.6474
        44.8004         41.9004
 -10778141.83947  -8378744.12048  21319741.721    21319741.6774   21319747.5344
        52.1004         49.2004
   -622948.98744   -480252.88746  24436569.902    24436570.7134   24436574.6704
        40.9004         38.5004
  -3214187.47845  -2487979.85346  22195229.688    22195229.1134   22195232.8174
        44.1004         41.2004
 23 11  9  1  3  0.0000000  0  9G27G21G18G10G26G23G08G15G16
 -18174499.85349 -14141310.21548  20123661.407    20123661.5334   20123666.0804
        55.7004         52.9004
  -6360842.43344  -4935928.55046  22267821.471    22267820.8064   22267823.9624
        42.3004         39.3004
  -1237639.80543   -920688.68046  24191878.932    24191879.1814   24191880.8954
        38.7004         36.2004
 -20448403.27948 -15909158.97348  21273035.729    21273035.4684   21273040.8524
        54.5004         51.3004
   5307739.39744   4148818.82046  24221140.556    24221138.0044   24221145.0224
        42.3004         39.7004
 -12482350.37545  -9708410.53247  21881208.292    21881208.3254   21881212.3134
        44.9004         42.1004
 -10840799.58547  -8427568.33548  21307818.394    21307818.6994   21307824.3834
        52.4004         49.6004
   -601196.58944   -463302.99946  24440712.083    24440711.7974   24440713.7594
        40.9004         38.5004
  -3119638.55545  -2414305.39646  22213221.468    22213221.3624   22213225.0534
        43.9004         41.1004
 23 11  9  1  3 30.0000000  0  9G27G21G18G10G26G23G08G15G16
 -18161052.34549 -14130831.64748  20126220.612    20126220.2424   20126225.1244
        55.7004         52.9004
  -6434172.02344  -4993068.44946  22253867.693    22253866.4624   22253869.6204
        42.2004         39.5004
  -1139256.74943   -844026.55446  24210600.107    24210601.0414   24210602.9664
        38.5004         36.2004
 -20479113.87348 -15933089.29348  21267191.153    21267191.2724   21267196.9954
        54.5004         51.3004
   5419566.22744   4235956.57546  24242420.736    24242418.1144   24242424.0744
        42.2004         39.3004
 -12437201.08345  -9673229.27946  21889798.691    21889799.3564   21889803.4464
        44.9004         41.9004
 -10903154.36147  -8476156.46448  21295952.817    21295952.6724   21295958.0804
        52.4004         49.4004
   -578846.14143   -445887.07546  24444961.180    24444962.4894   24444966.3924
        40.3004         37.4004
  -3024758.31045  -2340372.76546  22231276.578    22231277.0254   22231280.3524
        43.7004         40.9004
 23 11  9  1  4  0.0000000  0  9G27G21G18G10G26G23G08G15G16
 -18147165.96549 -14120011.09548  20128862.979    20128863.3114   20128867.6304
        55.5004         53.1004
  -6507206.54044  -5049978.45346  22239969.738    22239969.0044   22239970.6924
        42.3004         39.5004
  -1040806.77743   -767312.30345  24229333.166    24229334.1494   24229337.1234
        38.3004         35.7004
 -20509266.61248 -15956584.91648  21261453.390    21261453.2424   21261458.5864
        54.5004         51.3004
   5531452.19544   4323140.42246  24263708.738    24263708.8674   24263715.4754
        42.0004         39.3004
 -12391508.74345  -9637624.85146  21898494.926    21898495.1664   21898497.7534
        44.9004         41.9004
 -10965204.91947  -8524507.53548  21284145.087    21284145.1294   21284150.6914
        52.4004         49.4004
   -555898.50143   -428005.87546  24449330.933    24449330.7944   24449334.8014
        40.3004         38.1004
  -2929547.66045  -2266182.66946  22249395.504    22249395.0624   22249397.3744
        43.7004         40.9004
 23 11  9  1  4 30.0000000  0 10G02G27G21G18G10G26G23G08G15G16
                   -134038.66956  23622758.838
                        37.8004
 -18132840.58849 -14108848.46548  20131588.838    20131589.0244   20131593.8914
        55.5004         52.9004
  -6579944.94144  -5106657.69046  22226128.257    22226126.6554   22226130.7954
        42.5004         39.9004
   -942291.30943   -690546.99946  24248082.319    24248081.8854   24248085.4484
        38.3004         36.2004
 -20538860.78348 -15979645.28848  21255822.231    21255822.0384   21255827.1434
        54.5004         51.3004
   5643395.03544   4410368.59846  24285009.973    24285010.9774   24285017.4924
        42.0004         39.2004
 -12345275.11145  -9601598.64846  21907293.073    21907293.4094   21907295.6004
        44.8004         41.8004
 -11026949.09147  -8572619.85148  21272395.900    21272395.3414   21272400.9264
        52.4004         49.4004
   -532354.08644   -409659.53546  24453811.294    24453811.6474   24453814.2734
        40.9004         38.8004
  -2834009.45045  -2191737.32146  22267575.042    22267574.2594   22267577.2434
        43.6004         40.6004
 23 11  9  1  5  0.0000000  0 10G02G27G21G18G10G26G23G08G15G16
   -277897.83243   -198400.22146  23607039.284    23607037.6074   23607041.1274
        38.7004         37.4004
 -18118076.12549 -14097343.69148  20134398.611    20134398.4444   20134403.3784
        55.5004         52.9004
  -6652387.11944  -5163106.12046  22212342.422    22212341.8104   22212344.9834
        42.5004         39.9004
   -843711.67443   -613731.70445  24266838.144    24266840.1074   24266842.6814
        38.0004         35.5004
 -20567895.42248 -16002269.67048  21250296.651    21250296.8494   21250302.0454
        54.7004         51.5004
   5755392.44844   4497639.27746  24306323.668    24306323.1314   24306330.1604
        41.6004         38.8004
 -12298502.00545  -9565152.06846  21916193.809    21916193.7004   21916197.0304
        44.8004         41.8004
 -11088385.22347  -8620492.15648  21260704.612    21260704.6994   21260709.9054
        52.4004         49.2004
   -508213.74544   -390848.99546  24458405.075    24458405.4964   24458408.9494
        40.9004         38.6004
  -2738146.29045  -2117038.78646  22285817.603    22285817.3514   22285820.2944
        43.6004         40.7004
 23 11  9  1  5 30.0000000  0 10G02G27G21G18G10G26G23G08G15G16
   -360305.55443   -262613.96846  23591356.658    23591357.0064   23591359.5814
        39.6004         37.3004
 -18102872.39449 -14085496.63248  20137291.790    20137292.0204   20137296.7154
        55.5004         53.1004
  -6724532.12044  -5219322.99846  22198612.945    22198612.6454   22198616.2064
        42.2004         39.2004
   -745069.21343   -536867.44146  24285612.096    24285611.8574   24285613.9374
        38.2004         36.0004
 -20596369.64948 -16024457.37148  21244878.642    21244878.4484   21244883.8374
        54.7004         51.5004
   5867442.09844   4584950.65946  24327644.362    24327645.0064   24327653.3214
        41.5004         38.8004
 -12251191.15045  -9528286.46946  21925196.479    21925197.0194   21925199.1134
        44.6004         41.8004
 -11149512.12447  -8668123.50848  21249072.542    21249072.6084   21249077.6474
        52.2004         49.2004
   -483477.77244   -371574.28346  24463112.241    24463112.9754   24463116.6204
        41.3004         39.0004
  -2641961.32044  -2042089.47346  22304119.957    22304119.6114   22304123.7414
        43.4004         40.6004
 23 11  9  1  6  0.0000000  0 10G02G27G21G18G10G26G23G08G15G16
   -442523.08853   -326679.50056  23575711.448    23575711.4514   23575713.8124
        39.7004         37.3004
 -18087229.36149 -14073307.26148  20140268.451    20140268.3784   20140273.1074
        55.5004         52.9004
  -6796379.56244  -5275307.98746  22184941.488    22184940.6364   22184943.9164
        42.0004         39.3004
   -646365.24643   -459955.27146  24304394.416    24304394.9784   24304397.9194
        38.3004         36.0004
 -20624282.64548 -16046207.74448  21239566.679    21239567.1944   21239572.0174
        54.7004         51.7004
   5979541.59844   4672300.91046  24348975.350    24348977.1484   24348984.1574
        41.1004         38.3004
 -12203344.36345  -9491003.27546  21934302.130    21934301.7164   21934304.3634
        44.6004         41.6004
 -11210328.62347  -8715512.99948  21237499.709    21237499.5564   21237504.6594
        52.2004         49.4004
   -458147.02844   -351836.13346  24467932.605    24467933.0344   24467936.2374
        41.1004         38.5004
  -2545456.83244  -1966891.20046  22322485.607    22322485.6204   22322488.0684
        43.4004         40.6004
 23 11  9  1  6 30.0000000  0 10G02G27G21G18G10G26G23G08G15G16
   -524550.01943   -390596.53646  23560102.887    23560102.0214   23560104.9414
        39.9004         37.4004
 -18071146.89449 -14060775.47648  20143328.990    20143328.9914   20143333.7764
        55.5004         52.9004
  -6867929.04044  -5331060.80346  22171326.761    22171326.6284   22171327.3074
        42.0004         39.3004
   -547601.14643   -382996.23146  24323187.868    24323188.3784   24323190.3594
        38.3004         36.0004
 -20651633.77048 -16067520.29948  21234361.484    21234361.9564   21234367.1124
        54.7004         51.5004
   6091688.66244   4759688.19346  24370317.306    24370316.8714   24370325.3044
        40.8004         37.9004
 -12154963.48445  -9453303.87546  21943508.822    21943508.5554   21943511.0724
        44.8004         41.6004
 -11270833.20647  -8762659.42148  21225985.888    21225985.9674   21225991.2294
        52.4004         49.6004
   -432222.07744   -331634.84746  24472867.030    24472866.4904   24472870.5854
        41.1004         38.5004
  -2448633.78144  -1891444.69146  22340909.975    22340909.8604   22340912.2594
        43.4004         40.6004
 23 11  9  1  7  0.0000000  0 10G02G27G21G18G10G26G23G08G15G16
   -606385.66143   -454364.52646  23544530.006    23544529.7444   23544531.7934
        40.1004         37.6004
 -18054624.91949 -14047901.20948  20146472.806    20146472.9904   20146477.6454
        55.5004         52.9004
  -6939180.02444  -5386581.02646  22157767.777    22157766.7024   22157768.7374
        42.0004         39.3004
   -448778.11143   -305991.25945  24341993.395    24341994.2034   24341997.6324
        38.2004         35.7004
 -20678422.25448 -16088394.43148  21229264.761    21229264.3414   21229269.3604
        54.7004         51.5004
   6203880.94843   4847110.72546  24391666.878    24391666.6464   24391674.8214
        40.3004         37.6004
 -12106050.30445  -9415189.72446  21952815.457    21952816.7094   21952818.8864
        44.6004         41.8004
 -11331023.89848  -8809561.24848  21214532.354    21214532.0074   21214537.3204
        52.6004         49.8004
   -405704.02544   -310971.61146  24477912.069    24477912.4404   24477915.7034
        41.1004         38.6004
  -2351495.98444  -1815752.91646  22359395.281    22359394.3984   22359396.8804
        43.2004         40.6004
 23 11  9  1  7 30.0000000  0 10G02G27G21G18G10G26G23G08G15G16
   -688029.32043   -517982.89646  23528993.673    23528993.0724   23528995.3684
        40.3004         37.8004
 -18037663.34149 -14034684.40748  20149700.405    20149700.2864   20149705.4824
        55.5004         52.9004
  -7010131.91144  -5441868.18146  22144265.192    22144263.8124   22144267.4044
        42.0004         39.2004
   -349897.63543   -228941.54045  24360810.362    24360810.6764   24360813.3004
        37.8004         35.7004
 -20704647.34148 -16108829.54848  21224274.060    21224273.9934   21224278.6934
        54.7004         51.5004
   6316116.14843   4934566.69546  24413026.664    24413025.0334   24413030.3404
        40.1004         37.4004
 -12056606.70245  -9376662.24146  21962224.620    21962225.1024   21962227.4104
        44.6004         41.6004
 -11390899.48748  -8856217.55148  21203138.123    21203138.2104   21203143.6204
        52.8004         49.9004
   -378593.80043   -289846.86146  24483071.380    24483071.2234   24483075.1794
        40.3004         37.3004
  -2254045.97844  -1739817.87446  22377938.818    22377938.8114   22377942.1834
        43.2004         40.6004
 23 11  9  1  8  0.0000000  0 10G02G27G21G18G10G26G23G08G15G16
   -769480.63843   -581451.40546  23513493.577    23513492.2784   23513495.2384
        39.9004         37.4004
 -18020262.08949 -14021124.99348  20153012.076    20153012.0694   20153016.7084
        55.5004         52.9004
  -7080784.13644  -5496921.83446  22130820.047    22130819.8284   22130823.3114
        42.0004         39.3004
   -250960.82043   -151847.94246  24379639.972    24379638.9324   24379641.0794
        38.3004         36.2004
 -20730308.30148 -16128825.08448  21219390.911    21219390.7694   21219395.9504
        54.7004         51.7004
   6428391.85643   5022054.21846  24434390.385    24434389.5504   24434397.0034
        39.4004         36.7004
 -12006634.51145  -9337722.87446  21971733.911    21971734.6894   21971737.1304
        44.6004         41.8004
 -11450458.63948  -8902627.27348  21191804.048    21191804.1134   21191809.7694
        52.8004         49.9004
   -350891.58943   -268260.87346  24488343.117    24488343.8974   24488347.8794
        40.1004         37.8004
  -2156285.67444  -1663641.02946  22396542.007    22396541.0914   22396545.1224
        43.2004         40.6004
 23 11  9  1  8 30.0000000  0 10G02G27G21G18G10G26G23G08G15G16
   -850739.10943   -644769.63646  23498030.591    23498030.1004   23498033.0504
        40.1004         37.6004
 -18002421.11449 -14007222.93548  20156406.932    20156406.9454   20156411.9814
        55.5004         52.9004
  -7151136.26144  -5551741.61646  22117433.590    22117432.3194   22117436.5184
        42.5004         40.2004
   -151969.14843    -74711.58346  24398476.119    24398475.3854   24398477.4104
        38.3004         36.0004
 -20755404.42048 -16148380.49548  21214614.995    21214615.1724   21214620.2264
        54.7004         51.7004
   6540705.72843   5109571.49746  24455759.694    24455761.0504   24455770.4104
        39.2004         36.7004
 -11956135.61245  -9298373.06946  21981343.604    21981343.2674   21981346.0864
        44.6004         41.4004
 -11509700.00848  -8948789.37748  21180530.845    21180530.8744   21180536.6134
        52.8004         49.8004
   -322598.11043   -246214.14446  24493724.726    24493726.3104   24493727.4874
        40.1004         37.8004
  -2058217.50544  -1587224.29146  22415202.975    22415203.3234   22415206.3214
        43.2004         40.2004
 23 11  9  1  9  0.0000000  0 10G02G27G21G18G10G26G23G08G15G16
   -931803.98443   -707937.00846  23482605.582    23482604.7784   23482606.4254
        40.3004         37.9004
 -17984140.33849 -13992978.17248  20159885.801    20159885.5514   20159890.5514
        55.5004         52.9004
  -7221187.74844  -5606327.13346  22104102.802    22104102.2934   22104106.2294
        43.0004         40.2004
    -52923.81343      2466.62845  24417321.155    24417322.5384   24417325.4874
        37.8004         35.5004
 -20779935.22948 -16167495.39948  21209947.096    21209947.0894   21209951.9064
        54.7004         51.5004
   6653055.59143   5197116.84046  24477139.251    24477140.0504   24477150.4834
        39.0004         36.6004
 -11905111.90345  -9258614.33946  21991051.875    21991053.3714   21991055.3814
        44.4004         41.8004
 -11568621.41548  -8994702.15248  21169318.793    21169318.4894   21169324.0494
        52.9004         49.9004
   -293714.95743   -223708.03546  24499224.135    24499223.9454   24499229.2124
        40.4004         38.3004
  -1959844.36544  -1510569.91846  22433923.562    22433922.5704   22433926.8644
        43.0004         40.2004
 23 11  9  1  9 30.0000000  0 10G02G27G21G18G10G26G23G08G15G16
  -1012674.47144   -770952.91646  23467216.428    23467215.5834   23467216.5974
        40.6004         38.3004
 -17965419.73449 -13978390.69248  20163447.736    20163447.8454   20163453.0574
        55.5004         52.9004
  -7290938.06544  -5660677.97946  22090829.782    22090828.8904   22090833.2364
        43.0004         40.2004
     46173.92742     79685.62645  24436180.986    24436182.3474   24436182.9944
        37.5004         35.2004
 -20803899.98848 -16186169.21048  21205386.065    21205386.2194   21205391.7514
        54.7004         51.5004
   6765438.89843   5284688.21746  24498530.952    24498526.5264   24498533.6454
        38.7004         36.2004
 -11853565.32745  -9218448.17146  22000861.770    22000862.0774   22000865.1074
        44.6004         41.8004
 -11627221.57848  -9040364.60848  21158167.389    21158167.4194   21158173.0754
        53.1004         50.1004
   -264242.05843   -200742.36446  24504832.746    24504833.0574   24504834.4944
        40.3004         37.9004
  -1861168.46644  -1433679.63946  22452699.948    22452700.2164   22452704.1894
        43.0004         40.2004
 23 11  9  1 10  0.0000000  0 10G02G27G21G18G10G26G23G08G15G16
  -1093350.18744   -833817.08946  23451865.401    23451863.7804   23451865.1714
        40.9004         38.5004
 -17946259.27049 -13963460.45848  20167093.798    20167094.0034   20167098.9364
        55.5004         52.9004
  -7360386.65044  -5714793.71446  22077613.864    22077612.7164   22077617.6394
        43.2004         40.4004
    145322.74142    156944.43945  24455047.435    24455048.4214   24455050.4764
        37.3004         35.3004
 -20827297.97548 -16204401.38848  21200933.617    21200933.7734   21200938.9004
        54.5004         51.3004
   6877853.44653   5372283.93156  24519917.919    24519917.7114   24519926.7894
        38.5004         36.2004
 -11801497.74545  -9177876.03546  22010769.777    22010770.3584   22010773.8054
        44.6004         41.9004
 -11685499.44348  -9085775.92348  21147077.673    21147077.7114   21147083.1864
        53.1004         50.3004
   -234180.42043   -177317.69746  24510550.989    24510552.2364   24510554.6224
        39.4004         36.7004
  -1762192.52344  -1356555.55046  22471534.830    22471533.9064   22471538.9064
        42.9004         40.2004
 23 11  9  1 10 30.0000000  0 10G02G27G21G18G10G26G23G08G15G16
  -1173830.50044   -896529.01646  23436549.121    23436548.6524   23436549.8204
        40.9004         38.5004
 -17926658.91149 -13948187.45448  20170823.953    20170823.7334   20170828.9724
        55.5004         52.9004
  -7429533.30944  -5768674.16946  22064455.899    22064454.9334   22064458.5984
        43.2004         40.4004
    244521.37442    234242.08545  24473925.716    24473923.3014   24473926.4654
        37.0004         34.8004
 -20850128.79648 -16222191.61948  21196589.795    21196589.6964   21196594.4734
        54.5004         51.5004
   6990296.86353   5459902.17456  24541316.293    24541316.8864   24541325.2654
        39.0004         36.7004
 -11748911.13645  -9136899.45547  22020777.065    22020777.2334   22020780.6904
        44.8004         42.1004
 -11743453.19848  -9130934.69248  21136049.004    21136049.0034   21136054.8404
        53.1004         50.3004
   -203531.32043   -153435.31746  24516386.266    24516386.2034   24516389.1664
        39.9004         37.8004
  -1662919.16244  -1279199.70346  22490427.309    22490425.7544   22490428.5474
        42.9004         40.0004
 23 11  9  1 11  0.0000000  0 10G02G27G21G18G10G26G23G08G15G16
  -1254114.92944   -959088.25846  23421271.907    23421270.9004   23421271.7724
        41.1004         38.5004
 -17906618.63449 -13932571.66348  20174637.860    20174637.6414   20174642.5604
        55.5004         52.9004
  -7498377.69644  -5822319.10846  22051354.995    22051354.8914   22051357.4874
        43.2004         40.6004
    343768.54142    311577.54345  24492811.315    24492811.1454   24492813.2034
        37.0004         34.8004
 -20872391.71148 -16239539.33748  21192353.514    21192353.0624   21192357.9764
        54.5004         51.3004
   7102766.89053   5547541.12856  24562721.905    24562720.1544   24562726.9524
        38.7004         36.2004
 -11695807.46045  -9095519.96747  22030882.379    22030883.1744   22030886.8914
        44.9004         42.3004
 -11801081.41648  -9175839.79248  21125083.325    21125082.9384   21125088.2244
        53.3004         50.3004
   -172295.50543   -129095.73446  24522326.742    24522328.0664   24522333.4184
        39.6004         36.7004
  -1563350.90544  -1201614.07246  22509373.946    22509373.6824   22509376.2534
        42.7004         40.0004
 23 11  9  1 11 30.0000000  0 10G02G27G21G18G10G26G23G08G15G16
  -1334202.96844  -1021494.47246  23406031.376    23406030.4264   23406032.4964
        40.9004         38.3004
 -17886138.45649 -13916613.08348  20178534.882    20178534.9854   20178539.4554
        55.5004         52.9004
  -7566918.82344  -5875727.75846  22038312.602    22038312.7494   22038314.5074
        43.4004         40.6004
    443063.03042    388949.89145  24511705.622    24511704.3324   24511709.2124
        36.6004         34.5004
 -20894086.00448 -16256443.96648  21188224.260    21188224.7404   21188229.4364
        54.5004         51.3004
   7215261.16753   5635198.98256  24584127.778    24584126.2004   24584134.4234
        38.7004         36.6004
 -11642188.64645  -9053739.07546  22041085.533    22041085.9744   22041089.2164
        44.9004         41.9004
 -11858382.52248  -9220489.99348  21114178.969    21114178.8834   21114184.6284
        53.3004         50.5004
   -140473.83643   -104299.79346  24528384.969    24528384.8384   24528386.0884
        39.6004         37.1004
  -1463489.58444  -1123800.06746  22528376.110    22528376.2404   22528378.7004
        42.5004         39.7004
 23 11  9  1 12  0.0000000  0 10G02G27G21G18G10G26G23G08G15G16
  -1414094.08844  -1083747.28346  23390828.116    23390826.9714   23390829.6534
        40.8004         38.1004
 -17865218.35049 -13900311.71348  20182515.864    20182515.8494   20182520.8224
        55.5004         52.9004
  -7635156.60744  -5928900.00346  22025327.293    22025327.0724   22025329.5834
        43.4004         40.6004
    542403.64342    466358.12645  24530611.423    24530609.5504   24530612.5384
        36.3004         34.5004
 -20915211.46648 -16272905.35348  21184204.247    21184204.7694   21184209.3734
        54.5004         51.3004
   7327777.40753   5722873.94356  24605533.813    24605536.9584   24605545.9834
        38.9004         36.6004
 -11588056.72645  -9011558.35347  22051386.094    22051387.3674   22051389.7494
        44.9004         42.1004
 -11915355.17148  -9264884.25748  21103337.249    21103337.3344   21103342.9974
        53.3004         50.5004
   -108067.30643    -79047.88746  24534551.428    24534552.6774   24534556.1924
        39.9004         37.4004
  -1363338.34944  -1045760.18246  22547435.300    22547434.6474   22547436.3834
        42.5004         39.9004
 23 11  9  1 12 30.0000000  0 10G02G27G21G18G10G26G23G08G15G16
  -1493787.48943  -1145846.00146  23375662.042    23375661.6224   23375664.9254
        40.4004         37.8004
 -17843858.32249 -13883667.54148  20186580.924    20186580.7694   20186585.2974
        55.5004         52.9004
  -7703090.49444  -5981835.47146  22012399.998    22012398.8484   22012401.9904
        43.2004         40.6004
    641789.01342    543801.25845  24549520.022    24549522.4334   24549523.8094
        37.1004         35.3004
 -20935767.66548 -16288923.16048  21180292.666    21180293.0194   21180297.7094
        54.5004         51.3004
   7440313.19853   5810564.16456  24626948.357    24626951.7414   24626960.8434
        38.5004         36.2004
 -11533413.62645  -8968979.30147  22061785.263    22061785.6164   22061789.2584
        45.1004         42.1004
 -11971998.28448  -9309021.75548  21092559.051    21092558.7764   21092564.0794
        53.5004         50.3004
    -75077.44143    -53341.59446  24540827.969    24540828.4304   24540831.7074
        39.7004         37.1004
  -1262899.89544   -967496.46546  22566547.628    22566547.1854   22566550.1834
        42.5004         39.7004
 23 11  9  1 13  0.0000000  0 10G02G27G21G18G10G26G23G08G15G16
  -1573282.64043  -1207790.24446  23360535.869    23360534.5414   23360537.0644
        40.3004         37.8004
 -17822058.41449 -13866680.59848  20190728.683    20190728.7294   20190733.5334
        55.5004         52.7004
  -7770720.10744  -6034533.84246  21999530.434    21999529.6954   21999532.7004
        43.2004         40.6004
    741217.96542    621278.37845  24568445.434    24568442.5314   24568446.0894
        37.1004         35.2004
 -20955753.89048 -16304496.83048  21176490.203    21176489.7414   21176494.3724
        54.5004         51.3004
   7552866.43753   5898267.95956  24648376.579    24648369.7254   24648378.4164
        38.5004         36.0004
 -11478261.42045  -8926003.56547  22072280.516    22072280.9184   22072284.0094
        45.1004         42.3004
 -12028309.65848  -9352900.74748  21081842.960    21081842.9234   21081848.1704
        53.5004         50.5004
    -41504.75243    -27181.18946  24547216.685    24547218.3434   24547221.7484
        39.9004         37.8004
  -1162176.27444   -889010.55546  22585715.696    22585714.3584   22585717.8114
        42.5004         39.9004
 23 11  9  1 13 30.0000000  0 10G02G27G21G18G10G26G23G08G15G16
  -1652579.27243  -1269579.78146  23345445.591    23345445.3844   23345447.2654
        40.4004         38.1004
 -17799818.64249 -13849350.91448  20194961.144    20194961.0994   20194965.5724
        55.5004         52.7004
  -7838045.26044  -6086994.97346  21986718.884    21986717.9424   21986720.9414
        43.2004         40.4004
    840689.32042    698788.48545  24587369.380    24587373.0834   24587373.6024
        36.4004         34.5004
 -20975169.75748 -16319626.06348  21172795.853    21172795.0604   21172799.8584
        54.5004         51.3004
   7665434.71943   5985983.42946  24669801.808    24669794.0144   24669799.7264
        38.7004         36.2004
 -11422602.10945  -8882632.68047  22082871.884    22082872.6764   22082875.0974
        44.9004         42.1004
 -12084288.42948  -9396520.56148  21071190.721    21071190.6374   21071196.0004
        53.5004         50.5004
     -7350.51943      -567.59346  24553718.085    24553716.7054   24553721.2384
        39.6004         36.9004
  -1061169.74344   -810304.19146  22604935.276    22604934.9564   22604938.6414
        42.3004         39.5004
 23 11  9  1 14  0.0000000  0 10G02G27G21G18G10G26G23G08G15G16
  -1731676.76844  -1331214.14446  23330393.770    23330393.1084   23330395.2114
        40.8004         38.3004
 -17777139.03549 -13831678.50048  20199276.956    20199276.9524   20199281.2334
        55.5004         52.7004
  -7905064.82544  -6139217.96446  21973965.441    21973964.8254   21973967.7794
        43.2004         40.6004
    940201.77042    776330.68645  24606306.760    24606307.4434   24606310.8234
        36.3004         34.5004
 -20994014.83848 -16334310.53148  21169208.810    21169208.9244   21169213.7544
        54.7004         51.5004
   7778015.80453   6073708.91155  24691218.042    24691217.6354   24691222.6004
        38.2004         35.7004
 -11366437.72145  -8838868.22147  22093560.300    22093560.0824   22093562.7174
        44.9004         42.1004
 -12139933.06848  -9439880.01348  21060601.645    21060601.5254   21060606.9544
        53.5004         50.5004
     27384.34443     26498.37846  24560324.673    24560325.8494   24560332.2504
        39.4004         36.7004
   -959883.07744   -731379.54046  22624210.489    22624209.7404   22624212.8024
        42.3004         39.5004
 23 11  9  1 14 30.0000000  0 10G02G27G21G18G10G26G23G08G15G16
  -1810574.52944  -1392692.89046  23315381.772    23315380.2834   23315382.3454
        40.9004         38.5004
 -17754019.63549 -13813663.38548  20203676.155    20203676.1874   20203680.8104
        55.5004         52.7004
  -7971778.93644  -6191202.94146  21961270.199    21961269.4084   21961272.2484
        43.4004         40.4004
   1039754.16642    853903.93345  24625254.568    24625253.0344   24625256.6564
        36.8004         35.0004
 -21012288.59248 -16348549.80948  21165731.753    21165731.6804   21165736.4824
        54.7004         51.5004
   7890611.48353   6161445.81056  24712637.114    24712639.0194   24712649.5344
        38.0004         36.0004
 -11309770.31345  -8794711.82146  22104341.935    22104342.7284   22104345.9484
        44.8004         41.6004
 -12195241.16548  -9482977.23448  21050076.697    21050076.6474   21050082.0424
        53.3004         50.3004
     62699.12943     54016.34846  24567046.748    24567046.5904   24567052.0854
        39.4004         37.1004
   -858319.10944   -652238.80146  22643537.050    22643536.6604   22643539.5134
        42.2004         39.5004
 23 11  9  1 15  0.0000000  0 10G02G27G21G18G10G26G23G08G15G16
  -1889271.86144  -1454015.46246  23300404.307    23300403.2704   23300406.5684
        40.8004         38.1004
 -17730460.49549 -13795305.61648  20208159.282    20208159.4844   20208163.9284
        55.5004         52.7004
  -8038186.92944  -6242949.39446  21948633.152    21948632.2534   21948634.5274
        43.4004         40.6004
   1139345.27242    931507.37645  24644203.100    24644204.1054   24644205.8854
        37.0004         35.0004
 -21029990.73548 -16362343.66948  21162362.710    21162362.9114   21162368.0994
        54.7004         51.7004
   8003211.43853   6249186.09556  24734068.746    24734068.0984   24734077.2994
        38.3004         36.2004
 -11252601.97445  -8750165.05646  22115222.301    22115221.6044   22115224.9024
        44.8004         41.6004
 -12250212.56248  -9525812.08248  21039615.697    21039615.8004   21039621.3094
        53.3004         50.3004
     98591.89243     81984.56346  24573875.503    24573876.4804   24573883.9034
        39.0004         36.6004
   -756480.08744   -572883.73646  22662916.079    22662916.8124   22662918.6484
        42.0004         39.3004
 23 11  9  1 15 30.0000000  0 10G02G27G21G18G10G26G23G08G15G16
  -1967768.43044  -1515181.61046  23285466.995    23285467.1194   23285469.5394
        40.8004         38.3004
 -17706461.67449 -13776605.24648  20212726.373    20212726.2384   20212731.0254
        55.5004         52.9004
  -8104288.59244  -6294457.15246  21936053.671    21936053.4174   21936056.1554
        43.4004         40.4004
   1238973.85742   1009140.03345  24663161.111    24663161.6184   24663168.2774
        36.3004         34.3004
 -21047120.66248 -16375691.64648  21159102.927    21159102.9804   21159108.1514
        54.7004         51.5004
   8115816.65153   6336930.37156  24755496.538    24755495.7324   24755503.4294
        38.5004         36.2004
 -11194934.75645  -8705229.54246  22126195.694    22126195.3414   22126198.7304
        44.6004         41.8004
 -12304844.80148  -9568382.66048  21029220.027    21029219.7594   21029225.0724
        53.3004         50.3004
    135061.54543    110402.23946  24580818.604    24580817.8994   24580820.6674
        39.2004         36.9004
   -654368.65144   -493316.41246  22682346.831    22682346.8314   22682350.2464
        42.0004         39.5004
 23 11  9  1 16  0.0000000  0 10G02G27G21G18G10G26G23G08G15G16
  -2046063.85844  -1576190.95046  23270567.636    23270567.6954   23270569.8024
        40.9004         38.5004
 -17682023.25949 -13757562.32848  20217376.717    20217376.6744   20217381.2904
        55.7004         52.9004
  -8170083.58644  -6345725.94446  21923533.283    21923532.7154   21923536.1134
        43.4004         40.6004
   1338638.83742   1086800.98345  24682130.122    24682126.3364   24682132.5234
        36.1004         34.1004
 -21063678.37648 -16388593.74348  21155952.419    21155952.2034   21155957.2054
        54.7004         51.5004
   8228425.57253   6424677.56956  24776920.452    24776923.5544   24776932.8324
        38.7004         36.6004
 -11136770.73845  -8659906.93846  22137263.317    22137263.6964   22137266.9944
        44.4004         41.4004
 -12359136.79648  -9610688.09948  21018888.125    21018888.3244   21018893.9424
        53.3004         50.3004
    172107.50143    139269.05846  24587865.751    24587866.7824   24587873.4594
        38.7004         36.2004
   -551987.72344   -413539.07746  22701830.043    22701829.9234   22701832.8824
        42.2004         39.5004
 23 11  9  1 16 30.0000000  0 10G02G27G21G18G10G26G23G08G15G16
  -2124157.41544  -1637043.00946  23255707.310    23255706.9284   23255709.4924
        40.9004         38.5004
 -17657145.32649 -13738176.93848  20222111.042    20222110.8714   20222115.2664
        55.7004         52.9004
  -8235571.12644  -6396755.14246  21911071.347    21911070.1684   21911073.9074
        43.2004         40.6004
   1438339.00542   1164489.42345  24701095.645    24701099.9474   24701104.1804
        35.9004         34.3004
 -21079663.22248 -16401049.45348  21152909.943    21152910.3914   21152915.4504
        54.7004         51.7004
   8341035.57753   6512425.61556  24798353.252    24798352.5304   24798360.7724
        39.0004         36.7004
 -11078112.06145  -8614198.86546  22148426.439    22148426.4694   22148429.6654
        44.4004         41.4004
 -12413086.82248  -9652727.07948  21008621.835    21008621.9084   21008627.1654
        53.3004         50.1004
    209728.24543    168583.79745  24595025.337    24595026.7534   24595030.2174
        38.0004         35.5004
   -449339.43544   -333553.41346  22721363.127    22721362.4174   22721366.4344
        42.3004         39.7004
 23 11  9  1 17  0.0000000  0 10G02G27G21G18G10G26G23G08G15G16
  -2202048.77044  -1697737.55246  23240884.460    23240884.3934   23240886.2914
        40.8004         38.1004
 -17631827.97849 -13718449.14248  20226928.749    20226928.7434   20226933.3524
        55.7004         52.9004
  -8300751.37044  -6447544.90246  21898666.948    21898667.9474   21898670.5574
        43.4004         40.6004
   1538073.01142   1242204.23345  24720077.988    24720077.1954   24720080.6944
        36.3004         34.3004
 -21095075.06848 -16413058.66948  21149978.228    21149977.9214   21149982.8894
        54.8004         51.5004
   8453644.55253   6600172.84456  24819781.173    24819782.7564   24819788.2754
        39.0004         36.7004
 -11018960.78945  -8568106.96246  22159681.819    22159681.9284   22159685.1464
        44.2004         41.2004
 -12466693.98148  -9694498.88148  20998421.409    20998421.0924   20998426.4804
        53.3004         50.3004
    247922.41352    198344.91955  24602290.311    24602291.1564   24602298.6864
        36.8004         34.8004
   -346426.16044   -253361.27546  22740946.775    22740946.0594   22740950.4994
        42.3004         39.5004
 23 11  9  1 17 30.0000000  0 10G02G27G21G18G10G26G23G08G15G16
  -2279737.12844  -1758273.92446  23226101.153    23226101.3224   23226102.6364
        40.6004         38.1004
 -17606071.28149 -13698378.99348  20231829.832    20231830.0234   20231834.5334
        55.7004         52.9004
  -8365623.20545  -6498094.35546  21886323.284    21886322.8584   21886327.0664
        43.6004         41.1004
   1637839.90342   1319944.61145  24739067.143    24739063.8034   24739069.0544
        36.3004         34.1004
 -21109913.88148 -16424621.36948  21147154.303    21147154.2444   21147158.9464
        54.8004         51.7004
   8566250.31243   6687917.56446  24841213.600    24841212.2584   24841217.0944
        39.2004         36.9004
 -10959319.12545  -8521632.93246  22171032.092    22171031.5364   22171034.6904
        44.2004         41.2004
 -12519956.35748  -9736002.02248  20988285.444    20988285.5204   20988290.6994
        53.1004         49.9004
    286689.34452    228552.61255  24609675.284    24609674.7654   24609674.0664
        37.1004         35.0004
   -243250.87444   -172964.97046  22760581.494    22760580.2064   22760582.9164
        42.2004         39.3004
 23 11  9  1 18  0.0000000  0 10G02G27G21G18G10G26G23G08G15G16
  -2357222.03644  -1818651.72146  23211356.422    23211355.6084   23211358.3114
        40.6004         38.3004
 -17579875.35349 -13677966.58548  20236814.674    20236815.0614   20236819.6884
        55.7004         53.1004
  -8430186.61045  -6548403.47346  21874037.605    21874036.4544   21874039.8994
        43.9004         41.1004
   1737638.39542   1397709.65445  24758047.727    24758052.8174   24758056.6054
        35.2004         33.4004
 -21124178.90248 -16435736.95948  21144439.605    21144439.6634   21144443.9814
        54.8004         51.3004
   8678850.42343   6775657.89546  24862643.677    24862640.4264   24862644.6014
        39.6004         37.3004
 -10899189.16845  -8474778.42346  22182474.455    22182474.5704   22182476.4464
        44.2004         41.4004
 -12572872.71248  -9777235.53148  20978216.316    20978215.9704   20978221.4104
        53.3004         50.5004
    326027.85452    259205.91655  24617154.177    24617155.2324   24617161.7214
        37.3004         35.0004
   -139815.81544    -92366.23546  22780264.774    22780263.8994   22780266.3514
        42.0004         39.2004
 23 11  9  1 18 30.0000000  0 10G02G27G21G18G10G26G23G08G15G16
  -2434502.96644  -1878870.56246  23196650.336    23196649.9664   23196651.7764
        41.1004         38.6004
 -17553240.30949 -13657212.01248  20241883.567    20241883.4834   20241887.9184
        55.7004         52.9004
  -8494441.88345  -6598472.47746  21861810.441    21861809.5894   21861812.3384
        43.9004         40.9004
   1837467.49042   1475498.59845  24777053.602    24777050.2414   24777054.1814
        35.2004         33.6004
 -21137870.30648 -16446405.57048  21141834.120    21141833.8424   21141838.6684
        54.7004         51.1004
   8791442.71843   6863392.11146  24884070.189    24884066.1144   24884072.3394
        39.7004         37.4004
 -10838573.05645  -8427545.09446  22194009.409    22194009.6924   22194011.6114
        44.2004         41.4004
 -12625441.14848  -9818197.94848  20968212.741    20968212.5424   20968217.5524
        53.5004         50.5004
    365935.83752    290302.88155  24624753.306    24624753.8144   24624756.9004
        37.0004         34.8004
    -36123.39944    -11566.97846  22799996.442    22799995.4974   22799997.8124
        41.6004         39.0004
 23 11  9  1 19  0.0000000  0 10G02G27G21G18G10G26G23G08G15G16
  -2511579.61644  -1938930.22646  23181982.560    23181981.5504   23181983.9534
        41.1004         38.5004
 -17526166.30049 -13636115.38448  20247035.197    20247035.3864   20247040.0574
        55.7004         53.1004
  -8558388.04145  -6648300.61046  21849641.959    21849641.0434   21849643.9974
        43.7004         40.9004
   1937325.86542   1553310.29645  24796055.470    24796055.3784   24796058.6784
        35.4004         33.8004
 -21150987.49448 -16456626.75048  21139337.154    21139337.3944   21139342.6734
        54.5004         51.1004
   8904024.79443   6951118.38446  24905489.088    24905488.6344   24905494.9694
        39.9004         37.6004
 -10777472.96545  -8379934.63246  22205636.992    22205636.9394   22205638.9054
        44.2004         41.6004
 -12677660.60048  -9858888.42648  20958275.498    20958275.3424   20958280.7164
        53.5004         50.5004
    406412.77142    321843.28345  24632455.281    24632456.0784   24632458.7364
        37.1004         35.3004
     67823.14544     69430.31346  22819776.192    22819775.4184   22819778.4274
        41.5004         38.8004
 23 11  9  1 19 30.0000000  0 10G02G27G21G18G10G26G23G08G15G16
  -2588451.48344  -1998830.34246  23167354.504    23167353.5884   23167356.7774
        40.9004         38.3004
 -17498653.45949 -13614676.81848  20252271.068    20252270.8294   20252275.6814
        55.7004         53.1004
  -8622024.35545  -6697887.32346  21837532.153    21837531.2354   21837534.8984
        43.7004         40.9004
   2037212.31442   1631143.91245  24815059.149    24815062.6014   24815066.1864
        35.6004         34.1004
 -21163530.58148 -16466400.56848  21136951.136    21136950.8504   21136955.7094
        54.5004         51.1004
   9016594.35053   7038834.94756  24926903.327    24926907.2034   24926915.4234
        39.9004         37.4004
 -10715891.06245  -8331948.73446  22217355.667    22217355.4734   22217356.8974
        44.4004         41.4004
 -12729529.46448  -9899305.71148  20948405.506    20948405.0054   20948410.5504
        53.5004         50.5004
    447457.24252    353825.91755  24640262.617    24640263.8304   24640268.6964
        36.8004         34.8004
    172021.78844    150624.04646  22839604.772    22839603.8814   22839606.7674
        41.5004         38.8004
 23 11  9  1 20  0.0000000  0 10G02G27G21G18G10G26G23G08G15G16
  -2665117.92044  -2058570.40646  23152766.891    23152765.6814   23152766.5634
        40.9004         38.3004
 -17470701.89049 -13592896.37848  20257589.977    20257589.7924   20257594.5524
        55.7004         52.9004
  -8685351.62845  -6747233.22046  21825481.364    21825480.6034   21825482.8764
        43.9004         41.2004
   2137125.85842   1708998.58745  24834077.359    24834073.5994   24834078.8634
        35.9004         34.1004
 -21175499.49748 -16475726.99248  21134673.929    21134673.9704   21134677.7884
        54.7004         51.3004
   9129149.31553   7126540.11356  24948326.947    24948326.2574   24948334.3534
        40.1004         37.6004
 -10653829.58345  -8283589.15946  22229165.405    22229165.1174   22229166.1464
        44.2004         41.2004
 -12781045.90348  -9939448.38448  20938601.881    20938601.8204   20938606.9174
        53.5004         50.5004
    489067.66252    386249.71655  24648179.353    24648179.6414   24648187.4224
        36.3004         34.1004
    276469.12444    232011.56346  22859480.111    22859480.6484   22859482.2684
        41.5004         39.0004
 23 11  9  1 20 30.0000000  0 10G02G27G21G18G10G26G23G08G15G16
  -2741578.80644  -2118150.29646  23138216.356    23138215.5804   23138216.6644
        41.3004         38.8004
 -17442311.78549 -13570774.21848  20262991.751    20262992.2244   20262996.6484
        55.7004         52.9004
  -8748368.30645  -6796337.10646  21813489.847    21813488.8274   21813491.7094
        44.1004         41.2004
   2237065.25642   1786873.37645  24853090.756    24853092.2264   24853093.7174
        35.7004         34.0004
 -21186893.60248 -16484605.51148  21132505.406    21132505.4974   21132509.8444
        54.8004         51.5004
   9241687.45343   7214232.10946  24969745.714    24969743.9544   24969749.9014
        39.9004         37.4004
 -10591290.67645  -8234857.54246  22241065.366    22241066.0214   22241067.2724
        44.1004         41.2004
 -12832208.82248  -9979315.59548  20928866.257    20928866.1274   20928871.6004
        53.6004         50.6004
    531242.72052    419113.34455  24656208.838    24656208.9614   24656212.7774
        36.3004         34.5004
    381164.13144    313592.06546  22879403.114    22879402.6684   22879406.2664
        41.6004         39.0004
 23 11  9  1 21  0.0000000  0 10G02G27G21G18G10G26G23G08G15G16
  -2817833.23844  -2177569.30146  23123705.783    23123704.7804   23123706.5884
        41.6004         39.0004
 -17413483.29249 -13548310.47048  20268478.213    20268478.1874   20268482.8754
        55.5004         52.9004
  -8811074.29245  -6845198.87446  21801557.262    21801556.6424   21801559.2344
        44.2004         41.4004
   2337029.46042   1864767.51945  24872115.306    24872114.0974   24872119.3114
        35.7004         34.0004
 -21197713.12848 -16493036.31048  21130446.494    21130446.3964   21130451.2934
        54.8004         51.5004
   9354206.28343   7301909.11346  24991152.865    24991154.7734   24991161.2394
        39.9004         37.4004
 -10528276.56645  -8185755.64546  22253056.878    22253056.7084   22253058.5654
        44.2004         41.6004
 -12883017.04148 -10018906.40548  20919197.277    20919197.5614   20919202.6464
        53.6004         50.5004
    573980.76352    452415.91555  24664343.433    24664343.9584   24664346.1494
        37.1004         35.3004
    486103.64144    395363.09546  22899371.403    22899371.4824   22899376.2654
        41.8004         39.3004
 23 11  9  1 21 30.0000000  0 10G02G27G21G18G10G26G23G08G15G16
  -2893880.68244  -2236827.01946  23109233.733    23109232.9954   23109235.9464
        41.5004         38.8004
 -17384216.60249 -13525505.25648  20274047.054    20274047.3564   20274051.7824
        55.5004         52.7004
  -8873469.57945  -6893818.57046  21789683.309    21789682.6024   21789686.4004
        44.2004         41.4004
   2437017.36742   1942680.12045  24891143.408    24891143.0034   24891148.3544
        35.6004         33.6004
 -21207957.72248 -16501019.10348  21128497.053    21128496.8634   21128501.7474
        54.8004         51.5004
   9466703.65543   7389569.38946  25012560.788    25012561.9544   25012569.9784
        40.1004         37.6004
 -10464789.47945  -8136285.18346  22265138.682    22265139.1674   22265140.0764
        44.4004         41.4004
 -12933468.73248 -10058219.41948  20909596.982    20909596.8364   20909601.9904
        53.6004         50.6004
    617280.05352    486155.50655  24672579.045    24672580.3104   24672587.7314
        37.3004         35.5004
    591284.47844    477322.15646  22919386.326    22919387.2734   22919391.3434
        41.8004         39.3004
 23 11  9  1 22  0.0000000  0 10G02G27G21G18G10G26G23G08G15G16
  -2969720.94644  -2295923.31746  23094800.549    23094800.8764   23094803.8444
        41.5004         38.8004
 -17354511.87049 -13502358.71948  20279700.872    20279700.4654   20279704.5524
        55.5004         52.7004
  -8935553.86245  -6942195.89446  21777869.785    21777868.3474   21777871.8624
        44.2004         41.2004
   2537027.88142   2020610.33645  24910177.562    24910174.9934   24910177.3774
        35.4004         33.8004
 -21217627.38248 -16508553.89048  21126656.549    21126656.3604   21126662.0034
        54.8004         51.5004
   9579177.37943   7477211.21846  25033966.094    25033965.1044   25033972.9184
        40.1004         37.8004
 -10400831.66145  -8086447.89746  22277308.588    22277308.7314   22277311.3854
        44.1004         41.2004
 -12983562.41348 -10097253.44948  20900063.851    20900063.7134   20900070.1034
        53.5004         50.8004
    661139.42952    520331.41655  24680929.201    24680929.6954   24680930.6984
        37.5004         35.5004
    696704.38644    559467.50846  22939448.776    22939448.4674   22939452.3304
        41.6004         38.8004
 23 11  9  1 22 30.0000000  0 10G02G27G21G18G10G26G23G08G15G16
  -3045353.61944  -2354857.83946  23080409.454    23080408.1934   23080410.9154
        41.8004         39.3004
 -17324369.30249 -13478871.00648  20285435.480    20285435.7524   20285440.6014
        55.5004         52.7004
  -8997326.88845  -6990330.68446  21766114.086    21766113.3194   21766116.8364
        44.2004         41.6004
   2637059.81142   2098557.30845  24929206.730    24929209.5474   24929211.6394
        35.0004         33.3004
 -21226722.01948 -16515640.60748  21124925.827    21124926.0084   21124930.8964
        54.8004         51.5004
   9691625.13843   7564832.83846  25055367.529    25055363.9034   25055370.7384
        40.3004         37.8004
 -10336405.28045  -8036245.54946  22289568.155    22289568.8464   22289570.9214
        44.1004         41.2004
 -13033296.60348 -10136007.35648  20890599.480    20890599.6454   20890605.5744
        53.5004         50.6004
    705557.78852    554943.08355  24689378.225    24689379.1284   24689383.2784
        37.5004         35.2004
    802360.84244    641797.19846  22959553.495    22959553.8974   22959556.6374
        41.5004         38.6004
 23 11  9  1 23  0.0000000  0 10G02G27G21G18G10G26G23G08G15G16
  -3120778.01744  -2413630.05646  23066056.450    23066056.1184   23066058.0764
        42.2004         39.7004
 -17293789.09749 -13455042.28648  20291255.688    20291255.6734   20291260.0034
        55.5004         52.7004
  -9058788.42245  -7038222.74146  21754418.938    21754418.6104   21754421.2194
        44.6004         41.9004
   2737112.06142   2176520.09745  24948246.595    24948251.4074   24948250.6914
        34.9004         33.3004
 -21235242.04948 -16522279.57248  21123305.642    21123305.1544   21123310.0604
        54.8004         51.7004
   9804044.68943   7652432.44846  25076758.708    25076756.2834   25076763.1164
        40.1004         37.6004
 -10271512.65345  -7985679.86046  22301916.186    22301916.2644   22301919.3364
        43.9004         40.9004
 -13082669.97548 -10174480.11148  20881204.685    20881204.5164   20881210.1084
        53.5004         50.5004
    750533.17352    589988.63755  24697939.375    24697941.2764   24697944.7784
        37.3004         35.5004
    908251.40144    724309.29546  22979704.017    22979703.1214   22979706.9914
        41.1004         38.3004
 23 11  9  1 23 30.0000000  0 10G02G27G21G18G10G26G23G08G15G16
  -3195993.54244  -2472239.53346  23051743.055    23051742.7114   23051744.5534
        42.0004         39.2004
 -17262771.48249 -13430872.72148  20297157.763    20297157.7494   20297162.4974
        55.5004         52.7004
  -9119937.70545  -7085871.49546  21742782.427    21742781.4234   21742784.4264
        44.8004         41.8004
   2837183.70742   2254497.95745  24967293.786    24967291.5584   24967294.4154
        35.2004         34.0004
 -21243186.76448 -16528470.25548  21121793.134    21121793.3374   21121797.7914
        55.0004         51.7004
   9916433.81553   7740008.38156  25098139.328    25098141.4624   25098149.3754
        39.7004         37.4004
 -10206156.09445  -7934752.68146  22314354.308    22314353.5084   22314355.5534
        43.9004         40.9004
 -13131681.08648 -10212670.58248  20871877.694    20871877.9314   20871883.3064
        53.5004         50.5004
    796064.98453    625467.89955  24706604.209    24706602.6174   24706607.7644
        38.0004         35.9004
   1014373.58544    807001.87346  22999898.105    22999898.1674   22999901.3714
        40.9004         38.1004
 23 11  9  1 24  0.0000000  0 10G02G27G21G18G10G26G23G08G15G16
  -3270999.85444  -2530686.00246  23037469.711    23037469.3904   23037470.9744
        41.6004         38.8004
 -17231316.66349 -13406362.47948  20303143.192    20303143.5254   20303148.1654
        55.5004         52.7004
  -9180774.63245  -7133276.87546  21731205.401    21731204.7364   21731208.0354
        44.6004         41.8004
   2937273.43742   2332489.93045  24986339.523    24986338.4404   24986340.2794
        35.7004         34.1004
 -21250556.53748 -16534212.92748  21120390.863    21120391.0584   21120395.4874
        55.0004         51.7004
  10028790.28653   7827558.89356  25119520.428    25119522.7174   25119530.5994
        39.7004         37.3004
 -10140337.79745  -7883465.68246  22326878.307    22326878.6634   22326881.5994
        43.9004         41.1004
 -13180328.80048 -10250577.90048  20862620.734    20862620.5224   20862626.4674
        53.5004         50.8004
    842150.50653    661378.41855  24715371.637    24715373.9964   24715378.5614
        37.8004         35.9004
   1120723.72844    889872.10846  23020136.881    23020135.6074   23020139.4444
        40.9004         38.3004
 23 11  9  1 24 30.0000000  0 10G02G27G21G18G10G26G23G08G15G16
  -3345796.61044  -2588969.16646  23023236.253    23023235.5244   23023237.8824
        41.8004         39.3004
 -17199424.88848 -13381511.75148  20309212.369    20309212.2034   20309216.7254
        55.4004         52.5004
  -9241299.22645  -7180438.86546  21719687.582    21719686.9304   21719690.7884
        44.4004         41.4004
   3037380.36642   2410495.31745  25005387.325    25005386.6954   25005389.8984
        35.9004         34.3004
 -21257351.29648 -16539507.55148  21119096.966    21119097.4144   21119102.1664
        54.8004         51.5004
  10141111.92743   7915082.20246  25140899.476    25140897.6034   25140904.7984
        39.9004         37.4004
 -10074060.06345  -7831820.69446  22339490.661    22339491.3344   22339493.1164
        43.9004         41.1004
 -13228611.06748 -10288200.43748  20853432.797    20853432.8644   20853438.4044
        53.6004         50.8004
    888788.66152    697719.62755  24724249.904    24724249.2884   24724251.3854
        37.5004         35.3004
   1227299.96044    972918.49346  23040417.275    23040417.3764   23040419.3984
        40.9004         38.3004
 23 11  9  1 25  0.0000000  0 10G02G27G21G18G10G26G23G08G15G16
  -3420383.41344  -2647088.72146  23009043.566    23009042.9184   23009044.5024
        42.3004         39.9004
 -17167096.35548 -13356320.69348  20315364.226    20315364.2284   20315368.8734
        55.4004         52.5004
  -9301511.21745  -7227357.26546  21708229.501    21708229.1824   21708231.8624
        44.2004         41.4004
   3137503.37942   2488513.21445  25024444.706    25024441.2374   25024443.1064
        36.1004         34.5004
 -21263571.37148 -16544354.34448  21117913.787    21117913.2614   21117918.6344
        54.7004         51.3004
  10253396.46143   8002576.61246  25162266.476    25162264.7114   25162271.5654
        39.9004         37.3004
 -10007325.18745  -7779819.48646  22352189.496    22352190.0454   22352192.7044
        44.1004         41.1004
 -13276526.83048 -10325537.39148  20844315.150    20844314.7064   20844320.6594
        53.6004         51.0004
    935978.02442    734490.44145  24733230.334    24733229.5534   24733230.2734
        36.6004         34.5004
   1334100.50644   1056139.67846  23060742.047    23060740.7274   23060743.7404
        40.9004         38.5004
 23 11  9  1 25 30.0000000  0 10G02G27G21G18G10G26G23G08G15G16
  -3494759.62844  -2705044.16046  22994890.709    22994889.8164   22994890.4744
        42.7004         40.0004
 -17134331.32048 -13330789.50448  20321598.904    20321599.0754   20321603.8464
        55.4004         52.5004
  -9361409.62545  -7274031.32646  21696831.518    21696830.7134   21696833.8814
        44.4004         41.6004
   3237641.35542   2566542.76845  25043496.970    25043497.1324   25043500.1614
        36.1004         34.1004
 -21269216.59648 -16548753.22048  21116838.945    21116839.6264   21116844.5714
        54.7004         51.5004
  10365641.52453   8090040.27456  25183621.121    25183623.1404   25183630.7524
        39.7004         37.3004
  -9940135.47345  -7727463.86646  22364976.122    22364976.4804   22364979.0144
        44.1004         41.4004
 -13324073.97348 -10362587.11348  20835267.414    20835267.1414   20835272.4494
        53.8004         50.8004
    983716.99052    771689.45755  24742311.320    24742312.4874   24742318.7884
        36.6004         34.8004
   1441122.21044   1139533.19846  23081105.723    23081105.1554   23081109.6874
        40.9004         38.5004
 23 11  9  1 26  0.0000000  0 10G02G27G21G18G10G26G23G08G15G16
  -3568924.86044  -2762835.18746  22980777.311    22980776.0174   22980777.5554
        42.7004         39.9004
 -17101130.06448 -13304918.39648  20327917.126    20327917.0864   20327921.8624
        55.2004         52.5004
  -9420994.71545  -7320461.23746  21685492.543    21685491.9824   21685493.9744
        44.4004         41.2004
   3337793.24342   2644583.18245  25062551.970    25062553.8284   25062556.3734
        36.3004         34.3004
 -21274287.00948 -16552704.17748  21115874.854    21115874.5894   21115879.3994
        54.7004         51.5004
  10477845.28743   8177471.78446  25204974.304    25204975.6534   25204982.9924
        39.7004         37.3004
  -9872493.19845  -7674755.61846  22377847.787    22377848.1094   22377851.1584
        44.1004         40.9004
 -13371251.92048 -10399349.15048  20826289.116    20826289.1164   20826294.4394
        53.6004         50.5004
   1032004.04452    809315.49555  24751500.577    24751501.9114   24751507.8124
        36.8004         35.2004
   1548362.09044   1223096.70946  23101513.973    23101513.5474   23101515.6904
        41.1004         38.5004
 23 11  9  1 26 30.0000000  0 10G02G27G21G18G10G26G23G08G15G16
  -3642878.71044  -2820461.53746  22966703.797    22966703.8674   22966705.6904
        42.5004         39.9004
 -17067492.84348 -13278707.57548  20334318.316    20334318.3764   20334322.8564
        55.4004         52.5004
  -9480266.21545  -7366646.80346  21674213.483    21674212.6694   21674215.8264
        44.4004         41.4004
   3437958.02642   2722633.64045  25081614.745    25081613.9384   25081618.3964
        36.3004         34.5004
 -21278782.49048 -16556207.14448  21115019.574    21115019.1214   21115024.5434
        54.8004         51.7004
  10590005.20043   8264869.10646  25226323.452    25226319.2214   25226327.0664
        39.6004         36.9004
  -9804400.74545  -7621696.54346  22390804.978    22390805.1694   22390808.1684
        43.7004         40.7004
 -13418058.98148 -10435822.17548  20817382.535    20817382.3694   20817387.6514
        53.6004         50.6004
   1080837.37752    847367.21855  24760798.380    24760796.2254   24760797.2864
        36.4004         34.3004
   1655817.61444   1306828.24846  23121962.886    23121961.8284   23121964.1464
        40.9004         38.3004
 23 11  9  1 27  0.0000000  0 10G02G27G21G18G10G26G23G08G15G16
  -3716620.42044  -2877922.56346  22952671.596    22952670.2874   22952672.8264
        42.7004         40.0004
 -17033419.93348 -13252157.26648  20340801.783    20340802.3214   20340806.4774
        55.2004         52.5004
  -9539224.01945  -7412587.92646  21662994.127    21662994.1294   21662996.9524
        44.4004         41.8004
   3538134.69842   2800693.39445  25100678.638    25100678.9514   25100683.2724
        35.6004         33.8004
 -21282703.55348 -16559262.50848  21114272.828    21114273.2344   21114278.4484
        55.0004         51.8004
  10702119.06043   8352230.49146  25247659.532    25247655.7454   25247660.6034
        39.4004         36.9004
  -9735860.43045  -7568288.49846  22403847.552    22403848.4694   22403851.4914
        43.6004         40.9004
 -13464493.07148 -10472004.58148  20808546.495    20808546.5394   20808551.6774
        53.8004         51.0004
   1130215.64052    885843.77455  24770192.334    24770192.1354   24770194.3134
        35.6004         34.0004
   1763486.58744   1390726.13846  23142449.544    23142449.8844   23142453.9744
        40.9004         38.1004
 23 11  9  1 27 30.0000000  0 10G02G27G21G18G10G26G23G08G15G16
  -3790149.90644  -2935218.21946  22938679.859    22938679.0174   22938680.6404
        42.9004         39.9004
 -16998911.63948 -13225267.69448  20347369.191    20347369.0524   20347373.1904
        55.2004         52.4004
  -9597867.60145  -7458284.19146  21651835.225    21651834.5164   21651837.3514
        44.6004         41.8004
   3638322.16442   2878761.49245  25119748.132    25119744.1634   25119743.6034
        35.2004         33.4004
 -21286050.22048 -16561870.29848  21113636.025    21113636.1604   21113641.4184
        54.8004         51.7004
  10814184.68743   8439554.32746  25268979.571    25268978.8844   25268985.5554
        39.2004         36.7004
  -9666874.55745  -7514533.28146  22416975.586    22416975.8944   22416979.3254
        43.6004         40.7004
 -13510553.60148 -10507895.90248  20799781.514    20799781.4734   20799786.6094
        54.0004         51.0004
   1180136.08852    924742.92855  24779690.853    24779689.6384   24779699.6004
        34.5004         32.9004
   1871366.46344   1474788.35846  23162981.773    23162979.7794   23162981.6444
        40.9004         38.3004
 23 11  9  1 28  0.0000000  0 10G02G27G21G18G10G26G23G08G15G16
  -3863466.80444  -2992348.22646  22924727.883    22924727.3664   22924727.2444
        42.7004         39.9004
 -16963968.21348 -13198039.05348  20354018.217    20354018.1914   20354023.0934
        55.4004         52.5004
  -9656196.72345  -7503735.43747  21640735.698    21640734.9174   21640737.1254
        44.9004         42.1004
   3738519.36242   2956837.16945  25138810.217    25138810.5144   25138811.6724
        34.5004         33.1004
 -21288822.88848 -16564030.80448  21113108.405    21113108.4114   21113113.7804
        54.8004         51.7004
  10926199.98153   8526838.97656  25290293.562    25290294.4524   25290302.5594
        39.2004         36.9004
  -9597445.50945  -7460432.72146  22430187.563    22430187.9484   22430190.2364
        43.7004         40.9004
 -13556239.17748 -10543495.04448  20791087.904    20791087.7314   20791092.8494
        53.8004         50.8004
   1230596.0045     964061.91954  24789291.721    24789282.8784
        30.0004         28.7004
   1979454.19544   1559012.54046  23183548.857    23183547.9704   23183550.4434
        40.9004         38.3004
 23 11  9  1 28 30.0000000  0  9G02G27G21G18G10G26G23G08G16
  -3936570.53244  -3049312.13946  22910816.221    22910816.4494   22910816.7924
        42.7004         40.2004
 -16928590.02248 -13170471.64048  20360750.494    20360750.4304   20360755.3324
        55.4004         52.5004
  -9714211.27645  -7548941.56547  21629695.802    21629695.3514   21629697.9714
        45.1004         42.3004
   3838725.40441   3034919.77845  25157875.500    25157880.4394   25157884.7504
        33.8004         32.6004
 -21291021.58648 -16565744.06448  21112688.949    21112689.2264   21112695.1304
        54.7004         51.5004
  11038162.83843   8614082.72346  25311603.928    25311602.0694   25311606.9774
        38.7004         36.4004
  -9527575.63845  -7405988.66746  22443484.023    22443483.9004   22443487.0654
        43.9004         40.9004
 -13601547.92548 -10578800.55348  20782465.495    20782465.3104   20782470.4094
        53.6004         50.6004
   2087747.39044   1643396.82446  23204156.058    23204154.7304   23204157.8294
        40.9004         38.3004
 23 11  9  1 29  0.0000000  0  9G02G27G21G18G10G26G23G08G16
  -4009460.82744  -3106109.72246  22896945.073    22896945.1704   22896946.4474
        42.7004         40.0004
 -16892777.33648 -13142565.66648  20367565.783    20367565.6394   20367569.9614
        55.4004         52.4004
  -9771910.80345  -7593902.22047  21618715.652    21618715.1324   21618718.1124
        45.3004         42.5004
   3938939.20541   3113008.46345  25176949.459    25176949.2274   25176953.2434
        33.5004         32.6004
 -21292646.61148 -16567010.30648  21112380.451    21112380.8124   21112386.2024
        54.8004         51.8004
  11150070.83343   8701283.76146  25332896.771    25332896.9584   25332902.3314
        38.7004         36.2004
  -9457267.31245  -7351202.96446  22456863.377    22456863.6534   22456865.6294
        43.9004         40.9004
 -13646478.08048 -10613811.05448  20773915.377    20773915.6264   20773920.5754
        53.6004         50.6004
   2196243.53544   1727939.23646  23224801.800    23224801.3534   23224803.9234
        40.8004         38.3004
 23 11  9  1 29 30.0000000  0  9G02G27G21G18G10G26G23G08G16
  -4082137.10044  -3162740.55046  22883116.333    22883115.2544   22883116.1584
        43.0004         40.4004
 -16856530.46748 -13114321.35748  20374462.918    20374463.2874   20374468.0464
        55.4004         52.5004
  -9829295.56445  -7638617.58747  21607795.836    21607794.9634   21607797.9254
        45.5004         42.5004
   4039159.74551   3191102.35555  25196015.111    25196019.7074   25196026.2074
        33.0004         32.0004
 -21293697.87148 -16567829.46348  21112181.343    21112181.2274   21112186.1674
        55.0004         51.8004
  11261921.95553   8788440.39755  25354179.596    25354181.0954   25354187.2864
        38.2004         35.9004
  -9386522.86745  -7296077.41446  22470325.810    22470326.1354   22470327.1004
        43.9004         40.7004
 -13691029.17948 -10648526.19248  20765437.985    20765437.6384   20765442.6934
        53.6004         50.6004
   2304939.52144   1812637.38046  23245484.683    23245484.6084   23245488.7044
        40.6004         38.1004
 23 11  9  1 30  0.0000000  0  9G02G27G21G18G10G26G23G08G16
  -4154598.75044  -3219204.12746  22869326.856    22869326.2934   22869327.7244
        43.2004         40.4004
 -16819849.77848 -13085738.99948  20381443.074    20381443.1624   20381447.6844
        55.4004         52.5004
  -9886364.82945  -7683087.11847  21596935.370    21596935.0584   21596937.4474
        45.5004         42.5004
   4139386.06751   3269200.77955  25215091.972    25215096.1304
        32.6004         32.0004
 -21294175.94448 -16568201.97948  21112089.909    21112089.8294   21112095.1454
        55.0004         51.8004
  11373713.90353   8875551.01855  25375455.167    25375454.4244   25375458.9884
        38.0004         35.9004
  -9315344.69945  -7240613.90546  22483869.824    22483869.7644   22483871.9584
        43.7004         40.6004
 -13735199.12448 -10682944.33048  20757032.517    20757032.8284   20757037.4254
        53.8004         50.8004
   2413833.75744   1897489.99246  23266207.312    23266207.6194   23266210.0814
        40.6004         38.1004
 23 11  9  1 30 30.0000000  0  9G02G27G21G18G10G26G23G08G16
  -4226845.38344  -3275500.16046  22855578.519    22855577.7654   22855578.9564
        43.0004         40.2004
 -16782735.58648 -13056818.86248  20388505.933    20388505.8134   20388510.3084
        55.4004         52.5004
  -9943118.61645  -7727310.83347  21586135.748    21586135.3014   21586137.4154
        45.5004         42.5004
   4239617.10351   3347302.86555  25234168.406    25234167.2254   25234172.4494
        32.6004         31.9004
 -21294081.01548 -16568128.00448  21112108.024    21112107.5214   21112112.9024
        55.0004         51.7004
  11485444.53243   8962613.81246  25396718.845    25396716.5144   25396722.2864
        38.3004         36.2004
  -9243735.21745  -7184814.28946  22497496.502    22497497.1214   22497499.2124
        43.6004         40.9004
 -13778986.30148 -10717064.19848  20748700.221    20748699.9494   20748705.0454
        53.8004         50.8004
   2522923.03344   1982494.58846  23286967.549    23286966.2344   23286968.9334
        40.6004         37.9004
 23 11  9  1 31  0.0000000  0  8G02G27G21G18G10G23G08G16
  -4298876.80144  -3331628.48046  22841871.325    22841870.9514   22841872.3734
        43.0004         40.4004
 -16745188.27248 -13027561.21348  20395650.506    20395650.5824   20395655.4084
        55.4004         52.5004
  -9999556.70445  -7771288.53647  21575396.175    21575395.4254   21575398.1344
        45.3004         42.5004
   4339851.8715    3425407.91655  25253238.675    25253238.2124
        30.9004         30.5004
 -21293413.48348 -16567607.84848  21112234.161    21112234.5894   21112239.7364
        54.8004         51.7004
  -9171696.78645  -7128680.44246  22511205.212    22511206.1504   22511207.1204
        43.6004         40.4004
 -13822390.18548 -10750885.40048  20740441.079    20740440.7554   20740445.8224
        54.0004         51.0004
   2632204.46743   2067648.92946  23307760.931    23307762.2944   23307764.9304
        40.4004         37.9004
 23 11  9  1 31 30.0000000  0  8G02G27G21G18G10G23G08G16
  -4370692.74444  -3387588.91846  22828205.490    22828204.8264   22828206.7624
        43.2004         40.6004
 -16707208.17748 -12997966.34248  20402878.263    20402877.9734   20402882.6724
        55.4004         52.5004
 -10055678.58845  -7815019.83347  21564716.176    21564715.3394   21564718.4384
        45.1004         42.1004
                   3503515.15455  25272313.920
                        30.7004
 -21292173.87148 -16566641.89948  21112470.971    21112470.4744   21112476.1324
        54.8004         51.7004
  -9099231.83344  -7072214.24746  22524995.598    22524994.8904   22524998.0574
        43.4004         40.6004
 -13865408.89448 -10784406.46248  20732254.546    20732254.8664   20732259.3794
        54.0004         51.0004
   2741675.96143   2152951.36946  23328594.034    23328593.4734   23328596.0464
        40.4004         37.8004
 23 11  9  1 32  0.0000000  0  8G02G27G21G18G10G23G08G16
  -4442292.49044  -3443380.88546  22814580.533    22814579.5584   22814581.5294
        43.2004         40.6004
 -16668795.68648 -12968034.54348  20410187.719    20410187.8854   20410192.5524
        55.4004         52.5004
 -10111484.46745  -7858504.91647  21554095.935    21554095.6784   21554099.1144
        45.1004         42.1004
                   3581624.17755  25291391.468
                        30.5004
 -21290362.18348 -16565230.18048  21112814.947    21112815.3814   21112820.7044
        54.8004         51.7004
  -9026342.74244  -7015417.54746  22538864.412    22538865.2564   22538867.8734
        43.4004         40.4004
 -13908040.61348 -10817625.98748  20724142.256    20724142.4754   20724146.7924
        54.1004         51.1004
   2851335.16543   2238400.07046  23349460.778    23349459.9374   23349464.1274
        40.3004         37.6004
 23 11  9  1 32 30.0000000  0  7G02G27G21G10G23G08G16
  -4513675.67544  -3499004.10846  22800996.532    22800995.8484   22800998.0804
        43.4004         40.7004
 -16629951.19948 -12937766.11748  20417579.372    20417579.4564   20417584.7064
        55.4004         52.5004
 -10166974.21445  -7901743.66347  21543537.183    21543536.2284   21543539.5664
        45.1004         42.3004
 -21287978.72348 -16563372.93448  21113269.009    21113269.0164   21113274.2824
        54.8004         51.7004
  -8953032.00044  -6958292.30446  22552816.368    22552816.4784   22552818.2244
        43.4004         40.7004
 -13950284.40848 -10850543.21548  20716103.481    20716103.2094   20716108.3264
        54.1004         51.0004
   2961178.18543   2323992.00146  23370363.196    23370363.5174   23370366.3734
        40.3004         37.6004
 23 11  9  1 33  0.0000000  0  7G02G27G21G10G23G08G16
  -4584842.19844  -3554458.51746  22787454.801    22787454.2144   22787454.8004
        43.4004         40.6004
 -16590675.06848 -12907161.33748  20425053.655    20425053.4424   20425058.1004
        55.4004         52.4004
 -10222147.32045  -7944735.68547  21533038.554    21533038.1494   21533040.0244
        45.3004         42.5004
 -21285024.07148 -16561070.60748  21113830.979    21113831.2294   21113836.2214
        54.8004         51.7004
  -8879301.96044  -6900840.30046  22566845.779    22566845.6134   22566847.9804
        43.4004         40.4004
 -13992138.62048 -10883156.87748  20708138.748    20708138.7764   20708143.7734
        54.1004         51.1004
   3071203.97243   2409726.34446  23391301.195    23391300.3084   23391303.9954
        40.3004         37.6004
 23 11  9  1 33 30.0000000  0  7G02G27G21G10G23G08G16
  -4655791.19444  -3609743.39046  22773953.005    22773951.5664   22773953.4304
        43.2004         40.6004
 -16550967.72248 -12876220.55948  20432609.679    20432609.7794   20432614.2994
        55.2004         52.5004
 -10277004.03345  -7987481.16547  21522599.783    21522599.0684   21522601.1034
        45.3004         42.6004
 -21281498.51148 -16558323.41848  21114502.273    21114502.0854   21114506.8044
        54.7004         51.5004
  -8805155.08044  -6843063.52946  22580955.732    22580956.2194   22580958.5174
        43.4004         40.7004
 -14033602.49748 -10915466.38848  20700248.383    20700248.2334   20700253.6854
        54.1004         51.1004
   3181408.76543   2495600.17346  23412272.130    23412272.5584   23412275.5844
        40.3004         37.6004
 23 11  9  1 34  0.0000000  0  7G02G27G21G10G23G08G16
  -4726522.49344  -3664858.65146  22760492.196    22760492.2834   22760494.4644
        43.2004         40.6004
 -16510829.53448 -12844944.05548  20440247.557    20440247.7494   20440252.3364
        55.4004         52.5004
 -10331543.77645  -8029979.65747  21512220.664    21512219.5884   21512223.1064
        45.5004         42.5004
 -21277402.86248 -16555131.98648  21115280.816    21115281.1464   21115286.1884
        54.7004         51.5004
  -8730593.79244  -6784963.80346  22595145.699    22595144.6404   22595146.9744
        43.4004         40.7004
 -14074673.85248 -10947470.03748  20692432.652    20692432.6354   20692437.8464
        54.1004         51.1004
   3291790.36243   2581611.78146  23433276.579    23433276.3524   23433279.9194
        40.1004         37.6004
 23 11  9  1 34 30.0000000  0  7G02G27G21G10G23G08G16
  -4797035.65344  -3719803.92346  22747074.231    22747074.0874   22747075.9344
        43.2004         40.4004
 -16470260.95948 -12813332.18048  20447967.479    20447967.4834   20447972.2184
        55.2004         52.4004
 -10385766.65045  -8072231.20947  21501902.152    21501901.8104   21501904.1444
        45.3004         42.5004
 -21272737.43048 -16551496.57248  21116169.876    21116169.2724   21116174.2814
        54.7004         51.7004
  -8655620.54044  -6726543.09646  22609410.487    22609411.4684   22609414.3034
        43.2004         40.4004
 -14115351.40048 -10979166.81548  20684691.850    20684691.8474   20684696.8994
        54.1004         51.1004
   3402346.82643   2667759.65846  23454315.591    23454314.8854   23454317.8204
        39.9004         37.3004
 23 11  9  1 35  0.0000000  0  7G02G27G21G10G23G08G16
  -4867330.23844  -3774578.88546  22733697.776    22733697.0304   22733698.7434
        43.2004         40.4004
 -16429262.40648 -12781385.26848  20455769.439    20455769.5594   20455773.8854
        55.2004         52.4004
 -10439672.43745  -8114235.69247  21491644.564    21491643.5474   21491646.5814
        45.5004         42.5004
 -21267502.62548 -16547417.49748  21117164.885    21117165.5174   21117170.4464
        54.7004         51.7004
  -8580237.78444  -6667803.26846  22623755.263    22623755.2174   22623759.6404
        43.0004         40.2004
 -14155634.33848 -11010556.11948  20677026.334    20677026.2774   20677031.7574
        54.1004         51.3004
   3513074.23643   2754040.72446  23475386.400    23475385.3054   23475388.6734
        39.9004         37.4004
 23 11  9  1 35 30.0000000  0  7G02G27G21G10G23G08G16
  -4937406.04244  -3829183.36546  22720363.485    22720362.4374   22720363.8604
        43.2004         40.6004
 -16387834.33048 -12749103.65148  20463652.679    20463652.6794   20463657.6974
        55.2004         52.4004
 -10493260.86945  -8155992.90547  21481447.057    21481446.2114   21481449.4514
        45.5004         42.6004
 -21261698.61148 -16542894.88348  21118270.772    21118270.6914   21118274.8834
        54.8004         51.8004
  -8504447.94744  -6608746.25746  22638178.082    22638178.4494   22638181.8154
        42.9004         40.2004
 -14195520.78948 -11041636.46348  20669436.295    20669436.1354   20669441.8264
        54.3004         51.3004
   3623971.56143   2840454.21246  23496488.860    23496488.7754   23496492.0844
        39.7004         37.4004
 23 11  9  1 36  0.0000000  0  7G02G27G21G10G23G08G16
  -5007262.67044  -3883617.06646  22707069.712    22707069.4294   22707070.6784
        43.2004         40.6004
 -16345977.17148 -12716487.69048  20471617.949    20471617.9254   20471622.5794
        55.2004         52.4004
 -10546531.89245  -8197502.77447  21471309.812    21471309.4494   21471311.5784
        45.5004         42.6004
 -21255326.08248 -16537929.26948  21119482.505    21119482.9364   21119487.4994
        55.0004         51.7004
  -8428253.53744  -6549373.99146  22652675.914    22652677.1504   22652681.0404
        42.7004         40.2004
 -14235009.34648 -11072406.76348  20661921.820    20661921.6304   20661927.1634
        54.1004         51.1004
   3735035.28943   2926997.34146  23517624.883    23517623.0004   23517626.7914
        39.7004         37.3004
 23 11  9  1 36 30.0000000  0  7G02G27G21G10G23G08G16
  -5076899.66444  -3937879.62246  22693818.103    22693817.3114   22693818.0794
        43.2004         40.4004
 -16303691.38148 -12683537.72748  20479664.844    20479664.7964   20479669.5054
        55.2004         52.4004
 -10599485.73445  -8238765.48947  21461233.389    21461232.6304   21461234.8294
        45.6004         42.6004
 -21248385.81348 -16532521.25448  21120803.215    21120803.4244   21120808.5644
        55.0004         51.7004
  -8351656.99144  -6489688.34846  22667251.844    22667252.5234   22667256.9094
        42.5004         39.7004
 -14274098.79748 -11102866.06448  20654483.082    20654483.1304   20654488.7144
        54.1004         51.1004
   3846262.90543   3013668.17946  23538789.964    23538789.3054   23538792.3774
        39.9004         37.4004
 23 11  9  1 37  0.0000000  0  7G02G27G21G10G23G08G16
  -5146316.59444  -3991970.69546  22680608.147    22680607.3954   22680608.3764
        43.0004         40.2004
 -16260977.43648 -12650254.14448  20487792.691    20487792.6804   20487797.5084
        55.2004         52.2004
 -10652121.51445  -8279780.34347  21451216.783    21451216.3444   21451218.9574
        45.6004         43.0004
 -21240878.42748 -16526671.34648  21122231.577    21122231.7914   21122236.4854
        54.8004         51.5004
  -8274660.79044  -6429691.30746  22681905.450    22681904.9014   22681908.4294
        42.5004         39.7004
 -14312788.36848 -11133013.77148  20647120.299    20647120.6884   20647126.4034
        54.1004         51.1004
   3957651.94143   3100464.80846  23559986.504    23559985.9104   23559989.8914
        40.1004         37.6004
 23 11  9  1 37 30.0000000  0  7G02G27G21G10G23G08G16
  -5215513.09844  -4045890.02146  22667440.836    22667439.7904   22667441.6174
        43.2004         40.4004
 -16217835.81348 -12616637.30148  20496002.681    20496002.8494   20496007.1824
        55.2004         52.4004
 -10704439.45245  -8320547.55247  21441261.112    21441259.7744   21441263.0144
        45.6004         42.8004
 -21232804.08548 -16520379.62648  21123768.814    21123768.5394   21123773.3244
        54.7004         51.7004
  -8197267.40044  -6369384.76546  22696632.939    22696633.2964   22696637.1834
        42.9004         40.2004
 -14351076.09248 -11162848.36348  20639835.432    20639834.9484   20639840.2964
        54.1004         51.3004
   4069198.97643   3187384.54046  23581213.180    23581212.6684   23581216.8714
        39.9004         37.4004
 23 11  9  1 38  0.0000000  0  7G02G27G21G10G23G08G16
  -5284488.76845  -4099637.25746  22654315.564    22654314.6804   22654316.8854
        43.6004         41.1004
 -16174267.00648 -12582687.59148  20504293.762    20504293.2924   20504297.8904
        55.2004         52.4004
 -10756439.43845  -8361066.99947  21431365.869    21431364.8474   21431367.7724
        45.6004         42.8004
 -21224163.98948 -16513647.08648  21125412.809    21125412.8924   21125417.3804
        54.8004         51.7004
  -8119479.31444  -6308770.67646  22711434.766    22711435.1694   22711438.4404
        42.9004         40.0004
 -14388960.33648 -11192368.54248  20632625.776    20632625.9574   20632631.1814
        54.3004         51.3004
   4180902.18543   3274425.98746  23602469.992    23602469.4514   23602473.0974
        40.1004         37.6004
 23 11  9  1 38 30.0000000  0  7G02G27G21G10G23G08G16
  -5353243.16345  -4153212.07446  22641232.395    22641231.2834   22641233.7124
        43.9004         41.4004
 -16130271.49048 -12548405.37748  20512665.859    20512665.4814   20512670.3944
        55.2004         52.4004
 -10808121.30245  -8401338.55947  21421531.022    21421530.6714   21421532.6424
        45.8004         43.0004
 -21214958.45148 -16506473.93048  21127164.707    21127164.4884   21127169.1204
        54.8004         51.7004
  -8041299.04744  -6247850.96446  22726312.373    22726312.5404   22726316.0484
        42.9004         40.0004
 -14426440.34748 -11221573.74548  20625494.149    20625493.8634   20625498.7634
        54.1004         51.1004
   4292759.12943   3361587.21046  23623755.558    23623755.4394   23623758.2614
        39.9004         37.4004
 23 11  9  1 39  0.0000000  0  7G02G27G21G10G23G08G16
  -5421776.14945  -4206614.35846  22628190.707    22628189.1524   22628192.2214
        44.1004         41.2004
 -16085849.78548 -12513791.06648  20521118.406    20521118.6164   20521123.0484
        55.0004         52.2004
 -10859484.91945  -8441362.12447  21411756.606    21411756.2284   21411758.5344
        45.8004         42.8004
 -21205187.97948 -16498860.57448  21129023.909    21129023.7624   21129028.7414
        54.8004         51.7004
  -7962729.01844  -6186627.57446  22741263.312    22741263.8684   22741267.5884
        42.9004         39.9004
 -14463514.64948 -11250462.81748  20618439.154    20618438.8554   20618444.0624
        54.3004         51.3004
   4404767.33743   3448866.30746  23645070.579    23645070.0544   23645072.0384
        39.7004         37.4004
 23 11  9  1 39 30.0000000  0  7G02G27G21G10G23G08G16
  -5490087.32845  -4259843.81446  22615190.676    22615190.3564   22615192.4804
        43.9004         40.9004
 -16041002.40248 -12478845.06648  20529652.983    20529652.9694   20529657.5804
        55.0004         52.4004
 -10910530.58145  -8481137.95647  21402043.238    21402042.5604   21402044.4474
        45.6004         42.6004
 -21194853.11748 -16490807.42648  21130990.381    21130990.3254   21130995.2944
        55.0004         51.7004
  -7883771.78944  -6125102.46246  22756289.064    22756289.6624   22756292.6544
        42.7004         40.0004
 -14500181.45848 -11279034.35648  20611461.417    20611461.5054   20611466.4134
        54.3004         51.3004
   4516923.42143   3536260.63146  23666412.790    23666412.2884   23666414.0794
        39.7004         37.3004
 23 11  9  1 40  0.0000000  0  7G02G27G21G10G23G08G16
  -5558176.20645  -4312900.05946  22602234.599    22602233.9224   22602234.5634
        43.7004         40.9004
 -15995729.84448 -12443567.75248  20538267.976    20538267.8814   20538272.5344
        55.0004         52.2004
 -10961257.77745  -8520665.62247  21392389.908    21392388.9724   21392392.2274
        45.6004         42.8004
 -21183954.89248 -16482315.29648  21133064.074    21133064.1374   21133069.0124
        54.8004         51.7004
  -7804429.87644  -6063277.57046  22771386.834    22771387.6834   22771389.5664
        42.7004         39.7004
 -14536440.02748 -11307287.78448  20604561.426    20604561.2444   20604566.3864
        54.3004         51.1004
   4629224.92743   3623768.26646  23687783.172    23687782.3924   23687787.0924
        39.6004         37.1004
 23 11  9  1 40 30.0000000  0  7G02G27G21G10G23G08G16
  -5626042.63845  -4365782.94846  22589319.439    22589318.6974   22589320.7624
        43.7004         41.1004
 -15950032.67948 -12407959.57548  20546963.469    20546963.5494   20546968.3714
        55.0004         52.2004
 -11011666.45945  -8559945.09147  21382798.086    21382797.0444   21382800.1914
        45.8004         43.2004
 -21172493.98048 -16473384.69948  21135245.083    21135244.8534   21135249.8894
        54.8004         51.7004
  -7724705.76644  -6001154.87346  22786558.790    22786558.8894   22786561.6084
        42.7004         40.2004
 -14572288.72048 -11335221.83148  20597739.610    20597739.6844   20597744.7374
        54.3004         51.3004
   4741669.77243   3711387.60946  23709178.558    23709179.4144   23709183.4734
        39.6004         37.3004
 23 11  9  1 41  0.0000000  0  7G02G27G21G10G23G08G16
  -5693686.26745  -4418492.23846  22576446.641    22576446.5854   22576448.5214
        43.9004         41.2004
 -15903911.45548 -12372020.96348  20555740.567    20555740.4014   20555745.1414
        55.0004         52.2004
 -11061756.46945  -8598976.24747  21373265.882    21373264.7284   21373268.3784
        46.2004         43.3004
 -21160470.92148 -16464016.07348  21137533.047    21137533.0204   21137538.2054
        54.8004         51.8004
  -7644601.95244  -5938736.33046  22801801.506    22801801.6614   22801804.6064
        42.5004         39.5004
 -14607725.93648 -11362835.24248  20590996.332    20590996.3814   20591001.3434
        54.3004         51.3004
   4854255.39343   3799116.61846  23730606.260    23730603.7304   23730607.8704
        39.4004         37.1004
 23 11  9  1 41 30.0000000  0  7G02G27G21G10G23G08G16
  -5761106.58745  -4471027.49746  22563618.164    22563616.9134   22563618.7894
        44.1004         41.2004
 -15857366.69348 -12335752.32548  20564597.780    20564597.7774   20564602.1594
        55.0004         52.2004
 -11111527.82545  -8637759.09347  21363794.041    21363793.5504   21363796.4864
        46.0004         43.0004
 -21147886.47148 -16454210.00248  21139927.444    21139927.7694   21139932.7094
        54.8004         51.7004
  -7564120.98844  -5876023.89746  22817116.929    22817117.0434   22817119.5404
        42.5004         39.9004
 -14642750.75848 -11390127.31048  20584330.976    20584330.9304   20584336.5884
        54.3004         51.3004
   4966979.22843   3886953.33446  23752054.657    23752055.1904   23752058.1924
        39.4004         36.9004
 23 11  9  1 42  0.0000000  0  7G02G27G21G10G23G08G16
  -5828303.01745  -4523388.33246  22550830.658    22550829.4644   22550832.3124
        43.9004         41.1004
 -15810398.98048 -12299154.10948  20573535.388    20573535.1864   20573539.8914
        55.0004         52.2004
 -11160980.74945  -8676293.81747  21354383.577    21354383.2134   21354386.1214
        45.8004         42.8004
 -21134741.59448 -16443967.23248  21142429.479    21142429.1984   21142434.2414
        55.0004         51.7004
  -7483265.33844  -5813019.49046  22832501.770    22832502.6164   22832505.7154
        42.2004         39.2004
 -14677361.73048 -11417096.89548  20577745.037    20577745.0214   20577750.1714
        54.3004         51.5004
   5079837.87743   3974895.13746  23773531.691    23773531.1284   23773535.4794
        39.4004         36.9004
 23 11  9  1 42 30.0000000  0  7G02G27G21G10G23G08G16
  -5895275.51845  -4575574.67546  22538085.279    22538085.6764   22538086.9644
        43.7004         41.1004
 -15763008.88048 -12262226.76448  20582553.042    20582553.4734   20582557.9394
        55.0004         52.2004
 -11210114.93445  -8714580.17947  21345034.056    21345033.4224   21345035.7984
        45.8004         43.0004
 -21121036.94848 -16433288.27948  21145036.885    21145036.8584   21145042.2404
        54.8004         51.7004
  -7402037.59644  -5749725.14146  22847960.102    22847960.4374   22847962.0314
        42.2004         39.3004
 -14711557.69448 -11443743.09648  20571237.784    20571237.8094   20571242.7064
        54.5004         51.5004
   5192829.29643   4062940.35546  23795031.308    23795031.7884   23795038.1014
        39.4004         36.7004
 23 11  9  1 43  0.0000000  0  7G02G27G21G10G23G08G16
  -5962023.66945  -4627586.18546  22525384.559    22525383.6734   22525385.0014
        43.7004         41.1004
 -15715196.98448 -12224970.74948  20591651.229    20591651.2894   20591656.0364
        54.8004         52.0004
 -11258929.82945  -8752617.73147  21335744.784    21335743.7104   21335746.7894
        46.0004         43.2004
 -21106773.36348 -16422173.79248  21147752.128    21147751.3044   21147756.0834
        54.8004         51.7004
  -7320440.19244  -5686142.74046  22863487.715    22863487.8244   22863489.3444
        42.2004         39.2004
 -14745337.18348 -11470064.78148  20564809.853    20564809.6754   20564814.7224
        54.5004         51.5004
   5305950.77543   4151086.93746  23816560.373    23816558.8364   23816563.3534
        39.2004         36.7004
 23 11  9  1 43 30.0000000  0  7G02G27G21G10G23G08G16
  -6028547.05445  -4679422.55646  22512725.207    22512724.9604   22512725.6034
        43.9004         41.1004
 -15666963.87448 -12187386.51548  20600829.497    20600829.8174   20600834.6744
        54.8004         52.0004
 -11307425.74245  -8790406.73347  21326516.049    21326515.4874   21326518.7524
        46.0004         43.0004
 -21091951.76348 -16410624.49048  21150571.627    21150572.0204   21150576.3994
        54.8004         51.7004
  -7238475.74044  -5622274.33146  22879084.167    22879085.3754   22879086.7704
        41.8004         39.2004
 -14778699.30748 -11496061.23348  20558460.885    20558461.2044   20558466.2854
        54.5004         51.5004
   5419199.75643   4239332.86746  23838109.227    23838109.2704   23838113.6464
        39.0004         36.6004
 23 11  9  1 44  0.0000000  0  7G02G27G21G10G23G08G16
  -6094845.42045  -4731083.58346  22500109.267    22500108.8084   22500109.8584
        43.9004         41.2004
 -15618310.13848 -12149474.52148  20610088.116    20610088.2424   20610092.9204
        54.7004         52.0004
 -11355602.75545  -8827947.23847  21317348.614    21317348.2194   21317350.3994
        46.0004         43.2004
 -21076572.84648 -16398640.90948  21153498.318    21153498.2854   21153502.9614
        54.8004         51.7004
  -7156146.69944  -5558121.82646  22894750.631    22894751.2434   22894753.2504
        41.8004         39.0004
 -14811642.52148 -11521731.26448  20552192.215    20552192.1134   20552197.4814
        54.5004         51.7004
   5532573.93243   4327676.35946  23859683.831    23859683.4854   23859688.2324
        39.0004         36.6004
 23 11  9  1 44 30.0000000  0  7G02G27G21G10G23G08G16
  -6160918.44345  -4782569.03746  22487536.087    22487535.7124   22487536.1364
        43.9004         40.9004
 -15569236.41948 -12111235.26348  20619426.876    20619427.1474   20619431.8544
        54.8004         52.0004
 -11403460.76845  -8865239.18947  21308240.959    21308240.4754   21308243.6014
        45.8004         43.0004
 -21060637.50248 -16386223.75348  21156530.945    21156530.8404   21156535.5924
        55.0004         51.8004
  -7073455.68844  -5493687.26446  22910487.377    22910488.0634   22910488.6414
        41.8004         39.3004
 -14844165.41348 -11547073.78148  20546003.502    20546003.4154   20546008.5724
        54.5004         51.7004
   5646070.42943   4416115.14146  23881282.267    23881281.4014   23881286.5874
        38.9004         36.4004
 23 11  9  1 45  0.0000000  0  7G02G27G21G10G23G08G16
  -6226765.72745  -4833878.58746  22475005.368    22475004.4554   22475006.2664
        43.7004         41.1004
 -15519743.30848 -12072669.20848  20628845.546    20628845.2704   20628849.9434
        54.8004         52.0004
 -11450999.45345  -8902282.30147  21299195.006    21299194.4184   21299196.9604
        46.0004         43.0004
 -21044146.63648 -16373373.71748  21159668.671    21159668.8504   21159673.8754
        55.0004         51.8004
  -6990405.16844  -5428972.58846  22926290.673    22926292.2354   22926292.1184
        42.0004         39.2004
 -14876266.88748 -11572087.91948  20539894.321    20539894.5554   20539899.9964
        54.5004         51.7004
   5759686.93843   4504647.47746  23902901.339    23902901.0124   23902907.0944
        38.9004         36.4004
 23 11  9  1 45 30.0000000  0  7G02G27G21G10G23G08G16
  -6292386.96045  -4885012.00246  22462518.363    22462517.1974   22462519.0874
        44.1004         41.4004
 -15469831.45648 -12033776.86248  20638343.568    20638343.1914   20638347.6134
        54.8004         52.0004
 -11498219.57745  -8939077.18847  21290208.935    21290208.1874   21290210.9964
        45.8004         42.8004
 -21027101.17548 -16360091.53548  21162911.923    21162912.0584   21162917.0584
        55.0004         51.8004
  -6906997.73044  -5363979.78746  22942162.810    22942163.3314   22942164.8824
        41.8004         39.0004
 -14907945.46848 -11596772.52948  20533866.658    20533866.6404   20533871.3354
        54.5004         51.7004
   5873420.84043   4593271.25846  23924544.881    23924544.1064   23924549.3374
        38.9004         36.2004
 23 11  9  1 46  0.0000000  0  7G02G27G21G10G23G08G16
  -6357782.00345  -4935969.14446  22450073.920    22450073.1544   22450075.2194
        44.2004         41.8004
 -15419501.50248 -11994558.72248  20647920.350    20647920.3394   20647925.4584
        54.8004         52.0004
 -11545120.23845  -8975623.14147  21281284.781    21281283.6174   21281286.0854
        45.8004         43.0004
 -21009502.11948 -16346377.97048  21166260.787    21166261.0744   21166266.4454
        54.8004         51.8004
  -6823235.94744  -5298710.84246  22958102.555    22958101.9494   22958104.5544
        41.5004         38.6004
 -14939200.27848 -11621126.91648  20527918.848    20527918.6714   20527924.2834
        54.5004         51.7004
   5987268.80743   4681983.94646  23946212.385    23946210.2224   23946213.3644
        38.7004         36.4004
 23 11  9  1 46 30.0000000  0  7G02G27G21G10G23G08G16
  -6422950.30545  -4986749.60746  22437673.601    22437672.4544   22437674.4504
        44.6004         41.9004
 -15368754.07948 -11955015.28048  20657577.385    20657577.4324   20657582.4134
        54.8004         52.0004
 -11591701.65645  -9011920.34447  21272419.894    21272419.2184   21272422.2324
        45.8004         42.8004
 -20991350.17848 -16332233.59648  21169715.269    21169715.0644   21169720.3204
        54.8004         51.7004
  -6739122.30144  -5233167.74246  22974106.456    22974107.4984   22974110.8874
        41.5004         38.6004
 -14970029.90048 -11645149.99948  20522052.168    20522052.1824   20522057.5894
        54.7004         51.8004
   6101229.03943   4770784.10246  23967897.017    23967896.3324   23967899.4774
        38.3004         36.0004
 23 11  9  1 47  0.0000000  0  7G02G27G21G10G23G08G16
  -6487891.61945  -5037353.18346  22425315.633    22425314.4594   22425316.4054
        44.6004         41.8004
 -15317589.84648 -11915147.05448  20667313.230    20667313.6224   20667319.0514
        54.8004         52.0004
 -11637963.89945  -9047968.82847  21263616.881    21263616.3204   21263618.3854
        45.8004         43.0004
 -20972646.55948 -16317659.33948  21173274.610    21173274.6994   21173279.8724
        54.8004         51.7004
  -6654659.41244  -5167352.48646  22990179.977    22990180.1984   22990184.1294
        41.5004         38.8004
 -15000432.70148 -11668840.48548  20516266.517    20516266.4754   20516272.0804
        54.7004         51.7004
   6215298.89843   4859669.68145  23989602.447    23989602.9554   23989606.0184
        38.0004         35.7004
 23 11  9  1 47 30.0000000  0  7G02G27G21G10G23G08G16
  -6552605.54945  -5087779.59746  22413000.536    22412999.2554   22413001.3464
        44.6004         41.8004
 -15266009.47348 -11874954.55748  20677129.496    20677129.5464   20677134.1494
        54.8004         52.0004
 -11683906.89445  -9083768.53647  21254874.212    21254872.8054   21254875.6024
        46.0004         43.0004
 -20953391.87948 -16302655.68048  21176938.825    21176938.7214   21176943.8994
        54.8004         51.8004
  -6569849.78044  -5101267.04146  23006317.660    23006318.3884   23006321.6284
        41.3004         38.6004
 -15030407.97348 -11692197.84448  20510562.733    20510562.8144   20510567.5934
        54.5004         51.7004
   6329475.71143   4948638.62545  24011328.952    24011329.6534   24011332.6724
        38.0004         35.7004
 23 11  9  1 48  0.0000000  0  7G02G27G21G10G23G08G16
  -6617091.78345  -5138028.60946  22400729.145    22400728.3844   22400729.7464
        44.6004         41.8004
 -15214013.65748 -11834438.35248  20687024.245    20687023.8634   20687028.3464
        55.0004         52.0004
 -11729530.73845  -9119319.55447  21246192.312    21246191.3444   21246194.0894
        46.0004         43.0004
 -20933587.51948 -16287223.70548  21180707.728    21180707.5684   21180712.3004
        55.0004         51.8004
  -6484695.90944  -5034913.35346  23022523.821    23022524.1884   23022526.4064
        41.3004         38.6004
 -15059954.13048 -11715220.82648  20504940.183    20504939.9434   20504945.1894
        54.5004         51.7004
   6443756.49843   5037688.56445  24033076.283    24033076.0574   24033080.2584
        38.0004         35.9004
 23 11  9  1 48 30.0000000  0  7G02G27G21G10G23G08G16
  -6681349.89345  -5188099.84146  22388501.040    22388500.4294   22388502.4524
        44.6004         41.6004
 -15161603.05248 -11793598.91748  20696997.238    20696997.5974   20697002.1324
        54.8004         52.0004
 -11774835.46745  -9154621.93447  21237571.028    21237570.4564   21237573.2514
        46.0004         43.3004
 -20913234.39548 -16271364.11548  21184580.425    21184580.3484   21184585.6654
        55.0004         51.7004
  -6399200.47444  -4968293.51646  23038793.754    23038793.3684   23038795.4004
        41.3004         38.6004
 -15089069.84448 -11737908.38748  20499399.254    20499399.1694   20499404.8204
        54.5004         51.7004
   6558139.30543   5126817.99645  24054844.133    24054842.6574   24054846.5314
        37.8004         35.5004
 23 11  9  1 49  0.0000000  0  7G02G27G21G10G23G08G16
  -6745379.90845  -5237993.32346  22376316.059    22376315.8944   22376317.5874
        44.6004         41.9004
 -15108778.37948 -11752436.84148  20707049.467    20707049.3374   20707054.5194
        54.8004         52.0004
 -11819820.72245  -9189675.36147  21229010.826    21229009.6674   21229011.8934
        46.2004         43.0004
 -20892333.56248 -16255077.75748  21188557.230    21188557.5154   21188562.7134
        54.8004         51.7004
  -6313365.92744  -4901409.44046  23055126.890    23055126.7364   23055128.9874
        41.3004         38.5004
 -15117754.30848 -11760259.91248  20493940.516    20493940.7284   20493946.3334
        54.5004         51.7004
   6672621.43643   5216024.82645  24076627.116    24076627.8024   24076630.9804
        37.8004         35.5004
 23 11  9  1 49 30.0000000  0  7G02G27G21G10G23G08G16
  -6809181.17945  -5287708.55047  22364175.684    22364175.2504   22364176.2134
        44.9004         42.1004
 -15055540.34148 -11710952.66348  20717180.205    20717180.3394   20717185.0774
        54.8004         51.8004
 -11864486.92945  -9224480.18647  21220511.158    21220510.3894   21220513.1354
        46.2004         43.3004
 -20870886.10348 -16238365.44848  21192639.062    21192639.0864   21192643.6964
        54.8004         51.5004
  -6227194.88744  -4834263.13946  23071524.229    23071524.6044   23071527.3444
        41.3004         38.6004
 -15146006.40448 -11782274.53248  20488564.393    20488564.4664   20488570.0504
        54.5004         51.8004
   6787199.76043   5305306.62045  24098432.018    24098431.9344   24098436.1814
        37.8004         35.7004
 23 11  9  1 50  0.0000000  0  7G02G27G21G10G23G08G16
  -6872753.54845  -5337245.43647  22352077.794    22352077.5574   22352079.1194
        44.9004         42.1004
 -15001889.61548 -11669146.91448  20727389.396    20727389.5704   20727394.3044
        54.8004         51.8004
 -11908833.50745  -9259035.94447  21212071.916    21212071.1244   21212073.9924
        46.3004         43.3004
 -20848892.87748 -16221227.85548  21196824.019    21196824.1084   21196828.8234
        54.8004         51.5004
  -6140689.95144  -4766856.70646  23087986.111    23087986.1914   23087987.9064
        41.3004         38.5004
 -15173824.34448 -11803950.84448  20483270.851    20483270.7404   20483276.5594
        54.7004         51.8004
   6901872.35642   5394661.86445  24120254.112    24120252.6664   24120257.6974
        37.5004         35.3004
 23 11  9  1 50 30.0000000  0  7G02G27G21G10G23G08G16
  -6936096.68545  -5386603.70646  22340024.502    22340023.5144   22340025.1174
        44.9004         41.9004
 -14947826.99348 -11627020.19648  20737676.964    20737677.2254   20737682.2474
        54.7004         51.7004
 -11952860.67645  -9293342.81047  21203693.441    21203693.3054   21203695.6534
        46.2004         43.3004
 -20826355.08048 -16203665.93348  21201113.194    21201113.0964   21201117.5944
        54.8004         51.5004
  -6053853.62844  -4699192.02046  23104509.850    23104510.7044   23104512.9164
        41.3004         38.8004
 -15201206.88148 -11825287.88648  20478060.501    20478060.5264   20478065.8264
        54.7004         51.8004
   7016636.73642   5484088.60545  24142092.554    24142092.2124   24142096.1624
        37.3004         35.3004
 23 11  9  1 51  0.0000000  0  7G02G27G21G10G23G08G16
  -6999210.20245  -5435783.04946  22328014.407    22328013.2144   22328014.6314
        44.8004         41.9004
 -14893353.11648 -11584573.03848  20748043.611    20748043.5444   20748048.3144
        54.7004         51.7004
 -11996568.96945  -9327401.19647  21195376.399    21195375.6224   21195378.7314
        46.2004         43.2004
 -20803273.79048 -16185680.50448  21205505.389    21205505.4434   21205510.0224
        54.7004         51.5004
  -5966688.48844  -4631271.14246  23121097.757    23121098.3784   23121100.1194
        41.6004         38.8004
 -15228153.45648 -11846285.21048  20472932.937    20472932.8494   20472937.9314
        54.7004         51.8004
   7131489.67842   5573584.38745  24163947.976    24163947.3984   24163952.2264
        37.1004         35.0004
 23 11  9  1 51 30.0000000  0  8G02G27G21G10G32G23G08G16
  -7062093.76045  -5484783.21446  22316047.500    22316047.2514   22316048.2994
        44.6004         41.9004
 -14838468.82348 -11541806.07048  20758487.434    20758487.3374   20758491.9104
        54.5004         51.5004
 -12039957.86645  -9361210.70347  21187119.812    21187119.3354   21187122.2124
        46.2004         43.5004
 -20779650.24848 -16167272.54348  21210000.684    21210000.4734   21210005.1914
        54.7004         51.3004
                    -32196.11353  24709933.328
                        23.4004
  -5879197.13744  -4563096.05046  23137747.080    23137747.3584   23137748.7044
        41.5004         38.5004
 -15254662.74548 -11866941.80548  20467888.661    20467888.2224   20467893.6364
        54.8004         51.8004
   7246429.49742   5663147.85145  24185821.110    24185819.5354   24185824.8384
        37.1004         35.2004
 23 11  9  1 52  0.0000000  0  7G02G27G21G10G23G08G16
  -7124747.28345  -5533604.13347  22304125.361    22304124.9454   22304126.2664
        44.9004         42.3004
 -14783174.80548 -11498719.82948  20769009.282    20769009.6194   20769014.2664
        54.5004         51.7004
 -12083027.24645  -9394771.24147  21178923.904    21178923.1414   21178925.6864
        46.3004         43.3004
 -20755485.53848 -16148442.88348  21214599.570    21214599.1204   21214603.6064
        54.7004         51.3004
  -5791381.98744  -4494668.65546  23154457.152    23154457.9954   23154459.7204
        41.1004         38.5004
 -15280733.42448 -11887256.61948  20462926.698    20462926.8644   20462932.3034
        54.8004         51.8004
   7361453.12542   5752776.64845  24207707.820    24207707.2214   24207713.2214
        37.1004         35.0004
 23 11  9  1 52 30.0000000  0  8G02G27G21G10G32G23G08G16
  -7187170.26845  -5582245.39447  22292246.991    22292246.1494   22292246.3024
        44.9004         42.1004
 -14727471.83448 -11455314.93348  20779610.201    20779609.8274   20779614.1804
        54.7004         51.7004
 -12125777.71146  -9428083.28147  21170789.327    21170788.4434   21170790.5034
        46.5004         43.5004
 -20730780.78948 -16129192.43248  21219300.114    21219299.7984   21219304.8834
        54.5004         51.3004
   -256890.37444   -167250.30146  24676945.926    24676948.6474   24676955.0334
        41.1004         39.2004
  -5703245.76844  -4425991.07346  23171229.959    23171229.3964   23171230.6254
        40.9004         38.3004
 -15306364.25248 -11907228.68448  20458049.568    20458049.6724   20458055.2904
        54.8004         52.0004
   7476557.70442   5842468.51145  24229612.603    24229612.1114   24229618.2974
        37.3004         35.0004
 23 11  9  1 53  0.0000000  0  8G02G27G21G10G32G23G08G16
  -7249362.72245  -5630707.04147  22280412.491    22280411.4374   22280412.1814
        44.9004         42.3004
 -14671360.71948 -11411591.98748  20790287.409    20790287.0874   20790292.1574
        54.7004         51.7004
 -12168209.20446  -9461146.77347  21162714.102    21162713.8904   21162716.2294
        46.5004         43.5004
 -20705537.14948 -16109522.06548  21224102.604    21224103.6984   21224108.3264
        54.5004         51.3004
   -343326.78344   -234603.31546  24660503.408    24660502.4824   24660504.4334
        41.5004         38.8004
  -5614791.00144  -4357065.27346  23188061.712    23188061.8554   23188063.4944
        41.1004         38.5004
 -15331553.86148 -11926856.94648  20453256.062    20453256.0494   20453261.7794
        54.8004         51.8004
   7591740.17642   5932221.04145  24251532.883    24251532.7284   24251535.8714
        37.1004         35.2004
 23 11  9  1 53 30.0000000  0  8G02G27G21G10G32G23G08G16
  -7311324.02945  -5678988.55447  22268621.158    22268620.7134   22268621.3504
        44.9004         42.1004
 -14614842.15848 -11367551.56148  20801042.883    20801042.5004   20801047.1354
        54.7004         51.8004
 -12210321.37946  -9493961.44847  21154700.906    21154700.4134   21154702.9714
        46.5004         43.7004
 -20679755.93948 -16089432.79548  21229009.354    21229009.4274   21229014.3234
        54.5004         51.1004
   -429610.36854   -301837.23456  24644085.977    24644080.4104   24644084.4244
        40.9004         38.3004
  -5526020.23144  -4287893.23646  23204954.580    23204955.1024   23204956.3654
        40.9004         38.3004
 -15356301.77348 -11946141.02648  20448546.642    20448546.5214   20448551.9914
        54.7004         51.7004
   7707000.01542   6022033.88345  24273465.684    24273464.2454   24273467.8744
        37.1004         35.2004
 23 11  9  1 54  0.0000000  0  8G02G27G21G10G32G23G08G16
  -7373053.83845  -5727089.68546  22256873.527    22256872.5864   22256874.6534
        44.9004         41.9004
 -14557917.03148 -11323194.33148  20811875.085    20811875.1924   20811879.6774
        54.7004         51.8004
 -12252114.53346  -9526527.51847  21146747.648    21146747.3864   21146749.2014
        46.7004         43.7004
 -20653438.30648 -16068925.54948  21234018.244    21234018.2184   21234022.5504
        54.5004         51.3004
   -515738.11944   -368949.67746  24627694.557    24627690.4704   24627696.2454
        40.9004         38.3004
  -5436936.06344  -4218476.99046  23221907.593    23221907.0594   23221909.4124
        41.1004         38.6004
 -15380606.64448 -11965079.89548  20443921.812    20443921.6344   20443927.1224
        54.7004         51.7004
   7822333.28742   6111903.92445  24295410.538    24295409.9864   24295415.8344
        36.8004         34.6004
 23 11  9  1 54 30.0000000  0  8G02G27G21G10G32G23G08G16
  -7434552.11745  -5775010.38047  22245170.726    22245169.7074   22245171.9274
        45.1004         42.3004
 -14500586.06748 -11278520.86248  20822784.813    20822784.7074   20822789.2074
        54.7004         51.7004
 -12293588.75646  -9558845.06847  21138855.531    21138854.7534   21138857.3374
        46.7004         43.9004
 -20626585.46648 -16048001.24948  21239128.404    21239128.0174   21239132.4444
        54.5004         51.1004
   -601707.06544   -435938.40746  24611329.186    24611329.9104   24611337.7494
        40.9004         38.3004
  -5347541.02244  -4148818.48746  23238918.009    23238917.7174   23238920.0814
        41.1004         38.6004
 -15404466.54548 -11983672.02148  20439381.407    20439381.0404   20439386.3294
        54.7004         51.5004
   7937737.47442   6201829.24945  24317370.276    24317370.4324   24317376.8704
        36.4004         34.5004
 23 11  9  1 55  0.0000000  0  8G02G27G21G10G32G23G08G16
  -7495818.54345  -5822750.44447  22233511.898    22233511.6184   22233513.5984
        45.5004         42.8004
 -14442850.08348 -11233531.79148  20833771.179    20833771.0004   20833776.0424
        54.7004         51.7004
 -12334743.60946  -9590913.76647  21131024.398    21131023.0704   21131025.4274
        46.7004         43.7004
 -20599198.77448 -16026660.96448  21244339.473    21244339.5444   21244343.9524
        54.5004         51.3004
   -687514.28444   -502801.17946  24594994.791    24595002.3014   24595008.5524
        41.1004         38.5004
  -5257837.65144  -4078919.76946  23255986.797    23255987.5904   23255990.9424
        41.1004         38.3004
 -15427881.47148 -12001917.41648  20434925.047    20434925.4154   20434931.1044
        54.5004         51.7004
   8053210.21742   6291807.95645  24339347.149    24339345.0564   24339349.1834
        36.6004         34.6004
 23 11  9  1 55 30.0000000  0  8G02G27G21G10G32G23G08G16
  -7556852.68645  -5870309.49647  22221897.675    22221897.0674   22221898.0404
        45.5004         42.6004
 -14384709.92948 -11188227.79148  20844835.205    20844835.3334   20844839.5974
        54.7004         51.7004
 -12375579.52746  -9622733.94847  21123253.485    21123252.5494   21123255.0764
        46.7004         43.9004
 -20571279.17848 -16004905.44148  21249652.318    21249652.5014   21249657.0424
        54.5004         51.1004
   -773156.78044   -569535.55546  24578702.871    24578706.3304   24578712.3594
        41.6004         39.0004
  -5167828.62844  -4008782.84246  23273116.203    23273116.0574   23273118.6684
        40.8004         37.9004
 -15450850.13348 -12019815.07548  20430554.712    20430554.6014   20430560.0144
        54.5004         51.7004
   8168749.31242   6381838.35645  24361333.170    24361331.6994   24361334.9384
        36.4004         34.5004
 23 11  9  1 56  0.0000000  0  8G02G27G21G10G32G23G08G16
  -7617654.26645  -5917687.31747  22210328.026    22210326.7954   22210328.6144
        45.5004         42.3004
 -14326166.41048 -11142609.47148  20855975.204    20855975.5984   20855980.1114
        54.7004         51.7004
 -12416096.44646  -9654305.55847  21115543.220    21115542.9404   21115545.2374
        46.7004         44.0004
 -20542828.11548 -15982735.77148  21255066.189    21255066.2874   21255070.7984
        54.3004         51.0004
   -858631.69944   -636139.30146  24562447.431    24562442.7454   24562446.9884
        42.2004         39.5004
  -5077516.44544  -3938409.73146  23290300.391    23290301.0904   23290303.7754
        40.6004         37.9004
 -15473370.78048 -12037363.64148  20426268.979    20426269.1574   20426274.5824
        54.5004         51.7004
   8284351.27042   6471917.77245  24383330.921    24383330.4544   24383333.8264
        36.8004         34.8004
 23 11  9  1 56 30.0000000  0  8G02G27G21G10G32G23G08G16
  -7678222.83445  -5964883.57547  22198801.975    22198801.3124   22198802.8364
        45.3004         42.6004
 -14267220.36648 -11096677.50748  20867192.504    20867192.8234   20867197.3384
        54.5004         51.7004
 -12456294.91546  -9685629.02747  21107893.562    21107892.9904   21107895.6084
        46.9004         43.9004
 -20513847.05548 -15960153.12648  21260581.216    21260581.1184   21260585.5394
        54.3004         51.0004
   -943936.03144   -702610.13546  24546212.714    24546207.4754   24546214.5834
        42.3004         39.5004
  -4986903.66244  -3867802.35246  23307544.538    23307544.1354   23307547.5044
        40.6004         38.1004
 -15495442.90948 -12054562.70248  20422069.219    20422069.0554   20422074.3474
        54.5004         51.5004
   8400014.43142   6562044.87245  24405341.532    24405340.5104   24405342.6744
        36.8004         34.8004
 23 11  9  1 57  0.0000000  0  8G02G27G21G10G32G23G08G16
  -7738558.42145  -6011898.29247  22187321.141    22187320.7254   22187321.3614
        45.6004         43.0004
 -14207872.64348 -11050432.52948  20878486.070    20878485.9844   20878490.8894
        54.5004         51.5004
 -12496174.49646  -9716704.01447  21100304.865    21100304.0364   21100306.0754
        46.9004         43.9004
 -20484337.19648 -15937158.42848  21266196.564    21266196.8254   21266201.2734
        54.3004         51.0004
  -1029066.70644   -768945.68946  24530005.727    24530008.3034   24530013.2344
        42.2004         39.3004
  -4895992.85743  -3796962.77646  23324843.103    23324844.4974   23324847.3384
        40.4004         37.6004
 -15517064.96748 -12071411.05748  20417954.852    20417954.5994   20417959.6364
        54.7004         51.7004
   8515735.52242   6652217.14245  24427362.184    24427362.2584   24427364.1064
        37.0004         35.0004
 23 11  9  1 57 30.0000000  0  8G02G27G21G10G32G23G08G16
  -7798660.50245  -6058731.07647  22175883.561    22175883.1204   22175884.2044
        45.8004         43.2004
 -14148124.08248 -11003875.22648  20889856.242    20889855.8904   20889860.3954
        54.3004         51.5004
 -12535734.92546  -9747530.31147  21092776.479    21092775.8174   21092778.5334
        46.9004         44.0004
 -20454299.98748 -15913752.80648  21271912.236    21271912.4194   21271917.3924
        54.1004         51.0004
  -1114020.88644   -835143.74146  24513840.809    24513843.3244   24513846.7534
        42.2004         39.3004
  -4804786.64443  -3725892.96246  23342198.509    23342199.5034   23342203.1334
        40.1004         37.4004
 -15538236.17948 -12087908.10648  20413925.615    20413925.7454   20413930.9004
        54.5004         51.7004
   8631512.99242   6742433.31145  24449393.020    24449393.2334   24449397.0834
        37.1004         35.0004
 23 11  9  1 58  0.0000000  0  8G02G27G21G10G32G23G08G16
  -7858529.04745  -6105381.86947  22164490.973    22164490.1504   22164491.7864
        45.8004         43.0004
 -14087975.55048 -10957006.25448  20901302.370    20901301.9394   20901306.4594
        54.3004         51.5004
 -12574976.85646  -9778108.42047  21085308.845    21085308.4214   21085311.5554
        47.0004         44.2004
 -20423736.60448 -15889937.17748  21277728.806    21277728.2574   21277733.2964
        54.1004         51.0004
  -1198795.62744   -901201.89646  24497709.196    24497709.6014   24497714.9124
        42.2004         39.5004
  -4713287.55843  -3654594.98046  23359611.304    23359611.7164   23359614.9024
        39.9004         37.6004
 -15558955.33748 -12104052.90448  20409982.741    20409982.9794   20409987.8404
        54.5004         51.5004
   8747343.79142   6832691.08545  24471435.379    24471433.9984   24471438.4214
        37.0004         34.8004
 23 11  9  1 58 30.0000000  0  8G02G27G21G10G32G23G08G16
  -7918163.67945  -6151850.38047  22153143.069    22153142.0334   22153143.4364
        45.8004         42.8004
 -14027427.91848 -10909826.29648  20912823.822    20912823.9124   20912828.0204
        54.3004         51.3004
 -12613900.31546  -9808438.36447  21077902.173    21077901.2394   21077903.9584
        47.0004         44.0004
 -20392648.50548 -15865712.68648  21283644.323    21283644.2494   21283649.1744
        54.1004         51.0004
  -1283387.98944   -967117.93946  24481613.615    24481611.0894   24481618.0164
        42.0004         39.0004
  -4621498.06743  -3583070.69046  23377077.813    23377078.2994   23377082.6564
        40.3004         37.8004
 -15579221.31348 -12119844.57948  20406126.316    20406126.4894   20406132.1864
        54.7004         51.8004
   8863225.62542   6922988.59045  24493488.076    24493488.4874   24493490.3494
        37.0004         34.8004
 23 11  9  1 59  0.0000000  0  8G02G27G21G10G32G23G08G16
  -7977564.13745  -6198136.42947  22141839.180    22141838.2654   22141840.0684
        45.8004         42.8004
 -13966482.07148 -10862336.03648  20924420.619    20924420.8234   20924426.3234
        54.3004         51.3004
 -12652505.26546  -9838520.13247  21070554.794    21070554.8684   21070557.6154
        46.9004         44.0004
 -20361037.30748 -15841080.57648  21289660.303    21289660.1444   21289664.5904
        54.1004         51.0004
  -1367794.92444  -1032889.50146  24465549.766    24465549.8574   24465555.3004
        41.8004         39.2004
  -4529420.87543  -3511322.21246  23394599.718    23394600.3594   23394603.0784
        40.3004         37.8004
 -15599033.44348 -12135282.59948  20402356.283    20402356.0704   20402361.4324
        54.5004         51.5004
   8979155.95142   7013323.86345  24515549.176    24515547.7874   24515550.4484
        36.8004         34.6004
 23 11  9  1 59 30.0000000  0  8G02G27G21G10G32G23G08G16
  -8036730.06145  -6244239.72647  22130580.295    22130579.7494   22130580.8384
        45.6004         43.0004
 -13905138.89948 -10814536.18448  20936094.284    20936094.4764   20936099.1814
        54.3004         51.3004
 -12690791.88746  -9868353.85247  21063269.551    21063269.7074   21063272.1394
        47.0004         44.2004
 -20328903.85848 -15816041.52048  21295775.064    21295774.9324   21295778.8544
        54.1004         51.0004
  -1452013.52744  -1098514.29546  24449525.572    24449524.6044   24449528.9784
        42.0004         39.5004
  -4437058.47943  -3439351.50446  23412176.553    23412175.8054   23412178.5114
        40.1004         37.4004
 -15618390.03448 -12150365.66048  20398673.182    20398672.9134   20398678.0944
        54.5004         51.7004
   9095131.53842   7103694.43345  24537617.464    24537618.0104   24537623.0314
        36.8004         34.8004
 23 11  9  2  0  0.0000000  0  8G02G27G21G10G32G23G08G16
  -8095661.37945  -6290160.20647  22119365.863    22119365.0314   22119367.0284
        45.6004         43.0004
 -13843399.29048 -10766427.40348  20947843.339    20947843.1654   20947848.1054
        54.3004         51.5004
 -12728760.42646  -9897939.71447  21056045.113    21056044.3494   21056046.9474
        47.2004         44.4004
 -20296249.75448 -15790596.76948  21301988.578    21301988.5974   21301993.1664
        54.1004         51.0004
  -1536040.89244  -1163990.09846  24433536.589    24433533.3624   24433539.3294
        42.0004         39.3004
  -4344413.49743  -3367160.60146  23429805.822    23429806.5504   23429807.2284
        39.9004         37.3004
 -15637290.36348 -12165093.19148  20395076.304    20395076.4844   20395081.6834
        54.7004         51.8004
   9211150.74642   7194098.98645  24559693.017    24559693.5624   24559700.0674
        36.8004         34.8004
 23 11  9  2  0 30.0000000  0  8G02G27G21G10G32G23G08G16
  -8154357.56045  -6335897.46547  22108196.016    22108195.4534   22108197.1204
        45.6004         42.8004
 -13781264.16848 -10718010.44048  20959667.459    20959667.8364   20959671.9504
        54.3004         51.5004
 -12766410.49746  -9927277.42847  21048880.129    21048879.5544   21048882.2354
        47.2004         44.2004
 -20263076.83748 -15764747.73948  21308301.483    21308301.3474   21308305.9884
        54.1004         51.1004
  -1619873.94944  -1229314.49546  24417580.448    24417582.0894   24417586.6174
        42.3004         39.7004
  -4251488.42843  -3294751.41546  23447487.656    23447489.5724   23447491.6514
        39.7004         37.4004
 -15655733.82148 -12179464.71648  20391566.877    20391566.8184   20391572.1084
        54.7004         51.8004
   9327210.64042   7284535.24845  24581778.823    24581780.0704   24581784.6894
        36.6004         34.6004
 23 11  9  2  1  0.0000000  0  8G02G27G21G10G32G23G08G16
  -8212818.16445  -6381451.15847  22097071.598    22097071.7314   22097071.9444
        45.8004         43.2004
 -13718734.42648 -10669285.98048  20971566.398    20971566.6084   20971571.0134
        54.3004         51.5004
 -12803742.94246  -9956367.63547  21041776.047    21041775.3394   21041777.3724
        47.2004         44.0004
 -20229386.01148 -15738495.14348  21314712.587    21314712.5674   21314717.3254
        54.3004         51.1004
  -1703509.93244  -1294485.35146  24401668.675    24401667.3024   24401671.0284
        42.9004         40.2004
  -4158285.83643  -3222126.00546  23465225.166    23465225.1904   23465226.6834
        40.1004         37.6004
 -15673719.32648 -12193479.39148  20388144.442    20388144.2454   20388149.4144
        54.7004         51.7004
   9443308.71842   7375001.25645  24603873.478    24603873.1894   24603877.2234
        36.6004         34.8004
 23 11  9  2  1 30.0000000  0  8G02G27G21G10G32G23G08G16
  -8271043.42145  -6426821.46947  22085991.402    22085990.5104   22085992.0784
        46.0004         43.0004
 -13655810.99048 -10620254.74448  20983540.317    20983539.7814   20983544.5474
        54.3004         51.3004
 -12840757.04046  -9985209.78447  21034732.956    21034732.1224   21034734.6474
        47.2004         44.2004
 -20195179.20448 -15711840.47448  21321221.418    21321221.5204   21321226.9174
        54.1004         51.1004
  -1786945.80244  -1359500.25646  24385788.754    24385788.5624   24385793.4414
        42.9004         40.0004
  -4064808.31243  -3149286.37246  23483012.273    23483013.3314   23483015.8944
        40.1004         37.6004
 -15691245.18848 -12207135.90948  20384809.275    20384809.2144   20384814.4084
        54.7004         51.8004
   9559442.60642   7465495.16445  24625974.633    24625973.9454   24625974.7924
        36.6004         34.6004
 23 11  9  2  2  0.0000000  0  8G02G27G21G10G32G23G08G16
  -8329032.65445  -6472007.86047  22074957.094    22074956.4784   22074957.3594
        46.0004         43.2004
 -13592494.81048 -10570917.47048  20995587.780    20995588.5884   20995593.4624
        54.3004         51.3004
 -12877452.88646 -10013803.92847  21027749.836    21027749.1004   21027751.2504
        47.2004         44.2004
 -20160457.31848 -15684784.45748  21327828.837    21327828.9314   21327834.3384
        54.1004         51.1004
  -1870178.56544  -1424356.94146  24369947.537    24369950.5674   24369955.0174
        42.9004         40.0004
  -3971058.35843  -3076234.44246  23500853.743    23500853.2954   23500855.9534
        40.1004         37.8004
 -15708310.91848 -12220433.88048  20381561.880    20381561.7184   20381567.1274
        54.7004         51.8004
   9675609.94242   7556015.13145  24648076.856    24648079.1544   24648081.3034
        36.6004         34.5004
 23 11  9  2  2 30.0000000  0  8G02G27G21G10G32G23G08G16
  -8386785.89945  -6517010.37647  22063966.556    22063966.0794   22063967.4264
        46.2004         43.3004
 -13528786.82948 -10521274.90048  21007711.896    21007712.0444   21007716.4134
        54.1004         51.3004
 -12913830.86846 -10042150.39647  21020827.081    21020826.6194   21020828.8974
        47.2004         44.2004
 -20125222.40848 -15657328.67948  21334534.115    21334534.2184   21334539.1574
        54.3004         51.1004
  -1953205.37144  -1489053.10046  24354153.982    24354151.7994   24354155.2204
        42.9004         40.0004
  -3877038.59343  -3002972.28246  23518743.744    23518744.5714   23518748.5074
        40.3004         37.8004
 -15724914.97548 -12233372.10348  20378402.044    20378402.0304   20378407.5074
        54.7004         51.7004
   9791808.22042   7646559.24645  24670186.189    24670187.9394   24670194.3224
        36.1004         34.0004
 23 11  9  2  3  0.0000000  0  8G02G27G21G10G32G23G08G16
  -8444302.62845  -6561828.58647  22053022.474    22053021.5204   22053021.7734
        46.3004         43.7004
 -13464687.96248 -10471327.74548  21019909.310    21019909.5904   21019914.3634
        54.3004         51.3004
 -12949891.29246 -10070249.42847  21013964.579    21013964.2854   21013966.8354
        47.2004         44.4004
 -20089475.47748 -15629473.92548  21341336.788    21341336.4764   21341341.1484
        54.3004         51.0004
  -2036023.26844  -1553586.44646  24338393.836    24338389.4844   24338395.5394
        42.5004         39.5004
  -3782751.53343  -2929501.83146  23536687.623    23536687.0184   23536690.0964
        40.4004         37.9004
 -15741056.96148 -12245950.27448  20375330.220    20375330.2684   20375335.5194
        54.7004         51.7004
   9908034.31242   7737125.04545  24692307.414    24692306.4754   24692313.2704
        35.7004         33.8004
 23 11  9  2  3 30.0000000  0  8G02G27G21G10G32G23G08G16
  -8501582.87246  -6606462.52747  22042121.992    22042121.7234   22042122.2294
        46.5004         43.7004
 -13400199.21648 -10421076.79348  21032181.643    21032181.4934   21032186.2514
        54.3004         51.3004
 -12985634.39646 -10098101.19047  21007163.142    21007162.1864   21007165.2074
        47.2004         44.2004
 -20053218.40848 -15601221.66148  21348236.111    21348235.8854   21348240.4974
        54.1004         51.0004
  -2118629.24444  -1617954.69446  24322670.021    24322669.8654   24322676.1174
        42.5004         39.7004
  -3688199.74744  -2855825.11246  23554680.125    23554680.4174   23554683.9874
        40.6004         38.1004
 -15756736.25948 -12258167.91348  20372346.184    20372346.2694   20372351.8794
        54.5004         51.5004
  10024286.23442   7827710.93345  24714432.200    24714429.3854   24714436.7904
        35.4004         33.8004
 23 11  9  2  4  0.0000000  0  8G02G27G21G10G32G23G08G16
  -8558626.21846  -6650911.88347  22031267.089    22031266.4824   22031266.4304
        46.5004         43.3004
 -13335321.55048 -10370522.78148  21044526.506    21044527.0054   21044531.7604
        54.3004         51.3004
 -13021059.93046 -10125705.47947  21000421.590    21000420.9264   21000424.2194
        47.2004         44.4004
 -20016452.48548 -15572572.88848  21355231.782    21355232.0844   21355236.8314
        54.1004         51.0004
  -2201020.34244  -1682155.52846  24306990.869    24306993.3544   24306997.5454
        42.7004         40.0004
  -3593385.76144  -2781944.08746  23572722.120    23572722.7654   23572724.8774
        40.6004         37.9004
 -15771951.04948 -12270023.58748  20369451.356    20369451.2614   20369456.5054
        54.5004         51.7004
  10140561.89842   7918315.31945  24736560.838    24736559.0194   24736561.1094
        35.2004         33.4004
 23 11  9  2  4 30.0000000  0  8G02G27G21G10G32G23G08G16
  -8615432.31246  -6695176.34147  22020456.592    22020455.9264   22020456.7344
        46.5004         43.5004
 -13270055.90548 -10319666.43948  21056947.282    21056947.1494   21056951.6674
        54.3004         51.3004
 -13056168.33146 -10153062.66347  20993740.776    20993740.2084   20993743.0944
        47.2004         44.2004
 -19979179.51548 -15543529.01848  21362324.425    21362324.6524   21362329.9654
        54.0004         51.0004
  -2283193.71644  -1746186.68646  24291358.343    24291356.1814   24291360.3484
        42.9004         40.2004
  -3498312.11343  -2707860.72146  23590814.008    23590814.4384   23590817.6164
        40.3004         37.6004
 -15786700.73048 -12281516.85248  20366644.662    20366644.3964   20366649.7194
        54.5004         51.7004
  10256857.95842   8008935.60345  24758688.688    24758687.4104   24758688.7724
        34.5004         32.9004
 23 11  9  2  5  0.0000000  0  8G02G27G21G10G32G23G08G16
  -8672000.81546  -6739255.67247  22009692.087    22009691.4714   22009692.8104
        46.5004         43.7004
 -13204403.32248 -10268508.59848  21069439.820    21069440.0724   21069444.8354
        54.3004         51.3004
 -13090959.04046 -10180172.29647  20987120.242    20987119.6954   20987122.3384
        47.2004         44.4004
 -19941400.86048 -15514091.09448  21369513.625    21369513.8414   21369518.5774
        54.0004         50.8004
  -2365146.37844  -1810045.87046  24275762.847    24275761.3294   24275765.8684
        43.0004         40.4004
  -3402981.37743  -2633577.02146  23608954.542    23608954.2754   23608956.7054
        40.1004         37.6004
 -15800984.14348 -12292646.78648  20363926.766    20363926.7804   20363931.9324
        54.7004         51.8004
  10373172.31951   8099570.17655  24780812.441    24780817.9324   24780821.9194
        34.0004         32.6004
 23 11  9  2  5 30.0000000  0  8G02G27G21G10G32G23G08G16
  -8728331.64546  -6783149.81347  21998973.002    21998972.1344   21998973.4844
        46.7004         43.9004
 -13138364.74248 -10217049.97848  21082007.136    21082007.0164   21082012.2254
        54.3004         51.3004
 -13125432.63246 -10207034.82947  20980560.235    20980559.9234   20980562.6274
        47.4004         44.4004
 -19903118.35648 -15484260.56248  21376799.063    21376798.5704   21376803.8514
        54.0004         50.8004
  -2446875.39244  -1873730.79246  24260207.807    24260208.9204   24260213.4084
        43.4004         40.6004
  -3307396.04043  -2559094.90646  23627143.883    23627143.9094   23627147.8964
        40.3004         37.8004
 -15814800.75148 -12303412.97048  20361297.496    20361297.3774   20361302.6094
        54.7004         51.7004
  10489503.10451   8190217.56555  24802953.035    24802955.4564   24802958.4744
        33.8004         32.7004
 23 11  9  2  6  0.0000000  0  8G02G27G21G10G32G23G08G16
  -8784424.60446  -6826858.60047  21988298.852    21988298.7634   21988299.3044
        46.7004         43.9004
 -13071941.19548 -10165291.38348  21094646.803    21094647.1794   21094652.0474
        54.1004         51.1004
 -13159589.45446 -10233650.51247  20974060.237    20974060.0874   20974062.6664
        47.4004         44.4004
 -19864332.92048 -15454038.15348  21384180.269    21384180.0334   21384184.7054
        54.0004         51.0004
  -2528377.82345  -1937239.17046  24244695.200    24244699.6084   24244704.1084
        43.6004         40.7004
  -3211558.70043  -2484416.48746  23645381.733    23645381.6484   23645384.5994
        40.3004         37.6004
 -15828149.62748 -12313814.69248  20358756.943    20358756.9904   20358762.5764
        54.7004         51.8004
  10605847.33041   8280875.36945  24825100.527    24825096.6864   24825098.5224
        33.7004         32.6004
 23 11  9  2  6 30.0000000  0  8G02G27G21G10G32G23G08G16
  -8840279.42346  -6870381.80547  21977669.621    21977668.9064   21977670.1914
        46.7004         43.9004
 -13005133.70948 -10113233.61348  21107359.962    21107360.1154   21107364.6624
        54.1004         51.1004
 -13193429.33646 -10260019.25447  20967621.065    20967620.5384   20967622.7134
        47.4004         44.4004
 -19825046.76848 -15423425.56948  21391655.608    21391655.6804   21391660.4794
        54.1004         51.0004
  -2609650.80144  -2000568.74446  24229234.924    24229233.8594   24229236.4914
        43.4004         40.4004
  -3115471.86943  -2409543.60646  23663665.622    23663666.4214   23663670.1464
        40.3004         37.8004
 -15841029.84748 -12323851.22248  20356305.619    20356305.9444   20356311.3044
        54.7004         51.7004
  10722202.09641   8371541.37845  24847244.455    24847241.9304   24847239.9774
        33.5004         32.4004
 23 11  9  2  7  0.0000000  0  8G02G27G21G10G32G23G08G16
  -8895895.67646  -6913719.12447  21967086.171    21967085.8754   21967087.3084
        46.7004         44.0004
 -12937943.28148 -10060877.45148  21120145.784    21120145.8444   21120150.9884
        54.1004         51.0004
 -13226952.66146 -10286141.31547  20961241.817    20961241.0444   20961243.8464
        47.4004         44.4004
 -19785261.52148 -15392424.06548  21399226.586    21399226.4274   21399231.1694
        54.1004         51.0004
  -2690691.36644  -2063717.18346  24213811.683    24213811.1754   24213814.9734
        43.0004         40.2004
  -3019138.15443  -2334478.37646  23681996.895    23681997.6914   23682000.2344
        40.4004         37.8004
 -15853440.68248 -12333522.01348  20353944.247    20353943.9744   20353949.6444
        54.7004         51.7004
  10838565.51741   8462214.14545  24869388.099    24869384.0814   24869388.0414
        33.5004         32.6004
 23 11  9  2  7 30.0000000  0  8G02G27G21G10G32G23G08G16
  -8951273.17346  -6956870.39247  21956548.043    21956547.5474   21956549.4124
        46.9004         43.9004
 -12870370.94948 -10008223.69348  21133004.259    21133004.2324   21133009.6104
        54.0004         50.8004
 -13260159.68646 -10312016.91147  20954922.995    20954922.3254   20954924.6324
        47.4004         44.5004
 -19744978.37348 -15361034.58648  21406891.914    21406892.0534   21406896.9784
        54.0004         51.0004
  -2771496.56044  -2126682.25446  24198431.336    24198434.6524   24198438.3384
        42.9004         39.9004
  -2922559.98244  -2259222.63046  23700375.425    23700375.9824   23700379.0944
        40.6004         38.1004
 -15865380.73948 -12342825.94548  20351672.326    20351672.2484   20351677.7294
        54.7004         51.8004
  10954934.77551   8552891.46655  24891521.957    24891522.7994   24891534.1374
        33.8004         32.7004
 23 11  9  2  8  0.0000000  0  8G02G27G21G10G32G23G08G16
  -9006411.69646  -6999835.45647  21946055.456    21946054.8454   21946056.2754
        46.9004         43.9004
 -12802417.63348  -9955273.07448  21145935.275    21145935.1744   21145940.8654
        53.8004         50.8004
 -13293050.23946 -10337645.90447  20948663.833    20948663.4764   20948665.6894
        47.4004         44.5004
 -19704199.46848 -15329258.82348  21414651.155    21414651.9324   21414657.1274
        54.0004         50.8004
  -2852063.53144  -2189461.68646  24183102.200    24183103.1944   24183107.6134
        42.7004         40.0004
  -2825739.86744  -2183778.42746  23718800.069    23718800.9024   23718803.8014
        40.6004         38.1004
 -15876849.37548 -12351762.55248  20349489.905    20349489.9874   20349495.0684
        54.8004         51.8004
  11071308.05451   8643572.03755  24913666.250    24913670.8854   24913679.8624
        33.8004         32.7004
 23 11  9  2  8 30.0000000  0  9G02G27G21G14G10G32G23G08G16
  -9061310.93646  -7042614.07647  21935608.396    21935607.7554   21935609.4184
        46.7004         43.7004
 -12734084.59548  -9902026.56548  21158939.082    21158938.5334   21158943.4124
        53.6004         50.6004
 -13325624.36946 -10363028.31947  20942465.311    20942464.4894   20942467.4034
        47.5004         44.7004
                   -141954.25855  24547708.498                    24547713.0204
                        34.6004
 -19662925.98048 -15297097.66148  21422505.613    21422505.8114   21422510.9744
        54.0004         50.8004
  -2932389.37544  -2252053.18946  24167818.054    24167816.7674   24167822.4114
        43.0004         40.4004
  -2728680.43043  -2108147.66946  23737268.667    23737269.5224   23737272.7484
        40.1004         37.3004
 -15887846.07348 -12360331.41448  20347397.416    20347397.4284   20347402.7684
        54.8004         52.0004
  11187682.60151   8734253.46155  24935818.447    24935813.3654   24935822.5734
        34.0004         32.7004
 23 11  9  2  9  0.0000000  0  9G02G27G21G14G10G32G23G08G16
  -9115970.88046  -7085206.22747  21925207.110    21925206.4134   21925207.4264
        46.5004         43.7004
 -12665372.77348  -9848484.90448  21172014.565    21172013.9724   21172018.9494
        53.6004         50.5004
 -13357882.23246 -10388164.30547  20936326.461    20936326.1164   20936328.7854
        47.5004         44.5004
   -305250.60642   -209956.56445  24531100.864    24531103.4524   24531106.4434
        37.0004         35.5004
 -19621159.94148 -15264552.69148  21430453.811    21430453.7284   21430458.4944
        53.8004         50.8004
  -3012471.08844  -2314454.47846  24152579.456    24152578.7374   24152583.4214
        43.4004         40.7004
  -2631384.11843  -2032332.36646  23755783.775    23755784.3394   23755787.2514
        39.9004         37.3004
 -15898369.47448 -12368531.45948  20345394.997    20345394.8454   20345400.3504
        54.8004         52.0004
  11304055.64341   8824933.69945  24957968.577    24957967.0664   24957965.6974
        34.3004         32.9004
 23 11  9  2  9 30.0000000  0  9G02G27G21G14G10G32G23G08G16
  -9170391.03446  -7127611.52947  21914851.325    21914850.8344   21914851.9014
        46.5004         43.7004
 -12596283.27648  -9794648.95148  21185162.079    21185161.3814   21185166.3184
        53.6004         50.5004
 -13389824.21346 -10413054.15147  20930248.794    20930247.6104   20930250.5134
        47.7004         44.9004
   -392183.58342   -277696.39645  24514559.676    24514561.2754   24514564.3094
        37.5004         35.2004
 -19578903.17548 -15231625.33748  21438495.025    21438495.2024   21438500.2184
        54.1004         51.0004
  -3092305.73745  -2376663.25946  24137383.238    24137385.6094   24137392.2434
        43.6004         40.9004
  -2533853.46543  -1956334.45246  23774345.089    23774345.1624   23774346.9334
        39.9004         37.4004
 -15908419.12848 -12376362.36048  20343482.193    20343482.4194   20343487.6814
        54.8004         52.0004
  11420424.75741   8915610.85545  24980111.265    24980109.6044   24980108.0974
        34.3004         32.9004
 23 11  9  2 10  0.0000000  0  9G02G27G21G14G10G32G23G08G16
  -9224571.04246  -7169829.69947  21904541.185    21904540.5204   21904542.2814
        46.5004         43.7004
 -12526817.12648  -9740519.50648  21198380.468    21198380.2484   21198385.5604
        53.6004         50.6004
 -13421450.63746 -10437698.11847  20924230.250    20924229.6334   20924232.0734
        47.7004         44.9004
   -478777.17652   -345171.84755  24498080.150    24498081.5554   24498082.5594
        36.8004         34.5004
 -19536156.92248 -15198316.57548  21446629.670    21446629.6064   21446634.3004
        54.0004         51.0004
  -3171890.51745  -2438677.33546  24122239.874    24122241.7344   24122247.5714
        43.7004         41.1004
  -2436091.04343  -1880155.92646  23792947.772    23792949.0964   23792951.5034
        39.9004         37.3004
 -15917993.71648 -12383823.07948  20341660.649    20341660.3544   20341665.8064
        54.8004         52.0004
  11536787.81751   9006283.38455  25002247.494    25002249.5594   25002249.9684
        34.0004         32.7004
 23 11  9  2 10 30.0000000  0  9G02G27G21G14G10G32G23G08G16
  -9278510.89646  -7211860.73647  21894277.099    21894276.1744   21894277.4454
        46.5004         43.7004
 -12456975.41048  -9686097.40948  21211670.814    21211671.0794   21211676.3294
        53.6004         50.6004
 -13452761.32546 -10462096.04647  20918271.951    20918271.3594   20918273.7694
        47.7004         44.7004
   -565028.91042   -412380.91345  24481668.201    24481665.3204   24481669.1544
        35.6004         33.3004
 -19492923.03248 -15164627.81548  21454856.115    21454856.1214   21454861.4994
        54.0004         50.8004
  -3251222.50545  -2500494.43946  24107144.902    24107145.5034   24107149.9674
        43.9004         40.9004
  -2338099.25443  -1803798.68846  23811595.550    23811595.5944   23811598.4144
        39.7004         37.4004
 -15927092.36748 -12390912.93548  20339928.903    20339928.8644   20339934.3404
        54.8004         52.0004
  11653142.34051   9096949.27355  25024381.124    25024387.8264   25024395.0744
        33.7004         32.4004
 23 11  9  2 11  0.0000000  0  9G02G27G21G14G10G32G23G08G16
  -9332210.32046  -7253704.42547  21884057.983    21884057.2744   21884059.3204
        46.7004         43.9004
 -12386759.22048  -9631383.50848  21225032.079    21225032.6044   21225037.6694
        53.6004         50.6004
 -13483756.59046 -10486248.18947  20912373.599    20912372.8454   20912375.5524
        47.7004         44.7004
   -650936.09542   -479321.50145  24465320.066    24465319.2054   24465324.9034
        35.6004         33.8004
 -19449203.24248 -15130560.44948  21463175.391    21463175.7254   21463180.6994
        53.8004         50.6004
  -3330298.86145  -2562112.33546  24092100.179    24092097.8484   24092101.2294
        43.7004         40.9004
  -2239880.70743  -1727264.74946  23830285.270    23830285.3714   23830289.1764
        40.1004         37.6004
 -15935714.59048 -12397631.55048  20338288.022    20338288.1074   20338293.4854
        54.8004         52.0004
  11769485.59451   9187606.33855  25046527.457    25046525.6374   25046532.1344
        33.5004         32.2004
 23 11  9  2 11 30.0000000  0  9G02G27G21G14G10G32G23G08G16
  -9385669.05046  -7295360.56247  21873885.281    21873884.8574   21873885.4834
        46.7004         43.7004
 -12316169.65848  -9576378.66548  21238465.499    21238465.8444   21238469.8944
        53.5004         50.5004
 -13514436.25746 -10510154.41247  20906534.909    20906534.6794   20906537.0474
        47.5004         44.7004
   -736496.21642   -545991.62045  24449039.277    24449038.7144   24449042.7974
        35.9004         34.1004
 -19404999.25248 -15096115.77048  21471587.622    21471587.8494   21471592.5604
        53.8004         50.8004
  -3409116.52645  -2623528.67446  24077096.032    24077098.9104   24077103.0464
        43.7004         40.9004
  -2141437.85743  -1650556.04346  23849019.234    23849018.8024   23849021.7214
        40.1004         37.4004
 -15943859.70248 -12403978.39648  20336738.292    20336738.1054   20336743.5244
        54.8004         52.0004
  11885815.73541   9278253.17245  25068671.470    25068670.3574   25068669.7484
        33.7004         32.6004
 23 11  9  2 12  0.0000000  0  9G02G27G21G14G10G32G23G08G16
  -9438886.76946  -7336828.90947  21863758.469    21863757.3114   21863758.5994
        46.7004         43.9004
 -12245207.84648  -9521083.75148  21251968.418    21251968.6734   21251973.7064
        53.3004         50.3004
 -13544801.38246 -10533815.54147  20900756.816    20900756.3064   20900759.1794
        47.5004         44.7004
   -821706.69342   -612389.34445  24432824.272    24432824.1934   24432826.3924
        36.8004         35.0004
 -19360313.17848 -15061295.45648  21480091.655    21480091.3194   21480095.8354
        53.8004         50.6004
  -3487672.74845  -2684741.31746  24062149.652    24062150.2774   24062154.4024
        43.7004         40.7004
  -2042773.20643  -1573674.49946  23867793.238    23867793.9514   23867795.8944
        39.7004         37.1004
 -15951527.00148 -12409952.92048  20335279.101    20335279.3234   20335284.2014
        54.8004         52.0004
  12002129.69341   9368887.38145  25090809.790    25090803.6274   25090807.8084
        33.8004         32.9004
 23 11  9  2 12 30.0000000  0  9G02G27G21G14G10G32G23G08G16
  -9491863.15046  -7378109.17247  21853677.305    21853676.4634   21853677.8214
        46.9004         43.9004
 -12173874.85648  -9465499.61848  21265543.454    21265543.4644   21265548.1544
        53.5004         50.5004
 -13574851.30246 -10557231.04247  20895038.584    20895038.2164   20895040.5234
        47.7004         44.5004
   -906565.03642   -678512.58245  24416674.931    24416674.6544   24416678.1104
        36.6004         34.6004
 -19315146.52348 -15026100.65848  21488686.437    21488686.6144   21488690.8354
        53.8004         50.6004
  -3565964.67645  -2745747.92946  24047253.039    24047250.8454   24047257.1654
        43.9004         41.1004
  -1943889.22943  -1496622.03446  23886611.398    23886611.0954   23886611.7584
        39.2004         36.6004
 -15958715.70848 -12415554.50648  20333911.350    20333911.4464   20333916.3984
        55.0004         52.0004
  12118425.74741   9459507.65445  25112934.816    25112934.2034   25112934.1784
        33.8004         32.6004
 23 11  9  2 13  0.0000000  0  9G02G27G21G14G10G32G23G08G16
  -9544598.13346  -7419201.35747  21843642.291    21843641.4964   21843642.2364
        46.9004         44.0004
 -12102171.85748  -9409627.16348  21279188.679    21279188.2404   21279192.6074
        53.5004         50.5004
 -13604586.19746 -10580401.08447  20889380.841    20889380.0774   20889382.2484
        47.7004         44.9004
   -991068.64442   -744359.52145  24400595.366    24400595.6194   24400598.0724
        36.6004         34.6004
 -19269500.78048 -14990532.54348  21497372.661    21497372.5114   21497376.6674
        53.8004         50.5004
  -3643989.21245  -2806546.27146  24032400.032    24032403.8064   24032408.5464
        43.9004         40.9004
  -1844788.47043  -1419400.67946  23905469.558    23905469.2234   23905471.2394
        39.0004         36.6004
 -15965424.80548 -12420782.37648  20332634.821    20332634.5094   20332639.7284
        54.8004         52.0004
  12234700.94141   9550111.72445  25135056.052    25135056.0984   25135060.5374
        33.8004         32.7004
 23 11  9  2 13 30.0000000  0  9G02G27G21G14G10G32G23G08G16
  -9597091.40446  -7460105.19147  21833653.034    21833651.9454   21833652.9774
        46.9004         43.9004
 -12030099.92048  -9353467.22948  21292902.812    21292902.8604   21292907.3154
        53.3004         50.3004
 -13634006.82646 -10603326.24247  20883782.127    20883781.4864   20883783.3164
        47.9004         44.9004
  -1075214.94642   -809928.04445  24384581.953    24384583.2094   24384586.2594
        36.8004         34.8004
 -19223377.89548 -14954592.63048  21506149.043    21506149.3064   21506154.0904
        54.0004         50.8004
  -3721743.70545  -2867134.14646  24017609.362    24017608.7124   24017612.5574
        44.1004         41.4004
  -1745473.44743  -1342012.34946  23924367.401    23924368.3004   23924370.0514
        38.9004         36.4004
 -15971653.46048 -12425635.86648  20331449.092    20331449.2874   20331454.3714
        54.8004         52.0004
  12350952.81441   9640697.63145  25157180.376    25157176.5494   25157185.6934
        34.0004         32.9004
 23 11  9  2 14  0.0000000  0  9G02G27G21G14G10G32G23G08G16
  -9649342.69246  -7500820.46247  21823709.337    21823709.1284   21823709.6264
        46.9004         43.9004
 -11957660.23448  -9297020.73848  21306688.155    21306687.6544   21306692.6694
        53.3004         50.3004
 -13663112.70846 -10626006.14447  20878243.490    20878242.8904   20878245.4144
        47.9004         44.9004
  -1159001.39242   -875216.03745  24368639.605    24368637.2744   24368640.9704
        36.8004         34.6004
 -19176779.74748 -14918282.38348  21515016.345    21515016.4154   21515021.6454
        54.0004         51.0004
  -3799225.17245  -2927509.28546  24002864.134    24002864.7874   24002868.4304
        44.4004         41.8004
  -1645946.54043  -1264458.90846  23943308.947    23943308.8554   23943310.5754
        39.0004         36.7004
 -15977401.13848 -12430114.58448  20330355.399    20330355.3264   20330360.3934
        54.8004         52.0004
  12467179.28751   9731263.68155  25179293.310    25179295.7524   25179298.0614
        33.8004         32.7004
 23 11  9  2 14 30.0000000  0  9G02G27G21G14G10G32G23G08G16
  -9701351.78546  -7541347.00647  21813812.740    21813812.0244   21813813.0174
        46.9004         44.0004
 -11884853.94748  -9240288.59548  21320541.656    21320542.0654   21320547.4224
        53.1004         50.1004
 -13691904.52746 -10648441.32447  20872764.255    20872763.7964   20872766.1824
        47.9004         44.9004
  -1242425.44642   -940221.73945  24352762.767    24352763.8354   24352767.2104
        36.6004         34.8004
 -19129707.86548 -14881602.99048  21523973.803    21523973.6614   21523979.0434
        54.0004         51.0004
  -3876430.72245  -2987669.42746  23988171.450    23988172.4684   23988177.4804
        44.8004         41.9004
  -1546210.21743  -1186742.35446  23962288.136    23962287.9174   23962289.0644
        39.0004         36.7004
 -15982667.00148 -12434217.85148  20329352.840    20329353.1404   20329358.5274
        54.8004         51.8004
  12583377.14551   9821807.46055  25201405.439    25201408.3174   25201410.6544
        33.8004         32.7004
 23 11  9  2 15  0.0000000  0  9G02G27G21G14G10G32G23G08G16
  -9753118.55746  -7581684.73447  21803962.069    21803961.3254   21803961.7924
        46.9004         43.9004
 -11811682.13848  -9183271.62848  21334467.473    21334466.3254   21334471.3134
        52.9004         49.9004
 -13720382.03846 -10670631.59047  20867345.213    20867344.8914   20867347.0964
        47.7004         44.9004
  -1325484.63542  -1004943.17345  24336958.969    24336958.9494   24336961.8494
        37.1004         35.3004
 -19082164.55848 -14844556.25948  21533020.824    21533021.2204   21533026.2414
        54.0004         50.8004
  -3953357.61745  -3047612.44347  23973535.537    23973534.3594   23973538.2864
        44.9004         42.1004
  -1446267.08943  -1108864.58146  23981304.599    23981304.5894   23981306.3534
        38.7004         36.2004
 -15987450.76448 -12437945.46348  20328442.818    20328442.8844   20328448.3934
        54.8004         52.0004
  12699545.30441   9912328.09845  25223514.598    25223513.6634   25223519.5894
        34.3004         33.1004
 23 11  9  2 15 30.0000000  0  9G02G27G21G14G10G32G23G08G16
  -9804642.71846  -7621833.42047  21794156.904    21794156.4014   21794157.4974
        46.7004         43.9004
 -11738146.05548  -9125970.79848  21348458.312    21348459.4544   21348464.4504
        52.9004         49.9004
 -13748545.96546 -10692577.49247  20861985.853    20861985.1884   20861987.7334
        47.7004         44.7004
  -1408176.41442  -1069378.23745  24321221.487    24321220.9094   24321224.1744
        37.1004         34.8004
 -19034151.45348 -14807143.45048  21542157.908    21542157.8684   21542162.7434
        54.0004         50.8004
  -4030002.86445  -3107335.99747  23958946.950    23958949.1424   23958953.1704
        44.9004         42.1004
  -1346119.49443  -1030827.49446  24000364.434    24000363.7134   24000364.5684
        38.7004         36.4004
 -15991751.46948 -12441296.66448  20327624.621    20327624.5704   20327630.1254
        54.8004         52.0004
  12815681.01842  10002823.46945  25245617.762    25245616.3384   25245616.6764
        34.7004         33.3004
 23 11  9  2 16  0.0000000  0  9G02G27G21G14G10G32G23G08G16
  -9855923.82846  -7661792.70847  21784398.691    21784397.6584   21784398.7764
        46.7004         43.9004
 -11664246.80948  -9068387.00948  21362522.503    21362522.8054   21362527.0264
        52.8004         49.9004
 -13776396.35446 -10714279.08447  20856686.367    20856685.6494   20856687.8174
        47.7004         44.9004
  -1490498.14642  -1133524.97145  24305556.829    24305557.9584   24305558.6244
        36.3004         34.5004
 -18985670.08948 -14769365.76448  21551383.887    21551383.8254   21551388.0524
        53.8004         50.6004
  -4106363.70445  -3166837.92446  23944418.653    23944418.0694   23944422.3604
        44.9004         41.9004
  -1245769.95843   -952633.04546  24019458.858    24019458.3104   24019461.7024
        38.9004         36.4004
 -15995568.38948 -12444270.88648  20326898.557    20326898.3444   20326903.6914
        55.0004         52.2004
  12931781.69942  10093291.50945  25267709.236    25267707.0004   25267715.0044
        34.5004         33.3004
 23 11  9  2 16 30.0000000  0  9G02G27G21G14G10G32G23G08G16
  -9906961.97746  -7701562.68747  21774686.589    21774685.9754   21774686.7324
        46.9004         43.9004
 -11589985.62148  -9010521.15848  21376653.018    21376653.4244   21376658.8404
        52.9004         50.1004
 -13803933.08946 -10735736.26847  20851445.837    20851445.6694   20851447.7124
        47.7004         44.7004
  -1572447.45242  -1197381.54445  24289963.061    24289963.3664   24289963.7064
        36.4004         34.6004
 -18936722.64348 -14731224.89448  21560698.383    21560697.8494   21560702.4794
        53.8004         50.6004
  -4182437.15645  -3226115.90246  23929943.077    23929940.9374   23929946.2184
        44.9004         41.9004
  -1145220.91643   -874283.15846  24038593.360    24038592.8204   24038596.6874
        38.9004         36.6004
 -15998900.92248 -12446867.66648  20326264.342    20326264.0464   20326269.6844
        55.0004         52.2004
  13047844.72042  10183730.23545  25289794.637    25289793.3434   25289794.4024
        34.7004         33.4004
 23 11  9  2 17  0.0000000  0  9G02G27G21G14G10G32G23G08G16
  -9957756.51346  -7741142.82147  21765020.591    21765019.8474   21765020.9734
        46.7004         43.7004
 -11515363.61848  -8952374.15548  21390854.360    21390854.1344   21390859.4204
        52.9004         50.3004
 -13831156.43246 -10756949.25147  20846265.790    20846265.0104   20846267.1074
        47.5004         44.7004
  -1654021.70142  -1260945.82045  24274437.956    24274439.6284   24274441.4354
        36.4004         34.5004
 -18887310.75848 -14692722.12948  21570100.081    21570100.7024   21570105.6924
        53.8004         50.6004
  -4258220.46245  -3285167.82546  23915516.876    23915519.9854   23915523.8834
        44.8004         41.9004
  -1044474.93243   -795779.81746  24057763.033    24057762.7964   24057766.3814
        38.7004         36.2004
 -16001748.02448 -12449086.18448  20325722.466    20325722.6324   20325728.0684
        55.0004         52.4004
  13163867.65642  10274137.71945  25311874.514    25311875.7304   25311875.0444
        34.9004         33.4004
 23 11  9  2 17 30.0000000  0  9G02G27G21G14G10G32G23G08G16
 -10008307.06346  -7780532.84447  21755401.445    21755400.4594   21755401.5474
        46.9004         44.0004
 -11440382.02248  -8893946.95248  21405121.717    21405122.5454   21405127.3024
        53.1004         50.3004
 -13858066.64146 -10777918.24047  20841144.785    20841144.0234   20841146.0954
        47.5004         44.7004
  -1735218.52342  -1324216.00145  24258987.076    24258987.9554   24258990.2224
        36.4004         34.6004
 -18837436.51748 -14653859.07448  21579591.775    21579591.1394   21579596.3554
        53.8004         50.6004
  -4333710.84945  -3343991.47247  23901154.907    23901154.9604   23901159.0974
        44.9004         42.1004
   -943534.40743   -717124.83046  24076970.770    24076971.6524   24076975.4284
        38.7004         36.4004
 -16004109.55748 -12450926.34648  20325273.130    20325273.3434   20325278.7164
        55.2004         52.4004
  13279848.87642  10364512.69845  25333944.522    25333943.7484   25333945.1414
        34.9004         33.4004
 23 11  9  2 18  0.0000000  0  9G02G27G21G14G10G32G23G08G16
 -10058614.07146  -7819733.09647  21745827.314    21745827.2564   21745828.7104
        46.9004         44.0004
 -11365042.04848  -8835240.49448  21419459.406    21419459.4104   21419464.3094
        53.1004         50.1004
 -13884664.18546 -10798643.59647  20836083.277    20836082.6084   20836085.1614
        47.7004         44.9004
  -1816035.30342  -1387190.08345  24243609.405    24243608.7284   24243609.0164
        36.6004         34.6004
 -18787101.75348 -14614637.18348  21589169.293    21589169.4614   21589174.4474
        53.8004         50.6004
  -4408905.42945  -3402584.59147  23886845.647    23886845.5324   23886850.6194
        45.1004         42.3004
   -842401.67043   -638320.12146  24096217.761    24096217.4084   24096220.6284
        38.9004         36.6004
 -16005984.75748 -12452387.54148  20324915.961    20324916.2024   20324921.7644
        55.0004         52.2004
  13395785.52042  10454852.92845  25356006.959    25356007.1294   25356010.0824
        34.9004         33.6004
 23 11  9  2 18 30.0000000  0  9G02G27G21G14G10G32G23G08G16
 -10108677.10746  -7858743.23447  21736301.704    21736301.0294   21736302.2284
        46.9004         44.0004
 -11289344.90248  -8776255.72148  21433863.092    21433863.5714   21433869.2784
        52.9004         50.1004
 -13910948.99946 -10819125.25647  20831081.619    20831081.1354   20831083.1894
        47.7004         44.9004
  -1896469.57942  -1449866.07845  24228302.624    24228300.8614   24228305.7854
        36.6004         34.8004
 -18736308.23548 -14575057.81648  21598835.387    21598835.3864   21598840.2544
        53.6004         50.5004
  -4483801.35045  -3460945.04647  23872594.474    23872593.9274   23872598.5964
        45.3004         42.5004
   -741079.24243   -559367.60746  24115499.260    24115498.6194   24115502.0064
        38.9004         36.6004
 -16007372.98148 -12453469.27348  20324652.216    20324652.2364   20324657.4164
        55.0004         52.2004
  13511674.85642  10545156.33445  25378056.148    25378057.9704   25378063.2084
        35.2004         33.8004
 23 11  9  2 19  0.0000000  0  9G02G27G21G14G10G32G23G08G16
 -10158495.80846  -7897562.99547  21726821.333    21726820.8164   21726821.6404
        46.9004         44.0004
 -11213291.76248  -8716993.55548  21448336.075    21448336.3394   21448341.0564
        52.8004         49.9004
 -13936921.51746 -10839363.57147  20826138.928    20826138.4874   20826140.5484
        47.7004         44.7004
  -1976519.01642  -1512242.23645  24213067.751    24213069.7764   24213073.2044
        36.3004         34.3004
 -18685057.69848 -14535122.33248  21608588.480    21608588.3974   21608593.0604
        53.6004         50.5004
  -4558395.82245  -3519070.55347  23858399.301    23858399.3644   23858403.2854
        45.6004         42.8004
   -639569.59843   -480269.20046  24134813.910    24134815.0244   24134816.8364
        38.7004         36.4004
 -16008273.21648 -12454170.75148  20324480.910    20324480.8164   20324486.2844
        55.0004         52.2004
  13627514.77342  10635421.25245  25400099.018    25400099.0464   25400105.5774
        35.2004         33.6004
 23 11  9  2 19 30.0000000  0  9G02G27G21G14G10G32G23G08G16
 -10208069.88246  -7936192.13247  21717387.808    21717387.2624   21717387.7164
        46.9004         43.9004
 -11136883.90748  -8657454.99048  21462876.151    21462876.1174   21462880.8904
        52.8004         49.9004
 -13962581.49446 -10859358.35347  20821256.332    20821255.7964   20821257.9364
        47.7004         44.7004
  -2056180.95642  -1574316.40545  24197911.195    24197911.9594   24197912.0484
        36.6004         34.6004
 -18633352.41348 -14494832.49948  21618428.089    21618427.7414   21618432.4964
        53.8004         50.6004
  -4632686.04045  -3576959.00247  23844260.279    23844262.0964   23844265.0924
        45.6004         42.6004
   -537875.13443   -401026.75646  24154166.124    24154165.9634   24154169.7634
        38.5004         36.0004
 -16008685.23148 -12454491.80348  20324402.310    20324402.4274   20324407.7124
        55.0004         52.2004
  13743303.31242  10725646.07245  25422136.438    25422136.3464   25422138.9694
        35.4004         34.0004
 23 11  9  2 20  0.0000000  0  9G02G27G21G14G10G32G23G08G16
 -10257399.00446  -7974630.39847  21708000.643    21708000.3964   21708000.8674
        46.9004         44.0004
 -11060122.53448  -8597640.94748  21477483.480    21477483.4754   21477488.7204
        52.8004         49.9004
 -13987929.18246 -10879109.78847  20816432.832    20816432.2354   20816434.6814
        47.7004         44.9004
  -2135452.90842  -1636086.66945  24182825.561    24182823.2064   24182827.9644
        37.0004         34.6004
 -18581194.20148 -14454189.73448  21628353.470    21628353.0234   21628357.8184
        53.8004         50.6004
  -4706669.19345  -3634608.18047  23830183.139    23830182.6664   23830187.1334
        45.6004         42.6004
   -435998.24243   -321642.20845  24173551.955    24173552.5114   24173555.9514
        38.3004         35.9004
 -16008608.65948 -12454432.14448  20324417.083    20324417.0534   20324422.3544
        55.0004         52.2004
  13859037.95042  10815828.88945  25444163.174    25444158.9094   25444161.0964
        35.6004         33.6004
 23 11  9  2 20 30.0000000  0  9G02G27G21G14G10G32G23G08G16
 -10306483.06046  -8012877.70447  21698660.474    21698659.8224   21698659.9354
        46.9004         44.0004
 -10983008.89748  -8537552.41848  21492157.992    21492157.7874   21492162.8034
        52.8004         49.9004
 -14012965.60946 -10898618.67247  20811668.405    20811667.5104   20811670.1264
        47.7004         44.9004
  -2214332.44742  -1697551.15945  24167814.931    24167814.7694   24167817.3224
        36.8004         34.8004
 -18528584.93348 -14413195.51248  21638363.814    21638363.9744   21638368.5014
        53.8004         50.5004
  -4780342.45145  -3692015.87547  23816163.964    23816163.1064   23816168.9724
        45.6004         42.8004
   -333941.44043   -242117.44045  24192973.690    24192972.7004   24192975.5294
        38.2004         35.9004
 -16008042.75548 -12453991.17448  20324524.775    20324524.6454   20324530.0524
        55.0004         52.2004
  13974716.21742  10905967.76345  25466176.164    25466174.3014   25466173.4204
        35.4004         34.0004
 23 11  9  2 21  0.0000000  0  9G02G27G21G14G10G32G23G08G16
 -10355321.84046  -8050933.88847  21689366.543    21689365.8864   21689366.7384
        47.0004         44.2004
 -10905544.22448  -8477190.36348  21506898.513    21506898.8064   21506903.9714
        52.9004         49.9004
 -14037690.00146 -10917884.42647  20806963.442    20806962.7924   20806965.3774
        47.7004         44.9004
  -2292817.27842  -1758708.16845  24152880.616    24152880.6264   24152882.4494
        37.1004         35.2004
 -18475526.45848 -14371851.23248  21648460.783    21648460.9044   21648465.4214
        53.6004         50.6004
  -4853703.05845  -3749179.93047  23802201.678    23802201.9834   23802208.3194
        45.6004         42.6004
   -231707.04043   -162454.31345  24212428.254    24212426.9614   24212431.3664
        38.2004         35.7004
 -16006987.00948 -12453168.52148  20324725.870    20324725.8084   20324730.8184
        55.0004         52.2004
  14090335.47642  10996060.71545  25488174.175    25488173.4904   25488178.3214
        35.4004         33.8004
 23 11  9  2 21 30.0000000  0  9G02G27G21G14G10G32G23G08G16
 -10403915.08046  -8088798.73247  21680119.784    21680119.0804   21680119.1254
        47.0004         44.2004
 -10827729.78648  -8416555.75548  21521706.922    21521706.2914   21521711.8104
        52.9004         50.1004
 -14062103.21946 -10936907.68947  20802317.823    20802316.8934   20802319.6444
        47.7004         44.7004
  -2370904.75343  -1819555.48345  24138020.394    24138020.8494   24138022.6894
        37.6004         35.5004
 -18422020.76048 -14330158.47548  21658642.909    21658642.4534   21658647.6644
        53.8004         50.6004
  -4926748.20445  -3806098.18847  23788301.504    23788303.2814   23788307.6844
        45.6004         43.0004
   -129297.57243    -82654.75545  24231916.631    24231916.6824   24231919.0314
        38.0004         35.7004
 -16005441.05448 -12451963.88948  20325019.948    20325019.7934   20325024.9204
        55.0004         52.0004
  14205894.35842  11086106.63645  25510161.551    25510161.7834   25510165.4114
        35.4004         33.8004
 23 11  9  2 22  0.0000000  0  9G02G27G21G14G10G32G23G08G16
 -10452262.92946  -8126472.37547  21670919.636    21670918.5914   21670919.0204
        47.0004         44.4004
 -10749566.83748  -8355649.57648  21536579.985    21536580.1874   21536585.3354
        52.9004         49.9004
 -14086205.29546 -10955688.53447  20797730.979    20797730.4144   20797732.5984
        47.7004         44.7004
  -2448592.59743  -1880091.42945  24123236.803    24123237.6644   24123239.4814
        37.8004         35.7004
 -18368069.92248 -14288118.86048  21668908.444    21668908.4374   21668914.1254
        53.6004         50.5004
  -4999475.11545  -3862768.47347  23774463.316    23774462.4444   23774468.3814
        46.0004         43.0004
    -26715.34943     -2720.55245  24251436.870    24251437.2674   24251439.2814
        37.8004         35.5004
 -16003403.59348 -12450376.25648  20325407.321    20325407.4444   20325412.7364
        55.0004         52.0004
  14321389.83152  11176103.12855  25532134.713    25532139.3744   25532143.7864
        35.2004         33.4004
 23 11  9  2 22 30.0000000  0  9G02G27G21G14G10G32G23G08G16
 -10500364.52846  -8163954.12347  21661765.974    21661765.0884   21661766.1674
        47.2004         44.4004
 -10671056.62748  -8294472.80548  21551520.458    21551520.3924   21551525.1574
        52.8004         49.8004
 -14109996.40146 -10974227.03447  20793204.148    20793203.5614   20793205.8664
        47.7004         44.9004
  -2525878.26243  -1940313.98245  24108529.452    24108530.1564   24108531.8894
        37.6004         35.5004
 -18313675.80048 -14245733.82848  21679259.787    21679259.9634   21679264.5744
        53.6004         50.5004
  -5071880.98645  -3919188.60047  23760682.548    23760684.2804   23760690.5634
        46.0004         43.2004
     76037.25043     77346.40345  24270989.950    24270989.2224   24270992.3104
        37.6004         35.5004
 -16000874.96148 -12448405.89448  20325888.802    20325888.8384   20325893.9944
        55.0004         52.2004
  14436819.67042  11266048.48945  25554106.477    25554106.9614   25554111.2744
        35.0004         33.4004
 23 11  9  2 23  0.0000000  0  9G02G27G21G14G10G32G23G08G16
 -10548219.89946  -8201244.00447  21652659.103    21652658.6574   21652659.6454
        47.4004         44.5004
 -10592200.45548  -8233026.44548  21566525.967    21566526.0254   21566530.9624
        52.8004         49.6004
 -14133476.71446 -10992523.37247  20788735.602    20788735.2784   20788737.4394
        47.9004         45.1004
  -2602759.39343  -2000221.32145  24093899.767    24093899.6184   24093903.6154
        38.0004         35.7004
 -18258840.32348 -14203004.88048  21689694.554    21689694.5284   21689699.6704
        53.6004         50.5004
  -5143963.09545  -3975356.43547  23746969.858    23746968.4454   23746973.6044
        46.3004         43.5004
    178957.73642    157544.13845  24290574.492    24290574.7984   24290576.5584
        37.3004         35.2004
 -15997853.78048 -12446051.72848  20326463.715    20326463.4084   20326468.7324
        55.0004         52.0004
  14552181.80342  11355941.02645  25576065.086    25576060.3264   25576061.5334
        35.0004         33.6004
 23 11  9  2 23 30.0000000  0  9G02G27G21G14G10G32G23G08G16
 -10595828.96446  -8238341.96347  21643599.278    21643598.3734   21643599.5374
        47.4004         44.4004
 -10512999.62948  -8171311.52748  21581597.144    21581597.5394   21581602.0284
        52.6004         49.6004
 -14156646.68746 -11010577.88647  20784326.950    20784326.1874   20784328.2024
        47.9004         44.9004
  -2679233.51643  -2059811.54046  24079346.560    24079347.3944   24079350.7694
        38.2004         36.4004
 -18203565.62948 -14159933.71148  21700212.518    21700213.1414   21700218.0654
        53.5004         50.3004
  -5215718.68645  -4031269.85847  23733312.223    23733312.8564   23733319.1204
        46.3004         43.7004
    282043.78443    237870.92345  24310193.233    24310192.4694   24310194.2214
        37.6004         35.7004
 -15994340.21748 -12443313.88748  20327132.037    20327132.0284   20327137.5504
        55.0004         52.2004
  14667473.55842  11445778.75945  25598006.252    25598002.5344   25598001.0194
        35.0004         33.6004
 23 11  9  2 24  0.0000000  0  9G02G27G21G14G10G32G23G08G16
 -10643191.38646  -8275247.74647  21634587.165    21634585.9944   21634586.6604
        47.4004         44.4004
 -10433455.41748  -8109329.04748  21596733.440    21596734.4814   21596739.3464
        52.6004         49.6004
 -14179505.88646 -11028390.24747  20779977.186    20779976.6634   20779978.2574
        47.9004         44.9004
  -2755298.20043  -2119082.67946  24064872.869    24064873.6584   24064874.7804
        38.9004         36.7004
 -18147853.50948 -14116521.66748  21710814.785    21710814.7164   21710819.7144
        53.5004         50.1004
  -5287144.98346  -4086926.67247  23719721.583    23719720.8484   23719726.2644
        46.7004         43.7004
    385293.01343    318324.83445  24329839.653    24329840.6594   24329842.1754
        37.8004         35.5004
 -15990333.90748 -12440192.09148  20327894.640    20327894.6034   20327899.8874
        55.0004         52.2004
  14782692.07942  11535559.41645  25619926.504    25619926.6964   25619927.9374
        34.9004         33.4004
 23 11  9  2 24 30.0000000  0  9G02G27G21G14G10G32G23G08G16
 -10690306.51946  -8311960.81347  21625620.544    21625620.3514   21625621.1604
        47.2004         44.4004
 -10353569.09448  -8047079.97348  21611935.678    21611935.8544   21611941.3394
        52.6004         49.6004
 -14202055.31046 -11045961.21947  20775686.167    20775685.0514   20775687.2014
        47.9004         45.1004
  -2830951.14243  -2178032.96946  24050475.031    24050475.6894   24050478.9584
        39.0004         36.6004
 -18091706.19148 -14072770.50448  21721499.241    21721498.8734   21721503.5354
        53.3004         49.9004
  -5358239.23046  -4142324.74547  23706193.028    23706192.4424   23706197.1134
        47.0004         44.0004
    488703.06143    398904.05445  24349516.988    24349518.3914   24349519.5214
        37.8004         35.7004
 -15985833.70548 -12436685.44148  20328750.671    20328750.7814   20328756.2144
        55.0004         52.2004
  14897836.49942  11625282.37445  25641832.773    25641832.3284   25641839.4624
        34.7004         33.4004
 23 11  9  2 25  0.0000000  0  9G02G27G21G14G10G32G23G08G16
 -10737174.56846  -8348481.35847  21616701.899    21616701.5834   21616702.1384
        47.2004         44.4004
 -10273342.01048  -7984565.37748  21627202.765    21627202.6014   21627207.7874
        52.6004         49.6004
 -14224295.08946 -11063290.91947  20771453.324    20771452.9904   20771455.4714
        47.9004         44.9004
  -2906189.87343  -2236660.58246  24036159.471    24036159.5204   24036161.7114
        39.0004         36.6004
 -18035125.42048 -14028681.60248  21732266.185    21732266.3284   21732270.8754
        53.3004         50.1004
  -5428998.71546  -4197461.98247  23692726.289    23692727.2334   23692732.6514
        47.2004         44.2004
    592271.51443    479606.70245  24369226.926    24369227.4794   24369226.8334
        37.6004         35.3004
 -15980839.70048 -12432794.01548  20329701.351    20329701.4774   20329706.4464
        55.0004         52.2004
  15012904.12242  11714945.50545  25663731.572    25663731.8654   25663736.6344
        34.7004         33.3004
 23 11  9  2 25 30.0000000  0  9G02G27G21G14G10G32G23G08G16
 -10783795.26146  -8384809.15047  21607830.421    21607829.6814   21607830.7354
        47.2004         44.4004
 -10192775.44948  -7921786.26348  21642534.457    21642534.1604   21642539.0324
        52.6004         49.6004
 -14246224.83446 -11080379.01547  20767280.875    20767280.0274   20767282.7454
        47.9004         45.1004
  -2981012.07643  -2294963.54346  24021920.896    24021921.9264   24021922.6904
        39.2004         36.9004
 -17978113.25248 -13984256.53448  21743115.991    21743115.6074   21743120.1044
        53.3004         50.1004
  -5499420.73046  -4252336.24347  23679325.584    23679326.0174   23679331.6054
        47.2004         44.4004
    695996.02242    560430.91145  24388965.672    24388966.2634   24388962.7054
        37.3004         35.2004
 -15975351.43248 -12428517.43348  20330745.888    20330745.5874   20330750.8774
        55.0004         52.0004
  15127891.80642  11804546.23645  25685616.237    25685614.1834   25685616.8264
        34.9004         33.4004
