     3.00           OBSERVATION DATA    M: Mixed            RINEX VERSION / TYPE
RTKCONV demo5 b34f.1                    20240213 161235 UTC PGM / RUN BY / DATE 
format: u-blox UBX                                          COMMENT             
log: C:\Users\oo\Desktop\divers\verniquet\Reseau\temp\log_gnCOMMENT             
                                                            MARKER NAME         
                                                            MARKER NUMBER       
                                                            MARKER TYPE         
                                                            OBSERVER / AGENCY   
                                                            REC # / TYPE / VERS 
                                                            ANT # / TYPE        
  4201744.5560   178971.7190  4779260.2721                  APPROX POSITION XYZ 
        0.0000        0.0000        0.0000                  ANTENNA: DELTA H/E/N
G    4 C1C L1C D1C S1C                                      SYS / # / OBS TYPES 
E    4 C1X L1X D1X S1X                                      SYS / # / OBS TYPES 
  2024    02    13    08    29   36.0000000     GPS         TIME OF FIRST OBS   
  2024    02    13    09    15   11.0000000     GPS         TIME OF LAST OBS    
                                                            END OF HEADER       
> 2024 02 13 08 29 36.0000000  0 15                     
G13  21835858.350   114748190.9611      -2752.834          46.000  
G14  23567674.611   123849023.1421      -3032.409          39.000  
G15  20463842.344   107538224.7221      -1555.338          46.000  
G19  23070732.310   121237510.9491       2627.761          42.000  
G22  22333102.191   117361359.8671      -2326.904          46.000  
G24  20394365.829   107173146.7241       1428.533          46.000  
E07  24778436.651   130211543.9291      -2000.299          45.000  
G10  23928088.040   125742948.8081       2028.815          43.000  
G17  22854332.343   120100328.8061        534.678          43.000  
G23  22448885.171   117969591.2293       -310.556          33.000  
E14  25868860.500   135941768.5241       4460.875          41.000  
E30  24466831.621   128574119.1931      -1465.317          45.000  
E20  28406733.912   149278335.5701       1900.190          38.000  
E27  23717080.677   124634089.6361       1393.873          45.000  
G12  23588371.337   123957712.4291       3944.548          36.000  
> 2024 02 13 08 29 37.0000000  0 15                     
G13  21836382.764   114750948.547       -2760.206          46.000  
G14  23568252.361   123852060.026       -3039.140          40.000  
G15  20464138.937   107539784.589       -1562.345          46.000  
G19  23070232.972   121234887.773        2620.884          43.000  
G22  22333545.523   117363691.209       -2333.807          46.000  
G24  20394094.531   107171722.871        1421.351          46.000  
E07  24778818.340   130213548.731       -2007.129          45.000  
G10  23927702.783   125740924.754        2021.387          43.000  
G17  22854231.498   120099798.659         527.274          42.000  
G23  22448944.048   117969906.6732       -318.218          33.000  
E14  25868012.280   135937312.136        4454.168          41.000  
E30  24467111.191   128575589.079       -1472.173          45.000  
E20  28406372.849   149276440.384        1892.476          38.000  
E27  23716816.280   124632700.571        1386.769          45.000  
G12  23587621.388   123953771.998        3937.667          36.000  
> 2024 02 13 08 29 38.0000000  0 15                     
G13  21836907.204   114753706.490       -2754.194          47.000  
G14  23568829.903   123855097.162       -3033.011          40.000  
G15  20464435.757   107541345.039       -1556.410          47.000  
G19  23069733.459   121232265.061        2626.550          43.000  
G22  22333988.933   117366022.932       -2327.678          47.000  
G24  20393823.285   107170299.477        1427.217          46.000  
E07  24779199.880   130215553.838       -2001.304          46.000  
G10  23927317.796   125738901.269        2027.173          43.000  
G17  22854130.400   120099269.101         533.390          43.000  
G23  22449005.089   117970222.7652       -312.408          34.000  
E14  25867163.964   135932855.936        4459.856          41.000  
E30  24467390.516   128577059.312       -1466.524          45.000  
E20  28406012.276   149274545.414        1898.929          38.000  
E27  23716551.525   124631311.919        1392.387          46.000  
G12  23586871.744   123949831.793        3944.216          36.000  
> 2024 02 13 08 29 39.0000000  0 15                     
G13  21837430.205   114756454.652       -2749.917          47.000  
G14  23569405.734   123858124.420       -3029.204          40.000  
G15  20464730.386   107542896.012       -1552.896          47.000  
G19  23069232.551   121229632.675        2630.290          43.000  
G22  22334430.764   117368344.894       -2323.757          47.000  
G24  20393550.241   107168866.393        1431.143          46.000  
E07  24779579.728   130217549.119       -1997.061          46.000  
G10  23926931.003   125736868.203        2031.262          44.000  
G17  22854027.322   120098730.056         536.781          43.000  
G23  22449063.696   117970529.4782       -309.306          35.000  
E14  25866313.929   135928389.753        4464.601          41.000  
E30  24467668.132   128578519.727       -1462.249          45.000  
E20  28405650.053   149272640.641        1902.803          38.000  
E27  23716284.869   124629913.539        1396.577          46.000  
G12  23586120.268   123945881.704        3948.195          37.000  
> 2024 02 13 08 29 40.0000000  0 15                     
G13  21837952.690   114759202.170       -2753.550          47.000  
G14  23569981.137   123861150.861       -3032.515          40.000  
G15  20465025.251   107544446.562       -1556.918          47.000  
G19  23068731.153   121226999.673        2626.544          43.000  
G22  22334872.446   117370666.192       -2327.236          47.000  
G24  20393277.311   107167432.742        1427.482          46.000  
E07  24779959.349   130219543.637       -2000.255          46.000  
G10  23926544.019   125734834.733        2027.453          44.000  
G17  22853924.199   120098190.607         533.060          43.000  
G23  22449122.145   117970835.7812       -312.248          35.000  
E14  25865464.269   135923922.672        4461.684          41.000  
E30  24467945.643   128579979.415       -1465.442          45.000  
E20  28405286.634   149270735.148        1899.377          38.000  
E27  23716018.858   124628514.501        1393.324          46.000  
G12  23585368.713   123941930.799        3944.502          37.000  
> 2024 02 13 08 29 41.0000000  0 15                     
G13  21838476.398   114761954.498       -2752.212          46.000  
G14  23570557.369   123864181.977       -3030.970          40.000  
G15  20465321.259   107546002.177       -1555.893          47.000  
G19  23068230.812   121224371.586        2627.769          43.000  
G22  22335314.722   117372992.308       -2326.235          46.000  
G24  20393004.791   107166004.008        1428.765          46.000  
E07  24780340.444   130221542.945       -1999.459          46.000  
G10  23926158.002   125732806.263        2028.265          44.000  
G17  22853822.613   120097656.248         534.150          43.000  
G23  22449181.999   117971147.2972       -311.258          35.000  
E14  25864615.028   135919460.210        4462.770          41.000  
E30  24468224.410   128581443.901       -1464.402          45.000  
E20  28404924.307   149268834.363        1901.182          38.000  
E27  23715753.876   124627120.355        1394.117          46.000  
G12  23584617.970   123937984.525        3946.219          37.000  
> 2024 02 13 08 29 42.0000000  0 15                     
G13  21838999.520   114764704.337       -2749.270          46.000  
G14  23571133.471   123867210.498       -3028.078          40.000  
G15  20465616.622   107547555.536       -1553.153          47.000  
G19  23067730.244   121221741.101        2630.683          44.000  
G22  22335756.396   117375315.902       -2323.020          46.000  
G24  20392732.315   107164572.868        1431.368          47.000  
E07  24780720.230   130223539.674       -1996.337          46.000  
G10  23925771.602   125730775.502        2031.079          44.000  
G17  22853720.599   120097119.647         536.414          43.000  
G23  22449241.566   117971456.6482       -309.126          36.000  
E14  25863765.726   135914995.073        4465.849          41.000  
E30  24468502.653   128582905.854       -1461.364          45.000  
E20  28404562.320   149266931.076        1903.521          38.000  
E27  23715487.542   124625723.734        1396.970          46.000  
G12  23583866.633   123934035.635        3949.763          37.000  
> 2024 02 13 08 29 43.0000000  0 15                     
G13  21839522.643   114767454.489       -2749.888          46.000  
G14  23571710.218   123870239.190       -3028.451          40.000  
G15  20465912.664   107549109.479       -1553.583          47.000  
G19  23067229.859   121219111.014        2630.264          44.000  
G22  22336198.497   117377639.871       -2323.671          46.000  
G24  20392459.899   107163142.157        1431.011          46.000  
E07  24781100.043   130225536.659       -1996.678          46.000  
G10  23925384.940   125728745.306        2030.676          44.000  
G17  22853618.498   120096583.639         536.304          43.000  
G23  22449301.237   117971766.1261       -310.077          36.000  
E14  25862915.953   135910530.047        4465.672          41.000  
E30  24468780.967   128584368.099       -1461.971          45.000  
E20  28404200.166   149265028.031        1903.375          38.000  
E27  23715222.063   124624327.499        1396.561          46.000  
G12  23583115.645   123930086.928        3949.482          37.000  
> 2024 02 13 08 29 44.0000000  0 15                     
G13  21840046.211   114770205.268       -2750.767          47.000  
G14  23572286.302   123873268.365       -3028.844          39.000  
G15  20466208.350   107550664.297       -1554.977          47.000  
G19  23066729.605   121216481.612        2629.368          44.000  
G22  22336640.633   117379964.430       -2324.487          46.000  
G24  20392187.580   107161712.181        1429.942          45.000  
E07  24781480.266   130227534.204       -1997.677          45.000  
G10  23924999.500   125726715.936        2029.272          44.000  
G17  22853516.859   120096048.498         535.141          43.000  
G23  22449360.969   117972077.051        -311.161          36.000  
E14  25862066.677   135906065.460        4464.554          41.000  
E30  24469059.534   128585830.923       -1462.667          45.000  
E20  28403838.057   149263125.507        1902.549          38.000  
E27  23714956.628   124622931.899        1395.454          45.000  
G12  23582364.815   123926138.725        3948.182          37.000  
> 2024 02 13 08 29 45.0000000  0 15                     
G13  21840569.735   114772956.551       -2752.168          46.000  
G14  23572862.456   123876297.929       -3029.969          39.000  
G15  20466504.672   107552219.854       -1556.438          47.000  
G19  23066229.726   121213852.830        2627.682          44.000  
G22  22337082.778   117382289.490       -2325.694          45.000  
G24  20391915.758   107160282.767        1428.590          45.000  
E07  24781860.166   130229532.160       -1998.749          45.000  
G10  23924613.405   125724687.276        2027.765          43.000  
G17  22853415.569   120095514.128         533.490          43.000  
G23  22449420.954   117972388.808        -312.793          36.000  
E14  25861216.947   135901601.115        4463.724          40.000  
E30  24469337.987   128587294.186       -1463.855          45.000  
E20  28403476.105   149261223.437        1901.096          38.000  
E27  23714691.097   124621536.821        1394.480          45.000  
G12  23581613.723   123922190.861        3946.817          37.000  
> 2024 02 13 08 29 46.0000000  0 15                     
G13  21841093.250   114775708.369       -2752.346          46.000  
G14  23573438.741   123879327.889       -3030.190          39.000  
G15  20466800.470   107553776.209       -1557.062          46.000  
G19  23065730.039   121211224.642        2627.677          44.000  
G22  22337525.123   117384615.112       -2325.945          45.000  
G24  20391643.700   107158853.994        1428.323          46.000  
E07  24782240.197   130231530.607       -1998.597          45.000  
G10  23924227.572   125722659.370        2027.411          43.000  
G17  22853314.175   120094980.571         532.925          43.000  
G23  22449480.957   117972701.439        -312.651          37.000  
E14  25860367.540   135897137.129        4463.856          41.000  
E30  24469617.007   128588757.979       -1464.215          45.000  
E20  28403114.082   149259321.834        1901.504          38.000  
E27  23714425.365   124620142.358        1393.970          46.000  
G12  23580862.508   123918243.384        3947.177          37.000  
> 2024 02 13 08 29 47.0000000  0 15                     
G13  21841617.097   114778460.340       -2752.257          46.000  
G14  23574015.226   123882357.888       -3029.972          39.000  
G15  20467096.601   107555332.963       -1557.032          46.000  
G19  23065230.212   121208596.698        2627.733          44.000  
G22  22337967.827   117386940.885       -2325.867          45.000  
G24  20391371.590   107157425.488        1427.967          46.000  
E07  24782620.585   130233529.147       -1998.669          45.000  
G10  23923841.268   125720631.835        2027.417          43.000  
G17  22853212.833   120094447.438         532.809          42.000  
G23  22449541.064   117973014.579        -313.148          37.000  
E14  25859517.968   135892673.104        4464.117          41.000  
E30  24469895.443   128590221.892       -1464.213          45.000  
E20  28402752.435   149257420.328        1901.232          38.000  
E27  23714160.183   124618748.072        1394.014          46.000  
G12  23580111.364   123914295.916        3947.554          37.000  
> 2024 02 13 08 29 48.0000000  0 15                     
G13  21842140.769   114781212.992       -2752.551          46.000  
G14  23574591.938   123885388.437       -3030.486          39.000  
G15  20467393.246   107556890.691       -1557.843          46.000  
G19  23064730.586   121205969.544        2627.077          44.000  
G22  22338410.635   117389267.352       -2326.215          45.000  
G24  20391100.545   107155997.750        1427.857          46.000  
E07  24783000.782   130235528.322       -1999.088          45.000  
G10  23923455.444   125718605.212        2026.813          43.000  
G17  22853111.246   120093915.274         531.884          42.000  
G23  22449601.372   117973328.760        -314.866          37.000  
E14  25858668.535   135888209.548        4463.910          41.000  
E30  24470174.053   128591686.438       -1464.159          45.000  
E20  28402390.518   149255519.449        1901.131          38.000  
E27  23713894.922   124617354.517        1393.714          46.000  
G12  23579360.376   123910349.025        3946.973          37.000  
> 2024 02 13 08 29 49.0000000  0 15                     
G13  21842664.380   114783966.132       -2753.067          46.000  
G14  23575168.816   123888419.348       -3030.526          40.000  
G15  20467689.690   107558449.141       -1558.650          46.000  
G19  23064230.681   121203342.967        2626.329          45.000  
G22  22338853.260   117391594.310       -2327.064          45.000  
G24  20390829.011   107154570.620        1427.155          46.000  
E07  24783381.031   130237527.919       -1999.732          45.000  
G10  23923069.384   125716579.309        2025.775          43.000  
G17  22853010.122   120093383.823         531.342          43.000  
G23  22449661.880   117973643.674        -314.665          38.000  
E14  25857819.250   135883746.325        4463.171          41.000  
E30  24470453.091   128593151.457       -1464.917          45.000  
E20  28402028.635   149253618.984        1900.630          38.000  
E27  23713629.661   124615961.487        1393.067          46.000  
G12  23578609.545   123906402.466        3946.372          37.000  
> 2024 02 13 08 29 50.0000000  0 15                     
G13  21843188.541   114786719.637       -2753.585          46.000  
G14  23575745.930   123891450.497       -3031.158          40.000  
G15  20467986.003   107560008.210       -1559.345          45.000  
G19  23063731.535   121200716.815        2626.104          45.000  
G22  22339295.858   117393921.624       -2327.373          46.000  
G24  20390557.633   107153143.928        1426.605          46.000  
E07  24783761.123   130239527.788       -1999.914          45.000  
G10  23922683.865   125714553.954        2025.183          43.000  
G17  22852908.972   120092853.034         530.652          42.000  
G23  22449722.354   117973959.352        -315.932          38.000  
E14  25856970.402   135879283.213        4463.136          41.000  
E30  24470731.936   128594616.792       -1465.378          45.000  
E20  28401666.892   149251718.843        1899.817          38.000  
E27  23713364.793   124614568.864        1392.596          46.000  
G12  23577858.689   123902456.107        3946.488          38.000  
> 2024 02 13 08 29 51.0000000  0 15                     
G13  21843712.606   114789473.610       -2753.955          46.000  
G14  23576322.895   123894481.972       -3031.327          40.000  
G15  20468282.919   107561567.997       -1560.171          45.000  
G19  23063232.633   121198091.248        2625.419          45.000  
G22  22339738.535   117396249.418       -2328.021          45.000  
G24  20390286.413   107151717.805        1426.050          46.000  
E07  24784141.267   130241528.058       -2000.185          45.000  
G10  23922298.616   125712529.282        2024.420          43.000  
G17  22852807.682   120092322.955         529.884          42.000  
G23  22449782.776   117974275.828        -316.687          38.000  
E14  25856121.353   135874820.374        4462.658          41.000  
E30  24471010.878   128596082.542       -1465.802          45.000  
E20  28401305.585   149249819.040        1900.158          38.000  
E27  23713099.864   124613176.758        1391.896          46.000  
G12  23577108.024   123898510.093        3945.830          38.000  
> 2024 02 13 08 29 52.0000000  0 15                     
G13  21844236.331   114792227.851       -2754.216          46.000  
G14  23576900.236   123897513.592       -3031.599          40.000  
G15  20468579.677   107563128.311       -1560.535          45.000  
G19  23062733.287   121195466.028        2625.089          45.000  
G22  22340181.780   117398577.460       -2328.204          45.000  
G24  20390015.281   107150292.065        1425.387          46.000  
E07  24784521.778   130243528.564       -2000.509          45.000  
G10  23921913.394   125710505.135        2023.907          43.000  
G17  22852706.401   120091793.443         529.116          42.000  
G23  22449843.293   117974592.893        -317.691          38.000  
E14  25855271.518   135870357.625        4462.541          41.000  
E30  24471289.863   128597548.539       -1466.042          45.000  
E20  28400943.912   149247919.538        1899.241          38.000  
E27  23712834.585   124611784.963        1391.558          46.000  
G12  23576357.447   123894564.207        3945.818          38.000  
> 2024 02 13 08 29 53.0000000  0 15                     
G13  21844760.317   114794982.309       -2754.430          46.000  
G14  23577477.681   123900545.322       -3031.585          40.000  
G15  20468876.514   107564689.104       -1560.796          45.000  
G19  23062234.045   121192841.107        2624.932          45.000  
G22  22340625.102   117400905.746       -2328.275          46.000  
G24  20389744.122   107148866.632        1425.192          46.000  
E07  24784902.411   130245529.221       -2000.630          45.000  
G10  23921528.634   125708481.406        2023.602          43.000  
G17  22852605.190   120091264.401         528.753          41.000  
G23  22449903.906   117974910.507        -317.970          38.000  
E14  25854422.487   135865894.885        4462.840          41.000  
E30  24471569.006   128599014.720       -1466.072          45.000  
E20  28400582.379   149246020.156        1899.179          38.000  
E27  23712569.674   124610393.417        1391.474          46.000  
G12  23575606.450   123890618.407        3945.744          38.000  
> 2024 02 13 08 29 54.0000000  0 15                     
G13  21845283.946   114797737.197       -2754.793          45.000  
G14  23578054.960   123903577.336       -3031.982          40.000  
G15  20469173.613   107566250.578       -1561.745          45.000  
G19  23061734.803   121190216.713        2624.221          45.000  
G22  22341068.006   117403234.458       -2328.862          45.000  
G24  20389472.867   107147441.719        1424.521          46.000  
E07  24785282.808   130247530.239       -2001.123          45.000  
G10  23921143.403   125706458.314        2022.937          43.000  
G17  22852504.362   120090736.048         527.851          41.000  
G23  22449965.078   117975228.876        -318.531          39.000  
E14  25853573.228   135861432.368        4462.449          41.000  
E30  24471848.000   128600481.297       -1466.549          44.000  
E20  28400221.211   149244121.110        1898.983          38.000  
E27  23712304.771   124609002.347        1390.923          46.000  
G12  23574855.463   123886672.881        3945.414          38.000  
> 2024 02 13 08 29 55.0000000  0 15                     
G13  21845807.985   114800492.145       -2754.981          45.000  
G14  23578631.856   123906609.266       -3031.819          40.000  
G15  20469470.554   107567812.365       -1561.947          45.000  
G19  23061236.172   121187592.455        2624.157          46.000  
G22  22341511.303   117405563.221       -2328.700          45.000  
G24  20389201.961   107146016.962        1424.860          46.000  
E07  24785663.685   130249531.243       -2000.831          45.000  
G10  23920758.486   125704435.512        2022.815          43.000  
G17  22852402.933   120090207.997         527.943          41.000  
G23  22450025.691   117975547.661        -318.792          39.000  
E14  25852724.188   135856969.728        4462.825          41.000  
E30  24472127.195   128601947.888       -1466.395          45.000  
E20  28399859.329   149242222.091        1898.943          37.000  
E27  23712039.946   124607611.371        1391.161          46.000  
G12  23574104.850   123882727.318        3945.204          38.000  
> 2024 02 13 08 29 56.0000000  0 15                     
G13  21846332.259   114803247.512       -2755.967          45.000  
G14  23579208.987   123909641.490       -3032.360          40.000  
G15  20469767.871   107569374.801       -1562.996          45.000  
G19  23060736.964   121184968.705        2623.178          46.000  
G22  22341954.460   117407892.414       -2329.649          45.000  
G24  20388931.142   107144592.721        1423.895          46.000  
E07  24786044.737   130251532.597       -2001.744          45.000  
G10  23920373.753   125702413.328        2021.771          43.000  
G17  22852302.376   120089680.645         526.781          41.000  
G23  22450086.741   117975867.216        -320.643          39.000  
E14  25851875.741   135852507.284        4462.304          41.000  
E30  24472406.110   128603414.854       -1467.265          45.000  
E20  28399498.214   149240323.386        1898.612          37.000  
E27  23711775.366   124606220.856        1390.117          46.000  
G12  23573353.819   123878781.962        3944.771          38.000  
> 2024 02 13 08 29 57.0000000  0 15                     
G13  21846856.594   114806003.518       -2756.383          45.000  
G14  23579785.961   123912674.228       -3033.098          40.000  
G15  20470065.555   107570938.153       -1563.846          45.000  
G19  23060238.455   121182345.684        2622.706          46.000  
G22  22342397.861   117410222.249       -2330.010          45.000  
G24  20388660.219   107143169.226        1423.124          46.000  
E07  24786425.806   130253534.525       -2002.075          45.000  
G10  23919989.054   125700392.027        2020.886          43.000  
G17  22852202.029   120089154.201         525.960          42.000  
G23  22450147.921   117976187.690        -320.995          39.000  
E14  25851026.735   135848045.287        4461.844          41.000  
E30  24472685.619   128604882.437       -1467.780          45.000  
E20  28399136.759   149238425.268        1898.348          37.000  
E27  23711510.742   124604831.021        1389.701          46.000  
G12  23572603.329   123874837.165        3944.263          38.000  
> 2024 02 13 08 29 58.0000000  0 15                     
G13  21847381.322   114808759.858       -2756.684          45.000  
G14  23580363.074   123915707.156       -3033.112          40.000  
G15  20470363.796   107572502.077       -1564.523          45.000  
G19  23059739.510   121179723.071        2622.300          46.000  
G22  22342841.428   117412552.419       -2330.621          45.000  
G24  20388389.322   107141746.146        1422.765          46.000  
E07  24786806.858   130255536.724       -2002.528          45.000  
G10  23919604.294   125698371.246        2020.447          43.000  
G17  22852102.109   120088628.360         525.252          42.000  
G23  22450208.901   117976508.859        -321.886          39.000  
E14  25850177.817   135843583.413        4461.584          41.000  
E30  24472964.631   128606350.312       -1468.216          45.000  
E20  28398775.749   149236527.478        1896.882          38.000  
E27  23711246.223   124603441.555        1389.156          46.000  
G12  23571852.437   123870892.504        3944.536          38.000  
> 2024 02 13 08 29 59.0000000  0 15                     
G13  21847905.832   114811516.417       -2756.714          46.000  
G14  23580940.423   123918740.205       -3033.185          41.000  
G15  20470661.750   107574066.505       -1565.054          45.000  
G19  23059240.669   121177100.797        2621.836          46.000  
G22  22343285.022   117414882.818       -2330.764          45.000  
G24  20388118.913   107140323.397        1422.465          46.000  
E07  24787188.058   130257539.083       -2002.502          45.000  
G10  23919219.883   125696350.932        2019.824          43.000  
G17  22852002.337   120088103.025         524.847          42.000  
G23  22450269.829   117976830.562        -321.907          39.000  
E14  25849328.847   135839121.581        4461.667          41.000  
E30  24473244.113   128607818.382       -1468.349          45.000  
E20  28398414.704   149234629.790        1897.688          37.000  
E27  23710981.826   124602052.371        1388.892          46.000  
G12  23571101.764   123866947.985        3944.132          38.000  
> 2024 02 13 08 30 00.0000000  0 15                     
G13  21848430.604   114814273.503       -2757.626          46.000  
G14  23581517.895   123921773.601       -3033.435          41.000  
G15  20470959.477   107575631.672       -1565.800          45.000  
G19  23058741.864   121174479.103        2621.333          46.000  
G22  22343728.798   117417213.702       -2331.198          45.000  
G24  20387848.444   107138901.259        1421.528          46.000  
E07  24787569.441   130259541.881       -2002.925          45.000  
G10  23918835.795   125694331.324        2019.110          43.000  
G17  22851902.679   120087578.448         524.062          42.000  
G23  22450331.262   117977153.132        -323.020          40.000  
E14  25848480.286   135834660.034        4461.294          41.000  
E30  24473523.500   128609286.904       -1468.665          45.000  
E20  28398053.702   149232732.559        1897.008          37.000  
E27  23710717.656   124600663.721        1388.337          46.000  
G12  23570350.846   123863003.804        3943.908          38.000  
> 2024 02 13 08 30 01.0000000  0 15                     
G13  21848955.873   114817031.134       -2757.957          46.000  
G14  23582095.453   123924807.457       -3034.249          41.000  
G15  20471257.596   107577197.666       -1566.542          45.000  
G19  23058243.599   121171858.077        2620.658          46.000  
G22  22344172.705   117419545.171       -2331.709          45.000  
G24  20387577.826   107137479.784        1420.976          46.000  
E07  24787950.763   130261545.197       -2003.626          44.000  
G10  23918451.533   125692312.514        2018.414          43.000  
G17  22851803.431   120087054.712         523.166          43.000  
G23  22450392.792   117977476.620        -324.090          39.000  
E14  25847631.237   135830198.888        4460.758          41.000  
E30  24473802.354   128610755.972       -1469.430          45.000  
E20  28397692.762   149230835.870        1896.359          37.000  
E27  23710453.887   124599275.708        1387.570          46.000  
G12  23569600.321   123859060.072        3943.098          38.000  
> 2024 02 13 08 30 02.0000000  0 15                     
G13  21849481.133   114819789.430       -2758.482          46.000  
G14  23582673.239   123927841.825       -3034.554          41.000  
G15  20471555.855   107578764.563       -1567.058          45.000  
G19  23057744.976   121169237.766        2620.260          46.000  
G22  22344616.796   117421877.293       -2332.267          45.000  
G24  20387307.251   107136059.042        1420.698          46.000  
E07  24788332.356   130263549.090       -2003.995          44.000  
G10  23918067.462   125690294.576        2017.865          43.000  
G17  22851704.602   120086531.878         522.538          43.000  
G23  22450454.469   117977801.061        -325.032          39.000  
E14  25846782.589   135825738.169        4460.506          41.000  
E30  24474082.273   128612225.651       -1469.740          45.000  
E20  28397332.040   149228939.707        1896.248          38.000  
E27  23710189.900   124597888.357        1387.157          46.000  
G12  23568849.787   123855116.808        3943.211          38.000  
> 2024 02 13 08 30 03.0000000  0 15                     
G13  21850006.612   114822547.913       -2758.526          47.000  
G14  23583251.024   123930876.258       -3034.472          41.000  
G15  20471853.905   107580331.903       -1567.683          45.000  
G19  23057246.938   121166617.761        2619.867          46.000  
G22  22345060.677   117424209.595       -2332.472          45.000  
G24  20387036.860   107134638.622        1420.338          46.000  
E07  24788713.800   130265553.110       -2004.120          45.000  
G10  23917683.549   125688277.044        2016.943          43.000  
G17  22851605.659   120086009.531         522.104          43.000  
G23  22450516.461   117978126.064        -325.275          40.000  
E14  25845933.628   135821277.439        4460.686          41.000  
E30  24474361.529   128613695.485       -1469.885          45.000  
E20  28396971.353   149227043.707        1895.600          37.000  
E27  23709926.062   124596501.240        1387.037          46.000  
G12  23568099.262   123851173.645        3943.250          38.000  
> 2024 02 13 08 30 04.0000000  0 15                     
G13  21850531.977   114825306.698       -2759.134          47.000  
G14  23583828.408   123933910.859       -3034.859          41.000  
G15  20472151.999   107581899.800       -1568.430          45.000  
G19  23056748.569   121163998.128        2619.323          46.000  
G22  22345504.759   117426542.223       -2333.019          45.000  
G24  20386766.521   107133218.574        1419.607          46.000  
E07  24789095.236   130267557.350       -2004.463          45.000  
G10  23917299.958   125686260.003        2016.797          43.000  
G17  22851506.995   120085487.719         521.321          43.000  
G23  22450578.645   117978451.646        -325.935          40.000  
E14  25845085.085   135816816.819        4460.381          41.000  
E30  24474641.309   128615165.574       -1470.391          45.000  
E20  28396610.884   149225147.912        1895.932          37.000  
E27  23709662.345   124595114.476        1386.402          46.000  
G12  23567348.571   123847230.606        3942.980          37.000  
> 2024 02 13 08 30 05.0000000  0 15                     
G13  21851057.228   114828065.800       -2759.099          47.000  
G14  23584405.949   123936945.651       -3034.933          42.000  
G15  20472450.615   107583468.271       -1568.689          45.000  
G19  23056249.929   121161378.910        2619.034          45.000  
G22  22345948.719   117428875.156       -2333.026          46.000  
G24  20386496.148   107131798.947        1419.637          46.000  
E07  24789476.610   130269561.867       -2004.624          45.000  
G10  23916915.905   125684243.527        2016.272          43.000  
G17  22851408.210   120084966.520         521.032          43.000  
G23  22450641.187   117978777.919        -326.661          40.000  
E14  25844236.123   135812356.329        4460.509          42.000  
E30  24474921.289   128616635.962       -1470.334          45.000  
E20  28396250.231   149223252.409        1895.281          37.000  
E27  23709398.402   124593728.065        1386.346          46.000  
G12  23566598.063   123843287.776        3942.488          37.000  
> 2024 02 13 08 30 06.0000000  0 15                     
G13  21851582.602   114830825.216       -2759.430          47.000  
G14  23584983.351   123939980.620       -3035.023          42.000  
G15  20472748.953   107585037.296       -1568.962          45.000  
G19  23055751.106   121158760.103        2618.806          45.000  
G22  22346392.862   117431208.392       -2333.170          46.000  
G24  20386226.036   107130379.715        1419.214          46.000  
E07  24789858.089   130271566.603       -2004.581          45.000  
G10  23916532.331   125682227.550        2015.814          43.000  
G17  22851309.180   120084445.872         520.510          43.000  
G23  22450703.501   117979104.800        -326.911          40.000  
E14  25843387.536   135807895.930        4460.693          42.000  
E30  24475200.588   128618106.603       -1470.531          45.000  
E20  28395889.352   149221357.143        1895.115          37.000  
E27  23709134.747   124592341.999        1386.248          46.000  
G12  23565847.303   123839345.091        3942.724          37.000  
> 2024 02 13 08 30 07.0000000  0 15                     
G13  21852108.010   114833584.924       -2759.550          47.000  
G14  23585560.744   123943015.759       -3035.078          41.000  
G15  20473047.448   107586606.872       -1569.489          45.000  
G19  23055252.492   121156141.657        2618.543          45.000  
G22  22346837.441   117433541.935       -2333.237          45.000  
G24  20385956.255   107128960.893        1418.969          46.000  
E07  24790239.752   130273571.589       -2004.689          45.000  
G10  23916149.203   125680212.112        2015.649          43.000  
G17  22851210.368   120083925.818         520.100          44.000  
G23  22450765.956   117979432.312        -327.025          40.000  
E14  25842538.566   135803435.625        4460.830          42.000  
E30  24475480.664   128619577.517       -1470.760          45.000  
E20  28395529.092   149219462.072        1895.679          37.000  
E27  23708871.109   124590956.281        1385.993          46.000  
G12  23565096.882   123835402.568        3943.057          36.000  
> 2024 02 13 08 30 08.0000000  0 15                     
G13  21852633.026   114836344.825       -2759.984          47.000  
G14  23586138.329   123946050.944       -3035.090          41.000  
G15  20473346.152   107588176.875       -1570.031          45.000  
G19  23054753.957   121153523.510        2618.192          45.000  
G22  22347281.462   117435875.680       -2333.867          45.000  
G24  20385686.693   107127542.352        1418.512          46.000  
E07  24790621.109   130275576.699       -2005.080          45.000  
G10  23915765.944   125678197.087        2014.874          43.000  
G17  22851111.451   120083406.206         519.371          44.000  
G23  22450828.323   117979760.383        -328.038          39.000  
E14  25841689.621   135798975.333        4460.391          42.000  
E30  24475760.592   128621048.573       -1471.015          45.000  
E20  28395168.824   149217567.187        1894.539          37.000  
E27  23708607.401   124589570.793        1385.526          46.000  
G12  23564346.313   123831460.093        3942.794          36.000  
> 2024 02 13 08 30 09.0000000  0 15                     
G13  21853158.121   114839105.165       -2760.683          47.000  
G14  23586716.123   123949086.464       -3035.780          41.000  
G15  20473644.969   107589747.604       -1571.426          45.000  
G19  23054255.500   121150905.896        2617.254          45.000  
G22  22347725.866   117438209.880       -2334.635          46.000  
G24  20385417.035   107126124.387        1417.446          46.000  
E07  24791002.771   130277582.193       -2005.900          45.000  
G10  23915383.104   125676182.728        2013.757          44.000  
G17  22851013.041   120082887.318         518.336          44.000  
G23  22450890.795   117980089.256        -329.429          39.000  
E14  25840840.878   135794515.307        4459.714          41.000  
E30  24476040.868   128622520.048       -1471.773          45.000  
E20  28394808.023   149215672.666        1894.052          37.000  
E27  23708343.999   124588185.802        1384.510          46.000  
G12  23563595.570   123827517.968        3941.728          36.000  
> 2024 02 13 08 30 10.0000000  0 15                     
G13  21853683.503   114841865.933       -2761.232          47.000  
G14  23587293.830   123952122.268       -3036.127          41.000  
G15  20473944.084   107591318.988       -1571.968          45.000  
G19  23053757.017   121148288.786        2616.603          45.000  
G22  22348170.114   117440544.487       -2335.098          46.000  
G24  20385147.717   107124706.899        1417.162          46.000  
E07  24791384.364   130279588.049       -2006.293          45.000  
G10  23915000.246   125674168.991        2013.300          44.000  
G17  22850914.683   120082369.113         517.756          44.000  
G23  22450953.345   117980418.839        -330.193          39.000  
E14  25839992.369   135790055.467        4459.414          41.000  
E30  24476320.377   128623991.911       -1472.382          45.000  
E20  28394447.842   149213778.486        1893.983          37.000  
E27  23708080.483   124586801.261        1384.081          46.000  
G12  23562845.158   123823576.094        3941.075          36.000  
> 2024 02 13 08 30 11.0000000  0 15                     
G13  21854208.877   114844627.045       -2761.322          47.000  
G14  23587872.034   123955158.316       -3036.706          42.000  
G15  20474243.390   107592890.984       -1572.420          45.000  
G19  23053258.962   121145672.123        2616.141          45.000  
G22  22348614.397   117442879.449       -2335.369          46.000  
G24  20384878.417   107123289.899        1416.533          46.000  
E07  24791766.410   130281594.186       -2006.470          45.000  
G10  23914617.624   125672155.849        2012.573          44.000  
G17  22850816.359   120081851.539         517.019          44.000  
G23  22451015.817   117980749.112        -330.670          39.000  
E14  25839144.027   135785595.787        4459.481          42.000  
E30  24476600.802   128625464.093       -1472.571          44.000  
E20  28394087.652   149211884.634        1893.226          37.000  
E27  23707817.220   124585417.119        1383.788          46.000  
G12  23562094.825   123819634.409        3941.731          36.000  
> 2024 02 13 08 30 12.0000000  0 15                     
G13  21854734.102   114847388.439       -2761.603          46.000  
G14  23588449.880   123958194.464       -3036.205          42.000  
G15  20474542.600   107594463.497       -1572.636          45.000  
G19  23052761.107   121143055.821        2616.149          44.000  
G22  22349059.080   117445214.690       -2335.490          46.000  
G24  20384609.011   107121873.241        1416.565          46.000  
E07  24792148.291   130283600.512       -2006.268          45.000  
G10  23914234.923   125670143.174        2012.329          44.000  
G17  22850718.324   120081334.488         516.531          44.000  
G23  22451078.681   117981079.995        -331.257          39.000  
E14  25838295.388   135781136.176        4459.415          42.000  
E30  24476881.629   128626936.482       -1472.363          44.000  
E20  28393727.523   149209990.954        1893.632          37.000  
E27  23707553.966   124584033.289        1383.601          46.000  
G12  23561343.969   123815692.899        3941.653          35.000  
> 2024 02 13 08 30 13.0000000  0 15                     
G13  21855259.511   114850149.981       -2761.796          46.000  
G14  23589027.483   123961230.659       -3036.672          42.000  
G15  20474842.011   107596036.447       -1573.396          45.000  
G19  23052263.191   121140439.777        2615.547          44.000  
G22  22349504.122   117447550.080       -2335.740          46.000  
G24  20384339.449   107120456.857        1415.864          47.000  
E07  24792530.014   130285606.956       -2006.747          45.000  
G10  23913851.952   125668130.906        2011.664          44.000  
G17  22850620.393   120080817.868         515.995          44.000  
G23  22451141.799   117981411.375        -331.883          40.000  
E14  25837446.662   135776676.523        4459.588          42.000  
E30  24477161.294   128628409.033       -1472.911          44.000  
E20  28393366.993   149208097.380        1893.139          37.000  
E27  23707291.088   124582649.676        1383.216          46.000  
G12  23560593.374   123811751.384        3941.653          35.000  
> 2024 02 13 08 30 14.0000000  0 15                     
G13  21855784.998   114852912.195       -2762.681          46.000  
G14  23589605.259   123964267.362       -3037.099          42.000  
G15  20475141.570   107597610.281       -1574.595          45.000  
G19  23051765.275   121137824.471        2614.936          44.000  
G22  22349949.068   117449886.147       -2336.582          46.000  
G24  20384070.271   107119041.199        1415.227          47.000  
E07  24792912.130   130287613.969       -2007.303          44.000  
G10  23913469.748   125666119.479        2010.834          44.000  
G17  22850522.524   120080302.155         515.069          44.000  
G23  22451204.942   117981743.700        -332.775          39.000  
E14  25836598.093   135772217.329        4458.856          41.000  
E30  24477441.641   128629882.161       -1473.523          44.000  
E20  28393006.925   149206204.404        1892.656          37.000  
E27  23707027.991   124581266.737        1382.446          46.000  
G12  23559843.075   123807810.387        3940.894          35.000  
> 2024 02 13 08 30 15.0000000  0 15                     
G13  21856310.651   114855674.838       -2762.724          46.000  
G14  23590183.062   123967304.377       -3037.049          42.000  
G15  20475441.277   107599184.822       -1574.874          45.000  
G19  23051267.482   121135209.692        2614.525          44.000  
G22  22350393.734   117452222.641       -2336.563          46.000  
G24  20383801.110   107117626.090        1414.913          47.000  
E07  24793294.290   130289621.382       -2007.664          44.000  
G10  23913087.388   125664108.718        2010.541          44.000  
G17  22850424.689   120079787.145         514.862          45.000  
G23  22451268.356   117982076.833        -333.179          39.000  
E14  25835749.454   135767758.390        4458.895          41.000  
E30  24477722.014   128631355.702       -1473.645          44.000  
E20  28392646.726   149204311.779        1892.954          38.000  
E27  23706764.806   124579884.281        1382.403          46.000  
G12  23559092.960   123803869.715        3940.561          35.000  
> 2024 02 13 08 30 16.0000000  0 15                     
G13  21856836.435   114858437.763       -2762.884          46.000  
G14  23590760.839   123970341.577       -3037.078          42.000  
G15  20475741.002   107600759.887       -1575.128          45.000  
G19  23050769.749   121132595.294        2614.183          44.000  
G22  22350838.505   117454559.436       -2336.686          46.000  
G24  20383531.958   107116211.369        1414.793          47.000  
E07  24793676.380   130291628.998       -2007.452          44.000  
G10  23912704.949   125662098.465        2010.162          44.000  
G17  22850326.855   120079272.703         514.469          45.000  
G23  22451332.041   117982410.614        -333.905          39.000  
E14  25834900.867   135763299.540        4458.928          41.000  
E30  24478002.447   128632829.504       -1473.781          45.000  
E20  28392286.798   149202419.430        1891.929          38.000  
E27  23706501.954   124578502.157        1382.212          46.000  
G12  23558342.819   123799929.175        3941.162          35.000  
> 2024 02 13 08 30 17.0000000  0 15                     
G13  21857362.027   114861200.878       -2763.402          46.000  
G14  23591338.869   123973378.803       -3037.409          42.000  
G15  20476040.727   107602335.387       -1575.726          45.000  
G19  23050272.130   121129981.142        2613.751          44.000  
G22  22351283.285   117456896.404       -2337.206          46.000  
G24  20383262.849   107114796.910        1414.208          47.000  
E07  24794058.688   130293636.729       -2007.997          44.000  
G10  23912322.685   125660088.611        2009.393          44.000  
G17  22850229.526   120078758.702         513.658          45.000  
G23  22451395.280   117982744.880        -334.875          38.000  
E14  25834052.760   135758840.639        4458.843          42.000  
E30  24478282.654   128634303.437       -1474.220          44.000  
E20  28391926.486   149200527.165        1892.178          37.000  
E27  23706239.145   124577120.253        1381.630          46.000  
G12  23557592.399   123795988.719        3939.889          35.000  
> 2024 02 13 08 30 18.0000000  0 15                     
G13  21857888.186   114863964.306       -2763.976          46.000  
G14  23591916.759   123976416.209       -3037.604          42.000  
G15  20476340.967   107603911.451       -1576.595          46.000  
G19  23049774.589   121127367.411        2613.321          43.000  
G22  22351727.498   117459233.679       -2337.625          46.000  
G24  20382993.741   107113382.893        1413.645          47.000  
E07  24794440.700   130295644.713       -2008.484          44.000  
G10  23911940.115   125658079.281        2008.893          45.000  
G17  22850132.363   120078245.280         512.883          45.000  
G23  22451459.113   117983079.783        -335.923          38.000  
E14  25833204.270   135754381.877        4458.624          42.000  
E30  24478563.254   128635777.655       -1474.768          44.000  
E20  28391566.331   149198635.147        1891.447          37.000  
E27  23705975.699   124575738.702        1381.145          45.000  
G12  23556841.978   123792048.400        3939.242          35.000  
> 2024 02 13 08 30 19.0000000  0 15                     
G13  21858414.004   114866728.089       -2764.066          46.000  
G14  23592495.172   123979453.867       -3038.056          42.000  
G15  20476641.102   107605488.143       -1577.081          46.000  
G19  23049277.057   121124754.150        2612.806          44.000  
G22  22352172.356   117461571.336       -2338.378          46.000  
G24  20382724.641   107111969.329        1413.281          47.000  
E07  24794822.537   130297653.002       -2008.619          44.000  
G10  23911557.545   125656070.558        2008.453          44.000  
G17  22850035.035   120077732.495         512.560          45.000  
G23  22451522.676   117983415.382        -335.624          38.000  
E14  25832355.421   135749923.303        4458.267          42.000  
E30  24478843.522   128637252.193       -1474.865          44.000  
E20  28391206.246   149196743.464        1891.501          37.000  
E27  23705713.021   124574357.581        1380.612          46.000  
G12  23556091.985   123788108.287        3939.942          35.000  
> 2024 02 13 08 30 20.0000000  0 15                     
G13  21858939.570   114869492.266       -2764.320          45.000  
G14  23593073.516   123982491.764       -3038.244          42.000  
G15  20476941.385   107607065.492       -1577.774          47.000  
G19  23048779.656   121122141.363        2612.423          44.000  
G22  22352616.848   117463909.382       -2338.416          46.000  
G24  20382455.707   107110556.275        1412.745          47.000  
E07  24795204.391   130299661.607       -2008.883          44.000  
G10  23911175.289   125654062.438        2007.623          44.000  
G17  22849937.715   120077220.371         511.628          45.000  
G23  22451585.985   117983751.761        -336.704          38.000  
E14  25831507.105   135745464.907        4458.351          42.000  
E30  24479124.723   128638727.102       -1475.186          44.000  
E20  28390846.030   149194852.080        1891.559          37.000  
E27  23705450.055   124572976.885        1380.361          45.000  
G12  23555342.132   123784168.488        3938.919          34.000  
> 2024 02 13 08 30 21.0000000  0 15                     
G13  21859465.607   114872256.970       -2765.007          46.000  
G14  23593652.131   123985530.060       -3038.157          42.000  
G15  20477241.983   107608643.582       -1578.321          47.000  
G19  23048282.299   121119529.182        2611.966          44.000  
G22  22353061.811   117466247.928       -2338.692          46.000  
G24  20382186.947   107109143.804        1412.309          47.000  
E07  24795587.092   130301670.683       -2009.252          44.000  
G10  23910793.339   125652055.051        2007.135          44.000  
G17  22849840.709   120076709.017         511.184          45.000  
G23  22451650.054   117984088.927        -337.235          37.000  
E14  25830658.327   135741006.839        4457.898          42.000  
E30  24479405.305   128640202.473       -1475.558          44.000  
E20  28390486.546   149192961.189        1890.190          37.000  
E27  23705187.237   124571596.730        1379.938          45.000  
G12  23554592.505   123780229.009        3939.775          35.000  
> 2024 02 13 08 30 22.0000000  0 15                     
G13  21859992.080   114875021.857       -2765.105          46.000  
G14  23594230.343   123988568.411       -3038.371          42.000  
G15  20477542.406   107610222.119       -1578.822          46.000  
G19  23047785.177   121116917.278        2611.459          44.000  
G22  22353506.713   117468586.668       -2339.058          46.000  
G24  20381917.996   107107731.628        1412.038          47.000  
E07  24795969.121   130303679.850       -2009.385          44.000  
G10  23910411.109   125650048.066        2006.579          44.000  
G17  22849743.764   120076198.106         510.625          45.000  
G23  22451714.209   117984426.620        -338.025          37.000  
E14  25829810.071   135736548.726        4458.138          41.000  
E30  24479686.420   128641677.991       -1475.690          44.000  
E20  28390126.461   149191070.359        1890.936          38.000  
E27  23704924.576   124570216.811        1379.767          45.000  
G12  23553842.626   123776289.594        3939.540          35.000  
> 2024 02 13 08 30 23.0000000  0 15                     
G13  21860518.413   114877787.164       -2765.481          46.000  
G14  23594808.364   123991607.053       -3038.516          42.000  
G15  20477842.776   107611801.328       -1579.351          46.000  
G19  23047288.509   121114305.886        2611.346          44.000  
G22  22353951.493   117470925.824       -2339.161          46.000  
G24  20381649.315   107106319.980        1411.532          47.000  
E07  24796351.638   130305689.397       -2009.584          44.000  
G10  23910029.124   125648041.732        2006.201          44.000  
G17  22849646.741   120075687.906         509.955          45.000  
G23  22451778.627   117984765.115        -338.886          38.000  
E14  25828961.345   135732090.878        4457.615          41.000  
E30  24479967.298   128643153.910       -1475.894          44.000  
E20  28389767.257   149189179.932        1890.565          38.000  
E27  23704661.811   124568837.357        1379.361          45.000  
G12  23553092.651   123772350.486        3939.910          35.000  
> 2024 02 13 08 30 24.0000000  0 15                     
G13  21861044.921   114880552.822       -2765.888          46.000  
G14  23595386.804   123994645.908       -3038.934          42.000  
G15  20478143.784   107613381.147       -1580.220          46.000  
G19  23046791.518   121111694.939        2610.755          44.000  
G22  22354396.936   117473265.332       -2339.743          46.000  
G24  20381380.355   107104908.779        1410.891          47.000  
E07  24796733.702   130307699.218       -2009.924          44.000  
G10  23909647.366   125646035.953        2005.670          44.000  
G17  22849550.259   120075178.304         509.231          45.000  
G23  22451842.826   117985104.255        -339.498          37.000  
E14  25828112.933   135727633.159        4457.518          41.000  
E30  24480247.968   128644630.134       -1476.390          44.000  
E20  28389407.905   149187289.821        1889.510          38.000  
E27  23704398.888   124567458.291        1378.836          45.000  
G12  23552342.937   123768411.631        3938.419          35.000  
> 2024 02 13 08 30 25.0000000  0 15                     
G13  21861571.386   114883318.623       -2765.948          46.000  
G14  23595965.253   123997684.780       -3038.885          42.000  
G15  20478444.416   107614961.368       -1580.557          46.000  
G19  23046294.798   121109084.243        2610.349          44.000  
G22  22354842.275   117475605.003       -2339.976          46.000  
G24  20381111.839   107103497.832        1410.652          47.000  
E07  24797115.975   130309709.143       -2009.985          44.000  
G10  23909265.616   125644030.558        2005.231          44.000  
G17  22849453.227   120074669.148         508.590          45.000  
G23  22451906.929   117985443.928        -340.231          38.000  
E14  25827264.120   135723175.407        4457.773          41.000  
E30  24480528.419   128646106.470       -1476.423          44.000  
E20  28389048.518   149185399.722        1890.371          38.000  
E27  23704136.045   124566079.423        1378.731          45.000  
G12  23551593.520   123764472.749        3938.633          35.000  
> 2024 02 13 08 30 26.0000000  0 15                     
G13  21862097.937   114886084.750       -2766.240          46.000  
G14  23596543.632   124000723.874       -3039.363          42.000  
G15  20478745.101   107616542.163       -1581.166          46.000  
G19  23045797.903   121106473.947        2610.026          43.000  
G22  22355287.892   117477944.988       -2340.099          46.000  
G24  20380843.228   107102087.301        1410.266          47.000  
E07  24797498.624   130311719.325       -2010.291          44.000  
G10  23908884.041   125642025.713        2004.700          44.000  
G17  22849356.492   120074160.560         508.354          45.000  
G23  22451971.827   117985784.200        -340.727          38.000  
E14  25826415.847   135718717.772        4457.592          41.000  
E30  24480809.367   128647583.106       -1476.825          44.000  
E20  28388689.034   149183509.944        1889.628          38.000  
E27  23703873.523   124564700.918        1378.354          45.000  
G12  23550843.867   123760534.089        3938.244          35.000  
> 2024 02 13 08 30 27.0000000  0 15                     
G13  21862624.943   114888851.481       -2767.269          46.000  
G14  23597122.106   124003763.381       -3039.603          42.000  
G15  20479045.786   107618123.800       -1582.148          46.000  
G19  23045301.095   121103864.333        2609.210          43.000  
G22  22355733.492   117480285.571       -2340.843          46.000  
G24  20380574.983   107100677.447        1409.471          47.000  
E07  24797880.897   130313730.013       -2010.932          44.000  
G10  23908502.509   125640021.654        2003.662          44.000  
G17  22849259.730   120073652.840         507.185          45.000  
G23  22452036.602   117986125.410        -341.628          37.000  
E14  25825567.557   135714260.542        4457.040          41.000  
E30  24481090.708   128649060.267       -1477.509          44.000  
E20  28388329.316   149181620.706        1888.673          38.000  
E27  23703611.029   124563323.047        1377.506          45.000  
G12  23550094.380   123756595.831        3937.741          35.000  
> 2024 02 13 08 30 28.0000000  0 15                     
G13  21863151.547   114891618.447       -2767.094          46.000  
G14  23597700.625   124006803.051       -3039.753          42.000  
G15  20479346.723   107619705.965       -1582.546          46.000  
G19  23044804.558   121101255.081        2609.143          43.000  
G22  22356178.787   117482626.415       -2340.928          46.000  
G24  20380306.451   107099267.982        1409.320          47.000  
E07  24798263.589   130315740.933       -2011.259          43.000  
G10  23908120.934   125638018.107        2003.363          44.000  
G17  22849162.916   120073145.649         506.904          45.000  
G23  22452101.238   117986467.238        -342.073          37.000  
E14  25824719.415   135709803.373        4456.912          41.000  
E30  24481371.744   128650537.682       -1477.668          44.000  
E20  28387969.815   149179731.620        1889.056          38.000  
E27  23703348.673   124561945.485        1377.333          45.000  
G12  23549344.911   123752657.668        3938.510          35.000  
> 2024 02 13 08 30 29.0000000  0 15                     
G13  21863678.299   114894385.847       -2767.720          46.000  
G14  23598279.283   124009843.013       -3040.388          42.000  
G15  20479647.914   107621288.798       -1583.559          46.000  
G19  23044307.619   121098646.353        2608.227          43.000  
G22  22356624.177   117484967.692       -2341.858          46.000  
G24  20380038.093   107097859.052        1408.172          47.000  
E07  24798646.577   130317752.181       -2011.744          43.000  
G10  23907739.551   125636015.193        2002.319          44.000  
G17  22849065.980   120072639.159         506.040          45.000  
G23  22452166.414   117986809.820        -343.900          37.000  
E14  25823871.230   135705346.435        4456.632          41.000  
E30  24481652.963   128652015.478       -1478.268          44.000  
E20  28387610.750   149177842.968        1887.577          38.000  
E27  23703086.484   124560568.394        1376.433          45.000  
G12  23548595.302   123748719.873        3937.273          36.000  
> 2024 02 13 08 30 30.0000000  0 15                     
G13  21864205.173   114897153.817       -2767.891          46.000  
G14  23598857.818   124012883.406       -3040.468          42.000  
G15  20479949.410   107622872.432       -1583.573          46.000  
G19  23043810.969   121096038.279        2607.872          43.000  
G22  22357070.275   117487309.535       -2341.880          46.000  
G24  20379770.267   107096450.735        1408.289          47.000  
E07  24799028.833   130319763.944       -2011.757          43.000  
G10  23907358.508   125634013.070        2002.014          44.000  
G17  22848969.533   120072133.505         505.342          45.000  
G23  22452231.608   117987153.246        -343.284          37.000  
E14  25823022.757   135700889.871        4456.519          40.000  
E30  24481934.418   128653493.797       -1478.362          44.000  
E20  28387251.477   149175954.718        1888.493          38.000  
E27  23702824.155   124559191.898        1376.366          45.000  
G12  23547846.208   123744782.464        3937.389          36.000  
> 2024 02 13 08 30 31.0000000  0 15                     
G13  21864731.917   114899921.806       -2768.312          46.000  
G14  23599436.476   124015923.702       -3040.632          42.000  
G15  20480251.238   107624456.381       -1584.376          47.000  
G19  23043314.213   121093430.307        2607.803          43.000  
G22  22357515.840   117489651.404       -2341.956          46.000  
G24  20379502.301   107095042.581        1407.867          47.000  
E07  24799411.525   130321775.665       -2011.777          43.000  
G10  23906977.526   125632011.188        2001.568          44.000  
G17  22848873.155   120071628.135         504.800          44.000  
G23  22452297.090   117987497.113        -344.421          37.000  
E14  25822174.388   135696433.144        4456.622          40.000  
E30  24482215.759   128654972.105       -1478.703          44.000  
E20  28386892.281   149174066.499        1888.027          38.000  
E27  23702562.576   124557815.474        1376.153          45.000  
G12  23547096.660   123740844.974        3937.397          36.000  
> 2024 02 13 08 30 32.0000000  0 15                     
G13  21865258.748   114902690.348       -2768.407          46.000  
G14  23600015.579   124018964.413       -3040.625          43.000  
G15  20480552.952   107626041.115       -1584.828          47.000  
G19  23042818.121   121090823.003        2607.395          43.000  
G22  22357961.754   117491993.823       -2342.320          46.000  
G24  20379234.501   107093635.068        1407.750          47.000  
E07  24799794.287   130323787.884       -2012.024          43.000  
G10  23906596.579   125630010.091        2001.221          43.000  
G17  22848776.560   120071123.581         504.524          44.000  
G23  22452362.851   117987841.833        -344.913          37.000  
E14  25821326.465   135691976.757        4456.775          40.000  
E30  24482496.725   128656450.920       -1478.472          44.000  
E20  28386532.824   149172178.802        1887.584          38.000  
E27  23702300.727   124556439.658        1375.956          45.000  
G12  23546347.365   123736907.871        3937.133          35.000  
> 2024 02 13 08 30 33.0000000  0 15                     
G13  21865785.727   114905459.244       -2768.904          46.000  
G14  23600594.586   124022005.328       -3041.072          43.000  
G15  20480854.570   107627626.440       -1585.671          47.000  
G19  23042321.837   121088216.119        2606.818          43.000  
G22  22358407.843   117494336.587       -2342.996          46.000  
G24  20378966.510   107092228.010        1406.865          47.000  
E07  24800177.119   130325800.373       -2012.566          43.000  
G10  23906215.641   125628009.559        2000.189          44.000  
G17  22848680.060   120070619.629         503.704          44.000  
G23  22452428.368   117988187.231        -345.907          36.000  
E14  25820478.280   135687520.549        4456.005          40.000  
E30  24482778.310   128657930.052       -1479.170          44.000  
E20  28386173.481   149170291.298        1887.846          38.000  
E27  23702039.078   124555064.215        1375.179          45.000  
G12  23545598.175   123732970.968        3936.807          35.000  
> 2024 02 13 08 30 34.0000000  0 15                     
G13  21866312.252   114908228.657       -2769.382          46.000  
G14  23601173.305   124025046.635       -3041.269          43.000  
G15  20481156.250   107629212.533       -1586.018          47.000  
G19  23041825.710   121085609.845        2606.331          43.000  
G22  22358853.870   117496679.866       -2343.083          47.000  
G24  20378698.753   107090821.559        1406.365          47.000  
E07  24800560.334   130327813.327       -2012.999          43.000  
G10  23905834.947   125626009.760        1999.719          43.000  
G17  22848584.093   120070116.489         502.973          44.000  
G23  22452494.129   117988533.473        -346.513          36.000  
E14  25819630.304   135683064.622        4456.061          40.000  
E30  24483059.992   128659409.672       -1479.635          44.000  
E20  28385814.451   149168404.341        1887.081          38.000  
E27  23701777.874   124553689.333        1374.872          45.000  
G12  23544848.644   123729034.461        3936.457          35.000  
> 2024 02 13 08 30 35.0000000  0 15                     
G13  21866839.161   114910998.497       -2769.992          46.000  
G14  23601752.286   124028088.241       -3041.612          43.000  
G15  20481458.235   107630799.329       -1587.011          47.000  
G19  23041329.740   121083004.101        2605.399          43.000  
G22  22359299.741   117499023.598       -2344.061          47.000  
G24  20378431.355   107089415.656        1405.463          47.000  
E07  24800943.218   130329826.641       -2013.457          43.000  
G10  23905454.235   125624010.608        1998.974          43.000  
G17  22848488.047   120069614.040         502.016          44.000  
G23  22452559.960   117988880.431        -346.774          36.000  
E14  25818782.258   135678608.969        4455.517          40.000  
E30  24483341.839   128660889.671       -1480.149          44.000  
E20  28385455.526   149166517.734        1886.480          38.000  
E27  23701516.217   124552314.938        1374.129          45.000  
G12  23544099.419   123725098.262        3936.444          35.000  
> 2024 02 13 08 30 36.0000000  0 15                     
G13  21867366.141   114913768.690       -2770.569          45.000  
G14  23602331.319   124031130.055       -3041.938          43.000  
G15  20481760.656   107632386.698       -1587.790          47.000  
G19  23040833.857   121080398.773        2605.031          43.000  
G22  22359745.934   117501367.636       -2344.244          47.000  
G24  20378163.669   107088010.161        1405.403          47.000  
E07  24801326.207   130331840.221       -2013.642          43.000  
G10  23905073.847   125622012.030        1998.206          43.000  
G17  22848392.315   120069112.188         501.617          44.000  
G23  22452626.053   117989228.132        -348.216          36.000  
E14  25817934.343   135674153.428        4455.523          39.000  
E30  24483624.000   128662369.980       -1480.494          44.000  
E20  28385096.314   149164631.383        1886.359          38.000  
E27  23701255.048   124550940.907        1373.862          45.000  
G12  23543350.299   123721162.256        3935.791          35.000  
> 2024 02 13 08 30 37.0000000  0 15                     
G13  21867893.408   114916539.253       -2770.685          45.000  
G14  23602910.256   124034172.129       -3042.208          43.000  
G15  20482063.068   107633974.723       -1588.264          47.000  
G19  23040337.721   121077793.931        2604.789          43.000  
G22  22360192.354   117503712.077       -2344.572          47.000  
G24  20377896.392   107086605.182        1404.845          47.000  
E07  24801709.448   130333854.142       -2013.916          43.000  
G10  23904693.964   125620014.044        1997.870          43.000  
G17  22848296.740   120068611.003         500.861          44.000  
G23  22452692.259   117989576.546        -349.185          35.000  
E14  25817085.870   135669698.091        4455.430          39.000  
E30  24483905.917   128663850.645       -1480.558          44.000  
E20  28384737.171   149162745.403        1885.547          38.000  
E27  23700993.662   124549567.325        1373.443          45.000  
G12  23542601.170   123717226.492        3935.537          36.000  
> 2024 02 13 08 30 38.0000000  0 15                     
G13  21868420.221   114919310.254       -2771.108          45.000  
G14  23603488.914   124037214.513       -3042.351          43.000  
G15  20482365.262   107635563.428       -1588.880          47.000  
G19  23039842.004   121075189.614        2604.157          43.000  
G22  22360638.487   117506056.959       -2344.926          47.000  
G24  20377629.038   107085200.743        1404.197          47.000  
E07  24802092.420   130335868.426       -2014.229          43.000  
G10  23904314.012   125618016.729        1997.101          43.000  
G17  22848200.860   120068110.519         500.330          43.000  
G23  22452758.317   117989925.712        -349.831          35.000  
E14  25816238.130   135665243.014        4454.785          39.000  
E30  24484187.468   128665331.708       -1481.070          44.000  
E20  28384378.298   149160859.747        1885.687          38.000  
E27  23700732.380   124548194.205        1373.114          45.000  
G12  23541852.320   123713291.060        3935.215          36.000  
> 2024 02 13 08 30 39.0000000  0 15                     
G13  21868947.619   114922081.537       -2771.634          45.000  
G14  23604067.869   124040257.024       -3042.617          43.000  
G15  20482667.927   107637152.673       -1589.812          47.000  
G19  23039346.810   121072585.672        2603.500          43.000  
G22  22361084.654   117508402.114       -2345.406          47.000  
G24  20377361.788   107083796.663        1403.766          47.000  
E07  24802475.548   130337882.923       -2014.771          43.000  
G10  23903933.841   125616019.923        1996.216          43.000  
G17  22848105.642   120067610.590         499.339          43.000  
G23  22452824.226   117990275.513        -350.948          35.000  
E14  25815390.642   135660788.008        4454.679          39.000  
E30  24484469.716   128666812.992       -1481.505          44.000  
E20  28384020.115   149158974.304        1885.343          38.000  
E27  23700471.185   124546821.412        1372.648          45.000  
G12  23541103.697   123709355.744        3935.439          36.000  
> 2024 02 13 08 30 40.0000000  0 15                     
G13  21869474.842   114924853.158       -2771.834          45.000  
G14  23604646.954   124043299.762       -3043.043          43.000  
G15  20482970.811   107638742.483       -1590.168          47.000  
G19  23038851.765   121069982.172        2603.011          44.000  
G22  22361530.803   117510747.607       -2345.868          47.000  
G24  20377094.581   107082393.023        1403.237          47.000  
E07  24802858.877   130339897.679       -2015.048          43.000  
G10  23903554.168   125614023.643        1995.886          43.000  
G17  22848010.338   120067111.244         498.737          43.000  
G23  22452890.310   117990625.924        -350.685          35.000  
E14  25814542.701   135656333.122        4454.686          39.000  
E30  24484751.380   128668294.590       -1481.954          44.000  
E20  28383661.251   149157089.169        1884.962          38.000  
E27  23700210.234   124545449.001        1372.128          45.000  
G12  23540354.873   123705420.651        3934.929          35.000  
> 2024 02 13 08 30 41.0000000  0 15                     
G13  21870002.467   114927624.987       -2772.049          45.000  
G14  23605226.258   124046342.574       -3042.877          43.000  
G15  20483273.659   107640332.789       -1590.620          47.000  
G19  23038356.458   121067378.965        2602.764          44.000  
G22  22361977.381   117513093.326       -2346.009          47.000  
G24  20376827.287   107080989.705        1402.917          46.000  
E07  24803242.520   130341912.608       -2015.094          43.000  
G10  23903174.347   125612027.838        1995.477          43.000  
G17  22847915.653   120066612.392         498.585          43.000  
G23  22452956.717   117990976.938        -351.170          34.000  
E14  25813694.961   135651878.287        4454.520          39.000  
E30  24485033.716   128669776.368       -1482.009          44.000  
E20  28383302.658   149155204.166        1885.274          38.000  
E27  23699949.057   124544076.847        1371.934          45.000  
G12  23539606.014   123701485.613        3934.860          35.000  
> 2024 02 13 08 30 42.0000000  0 15                     
G13  21870530.144   114930397.103       -2772.514          45.000  
G14  23605805.422   124049385.512       -3043.233          43.000  
G15  20483576.246   107641923.603       -1591.299          47.000  
G19  23037861.195   121064776.132        2602.447          43.000  
G22  22362423.618   117515439.324       -2346.494          46.000  
G24  20376560.063   107079586.727        1402.594          47.000  
E07  24803626.198   130343927.731       -2015.417          43.000  
G10  23902794.682   125610032.514        1994.885          43.000  
G17  22847820.855   120066114.075         498.001          44.000  
G23  22453023.202   117991328.583        -352.698          34.000  
E14  25812847.282   135647423.530        4454.504          39.000  
E30  24485316.104   128671258.364       -1482.211          44.000  
E20  28382944.126   149153319.418        1884.219          38.000  
E27  23699688.159   124542705.003        1371.425          45.000  
G12  23538857.182   123697550.733        3934.229          35.000  
> 2024 02 13 08 30 43.0000000  0 15                     
G13  21871057.690   114933169.601       -2772.661          45.000  
G14  23606384.638   124052428.732       -3043.104          43.000  
G15  20483878.972   107643515.073       -1591.517          47.000  
G19  23037366.132   121062173.782        2602.260          44.000  
G22  22362870.195   117517785.686       -2346.347          46.000  
G24  20376293.285   107078184.277        1402.384          47.000  
E07  24804009.919   130345943.188       -2015.407          43.000  
G10  23902414.887   125608037.805        1994.434          43.000  
G17  22847726.467   120065616.416         497.579          44.000  
G23  22453090.080   117991680.927        -352.762          34.000  
E14  25811999.489   135642968.958        4454.581          39.000  
E30  24485598.274   128672740.737       -1482.315          44.000  
E20  28382585.323   149151434.953        1884.774          38.000  
E27  23699426.999   124541333.605        1371.293          45.000  
G12  23538108.297   123693616.075        3934.659          35.000  
> 2024 02 13 08 30 44.0000000  0 15                     
G13  21871585.141   114935942.409       -2772.814          44.000  
G14  23606964.291   124055472.123       -3043.354          43.000  
G15  20484182.039   107645107.109       -1592.410          47.000  
G19  23036870.930   121059571.849        2601.787          44.000  
G22  22363316.746   117520132.386       -2346.732          47.000  
G24  20376026.776   107076782.229        1402.028          47.000  
E07  24804393.248   130347958.891       -2015.696          43.000  
G10  23902035.266   125606043.626        1993.793          43.000  
G17  22847631.878   120065119.352         496.942          43.000  
G23  22453157.150   117992033.869        -353.189          34.000  
E14  25811151.627   135638514.509        4454.730          39.000  
E30  24485880.305   128674223.376       -1482.615          44.000  
E20  28382226.643   149149550.753        1884.357          38.000  
E27  23699166.205   124539962.554        1370.969          45.000  
G12  23537359.368   123689681.624        3934.623          35.000  
> 2024 02 13 08 30 45.0000000  0 15                     
G13  21872113.053   114938715.358       -2773.283          45.000  
G14  23607544.005   124058515.528       -3043.506          43.000  
G15  20484485.132   107646699.513       -1592.573          47.000  
G19  23036375.937   121056970.148        2601.550          44.000  
G22  22363762.966   117522479.238       -2346.948          46.000  
G24  20375760.172   107075380.418        1401.835          47.000  
E07  24804776.691   130349974.669       -2015.751          43.000  
G10  23901656.126   125604049.800        1993.713          43.000  
G17  22847537.385   120064622.679         496.539          43.000  
G23  22453224.011   117992387.368        -354.232          34.000  
E14  25810303.782   135634060.003        4454.604          39.000  
E30  24486162.483   128675706.112       -1482.869          44.000  
E20  28381868.564   149147666.670        1883.799          38.000  
E27  23698905.124   124538591.684        1370.799          45.000  
G12  23536610.763   123685747.160        3934.663          34.000  
> 2024 02 13 08 30 46.0000000  0 15                     
G13  21872640.530   114941488.648       -2773.584          45.000  
G14  23608123.500   124061559.129       -3043.802          43.000  
G15  20484788.172   107648292.544       -1593.349          47.000  
G19  23035880.988   121054368.883        2600.946          44.000  
G22  22364209.072   117524826.423       -2347.402          46.000  
G24  20375493.166   107073979.070        1400.978          47.000  
E07  24805160.709   130351990.739       -2016.021          43.000  
G10  23901276.801   125602056.553        1993.030          43.000  
G17  22847442.813   120064126.626         496.010          43.000  
G23  22453291.369   117992741.488        -354.215          35.000  
E14  25809456.574   135629605.641        4454.411          39.000  
E30  24486444.461   128677189.165       -1483.099          45.000  
E20  28381510.032   149145782.806        1883.878          38.000  
E27  23698644.042   124537221.211        1370.338          45.000  
G12  23535861.991   123681812.958        3933.957          35.000  
> 2024 02 13 08 30 47.0000000  0 15                     
G13  21873168.731   114944262.305       -2773.698          45.000  
G14  23608702.943   124064602.985       -3043.902          43.000  
G15  20485091.588   107649886.185       -1594.164          47.000  
G19  23035386.283   121051768.083        2600.617          44.000  
G22  22364655.605   117527173.962       -2347.717          46.000  
G24  20375226.439   107072578.157        1401.027          47.000  
E07  24805544.299   130354007.109       -2016.470          43.000  
G10  23900897.355   125600063.900        1992.126          43.000  
G17  22847347.884   120063631.219         495.114          43.000  
G23  22453359.172   117993096.334        -355.388          35.000  
E14  25808609.697   135625151.482        4454.367          39.000  
E30  24486727.521   128678672.554       -1483.625          45.000  
E20  28381151.797   149143899.305        1883.101          38.000  
E27  23698383.188   124535851.147        1369.855          45.000  
G12  23535113.569   123677878.930        3934.174          35.000  
> 2024 02 13 08 30 48.0000000  0 15                     
G13  21873696.573   114947036.450       -2774.469          44.000  
G14  23609282.578   124067647.190       -3044.527          43.000  
G15  20485394.602   107651480.561       -1594.746          47.000  
G19  23034891.159   121049167.863        2599.823          44.000  
G22  22365102.244   117529522.009       -2348.383          46.000  
G24  20374960.149   107071177.867        1399.856          47.000  
E07  24805928.152   130356023.889       -2016.969          43.000  
G10  23900518.511   125598071.942        1991.626          43.000  
G17  22847253.383   120063136.550         494.166          43.000  
G23  22453427.245   117993451.988        -356.304          35.000  
E14  25807761.931   135620697.617        4453.665          39.000  
E30  24487010.005   128680156.365       -1484.087          45.000  
E20  28380793.762   149142016.217        1882.903          38.000  
E27  23698122.804   124534481.605        1369.195          45.000  
G12  23534365.182   123673945.285        3933.679          35.000  
> 2024 02 13 08 30 49.0000000  0 15                     
G13  21874224.408   114949810.763       -2774.414          44.000  
G14  23609861.969   124070691.440       -3044.484          44.000  
G15  20485698.123   107653075.366       -1595.008          47.000  
G19  23034396.515   121046567.910        2599.835          43.000  
G22  22365549.240   117531870.212       -2348.551          46.000  
G24  20374693.990   107069777.832        1399.945          47.000  
E07  24806311.795   130358040.798       -2016.973          43.000  
G10  23900139.440   125596080.398        1991.248          43.000  
G17  22847159.544   120062642.324         493.962          43.000  
G23  22453494.882   117993808.122        -356.361          35.000  
E14  25806914.173   135616243.721        4453.681          39.000  
E30  24487292.097   128681640.347       -1484.144          45.000  
E20  28380435.675   149140133.227        1883.115          38.000  
E27  23697861.836   124533112.293        1369.132          45.000  
G12  23533616.349   123670011.696        3933.891          35.000  
> 2024 02 13 08 30 50.0000000  0 15                     
G13  21874752.547   114952585.280       -2774.836          44.000  
G14  23610441.587   124073735.743       -3044.661          44.000  
G15  20486001.652   107654670.617       -1595.809          47.000  
G19  23033901.906   121043968.231        2599.201          44.000  
G22  22365996.183   117534218.604       -2348.760          46.000  
G24  20374427.533   107068378.085        1399.407          47.000  
E07  24806695.708   130360057.823       -2017.584          43.000  
G10  23899761.049   125594089.265        1990.649          43.000  
G17  22847065.514   120062148.571         492.816          43.000  
G23  22453562.493   117994164.832        -357.651          34.000  
E14  25806066.345   135611789.823        4453.496          39.000  
E30  24487574.625   128683124.451       -1484.498          45.000  
E20  28380077.361   149138250.416        1881.919          38.000  
E27  23697601.435   124531743.211        1368.590          45.000  
G12  23532867.979   123666078.181        3932.696          34.000  
> 2024 02 13 08 30 51.0000000  0 15                     
G13  21875280.312   114955360.236       -2775.504          44.000  
G14  23611021.205   124076780.341       -3044.898          44.000  
G15  20486304.884   107656266.539       -1596.314          47.000  
G19  23033407.533   121041369.081        2598.876          44.000  
G22  22366443.302   117536567.421       -2349.128          46.000  
G24  20374161.348   107066978.880        1398.757          47.000  
E07  24807079.639   130362075.206       -2017.782          43.000  
G10  23899382.100   125592098.771        1989.850          43.000  
G17  22846971.282   120061655.496         492.493          42.000  
G23  22453630.802   117994522.269        -358.116          36.000  
E14  25805218.308   135607336.149        4453.184          39.000  
E30  24487856.969   128684608.962       -1484.805          45.000  
E20  28379718.698   149136367.913        1882.422          38.000  
E27  23697340.956   124530374.599        1368.156          45.000  
G12  23532119.408   123662144.910        3933.120          34.000  
> 2024 02 13 08 30 52.0000000  0 15                     
G13  21875808.338   114958135.527       -2775.287          44.000  
G14  23611600.386   124079825.165       -3044.676          44.000  
G15  20486608.719   107657863.086       -1596.926          46.000  
G19  23032913.648   121038770.394        2598.610          44.000  
G22  22366890.463   117538916.597       -2349.220          46.000  
G24  20373895.546   107065580.118        1398.750          47.000  
E07  24807463.640   130364092.882       -2017.686          43.000  
G10  23899003.317   125590108.865        1989.551          43.000  
G17  22846877.130   120061163.043         492.231          42.000  
G23  22453699.198   117994880.375        -358.463          35.000  
E14  25804370.856   135602882.639        4453.657          39.000  
E30  24488139.357   128686093.785       -1484.839          45.000  
E20  28379360.244   149134485.738        1882.113          38.000  
E27  23697080.607   124529006.381        1368.073          45.000  
G12  23531370.541   123658211.873        3933.272          34.000  
> 2024 02 13 08 30 53.0000000  0 15                     
G13  21876336.573   114960911.005       -2775.462          44.000  
G14  23612180.301   124082870.029       -3044.601          44.000  
G15  20486912.719   107659460.053       -1597.186          46.000  
G19  23032419.109   121036171.973        2598.623          44.000  
G22  22367337.442   117541265.954       -2349.340          46.000  
G24  20373629.814   107064181.648        1398.390          47.000  
E07  24807847.414   130366110.683       -2017.901          44.000  
G10  23898624.709   125588119.355        1989.258          43.000  
G17  22846783.352   120060671.054         491.886          42.000  
G23  22453767.419   117995239.035        -358.912          36.000  
E14  25803523.220   135598429.128        4453.798          39.000  
E30  24488422.060   128687578.756       -1484.852          45.000  
E20  28379002.008   149132603.715        1881.754          38.000  
E27  23696819.997   124527638.389        1367.861          45.000  
G12  23530621.796   123654278.886        3933.626          34.000  
> 2024 02 13 08 30 54.0000000  0 15                     
G13  21876864.626   114963686.899       -2775.952          44.000  
G14  23612760.276   124085915.186       -3045.172          44.000  
G15  20487216.449   107661057.686       -1597.797          46.000  
G19  23031924.561   121033574.076        2597.888          44.000  
G22  22367784.796   117543615.716       -2349.824          46.000  
G24  20373363.821   107062783.696        1397.725          47.000  
E07  24808231.537   130368128.823       -2018.130          44.000  
G10  23898246.126   125586130.462        1988.794          43.000  
G17  22846689.994   120060179.747         490.943          42.000  
G23  22453836.348   117995598.400        -359.204          36.000  
E14  25802675.445   135593975.840        4453.321          39.000  
E30  24488704.439   128689064.097       -1485.345          44.000  
E20  28378644.349   149130721.966        1882.224          38.000  
E27  23696559.858   124526270.849        1367.543          45.000  
G12  23529873.234   123650346.191        3932.509          34.000  
> 2024 02 13 08 30 55.0000000  0 15                     
G13  21877392.547   114966463.016       -2776.257          44.000  
G14  23613339.588   124088960.420       -3045.105          44.000  
G15  20487520.414   107662655.804       -1598.293          46.000  
G19  23031430.126   121030976.496        2597.392          44.000  
G22  22368232.132   117545965.705       -2350.049          46.000  
G24  20373098.071   107061386.058        1397.563          47.000  
E07  24808615.651   130370147.118       -2018.253          43.000  
G10  23897867.893   125584142.054        1988.104          43.000  
G17  22846596.696   120059688.945         490.500          42.000  
G23  22453905.590   117995958.373        -360.093          37.000  
E14  25801827.958   135589522.581        4453.084          39.000  
E30  24488986.801   128690549.633       -1485.631          44.000  
E20  28378285.895   149128840.464        1881.186          38.000  
E27  23696299.675   124524903.590        1367.096          45.000  
G12  23529124.689   123646413.599        3932.876          34.000  
> 2024 02 13 08 30 56.0000000  0 15                     
G13  21877920.390   114969239.456       -2776.533          44.000  
G14  23613919.712   124092005.880       -3045.471          44.000  
G15  20487824.528   107664254.510       -1598.999          46.000  
G19  23030935.762   121028379.347        2597.171          44.000  
G22  22368678.962   117548316.050       -2350.419          46.000  
G24  20372832.610   107059988.861        1397.289          47.000  
E07  24808999.870   130372165.707       -2018.653          43.000  
G10  23897489.607   125582154.197        1987.860          42.000  
G17  22846503.329   120059198.747         489.942          43.000  
G23  22453974.693   117996319.008        -360.902          37.000  
E14  25800980.898   135585069.470        4453.325          39.000  
E30  24489269.678   128692035.470       -1485.839          44.000  
E20  28377927.546   149126959.179        1881.591          38.000  
E27  23696039.571   124523536.704        1366.747          45.000  
G12  23528376.145   123642481.169        3932.719          34.000  
> 2024 02 13 08 30 57.0000000  0 15                     
G13  21878448.451   114972016.004       -2776.383          43.000  
G14  23614499.548   124095051.308       -3045.323          44.000  
G15  20488128.720   107665853.569       -1599.237          46.000  
G19  23030441.266   121025782.403        2597.155          43.000  
G22  22369126.464   117550666.486       -2350.378          46.000  
G24  20372567.253   107058591.872        1397.322          47.000  
E07  24809383.714   130374184.332       -2018.521          43.000  
G10  23897111.033   125580166.656        1987.610          42.000  
G17  22846410.563   120058708.929         489.552          43.000  
G23  22454044.005   117996680.064        -360.919          38.000  
E14  25800133.769   135580616.260        4453.525          39.000  
E30  24489552.206   128693521.364       -1485.665          44.000  
E20  28377569.695   149125077.971        1881.477          38.000  
E27  23695779.484   124522169.966        1366.804          45.000  
G12  23527627.696   123638548.712        3933.062          34.000  
> 2024 02 13 08 30 58.0000000  0 15                     
G13  21878976.809   114974793.004       -2777.498          43.000  
G14  23615078.852   124098097.042       -3046.225          44.000  
G15  20488433.113   107667453.325       -1600.221          46.000  
G19  23029947.067   121023186.007        2595.884          44.000  
G22  22369573.670   117553017.381       -2351.473          46.000  
G24  20372301.757   107057195.440        1395.917          47.000  
E07  24809768.081   130376203.327       -2019.318          43.000  
G10  23896732.634   125578179.782        1986.420          42.000  
G17  22846317.728   120058219.804         488.521          43.000  
G23  22454113.370   117997041.935        -362.877          38.000  
E14  25799286.692   135576163.329        4452.669          39.000  
E30  24489835.405   128695007.671       -1486.726          44.000  
E20  28377211.695   149123197.171        1880.015          38.000  
E27  23695519.773   124520803.716        1365.733          45.000  
G12  23526879.771   123634616.631        3931.459          33.000  
> 2024 02 13 08 30 59.0000000  0 15                     
G13  21879505.175   114977570.735       -2777.929          43.000  
G14  23615658.827   124101143.369       -3046.442          44.000  
G15  20488737.436   107669054.069       -1600.959          46.000  
G19  23029453.052   121020590.442        2595.205          43.000  
G22  22370020.806   117555368.986       -2351.882          46.000  
G24  20372036.391   107055799.834        1395.334          47.000  
E07  24810152.448   130378222.985       -2019.561          43.000  
G10  23896354.749   125576193.875        1985.730          42.000  
G17  22846224.814   120057731.702         487.914          43.000  
G23  22454183.066   117997404.821        -363.255          38.000  
E14  25798439.291   135571710.889        4452.892          39.000  
E30  24490118.046   128696494.664       -1487.146          44.000  
E20  28376853.843   149121316.969        1880.774          38.000  
E27  23695259.503   124519438.237        1365.458          45.000  
G12  23526131.663   123630685.084        3931.636          34.000  
> 2024 02 13 08 31 00.0000000  0 15                     
G13  21880033.742   114980348.775       -2778.109          44.000  
G14  23616238.750   124104189.861       -3046.391          44.000  
G15  20489041.829   107670655.377       -1601.464          46.000  
G19  23028958.766   121017995.260        2595.065          43.000  
G22  22370468.491   117557720.907       -2351.946          46.000  
G24  20371770.712   107054404.629        1395.106          47.000  
E07  24810536.990   130380242.903       -2020.097          43.000  
G10  23895977.039   125574208.486        1985.364          42.000  
G17  22846132.232   120057244.189         487.457          43.000  
G23  22454252.570   117997768.373        -363.692          38.000  
E14  25797591.795   135567258.617        4452.028          39.000  
E30  24490401.080   128697981.932       -1487.266          45.000  
E20  28376495.660   149119437.094        1879.646          38.000  
E27  23694999.992   124518073.113        1364.984          45.000  
G12  23525383.755   123626753.739        3931.826          34.000  
> 2024 02 13 08 31 01.0000000  0 15                     
G13  21880562.126   114983127.215       -2778.572          44.000  
G14  23616819.013   124107236.663       -3047.125          44.000  
G15  20489346.344   107672257.353       -1602.635          46.000  
G19  23028464.951   121015400.604        2594.466          44.000  
G22  22370915.801   117560073.246       -2352.760          46.000  
G24  20371505.399   107053009.959        1394.207          48.000  
E07  24810921.671   130382263.178       -2020.709          43.000  
G10  23895599.329   125572223.776        1983.893          42.000  
G17  22846039.676   120056757.338         486.588          43.000  
G23  22454322.650   117998132.684        -364.896          39.000  
E14  25796744.614   135562806.553        4451.682          39.000  
E30  24490684.655   128699469.586       -1488.055          45.000  
E20  28376138.428   149117557.563        1879.299          38.000  
E27  23694740.682   124516708.471        1364.100          45.000  
G12  23524635.839   123622822.699        3930.370          34.000  
> 2024 02 13 08 31 02.0000000  0 15                     
G13  21881091.086   114985905.921       -2778.741          44.000  
G14  23617398.832   124110283.588       -3046.942          44.000  
G15  20489651.199   107673859.830       -1602.613          45.000  
G19  23027971.476   121012806.315        2594.064          44.000  
G22  22371363.460   117562425.844       -2352.551          46.000  
G24  20371239.928   107051615.651        1394.146          48.000  
E07  24811305.655   130384283.632       -2020.392          43.000  
G10  23895221.715   125570239.508        1983.606          42.000  
G17  22845947.461   120056271.050         485.958          43.000  
G23  22454392.303   117998497.564        -365.341          39.000  
E14  25795897.536   135558354.573        4451.873          40.000  
E30  24490968.029   128700957.461       -1487.926          45.000  
E20  28375780.271   149115678.207        1879.509          38.000  
E27  23694481.162   124515344.104        1364.283          45.000  
G12  23523887.783   123618891.763        3930.568          34.000  
> 2024 02 13 08 31 03.0000000  0 15                     
G13  21881619.880   114988685.071       -2779.539          44.000  
G14  23617978.746   124113330.805       -3047.327          44.000  
G15  20489955.653   107675463.001       -1603.506          45.000  
G19  23027477.574   121010212.540        2593.551          44.000  
G22  22371811.076   117564778.880       -2353.241          46.000  
G24  20370974.886   107050221.861        1393.604          48.000  
E07  24811690.170   130386304.460       -2021.049          43.000  
G10  23894844.023   125568255.905        1983.362          41.000  
G17  22845855.219   120055785.446         485.087          44.000  
G23  22454462.366   117998863.226        -366.249          39.000  
E14  25795051.114   135553902.829        4451.460          40.000  
E30  24491251.386   128702445.731       -1488.651          45.000  
E20  28375422.847   149113799.252        1878.660          38.000  
E27  23694222.140   124513980.229        1363.601          45.000  
G12  23523140.355   123614961.143        3930.405          34.000  
> 2024 02 13 08 31 04.0000000  0 15                     
G13  21882148.656   114991464.537       -2779.523          44.000  
G14  23618559.306   124116378.223       -3047.350          45.000  
G15  20490260.465   107677066.760       -1603.930          45.000  
G19  23026983.846   121007619.210        2593.007          43.000  
G22  22372259.075   117567132.238       -2353.423          46.000  
G24  20370710.157   107048828.520        1393.134          48.000  
E07  24812074.537   130388325.560       -2021.232          43.000  
G10  23894466.418   125566272.871        1982.873          41.000  
G17  22845763.003   120055300.447         484.661          44.000  
G23  22454532.611   117999229.564        -366.797          39.000  
E14  25794204.577   135549451.223        4451.321          40.000  
E30  24491534.768   128703934.291       -1488.677          45.000  
E20  28375064.786   149111920.547        1878.810          38.000  
E27  23693962.716   124512616.735        1363.251          45.000  
G12  23522392.578   123611030.710        3930.545          34.000  
> 2024 02 13 08 31 05.0000000  0 15                     
G13  21882677.695   114994244.642       -2779.907          44.000  
G14  23619139.369   124119426.153       -3047.580          45.000  
G15  20490565.939   107678671.410       -1604.593          45.000  
G19  23026490.502   121005026.585        2592.914          43.000  
G22  22372707.275   117569486.235       -2353.839          46.000  
G24  20370444.931   107047435.895        1392.983          47.000  
E07  24812459.629   130390347.230       -2021.544          44.000  
G10  23894089.432   125564290.693        1982.111          41.000  
G17  22845671.581   120054816.343         484.262          44.000  
G23  22454602.482   117999596.847        -367.327          39.000  
E14  25793357.710   135545000.041        4451.674          40.000  
E30  24491818.012   128705423.460       -1488.982          45.000  
E20  28374707.300   149110042.421        1878.524          38.000  
E27  23693703.484   124511253.898        1362.967          45.000  
G12  23521644.714   123607100.785        3930.166          34.000  
> 2024 02 13 08 31 06.0000000  0 15                     
G13  21883206.733   114997025.056       -2780.576          44.000  
G14  23619719.589   124122474.252       -3048.397          45.000  
G15  20490871.746   107680276.616       -1605.661          45.000  
G19  23025996.853   121002434.381        2591.915          43.000  
G22  22373155.013   117571840.552       -2354.907          46.000  
G24  20370179.697   107046043.698        1392.096          47.000  
E07  24812844.258   130392369.131       -2021.916          43.000  
G10  23893711.783   125562309.045        1981.415          41.000  
G17  22845579.811   120054332.840         483.239          44.000  
G23  22454672.676   117999964.786        -368.576          39.000  
E14  25792510.964   135540549.011        4450.813          40.000  
E30  24492101.682   128706912.880       -1489.524          45.000  
E20  28374350.208   149108164.600        1877.308          38.000  
E27  23693443.895   124509891.427        1362.237          45.000  
G12  23520896.990   123603171.023        3929.983          34.000  
> 2024 02 13 08 31 07.0000000  0 15                     
G13  21883735.474   114999805.703       -2780.469          44.000  
G14  23620299.887   124125522.452       -3048.095          45.000  
G15  20491177.020   107681882.286       -1605.510          45.000  
G19  23025503.474   120999842.516        2591.668          43.000  
G22  22373603.126   117574195.059       -2354.557          46.000  
G24  20369914.898   107044651.838        1391.867          47.000  
E07  24813229.306   130394391.220       -2021.974          44.000  
G10  23893334.440   125560327.857        1981.403          41.000  
G17  22845488.354   120053849.816         483.023          44.000  
G23  22454743.305   118000333.285        -368.811          40.000  
E14  25791664.332   135536098.003        4451.284          40.000  
E30  24492385.754   128708402.512       -1489.524          45.000  
E20  28373992.801   149106286.877        1878.005          38.000  
E27  23693184.550   124508529.242        1362.130          45.000  
G12  23520149.414   123599241.371        3930.255          34.000  
> 2024 02 13 08 31 08.0000000  0 15                     
G13  21884264.949   115002586.478       -2780.760          44.000  
G14  23620879.897   124128570.651       -3048.107          45.000  
G15  20491482.643   107683488.359       -1606.103          45.000  
G19  23025010.348   120997250.873        2591.456          43.000  
G22  22374050.750   117576549.728       -2354.503          46.000  
G24  20369650.004   107043260.185        1391.981          47.000  
E07  24813614.022   130396413.365       -2021.925          44.000  
G10  23892957.541   125558347.040        1980.890          41.000  
G17  22845396.775   120053367.212         482.441          44.000  
G23  22454813.665   118000702.243        -368.974          40.000  
E14  25790817.185   135531646.937        4451.383          40.000  
E30  24492669.207   128709892.230       -1489.714          45.000  
E20  28373635.691   149104409.292        1877.412          38.000  
E27  23692925.763   124507167.220        1361.898          45.000  
G12  23519401.882   123595311.725        3929.848          34.000  
> 2024 02 13 08 31 09.0000000  0 15                     
G13  21884794.598   115005367.561       -2781.187          44.000  
G14  23621459.777   124131619.024       -3048.369          45.000  
G15  20491788.109   107685095.003       -1606.824          45.000  
G19  23024517.301   120994659.638        2591.011          43.000  
G22  22374498.837   117578904.701       -2354.933          46.000  
G24  20369384.866   107041868.970        1391.133          47.000  
E07  24813999.000   130398435.779       -2022.427          44.000  
G10  23892580.896   125556366.747        1980.078          41.000  
G17  22845305.101   120052885.167         481.974          44.000  
G23  22454884.198   118001071.861        -369.990          40.000  
E14  25789970.570   135527196.017        4450.883          40.000  
E30  24492952.939   128711382.226       -1490.079          45.000  
E20  28373278.407   149102531.918        1877.515          38.000  
E27  23692666.749   124505805.550        1361.626          45.000  
G12  23518654.035   123591382.264        3929.326          33.000  
> 2024 02 13 08 31 10.0000000  0 15                     
G13  21885323.680   115008149.073       -2781.840          44.000  
G14  23622040.101   124134667.681       -3048.695          45.000  
G15  20492093.706   107686702.306       -1607.521          45.000  
G19  23024024.498   120992068.925        2590.295          43.000  
G22  22374946.950   117581260.091       -2355.618          46.000  
G24  20369120.154   107040478.269        1390.316          47.000  
E07  24814384.588   130400458.523       -2022.764          44.000  
G10  23892203.788   125554387.104        1979.352          41.000  
G17  22845213.740   120052403.820         481.056          44.000  
G23  22454954.662   118001442.201        -370.387          39.000  
E14  25789123.240   135522745.303        4450.487          39.000  
E30  24493236.453   128712872.595       -1490.472          45.000  
E20  28372921.070   149100654.905        1877.283          38.000  
E27  23692407.867   124504444.348        1361.125          45.000  
G12  23517906.154   123587453.069        3928.716          33.000  
> 2024 02 13 08 31 11.0000000  0 15                     
G13  21885852.797   115010930.891       -2781.816          44.000  
G14  23622619.928   124137716.524       -3048.816          45.000  
G15  20492399.818   107688310.177       -1608.139          45.000  
G19  23023531.966   120989478.618        2590.037          43.000  
G22  22375395.080   117583615.800       -2355.753          46.000  
G24  20368855.487   107039087.981        1390.298          47.000  
E07  24814768.799   130402481.527       -2023.028          44.000  
G10  23891827.256   125552407.991        1979.126          41.000  
G17  22845122.345   120051923.056         480.620          44.000  
G23  22455025.187   118001813.233        -371.192          39.000  
E14  25788276.590   135518294.732        4450.502          40.000  
E30  24493520.725   128714363.239       -1490.609          45.000  
E20  28372563.742   149098778.197        1876.482          38.000  
E27  23692148.696   124503083.508        1360.827          45.000  
G12  23517158.499   123583524.056        3929.346          33.000  
> 2024 02 13 08 31 12.0000000  0 15                     
G13  21886382.437   115013713.035       -2781.912          44.000  
G14  23623200.148   124140765.550       -3048.898          45.000  
G15  20492705.956   107689918.623       -1608.407          45.000  
G19  23023039.006   120986888.722        2589.920          43.000  
G22  22375843.202   117585971.824       -2355.963          46.000  
G24  20368590.715   107037698.108        1390.079          47.000  
E07  24815153.960   130404504.773       -2023.009          44.000  
G10  23891450.531   125550429.424        1978.394          41.000  
G17  22845031.272   120051442.871         480.215          44.000  
G23  22455095.233   118002184.869        -371.378          39.000  
E14  25787430.019   135513844.265        4450.812          40.000  
E30  24493804.344   128715854.171       -1490.832          45.000  
E20  28372206.405   149096901.694        1877.016          38.000  
E27  23691889.909   124501723.031        1360.522          45.000  
G12  23516410.434   123579595.223        3929.200          33.000  
> 2024 02 13 08 31 13.0000000  0 15                     
G13  21886912.095   115016495.487       -2782.618          44.000  
G14  23623780.228   124143814.758       -3049.389          45.000  
G15  20493012.216   107691527.648       -1609.429          45.000  
G19  23022546.125   120984299.258        2589.054          43.000  
G22  22376291.646   117588328.158       -2356.603          46.000  
G24  20368326.353   107036308.668        1389.111          47.000  
E07  24815539.348   130406528.298       -2023.824          44.000  
G10  23891073.921   125548451.404        1977.795          41.000  
G17  22844939.920   120050963.289         479.275          44.000  
G23  22455165.958   118002557.208        -373.323          39.000  
E14  25786583.291   135509393.950        4449.854          40.000  
E30  24494088.267   128717345.380       -1491.540          45.000  
E20  28371849.147   149095025.487        1875.969          38.000  
E27  23691630.983   124500362.912        1359.814          45.000  
G12  23515662.605   123575666.596        3928.357          32.000  
> 2024 02 13 08 31 14.0000000  0 15                     
G13  21887441.909   115019278.210       -2783.143          44.000  
G14  23624360.544   124146864.107       -3049.674          45.000  
G15  20493319.052   107693137.195       -1610.259          45.000  
G19  23022053.426   120981710.160        2588.606          43.000  
G22  22376740.064   117590684.769       -2356.944          46.000  
G24  20368062.104   107034919.604        1388.728          47.000  
E07  24815924.282   130408552.017       -2024.042          44.000  
G10  23890697.598   125546473.886        1976.910          41.000  
G17  22844848.847   120050484.243         478.404          44.000  
G23  22455236.483   118002930.127        -373.635          39.000  
E14  25785736.449   135504943.722        4449.742          40.000  
E30  24494371.799   128718836.828       -1491.895          45.000  
E20  28371492.011   149093149.516        1875.316          38.000  
E27  23691372.449   124499003.112        1359.328          45.000  
G12  23514914.619   123571738.078        3928.478          33.000  
> 2024 02 13 08 31 15.0000000  0 15                     
G13  21887971.637   115022061.232       -2783.128          44.000  
G14  23624940.580   124149913.625       -3049.513          45.000  
G15  20493625.364   107694747.282       -1610.336          45.000  
G19  23021560.789   120979121.470        2588.476          43.000  
G22  22377188.456   117593041.685       -2357.173          46.000  
G24  20367797.829   107033530.949        1388.471          47.000  
E07  24816310.063   130410575.966       -2023.818          44.000  
G10  23890320.909   125544496.887        1976.501          41.000  
G17  22844758.062   120050005.770         478.089          44.000  
G23  22455306.982   118003303.647        -373.727          38.000  
E14  25784889.328   135500493.567        4450.346          40.000  
E30  24494655.496   128720328.531       -1491.695          45.000  
E20  28371135.092   149091273.723        1876.138          38.000  
E27  23691113.741   124497643.654        1359.386          45.000  
G12  23514166.738   123567809.803        3927.622          32.000  
> 2024 02 13 08 31 16.0000000  0 15                     
G13  21888501.417   115024844.456       -2783.511          44.000  
G14  23625520.687   124152963.219       -3049.714          45.000  
G15  20493932.156   107696357.820       -1610.668          45.000  
G19  23021068.082   120976533.067        2588.344          43.000  
G22  22377636.909   117595398.793       -2357.323          46.000  
G24  20367533.816   107032142.586        1388.315          47.000  
E07  24816695.434   130412600.076       -2024.336          44.000  
G10  23889944.665   125542520.303        1976.373          41.000  
G17  22844667.243   120049527.765         477.752          44.000  
G23  22455378.118   118003677.767        -374.285          38.000  
E14  25784042.792   135496043.467        4449.883          40.000  
E30  24494939.489   128721820.402       -1492.046          45.000  
E20  28370777.930   149089398.136        1875.216          38.000  
E27  23690855.478   124496284.447        1359.003          45.000  
G12  23513418.464   123563881.477        3928.527          32.000  
> 2024 02 13 08 31 17.0000000  0 15                     
G13  21889031.432   115027628.200       -2784.458          45.000  
G14  23626101.220   124156013.194       -3050.533          45.000  
G15  20494238.617   107697969.148       -1612.113          45.000  
G19  23020575.611   120973945.314        2587.204          43.000  
G22  22378085.825   117597756.426       -2358.408          46.000  
G24  20367269.899   107030754.852        1387.067          47.000  
E07  24817080.534   130414624.632       -2025.206          44.000  
G10  23889568.168   125540544.488        1975.067          41.000  
G17  22844576.580   120049050.564         476.444          44.000  
G23  22455449.071   118004052.693        -375.415          38.000  
E14  25783196.369   135491593.683        4449.269          40.000  
E30  24495223.378   128723312.770       -1493.073          45.000  
E20  28370421.003   149087522.999        1874.741          38.000  
E27  23690596.962   124494925.821        1357.775          45.000  
G12  23512664.998   123559953.671        3927.523          32.000  
> 2024 02 13 08 31 18.0000000  0 15                     
G13  21889561.701   115030412.386       -2784.522          45.000  
G14  23626681.414   124159063.486       -3050.612          45.000  
G15  20494545.627   107699581.155       -1612.453          45.000  
G19  23020083.314   120971358.091        2586.988          43.000  
G22  22378534.671   117600114.485       -2358.450          46.000  
G24  20367006.226   107029367.658        1386.825          47.000  
E07  24817466.489   130416649.565       -2025.117          44.000  
G10  23889192.290   125538569.350        1974.750          41.000  
G17  22844485.708   120048574.087         476.070          44.000  
G23  22455520.006   118004428.420        -375.653          38.000  
E14  25782349.746   135487144.161        4449.516          40.000  
E30  24495507.406   128724805.517       -1492.857          45.000  
E20  28370063.867   149085648.227        1874.935          38.000  
E27  23690338.210   124493567.656        1357.981          45.000  
G12  23511910.555   123556026.160        3927.126          32.000  
> 2024 02 13 08 31 19.0000000  0 15                     
G13  21890091.699   115033196.814       -2784.282          45.000  
G14  23627261.608   124162113.893       -3050.300          45.000  
G15  20494852.838   107701193.675       -1612.334          45.000  
G19  23019591.000   120968771.213        2586.868          43.000  
G22  22378983.752   117602472.803       -2358.089          46.000  
G24  20366742.414   107027980.826        1386.990          47.000  
E07  24817852.043   130418674.693       -2024.942          44.000  
G10  23888816.578   125536594.676        1974.847          41.000  
G17  22844395.185   120048098.133         475.972          44.000  
G23  22455591.430   118004804.774        -376.650          38.000  
E14  25781503.279   135482694.702        4449.915          40.000  
E30  24495791.409   128726298.512       -1492.713          45.000  
E20  28369707.368   149083773.702        1874.566          38.000  
E27  23690080.008   124492209.807        1358.215          45.000  
G12  23511165.091   123552098.702        3928.345          32.000  
> 2024 02 13 08 31 20.0000000  0 15                     
G13  21890621.557   115035981.191       -2784.537          45.000  
G14  23627842.080   124165164.110       -3050.369          45.000  
G15  20495159.884   107702806.390       -1612.880          45.000  
G19  23019098.686   120966184.375        2586.597          43.000  
G22  22379432.703   117604831.074       -2358.445          46.000  
G24  20366478.602   107026594.040        1386.500          48.000  
E07  24818237.719   130420699.701       -2025.306          44.000  
G10  23888441.215   125534620.166        1974.384          41.000  
G17  22844304.715   120047622.373         475.654          44.000  
G23  22455662.836   118005181.345        -376.714          37.000  
E14  25780656.359   135478244.990        4449.919          41.000  
E30  24496075.664   128727791.392       -1492.988          45.000  
E20  28369350.764   149081898.991        1874.970          38.000  
E27  23689821.771   124490851.937        1357.928          45.000  
G12  23510422.087   123548171.121        3928.120          32.000  
> 2024 02 13 08 31 21.0000000  0 15                     
G13  21891151.939   115038766.021       -2784.808          45.000  
G14  23628422.466   124168214.655       -3050.352          45.000  
G15  20495466.955   107704419.820       -1613.335          45.000  
G19  23018606.293   120963598.092        2586.153          43.000  
G22  22379881.819   117607189.783       -2358.613          46.000  
G24  20366215.217   107025207.793        1386.386          48.000  
E07  24818623.124   130422725.082       -2025.076          44.000  
G10  23888065.870   125532646.338        1973.865          41.000  
G17  22844214.078   120047147.353         475.006          44.000  
G23  22455734.190   118005558.714        -377.081          37.000  
E14  25779809.997   135473795.571        4449.605          41.000  
E30  24496359.884   128729284.704       -1493.196          45.000  
E20  28368994.021   149080024.726        1874.161          38.000  
E27  23689563.778   124489494.573        1357.542          45.000  
G12  23509678.167   123544243.845        3927.852          32.000  
> 2024 02 13 08 31 22.0000000  0 15                     
G13  21891682.452   115041551.159       -2785.646          45.000  
G14  23629002.974   124171265.379       -3051.333          45.000  
G15  20495774.603   107706033.817       -1614.889          45.000  
G19  23018114.031   120961012.216        2585.320          43.000  
G22  22380330.787   117609548.806       -2359.549          46.000  
G24  20365951.841   107023821.976        1385.196          48.000  
E07  24819009.088   130424750.727       -2026.196          44.000  
G10  23887690.498   125530673.030        1972.998          41.000  
G17  22844123.616   120046672.909         473.778          44.000  
G23  22455805.448   118005936.755        -378.674          37.000  
E14  25778963.653   135469346.240        4448.768          41.000  
E30  24496643.878   128730778.270       -1494.173          45.000  
E20  28368637.582   149078150.708        1873.749          38.000  
E27  23689305.672   124488137.572        1356.239          45.000  
G12  23508930.154   123540316.774        3926.372          32.000  
> 2024 02 13 08 31 23.0000000  0 15                     
G13  21892212.659   115044336.903       -2785.990          45.000  
G14  23629583.647   124174316.552       -3051.214          45.000  
G15  20496082.023   107707648.656       -1615.181          45.000  
G19  23017622.040   120958427.047        2585.144          43.000  
G22  22380779.720   117611908.430       -2359.759          46.000  
G24  20365688.683   107022436.866        1384.773          48.000  
E07  24819394.694   130426776.916       -2026.435          44.000  
G10  23887315.127   125528700.596        1972.241          41.000  
G17  22844033.006   120046199.344         473.307          44.000  
G23  22455877.412   118006315.732        -379.370          38.000  
E14  25778117.204   135464897.351        4448.687          41.000  
E30  24496928.212   128732272.415       -1494.367          45.000  
E20  28368281.127   149076277.227        1873.357          38.000  
E27  23689047.469   124486781.207        1356.047          45.000  
G12  23508182.264   123536390.190        3925.916          32.000  
> 2024 02 13 08 31 24.0000000  0 15                     
G13  21892742.954   115047122.893       -2786.479          46.000  
G14  23630164.320   124177367.849       -3051.551          45.000  
G15  20496389.557   107709264.000       -1615.964          45.000  
G19  23017130.458   120955842.227        2584.556          44.000  
G22  22381228.670   117614268.289       -2360.082          46.000  
G24  20365425.167   107021052.095        1384.448          48.000  
E07  24819779.821   130428803.272       -2026.693          44.000  
G10  23886939.720   125526728.615        1971.356          41.000  
G17  22843942.561   120045726.295         472.509          44.000  
G23  22455949.587   118006695.264        -380.063          38.000  
E14  25777270.903   135460448.522        4448.395          41.000  
E30  24497212.877   128733766.752       -1494.658          45.000  
E20  28367925.090   149074403.961        1872.552          38.000  
E27  23688789.424   124485425.130        1355.544          45.000  
G12  23507428.764   123532463.621        3926.467          32.000  
> 2024 02 13 08 31 25.0000000  0 15                     
G13  21893273.266   115049909.324       -2786.459          46.000  
G14  23630744.811   124180419.457       -3051.544          45.000  
G15  20496697.239   107710880.034       -1616.137          45.000  
G19  23016638.842   120953257.983        2583.924          44.000  
G22  22381678.101   117616628.616       -2360.476          46.000  
G24  20365161.712   107019667.894        1384.082          48.000  
E07  24820165.523   130430830.019       -2026.798          44.000  
G10  23886564.549   125524757.303        1971.075          41.000  
G17  22843852.431   120045253.964         472.212          43.000  
G23  22456021.996   118007075.622        -380.598          38.000  
E14  25776424.498   135455999.950        4448.485          41.000  
E30  24497497.063   128735261.533       -1494.937          45.000  
E20  28367568.800   149072531.060        1873.084          38.000  
E27  23688531.318   124484069.566        1355.416          45.000  
G12  23506682.017   123528537.417        3926.639          32.000  
> 2024 02 13 08 31 26.0000000  0 15                     
G13  21893803.648   115052695.812       -2786.786          46.000  
G14  23631325.240   124183471.000       -3051.802          45.000  
G15  20497004.965   107712496.380       -1616.898          45.000  
G19  23016147.758   120950673.859        2583.819          44.000  
G22  22382127.208   117618988.990       -2360.738          46.000  
G24  20364898.013   107018283.829        1383.844          47.000  
E07  24820551.504   130432856.767       -2027.063          44.000  
G10  23886189.326   125522786.290        1970.483          40.000  
G17  22843761.917   120044781.964         471.368          43.000  
G23  22456094.022   118007456.331        -381.310          38.000  
E14  25775577.953   135451551.234        4448.503          41.000  
E30  24497781.283   128736756.311       -1495.233          45.000  
E20  28367212.353   149070658.161        1872.495          38.000  
E27  23688273.578   124482714.086        1354.969          45.000  
G12  23505936.430   123524611.173        3925.739          32.000  
> 2024 02 13 08 31 27.0000000  0 15                     
G13  21894333.533   115055482.794       -2786.855          46.000  
G14  23631905.905   124186522.902       -3051.862          45.000  
G15  20497312.595   107714113.464       -1617.083          45.000  
G19  23015656.360   120948090.339        2583.554          44.000  
G22  22382576.560   117621349.852       -2360.835          46.000  
G24  20364634.707   107016900.375        1383.516          47.000  
E07  24820937.328   130434883.939       -2027.203          44.000  
G10  23885814.146   125520815.977        1970.184          40.000  
G17  22843671.760   120044310.713         471.118          43.000  
G23  22456166.885   118007837.846        -381.390          38.000  
E14  25774731.146   135447102.828        4448.438          41.000  
E30  24498065.512   128738251.540       -1495.290          45.000  
E20  28366855.994   149068785.738        1872.305          38.000  
E27  23688015.525   124481359.137        1355.000          45.000  
G12  23505195.738   123520685.295        3926.591          32.000  
> 2024 02 13 08 31 28.0000000  0 15                     
G13  21894864.072   115058269.965       -2787.350          46.000  
G14  23632486.683   124189574.849       -3052.137          45.000  
G15  20497620.347   107715730.996       -1617.892          45.000  
G19  23015165.223   120945507.123        2583.128          44.000  
G22  22383025.519   117623710.896       -2361.256          46.000  
G24  20364371.610   107015517.213        1382.907          47.000  
E07  24821322.847   130436911.230       -2027.392          44.000  
G10  23885438.931   125518846.075        1969.775          40.000  
G17  22843581.935   120043839.941         470.247          43.000  
G23  22456239.958   118008219.925        -382.276          39.000  
E14  25773884.331   135442654.424        4448.215          41.000  
E30  24498349.872   128739746.912       -1495.553          45.000  
E20  28366499.704   149066913.380        1872.559          38.000  
E27  23687757.558   124480004.436        1354.437          45.000  
G12  23504449.575   123516759.457        3925.852          33.000  
> 2024 02 13 08 31 29.0000000  0 15                     
G13  21895394.846   115061057.460       -2787.747          46.000  
G14  23633067.583   124192626.984       -3052.402          45.000  
G15  20497928.509   107717349.110       -1618.595          45.000  
G19  23014673.773   120942924.335        2582.267          44.000  
G22  22383475.054   117626072.268       -2361.752          46.000  
G24  20364108.461   107014134.472        1382.504          47.000  
E07  24821708.803   130438938.786       -2027.918          43.000  
G10  23885064.083   125516876.740        1968.707          40.000  
G17  22843492.014   120043369.748         469.844          43.000  
G23  22456313.109   118008602.656        -383.247          39.000  
E14  25773037.550   135438206.164        4448.176          40.000  
E30  24498634.224   128741242.582       -1496.025          45.000  
E20  28366143.283   149065041.396        1871.069          38.000  
E27  23687500.037   124478650.097        1353.957          45.000  
G12  23503701.990   123512833.844        3924.807          33.000  
> 2024 02 13 08 31 30.0000000  0 15                     
G13  21895925.359   115063845.425       -2788.205          46.000  
G14  23633648.605   124195679.450       -3052.731          45.000  
G15  20498236.776   107718967.943       -1619.253          45.000  
G19  23014182.427   120940342.105        2581.911          44.000  
G22  22383924.642   117628434.100       -2362.080          46.000  
G24  20363845.486   107012752.308        1381.669          47.000  
E07  24822094.627   130440966.746       -2028.255          43.000  
G10  23884689.253   125514908.081        1968.231          40.000  
G17  22843402.224   120042900.306         469.128          43.000  
G23  22456386.374   118008986.180        -384.439          39.000  
E14  25772190.997   135433758.179        4447.625          40.000  
E30  24498919.413   128742738.668       -1496.230          45.000  
E20  28365787.124   149063169.700        1871.897          38.000  
E27  23687242.655   124477296.272        1353.486          45.000  
G12  23502954.537   123508908.502        3925.423          32.000  
> 2024 02 13 08 31 31.0000000  0 15                     
G13  21896456.133   115066634.005       -2789.085          46.000  
G14  23634229.715   124198732.425       -3053.489          45.000  
G15  20498545.147   107720587.667       -1620.604          45.000  
G19  23013691.422   120937760.601        2580.778          44.000  
G22  22384374.212   117630796.574       -2362.956          46.000  
G24  20363582.668   107011370.882        1380.637          47.000  
E07  24822480.163   130442995.273       -2029.044          43.000  
G10  23884315.120   125512940.301        1966.937          41.000  
G17  22843312.923   120042431.781         467.565          43.000  
G23  22456460.162   118009370.679        -385.284          39.000  
E14  25771344.487   135429310.653        4446.817          40.000  
E30  24499204.157   128744235.375       -1497.282          45.000  
E20  28365431.166   149061298.636        1870.912          38.000  
E27  23686985.159   124475943.131        1352.461          45.000  
G12  23502207.816   123504983.749        3924.070          33.000  
> 2024 02 13 08 31 32.0000000  0 15                     
G13  21896987.021   115069423.184       -2789.474          46.000  
G14  23634810.930   124201785.855       -3053.750          45.000  
G15  20498853.187   107722208.208       -1621.110          46.000  
G19  23013200.373   120935179.795        2580.287          44.000  
G22  22384824.008   117633159.621       -2363.409          46.000  
G24  20363319.763   107009990.132        1380.341          47.000  
E07  24822865.996   130445024.321       -2029.313          43.000  
G10  23883941.101   125510973.327        1966.363          41.000  
G17  22843223.778   120041964.086         467.107          43.000  
G23  22456534.082   118009756.088        -386.055          39.000  
E14  25770498.491   135424863.518        4446.597          40.000  
E30  24499489.031   128745732.615       -1497.617          45.000  
E20  28365074.990   149059428.155        1869.831          38.000  
E27  23686727.629   124474590.619        1352.123          45.000  
G12  23501461.199   123501059.366        3924.158          33.000  
> 2024 02 13 08 31 33.0000000  0 15                     
G13  21897517.962   115072212.756       -2789.764          46.000  
G14  23635391.777   124204839.546       -3053.914          45.000  
G15  20499161.568   107723829.420       -1621.627          46.000  
G19  23012709.402   120932599.487        2580.058          44.000  
G22  22385273.936   117635523.078       -2363.833          46.000  
G24  20363057.033   107008609.897        1379.866          47.000  
E07  24823251.733   130447053.715       -2029.574          43.000  
G10  23883566.986   125509006.982        1965.857          41.000  
G17  22843134.939   120041497.083         466.656          43.000  
G23  22456607.704   118010142.220        -386.572          40.000  
E14  25769652.208   135420416.571        4446.996          40.000  
E30  24499774.002   128747230.213       -1497.743          45.000  
E20  28364719.241   149057557.927        1870.377          38.000  
E27  23686470.561   124473238.548        1351.973          45.000  
G12  23500714.470   123497135.279        3923.899          33.000  
> 2024 02 13 08 31 34.0000000  0 15                     
G13  21898048.771   115075002.753       -2790.076          46.000  
G14  23635973.245   124207893.531       -3054.035          45.000  
G15  20499470.201   107725451.306       -1622.287          46.000  
G19  23012218.824   120930019.703        2579.774          44.000  
G22  22385723.707   117637886.945       -2364.028          46.000  
G24  20362793.971   107007230.188        1379.755          47.000  
E07  24823637.444   130449083.465       -2029.724          43.000  
G10  23883192.652   125507041.286        1965.668          41.000  
G17  22843046.344   120041030.777         465.959          43.000  
G23  22456681.998   118010529.122        -387.164          40.000  
E14  25768806.335   135415969.891        4446.552          40.000  
E30  24500058.955   128748728.215       -1498.069          45.000  
E20  28364363.736   149055688.138        1869.368          38.000  
E27  23686212.952   124471886.947        1351.535          45.000  
G12  23499967.618   123493211.514        3923.456          33.000  
> 2024 02 13 08 31 35.0000000  0 15                     
G13  21898579.546   115077792.917       -2790.021          46.000  
G14  23636554.407   124210947.553       -3053.834          45.000  
G15  20499779.035   107727073.623       -1622.623          46.000  
G19  23011728.150   120927440.225        2579.436          44.000  
G22  22386173.434   117640250.984       -2363.990          46.000  
G24  20362531.144   107005850.747        1379.673          47.000  
E07  24824023.679   130451113.343       -2029.884          43.000  
G10  23882818.694   125505076.017        1965.143          41.000  
G17  22842957.444   120040564.910         465.702          43.000  
G23  22456756.162   118010916.544        -387.469          40.000  
E14  25767959.720   135411523.198        4446.910          40.000  
E30  24500344.031   128750226.334       -1497.924          45.000  
E20  28364008.371   149053818.422        1869.912          38.000  
E27  23685955.832   124470535.576        1351.396          45.000  
G12  23499221.237   123489287.777        3923.935          34.000  
> 2024 02 13 08 31 36.0000000  0 15                     
G13  21899110.617   115080583.242       -2790.390          46.000  
G14  23637135.918   124214001.583       -3053.775          45.000  
G15  20500087.712   107728696.315       -1622.710          46.000  
G19  23011237.302   120924860.968        2579.251          44.000  
G22  22386623.274   117642615.170       -2364.031          46.000  
G24  20362268.754   107004471.590        1379.108          47.000  
E07  24824409.337   130453143.280       -2029.978          43.000  
G10  23882445.024   125503111.087        1964.966          41.000  
G17  22842869.190   120040099.454         465.446          43.000  
G23  22456830.456   118011304.422        -388.192          40.000  
E14  25767113.516   135407076.465        4446.893          40.000  
E30  24500629.150   128751724.563       -1498.037          45.000  
E20  28363652.491   149051948.825        1869.977          38.000  
E27  23685698.860   124469184.392        1351.268          45.000  
G12  23498475.031   123485364.056        3923.868          33.000  
> 2024 02 13 08 31 37.0000000  0 15                     
G13  21899641.671   115083373.794       -2790.780          46.000  
G14  23637717.045   124217055.733       -3054.230          45.000  
G15  20500396.450   107730319.526       -1623.389          46.000  
G19  23010746.244   120922282.060        2578.758          44.000  
G22  22387073.438   117644979.598       -2364.566          46.000  
G24  20362006.346   107003092.759        1378.629          47.000  
E07  24824795.231   130455173.402       -2030.200          43.000  
G10  23882071.484   125501146.649        1964.276          41.000  
G17  22842780.761   120039634.515         464.628          43.000  
G23  22456904.715   118011692.887        -388.664          40.000  
E14  25766267.032   135402629.778        4446.842          40.000  
E30  24500914.147   128753223.013       -1498.389          45.000  
E20  28363297.057   149050079.443        1869.034          38.000  
E27  23685441.818   124467833.499        1350.777          45.000  
G12  23497728.668   123481440.451        3923.756          34.000  
> 2024 02 13 08 31 38.0000000  0 15                     
G13  21900172.559   115086164.725       -2791.287          46.000  
G14  23638298.312   124220110.122       -3054.721          45.000  
G15  20500705.284   107731943.363       -1624.417          46.000  
G19  23010255.439   120919703.644        2577.932          44.000  
G22  22387523.165   117647344.405       -2365.156          46.000  
G24  20361744.244   107001714.418        1377.862          47.000  
E07  24825181.719   130457203.852       -2030.803          43.000  
G10  23881697.928   125499182.821        1963.391          41.000  
G17  22842692.585   120039170.251         463.673          43.000  
G23  22456979.114   118012082.076        -389.768          40.000  
E14  25765420.487   135398183.311        4446.299          40.000  
E30  24501199.353   128754721.803       -1499.173          45.000  
E20  28362941.194   149048210.312        1869.170          38.000  
E27  23685184.558   124466483.027        1350.124          45.000  
G12  23496982.505   123477517.097        3923.254          34.000  
> 2024 02 13 08 31 39.0000000  0 15                     
G13  21900703.700   115088955.958       -2791.561          45.000  
G14  23638879.596   124223164.674       -3054.738          45.000  
G15  20501014.449   107733567.762       -1624.781          46.000  
G19  23009764.800   120917125.609        2577.814          44.000  
G22  22387973.118   117649709.507       -2365.111          46.000  
G24  20361481.810   107000336.461        1377.820          47.000  
E07  24825568.450   130459234.516       -2030.655          43.000  
G10  23881324.589   125497219.507        1963.312          41.000  
G17  22842604.348   120038706.536         463.286          43.000  
G23  22457053.540   118012471.882        -390.269          40.000  
E14  25764574.230   135393736.943        4446.279          40.000  
E30  24501484.804   128756220.832       -1499.081          45.000  
E20  28362585.742   149046341.499        1868.514          38.000  
E27  23684927.813   124465132.907        1349.909          45.000  
G12  23496236.072   123473593.926        3923.080          34.000  
> 2024 02 13 08 31 40.0000000  0 15                     
G13  21901234.692   115091747.515       -2791.532          46.000  
G14  23639460.941   124226219.431       -3054.706          45.000  
G15  20501323.999   107735192.722       -1625.111          46.000  
G19  23009274.274   120914548.022        2577.524          44.000  
G22  22388422.872   117652074.950       -2365.436          46.000  
G24  20361219.673   106998958.964        1377.405          47.000  
E07  24825954.353   130461265.461       -2030.746          43.000  
G10  23880951.337   125495256.776        1962.671          41.000  
G17  22842516.085   120038243.430         463.007          43.000  
G23  22457128.139   118012862.357        -390.447          40.000  
E14  25763728.453   135389290.725        4446.103          40.000  
E30  24501769.679   128757720.177       -1499.319          45.000  
E20  28362230.447   149044472.930        1868.469          38.000  
E27  23684670.588   124463783.158        1349.776          45.000  
G12  23495489.761   123469670.937        3922.768          34.000  
> 2024 02 13 08 31 41.0000000  0 15                     
G13  21901765.938   115094539.492       -2792.198          45.000  
G14  23640042.514   124229274.454       -3055.133          45.000  
G15  20501633.347   107736818.343       -1625.743          46.000  
G19  23008783.626   120911970.960        2576.730          44.000  
G22  22388873.105   117654440.781       -2366.021          46.000  
G24  20360957.562   106997581.962        1376.602          47.000  
E07  24826340.780   130463296.762       -2031.583          43.000  
G10  23880578.008   125493294.652        1962.018          41.000  
G17  22842428.075   120037781.008         461.964          43.000  
G23  22457202.879   118013253.583        -391.666          40.000  
E14  25762882.056   135384844.727        4445.665          40.000  
E30  24502055.051   128759219.877       -1499.796          45.000  
E20  28361874.628   149042604.688        1868.600          38.000  
E27  23684413.564   124462433.863        1348.970          45.000  
G12  23494743.450   123465748.222        3922.787          34.000  
> 2024 02 13 08 31 42.0000000  0 15                     
G13  21902297.009   115097331.822       -2792.625          45.000  
G14  23640623.492   124232329.714       -3055.501          45.000  
G15  20501942.670   107738444.605       -1626.656          46.000  
G19  23008293.450   120909394.351        2576.298          44.000  
G22  22389323.617   117656806.991       -2366.505          46.000  
G24  20360695.547   106996205.430        1376.161          47.000  
E07  24826727.782   130465328.354       -2031.869          43.000  
G10  23880205.061   125491333.166        1961.182          41.000  
G17  22842340.614   120037319.214         461.346          43.000  
G23  22457277.583   118013645.483        -392.182          40.000  
E14  25762035.973   135380398.893        4445.661          40.000  
E30  24502340.519   128760719.919       -1500.239          44.000  
E20  28361519.490   149040736.815        1867.480          38.000  
E27  23684157.220   124461084.982        1348.578          45.000  
G12  23493997.383   123461825.776        3922.555          34.000  
> 2024 02 13 08 31 43.0000000  0 15                     
G13  21902828.237   115100124.416       -2792.518          45.000  
G14  23641204.907   124235385.107       -3055.445          45.000  
G15  20502251.914   107740071.367       -1626.774          46.000  
G19  23007803.212   120906818.110        2576.058          44.000  
G22  22389773.824   117659173.451       -2366.660          46.000  
G24  20360433.663   106994829.273        1375.991          47.000  
E07  24827114.548   130467360.150       -2031.890          43.000  
G10  23879832.491   125489372.140        1960.815          41.000  
G17  22842252.639   120036857.960         461.270          43.000  
G23  22457352.444   118014038.004        -392.571          41.000  
E14  25761190.336   135375953.166        4445.561          40.000  
E30  24502626.258   128762220.188       -1500.336          45.000  
E20  28361164.134   149038869.125        1867.697          38.000  
E27  23683900.598   124459736.408        1348.445          45.000  
G12  23493251.238   123457903.457        3922.475          34.000  
> 2024 02 13 08 31 44.0000000  0 15                     
G13  21903360.033   115102917.432       -2792.962          46.000  
G14  23641786.419   124238440.780       -3055.724          45.000  
G15  20502561.629   107741698.814       -1627.765          46.000  
G19  23007312.817   120904242.392        2575.549          44.000  
G22  22390224.144   117661540.328       -2367.012          46.000  
G24  20360171.787   106993453.636        1375.536          47.000  
E07  24827501.402   130469392.297       -2032.178          43.000  
G10  23879459.597   125487411.758        1960.266          41.000  
G17  22842165.161   120036397.400         460.484          43.000  
G23  22457427.315   118014431.265        -393.212          40.000  
E14  25760344.402   135371507.673        4445.463          40.000  
E30  24502911.403   128763720.842       -1500.865          44.000  
E20  28360808.778   149037001.784        1867.266          38.000  
E27  23683644.053   124458388.300        1348.001          45.000  
G12  23492505.250   123453981.446        3921.638          35.000  
> 2024 02 13 08 31 45.0000000  0 15                     
G13  21903891.523   115105710.765       -2793.547          45.000  
G14  23642367.424   124241496.632       -3056.057          45.000  
G15  20502871.850   107743326.816       -1628.309          46.000  
G19  23006822.885   120901667.098        2574.886          43.000  
G22  22390674.395   117663907.524       -2367.436          46.000  
G24  20359910.165   106992078.431        1374.923          47.000  
E07  24827887.837   130471424.697       -2032.516          43.000  
G10  23879087.392   125485451.915        1959.473          41.000  
G17  22842077.412   120035937.450         459.444          43.000  
G23  22457502.351   118014825.204        -394.460          40.000  
E14  25759498.651   135367062.309        4445.334          41.000  
E30  24503197.438   128765221.759       -1501.070          44.000  
E20  28360453.727   149035134.741        1866.612          38.000  
E27  23683387.282   124457040.559        1347.533          45.000  
G12  23491759.245   123450059.633        3921.402          35.000  
> 2024 02 13 08 31 46.0000000  0 15                     
G13  21904423.030   115108504.291       -2793.976          45.000  
G14  23642948.350   124244552.548       -3056.351          45.000  
G15  20503181.609   107744955.274       -1628.927          46.000  
G19  23006332.883   120899092.093        2574.601          43.000  
G22  22391124.994   117666274.915       -2367.857          46.000  
G24  20359648.429   106990703.524        1374.308          47.000  
E07  24828275.363   130473457.237       -2032.914          43.000  
G10  23878714.699   125483492.507        1958.905          42.000  
G17  22841989.524   120035477.936         459.066          43.000  
G23  22457577.448   118015219.655        -395.043          40.000  
E14  25758652.961   135362616.944        4445.107          41.000  
E30  24503483.456   128766722.841       -1501.423          44.000  
E20  28360098.310   149033267.791        1866.925          38.000  
E27  23683130.781   124455693.053        1347.118          45.000  
G12  23491013.152   123446137.817        3921.831          35.000  
> 2024 02 13 08 31 47.0000000  0 15                     
G13  21904954.599   115111298.207       -2794.474          45.000  
G14  23643530.070   124247608.700       -3056.595          45.000  
G15  20503491.455   107746584.351       -1629.648          46.000  
G19  23005843.003   120896517.583        2573.911          44.000  
G22  22391575.777   117668642.661       -2368.208          46.000  
G24  20359386.772   106989329.083        1374.027          47.000  
E07  24828662.557   130475490.085       -2033.417          43.000  
G10  23878342.233   125481533.709        1958.191          42.000  
G17  22841902.090   120035019.091         458.131          42.000  
G23  22457652.841   118015614.812        -395.818          40.000  
E14  25757807.332   135358171.786        4444.727          41.000  
E30  24503768.907   128768224.259       -1501.904          44.000  
E20  28359743.163   149031401.192        1866.125          38.000  
E27  23682874.254   124454345.974        1346.657          45.000  
G12  23490267.321   123442216.346        3920.967          35.000  
> 2024 02 13 08 31 48.0000000  0 15                     
G13  21905486.865   115114092.502       -2794.738          45.000  
G14  23644111.337   124250665.121       -3056.575          44.000  
G15  20503801.511   107748214.094       -1630.445          46.000  
G19  23005353.114   120893943.566        2573.463          44.000  
G22  22392026.795   117671010.825       -2368.496          46.000  
G24  20359125.481   106987955.153        1373.772          47.000  
E07  24829049.673   130477523.264       -2033.438          43.000  
G10  23877969.977   125479575.537        1957.568          42.000  
G17  22841814.499   120034560.901         457.716          42.000  
G23  22457727.799   118016010.694        -396.218          40.000  
E14  25756961.633   135353726.842        4444.862          41.000  
E30  24504054.514   128769726.031       -1501.996          44.000  
E20  28359387.519   149029534.957        1865.990          38.000  
E27  23682618.007   124452999.335        1346.432          45.000  
G12  23489521.420   123438295.090        3921.381          36.000  
> 2024 02 13 08 31 49.0000000  0 15                     
G13  21906018.731   115116887.103       -2794.904          45.000  
G14  23644692.796   124253721.718       -3056.796          45.000  
G15  20504112.046   107749844.376       -1630.440          46.000  
G19  23004863.549   120891369.947        2573.413          43.000  
G22  22392477.587   117673379.290       -2368.968          46.000  
G24  20358863.990   106986581.643        1373.155          47.000  
E07  24829436.649   130479556.681       -2033.502          43.000  
G10  23877597.781   125477617.900        1957.300          42.000  
G17  22841726.750   120034103.292         457.339          42.000  
G23  22457802.878   118016407.244        -396.941          40.000  
E14  25756115.656   135349282.023        4444.636          41.000  
E30  24504339.817   128771228.083       -1502.198          44.000  
E20  28359032.180   149027668.926        1865.968          38.000  
E27  23682361.593   124451653.064        1346.081          45.000  
G12  23488775.467   123434374.025        3921.042          36.000  
> 2024 02 13 08 31 50.0000000  0 15                     
G13  21906550.465   115119682.081       -2795.172          45.000  
G14  23645274.839   124256778.544       -3056.818          45.000  
G15  20504422.337   107751475.298       -1631.011          46.000  
G19  23004373.607   120888796.809        2573.234          44.000  
G22  22392928.090   117675748.106       -2369.030          46.000  
G24  20358602.812   106985208.590        1372.879          47.000  
E07  24829823.477   130481590.424       -2033.666          43.000  
G10  23877225.803   125475660.854        1956.732          42.000  
G17  22841639.447   120033646.346         456.564          42.000  
G23  22457878.595   118016804.494        -397.499          40.000  
E14  25755269.922   135344837.377        4444.874          41.000  
E30  24504625.738   128772730.468       -1502.516          44.000  
E20  28358677.042   149025803.291        1865.336          38.000  
E27  23682105.433   124450307.189        1345.935          45.000  
G12  23488029.775   123430453.214        3920.929          36.000  
> 2024 02 13 08 31 51.0000000  0 15                     
G13  21907082.321   115122477.248       -2795.255          45.000  
G14  23645856.507   124259835.435       -3056.935          45.000  
G15  20504733.099   107753106.667       -1631.538          46.000  
G19  23003884.024   120886224.000        2572.656          44.000  
G22  22393378.672   117678117.115       -2368.939          46.000  
G24  20358341.469   106983835.870        1372.465          47.000  
E07  24830210.383   130483624.283       -2033.861          43.000  
G10  23876853.704   125473704.241        1956.555          42.000  
G17  22841551.995   120033189.848         456.477          42.000  
G23  22457954.128   118017202.263        -398.036          40.000  
E14  25754424.215   135340392.771        4444.592          41.000  
E30  24504911.468   128774233.008       -1502.568          44.000  
E20  28358321.677   149023937.724        1865.782          38.000  
E27  23681849.386   124448961.575        1345.558          45.000  
G12  23487284.189   123426532.494        3920.302          36.000  
> 2024 02 13 08 31 52.0000000  0 15                     
G13  21907614.518   115125272.966       -2795.937          45.000  
G14  23646438.245   124262892.759       -3057.613          45.000  
G15  20505043.705   107754738.835       -1632.570          46.000  
G19  23003394.598   120883651.836        2571.670          44.000  
G22  22393829.420   117680486.697       -2369.935          46.000  
G24  20358080.257   106982463.782        1371.713          47.000  
E07  24830597.499   130485658.655       -2034.651          43.000  
G10  23876481.805   125471748.429        1955.542          42.000  
G17  22841464.962   120032734.210         454.992          42.000  
G23  22458030.001   118017600.920        -399.170          40.000  
E14  25753578.359   135335948.524        4443.930          41.000  
E30  24505197.591   128775736.070       -1503.501          44.000  
E20  28357966.294   149022072.691        1864.675          38.000  
E27  23681593.373   124447616.556        1344.777          45.000  
G12  23486538.680   123422612.179        3919.666          36.000  
> 2024 02 13 08 31 53.0000000  0 15                     
G13  21908146.601   115128069.064       -2796.083          45.000  
G14  23647020.114   124265950.314       -3057.692          45.000  
G15  20505354.502   107756371.632       -1633.016          46.000  
G19  23002905.032   120881080.138        2571.461          44.000  
G22  22394280.220   117682856.641       -2370.182          46.000  
G24  20357819.219   106981092.185        1371.366          47.000  
E07  24830984.675   130487693.334       -2034.897          43.000  
G10  23876109.652   125469793.205        1955.066          42.000  
G17  22841378.235   120032279.179         454.951          42.000  
G23  22458105.945   118018000.299        -399.835          40.000  
E14  25752732.861   135331504.477        4443.757          41.000  
E30  24505483.556   128777239.466       -1503.556          44.000  
E20  28357611.627   149020207.990        1864.373          38.000  
E27  23681337.483   124446271.961        1344.442          45.000  
G12  23485792.928   123418692.099        3919.897          36.000  
> 2024 02 13 08 31 54.0000000  0 15                     
G13  21908678.580   115130865.513       -2796.459          45.000  
G14  23647602.018   124269008.089       -3057.728          45.000  
G15  20505665.814   107758005.035       -1633.590          46.000  
G19  23002415.998   120878508.916        2570.938          43.000  
G22  22394731.361   117685226.944       -2370.440          46.000  
G24  20357558.321   106979721.045        1370.975          47.000  
E07  24831371.765   130489728.301       -2035.040          43.000  
G10  23875737.954   125467838.588        1954.370          42.000  
G17  22841291.428   120031824.817         454.036          42.000  
G23  22458182.054   118018400.358        -400.359          39.000  
E14  25751887.634   135327060.598        4443.787          41.000  
E30  24505769.688   128778743.181       -1503.754          44.000  
E20  28357257.074   149018343.535        1864.937          38.000  
E27  23681081.209   124444927.768        1344.140          45.000  
G12  23485047.559   123414772.271        3919.626          36.000  
> 2024 02 13 08 31 55.0000000  0 15                     
G13  21909210.594   115133662.114       -2796.812          45.000  
G14  23648183.921   124272065.873       -3057.808          45.000  
G15  20505976.829   107759638.849       -1633.868          46.000  
G19  23001926.747   120875937.937        2570.739          43.000  
G22  22395182.597   117687597.377       -2370.578          46.000  
G24  20357297.283   106978350.166        1370.506          47.000  
E07  24831758.880   130491763.357       -2035.188          43.000  
G10  23875365.942   125465884.321        1954.169          43.000  
G17  22841205.303   120031370.869         453.519          42.000  
G23  22458258.259   118018800.901        -401.053          39.000  
E14  25751042.441   135322616.681        4443.788          41.000  
E30  24506055.766   128780247.003       -1503.905          44.000  
E20  28356902.328   149016479.252        1863.741          37.000  
E27  23680825.503   124443583.766        1343.876          44.000  
G12  23484302.016   123410852.441        3919.706          36.000  
> 2024 02 13 08 31 56.0000000  0 15                     
G13  21909742.677   115136459.073       -2797.013          45.000  
G14  23648765.877   124275123.895       -3058.083          44.000  
G15  20506287.687   107761273.269       -1634.682          46.000  
G19  23001437.748   120873367.432        2570.328          43.000  
G22  22395634.008   117689968.180       -2370.852          46.000  
G24  20357036.254   106976979.741        1370.185          47.000  
E07  24832145.944   130493798.700       -2035.435          43.000  
G10  23874994.043   125463930.660        1953.229          42.000  
G17  22841119.125   120030917.540         452.947          42.000  
G23  22458334.202   118019202.130        -401.530          39.000  
E14  25750196.838   135318172.944        4443.684          41.000  
E30  24506342.002   128781751.154       -1504.312          45.000  
E20  28356547.470   149014615.218        1864.054          37.000  
E27  23680569.272   124442240.179        1343.316          44.000  
G12  23483556.281   123406932.871        3919.549          36.000  
> 2024 02 13 08 31 57.0000000  0 15                     
G13  21910274.612   115139256.069       -2796.761          45.000  
G14  23649347.423   124278181.809       -3057.692          44.000  
G15  20506598.833   107762907.982       -1634.608          46.000  
G19  23000948.583   120870797.060        2570.435          43.000  
G22  22396085.114   117692339.011       -2370.542          46.000  
G24  20356774.998   106975609.476        1370.385          47.000  
E07  24832533.016   130495834.027       -2035.035          43.000  
G10  23874622.178   125461977.250        1953.625          43.000  
G17  22841033.139   120030464.510         453.054          42.000  
G23  22458410.320   118019603.712        -401.323          39.000  
E14  25749351.524   135313729.055        4444.231          41.000  
E30  24506628.395   128783255.287       -1503.761          44.000  
E20  28356192.977   149012751.172        1864.547          37.000  
E27  23680313.339   124440896.659        1343.776          44.000  
G12  23482810.529   123403013.169        3920.440          36.000  
> 2024 02 13 08 31 58.0000000  0 15                     
G13  21910806.695   115142053.429       -2797.647          45.000  
G14  23649929.144   124281239.948       -3058.363          44.000  
G15  20506910.276   107764543.315       -1635.812          46.000  
G19  23000459.436   120868227.145        2569.670          43.000  
G22  22396536.499   117694710.203       -2371.552          46.000  
G24  20356513.925   106974239.646        1369.417          47.000  
E07  24832920.323   130497869.646       -2035.865          43.000  
G10  23874250.463   125460024.434        1952.502          42.000  
G17  22840947.179   120030012.117         451.858          42.000  
G23  22458486.761   118020006.024        -402.767          39.000  
E14  25748505.973   135309285.345        4443.646          41.000  
E30  24506914.971   128784759.763       -1504.781          44.000  
E20  28355838.502   149010887.467        1863.574          37.000  
E27  23680057.981   124439553.552        1342.877          44.000  
G12  23482065.108   123399093.758        3919.114          36.000  
> 2024 02 13 08 31 59.0000000  0 15                     
G13  21911338.944   115144851.420       -2798.267          45.000  
G14  23650511.082   124284298.601       -3059.115          44.000  
G15  20507221.439   107766179.531       -1636.701          46.000  
G19  22999970.612   120865657.989        2568.823          43.000  
G22  22396987.910   117697082.017       -2372.221          46.000  
G24  20356253.245   106972870.586        1368.539          47.000  
E07  24833307.639   130499905.840       -2036.635          42.000  
G10  23873879.052   125458072.490        1951.477          43.000  
G17  22840861.743   120029560.653         450.930          42.000  
G23  22458563.577   118020409.302        -404.002          38.000  
E14  25747660.179   135304842.104        4442.766          41.000  
E30  24507201.242   128786264.827       -1505.492          44.000  
E20  28355483.582   149009024.309        1863.157          37.000  
E27  23679802.597   124438211.138        1341.901          44.000  
G12  23481319.512   123395174.831        3918.510          37.000  
> 2024 02 13 08 32 00.0000000  0 15                     
G13  21911871.089   115147649.660       -2798.364          45.000  
G14  23651093.004   124287357.356       -3058.881          44.000  
G15  20507532.821   107767816.246       -1637.142          46.000  
G19  22999481.666   120863089.178        2568.697          43.000  
G22  22397439.312   117699454.089       -2372.276          46.000  
G24  20355992.626   106971501.855        1368.416          47.000  
E07  24833695.279   130501942.216       -2036.586          42.000  
G10  23873507.336   125456121.036        1951.227          42.000  
G17  22840776.472   120029109.695         450.532          42.000  
G23  22458640.166   118020813.139        -404.283          38.000  
E14  25746814.908   135300398.918        4443.061          41.000  
E30  24507487.818   128787770.100       -1505.585          44.000  
E20  28355129.020   149007161.387        1862.258          37.000  
E27  23679547.798   124436869.005        1341.919          44.000  
G12  23480574.100   123391256.021        3918.805          36.000  
> 2024 02 13 08 32 01.0000000  0 15                     
G13  21912403.573   115150448.266       -2798.826          45.000  
G14  23651675.352   124290416.327       -3059.163          44.000  
G15  20507844.229   107769453.575       -1637.882          46.000  
G19  22998992.763   120860520.844        2567.954          43.000  
G22  22397890.435   117701826.514       -2372.545          46.000  
G24  20355732.391   106970133.599        1368.063          47.000  
E07  24834082.708   130503978.890       -2036.839          42.000  
G10  23873136.013   125454170.170        1950.391          42.000  
G17  22840691.106   120028659.379         449.688          42.000  
G23  22458716.868   118021217.688        -404.766          38.000  
E14  25745969.767   135295955.911        4442.689          41.000  
E30  24507774.508   128789275.684       -1505.762          44.000  
E20  28354774.126   149005298.752        1862.215          37.000  
E27  23679292.117   124435527.279        1341.511          44.000  
G12  23479828.723   123387337.445        3918.405          36.000  
> 2024 02 13 08 32 02.0000000  0 15                     
G13  21912936.171   115153247.340       -2799.735          45.000  
G14  23652257.413   124293475.657       -3059.964          44.000  
G15  20508155.558   107771091.609       -1638.617          46.000  
G19  22998504.096   120857953.090        2567.056          43.000  
G22  22398341.593   117704199.411       -2373.396          46.000  
G24  20355472.330   106968765.938        1367.069          47.000  
E07  24834470.400   130506015.982       -2037.438          42.000  
G10  23872765.091   125452220.008        1949.408          42.000  
G17  22840605.809   120028209.796         448.834          42.000  
G23  22458793.885   118021623.050        -405.879          38.000  
E14  25745124.889   135291513.199        4442.242          41.000  
E30  24508061.084   128790781.726       -1506.556          44.000  
E20  28354419.904   149003436.504        1861.928          37.000  
E27  23679036.751   124434186.097        1340.539          44.000  
G12  23479083.084   123383419.225        3917.828          36.000  
> 2024 02 13 08 32 03.0000000  0 15                     
G13  21913468.848   115156047.326       -2800.140          45.000  
G14  23652839.378   124296535.745       -3059.977          44.000  
G15  20508467.018   107772730.816       -1639.306          46.000  
G19  22998015.341   120855386.339        2566.746          43.000  
G22  22398793.126   117706573.215       -2373.708          46.000  
G24  20355212.392   106967399.277        1366.569          47.000  
E07  24834858.484   130508053.922       -2038.001          42.000  
G10  23872394.292   125450270.980        1949.017          42.000  
G17  22840520.644   120027761.396         448.514          42.000  
G23  22458871.111   118022029.660        -407.131          39.000  
E14  25744279.478   135287071.226        4441.914          40.000  
E30  24508348.236   128792288.638       -1507.135          44.000  
E20  28354065.796   149001575.177        1860.964          37.000  
E27  23678781.864   124432845.843        1340.174          44.000  
G12  23478337.410   123379501.768        3917.592          36.000  
> 2024 02 13 08 32 04.0000000  0 15                     
G13  21914001.402   115158847.700       -2800.375          44.000  
G14  23653421.866   124299596.094       -3060.212          44.000  
G15  20508778.985   107774370.687       -1640.028          46.000  
G19  22997526.945   120852820.096        2566.050          43.000  
G22  22399244.458   117708947.410       -2374.194          45.000  
G24  20354952.358   106966033.120        1366.105          47.000  
E07  24835245.957   130510092.175       -2037.967          42.000  
G10  23872023.588   125448322.586        1948.224          42.000  
G17  22840435.757   120027313.669         447.779          42.000  
G23  22458948.590   118022436.973        -407.531          39.000  
E14  25743434.303   135282629.447        4441.946          40.000  
E30  24508634.708   128793795.876       -1507.153          44.000  
E20  28353711.216   148999714.110        1861.547          37.000  
E27  23678527.012   124431506.040        1339.848          44.000  
G12  23477591.901   123375584.601        3917.488          36.000  
> 2024 02 13 08 32 05.0000000  0 15                     
G13  21914534.393   115161648.156       -2800.710          44.000  
G14  23654004.171   124302656.394       -3060.388          44.000  
G15  20509090.890   107776010.875       -1640.585          46.000  
G19  22997038.435   120850254.052        2565.736          43.000  
G22  22399696.297   117711321.684       -2374.497          46.000  
G24  20354692.611   106964667.146        1365.880          47.000  
E07  24835633.841   130512130.475       -2038.663          42.000  
G10  23871652.884   125446374.503        1947.736          42.000  
G17  22840350.993   120026866.305         447.212          42.000  
G23  22459026.173   118022844.714        -407.871          39.000  
E14  25742589.076   135278187.579        4441.747          40.000  
E30  24508921.773   128795303.182       -1507.514          44.000  
E20  28353357.081   148997853.162        1860.415          37.000  
E27  23678272.065   124430166.369        1339.533          45.000  
G12  23476846.297   123371667.401        3917.064          36.000  
> 2024 02 13 08 32 06.0000000  0 15                     
G13  21915067.271   115164448.697       -2800.621          45.000  
G14  23654586.432   124305716.649       -3060.384          44.000  
G15  20509403.223   107777651.412       -1641.045          46.000  
G19  22996549.802   120847688.181        2565.947          43.000  
G22  22400148.380   117713696.037       -2374.554          46.000  
G24  20354432.603   106963301.370        1365.591          47.000  
E07  24836021.524   130514168.769       -2038.315          42.000  
G10  23871282.041   125444426.729        1947.333          42.000  
G17  22840265.897   120026419.313         446.655          42.000  
G23  22459103.678   118023252.881        -408.561          39.000  
E14  25741743.874   135273745.594        4442.225          40.000  
E30  24509209.099   128796810.524       -1507.455          44.000  
E20  28353002.781   148995992.221        1860.586          37.000  
E27  23678017.030   124428826.829        1339.487          45.000  
G12  23476100.484   123367750.158        3916.995          36.000  
> 2024 02 13 08 32 07.0000000  0 15                     
G13  21915600.348   115167249.470       -2801.062          45.000  
G14  23655168.650   124308777.010       -3060.559          44.000  
G15  20509715.329   107779292.436       -1641.500          46.000  
G19  22996061.650   120845122.670        2565.220          43.000  
G22  22400600.218   117716070.619       -2374.883          46.000  
G24  20354172.813   106961935.939        1365.117          47.000  
E07  24836409.625   130516207.273       -2038.925          42.000  
G10  23870911.119   125442479.434        1946.887          42.000  
G17  22840181.743   120025972.811         446.167          42.000  
G23  22459180.992   118023661.639        -409.195          39.000  
E14  25740898.804   135269303.721        4441.735          40.000  
E30  24509495.824   128798318.088       -1507.888          44.000  
E20  28352649.169   148994131.434        1860.935          37.000  
E27  23677762.710   124427487.586        1338.934          45.000  
G12  23475355.028   123363833.033        3916.714          36.000  
> 2024 02 13 08 32 08.0000000  0 15                     
G13  21916133.749   115170050.630       -2801.437          45.000  
G14  23655751.400   124311837.621       -3060.885          44.000  
G15  20510027.879   107780934.088       -1642.260          45.000  
G19  22995573.375   120842557.659        2564.682          43.000  
G22  22401051.987   117718445.602       -2375.418          46.000  
G24  20353913.241   106960571.001        1364.518          47.000  
E07  24836797.962   130518246.066       -2038.928          42.000  
G10  23870540.389   125440532.759        1946.222          41.000  
G17  22840096.787   120025526.985         445.212          42.000  
G23  22459258.680   118024071.079        -409.692          39.000  
E14  25740053.254   135264862.004        4441.703          40.000  
E30  24509782.339   128799825.979       -1508.105          44.000  
E20  28352294.965   148992271.021        1859.831          37.000  
E27  23677508.173   124426148.762        1338.718          45.000  
G12  23474609.502   123359916.152        3916.671          36.000  
> 2024 02 13 08 32 09.0000000  0 15                     
G13  21916667.124   115172852.029       -2801.552          45.000  
G14  23656333.888   124314898.338       -3060.797          44.000  
G15  20510340.264   107782576.230       -1642.434          45.000  
G19  22995085.049   120839992.988        2564.568          43.000  
G22  22401504.078   117720820.810       -2375.321          46.000  
G24  20353653.791   106959206.391        1364.475          47.000  
E07  24837185.924   130520285.055       -2039.074          42.000  
G10  23870169.712   125438586.517        1946.051          41.000  
G17  22840012.223   120025081.673         444.785          42.000  
G23  22459336.970   118024481.112        -410.317          39.000  
E14  25739208.035   135260420.367        4441.738          40.000  
E30  24510069.526   128801334.079       -1508.179          44.000  
E20  28351941.074   148990410.772        1860.414          37.000  
E27  23677253.338   124424810.236        1338.352          45.000  
G12  23473864.038   123355999.410        3916.415          36.000  
> 2024 02 13 08 32 10.0000000  0 15                     
G13  21917200.228   115175653.734       -2801.626          45.000  
G14  23656916.150   124317959.199       -3060.780          44.000  
G15  20510653.374   107784218.930       -1642.786          45.000  
G19  22994596.861   120837428.725        2564.050          43.000  
G22  22401956.030   117723196.335       -2375.699          46.000  
G24  20353394.236   106957842.211        1364.140          47.000  
E07  24837574.078   130522324.271       -2039.063          42.000  
G10  23869798.790   125436640.855        1945.605          41.000  
G17  22839927.720   120024636.920         444.679          43.000  
G23  22459414.938   118024891.818        -411.282          39.000  
E14  25738362.964   135255978.860        4441.675          40.000  
E30  24510356.460   128802842.444       -1508.347          45.000  
E20  28351586.835   148988550.781        1860.198          37.000  
E27  23676999.473   124423472.060        1338.137          45.000  
G12  23473118.573   123352082.823        3916.756          36.000  
> 2024 02 13 08 32 11.0000000  0 15                     
G13  21917733.690   115178455.807       -2802.253          45.000  
G14  23657498.708   124321020.327       -3061.262          44.000  
G15  20510966.518   107785862.261       -1643.746          45.000  
G19  22994109.014   120834864.942        2563.609          43.000  
G22  22402408.340   117725572.208       -2376.072          46.000  
G24  20353134.952   106956478.515        1363.495          47.000  
E07  24837961.979   130524363.824       -2039.812          42.000  
G10  23869428.243   125434695.804        1944.775          41.000  
G17  22839843.322   120024192.834         443.652          42.000  
G23  22459493.045   118025303.172        -411.302          39.000  
E14  25737517.528   135251537.544        4441.072          40.000  
E30  24510643.123   128804351.139       -1508.851          44.000  
E20  28351233.494   148986691.131        1859.291          37.000  
E27  23676744.673   124422134.298        1337.600          45.000  
G12  23472373.353   123348166.503        3916.095          36.000  
> 2024 02 13 08 32 12.0000000  0 15                     
G13  21918266.759   115181258.076       -2802.397          45.000  
G14  23658081.275   124324081.491       -3061.275          44.000  
G15  20511278.929   107787506.034       -1644.167          45.000  
G19  22993621.211   120832301.467        2562.997          43.000  
G22  22402860.379   117727948.289       -2376.331          46.000  
G24  20352875.782   106955115.113        1363.231          47.000  
E07  24838350.124   130526403.482       -2039.800          42.000  
G10  23869057.897   125432751.169        1943.817          41.000  
G17  22839758.732   120023749.219         443.298          42.000  
G23  22459570.838   118025715.099        -412.518          39.000  
E14  25736672.160   135247096.249        4440.932          40.000  
E30  24510930.223   128805859.998       -1508.977          44.000  
E20  28350879.595   148984831.571        1859.998          37.000  
E27  23676489.830   124420796.783        1337.398          45.000  
G12  23471627.993   123344250.251        3915.921          36.000  
> 2024 02 13 08 32 13.0000000  0 15                     
G13  21918800.369   115184060.657       -2802.682          45.000  
G14  23658663.728   124327142.854       -3061.230          44.000  
G15  20511591.820   107789150.370       -1644.348          45.000  
G19  22993133.486   120829738.406        2562.927          43.000  
G22  22403312.619   117730324.684       -2376.432          46.000  
G24  20352616.628   106953752.151        1362.691          48.000  
E07  24838738.409   130528443.415       -2039.949          42.000  
G10  23868687.970   125430807.066        1943.671          41.000  
G17  22839674.552   120023306.188         442.800          42.000  
G23  22459649.268   118026127.644        -412.803          39.000  
E14  25735826.497   135242655.083        4441.175          40.000  
E30  24511217.567   128807369.156       -1509.339          44.000  
E20  28350525.836   148982972.344        1858.792          37.000  
E27  23676235.720   124419459.634        1337.265          45.000  
G12  23470882.528   123340334.186        3916.236          37.000  
> 2024 02 13 08 32 14.0000000  0 15                     
G13  21919333.857   115186863.379       -2802.648          45.000  
G14  23659246.234   124330204.226       -3061.325          44.000  
G15  20511904.554   107790795.103       -1644.815          45.000  
G19  22992645.595   120827175.597        2562.705          43.000  
G22  22403765.365   117732701.209       -2376.569          46.000  
G24  20352356.978   106952389.415        1362.616          48.000  
E07  24839126.676   130530483.421       -2039.869          42.000  
G10  23868318.235   125428863.318        1943.817          41.000  
G17  22839589.962   120022863.586         442.197          42.000  
G23  22459727.506   118026540.713        -413.772          38.000  
E14  25734980.467   135238213.887        4440.998          40.000  
E30  24511504.745   128808878.390       -1509.213          44.000  
E20  28350172.216   148981113.189        1859.295          37.000  
E27  23675981.314   124418122.675        1336.913          45.000  
G12  23470136.933   123336418.131        3916.073          36.000  
> 2024 02 13 08 32 15.0000000  0 15                     
G13  21919867.494   115189666.680       -2803.630          45.000  
G14  23659829.193   124333266.029       -3061.956          44.000  
G15  20512217.480   107792440.675       -1645.868          45.000  
G19  22992157.705   120824613.473        2562.034          43.000  
G22  22404218.041   117735078.312       -2377.350          46.000  
G24  20352097.772   106951027.368        1361.642          48.000  
E07  24839514.673   130532523.928       -2040.816          42.000  
G10  23867948.657   125426920.407        1942.676          41.000  
G17  22839505.992   120022421.802         441.266          42.000  
G23  22459806.407   118026954.641        -414.154          39.000  
E14  25734134.785   135233773.065        4440.664          40.000  
E30  24511791.923   128810388.159       -1510.160          44.000  
E20  28349818.317   148979254.534        1858.582          37.000  
E27  23675727.343   124416786.323        1336.145          45.000  
G12  23469391.451   123332502.542        3915.267          36.000  
> 2024 02 13 08 32 16.0000000  0 15                     
G13  21920401.549   115192470.448       -2804.253          45.000  
G14  23660411.559   124336328.173       -3062.477          44.000  
G15  20512530.878   107794086.973       -1646.810          45.000  
G19  22991670.416   120822051.933        2560.857          43.000  
G22  22404670.795   117737455.886       -2378.142          46.000  
G24  20351838.584   106949665.921        1360.940          47.000  
E07  24839903.071   130534564.858       -2041.208          42.000  
G10  23867579.218   125424978.215        1941.650          41.000  
G17  22839422.266   120021980.790         440.641          43.000  
G23  22459885.143   118027369.386        -415.244          39.000  
E14  25733289.593   135229332.546        4440.215          40.000  
E30  24512079.145   128811898.374       -1510.575          44.000  
E20  28349465.133   148977396.347        1857.626          37.000  
E27  23675473.259   124415450.512        1335.451          45.000  
G12  23468646.204   123328587.311        3914.583          37.000  
> 2024 02 13 08 32 17.0000000  0 15                     
G13  21920935.273   115195274.785       -2804.697          45.000  
G14  23660994.056   124339390.718       -3062.739          44.000  
G15  20512844.502   107795734.072       -1647.424          45.000  
G19  22991182.944   120819491.035        2560.582          43.000  
G22  22405123.445   117739834.007       -2378.552          46.000  
G24  20351579.710   106948305.095        1360.473          48.000  
E07  24840291.609   130536606.283       -2041.774          42.000  
G10  23867210.050   125423036.803        1940.869          41.000  
G17  22839338.636   120021540.594         439.830          43.000  
G23  22459964.184   118027785.063        -416.180          38.000  
E14  25732444.287   135224892.412        4439.842          40.000  
E30  24512366.795   128813409.102       -1511.097          44.000  
E20  28349111.304   148975538.612        1858.036          37.000  
E27  23675219.140   124414115.291        1334.904          45.000  
G12  23467901.211   123324672.486        3914.569          37.000  
> 2024 02 13 08 32 18.0000000  0 15                     
G13  21921468.761   115198079.306       -2804.428          45.000  
G14  23661576.676   124342453.346       -3062.600          44.000  
G15  20513158.291   107797381.622       -1647.214          45.000  
G19  22990695.542   120816930.480        2560.585          43.000  
G22  22405576.279   117742212.315       -2378.300          46.000  
G24  20351320.871   106946944.610        1360.397          48.000  
E07  24840679.868   130538647.829       -2041.436          42.000  
G10  23866840.891   125421095.804        1940.796          42.000  
G17  22839255.145   120021100.893         439.739          43.000  
G23  22460043.399   118028201.224        -416.288          39.000  
E14  25731598.981   135220452.289        4440.326          40.000  
E30  24512653.938   128814919.979       -1510.713          44.000  
E20  28348757.867   148973681.060        1857.464          37.000  
E27  23674964.620   124412780.319        1335.096          45.000  
G12  23467156.427   123320757.735        3915.243          37.000  
> 2024 02 13 08 32 19.0000000  0 15                     
G13  21922002.502   115200883.764       -2804.676          45.000  
G14  23662159.696   124345515.800       -3062.968          44.000  
G15  20513472.090   107799029.382       -1648.252          45.000  
G19  22990208.114   120814369.981        2559.948          43.000  
G22  22406028.771   117744590.575       -2378.882          46.000  
G24  20351061.971   106945584.170        1359.798          48.000  
E07  24841068.231   130540689.271       -2041.598          42.000  
G10  23866471.740   125419154.998        1940.576          42.000  
G17  22839171.951   120020661.407         439.031          43.000  
G23  22460122.780   118028617.678        -417.126          39.000  
E14  25730754.041   135216011.962        4439.906          40.000  
E30  24512941.081   128816430.792       -1511.177          44.000  
E20  28348404.229   148971823.406        1856.884          37.000  
E27  23674710.589   124411445.352        1334.535          45.000  
G12  23466411.669   123316842.839        3914.540          37.000  
> 2024 02 13 08 32 20.0000000  0 15                     
G13  21922536.627   115203688.552       -2805.058          45.000  
G14  23662742.533   124348578.397       -3062.757          44.000  
G15  20513785.679   107800677.696       -1648.745          45.000  
G19  22989720.860   120811809.867        2559.916          43.000  
G22  22406481.639   117746969.139       -2378.926          46.000  
G24  20350802.975   106944224.135        1359.682          47.000  
E07  24841456.978   130542730.975       -2041.970          42.000  
G10  23866102.476   125417214.737        1939.807          42.000  
G17  22839088.818   120020222.501         438.538          43.000  
G23  22460202.213   118029034.786        -417.561          39.000  
E14  25729908.526   135211571.760        4439.885          40.000  
E30  24513228.076   128817941.859       -1511.229          44.000  
E20  28348050.845   148969965.951        1857.614          37.000  
E27  23674456.496   124410110.735        1334.259          45.000  
G12  23465666.894   123312928.150        3914.397          37.000  
> 2024 02 13 08 32 21.0000000  0 15                     
G13  21923070.080   115206493.569       -2805.146          45.000  
G14  23663325.676   124351641.126       -3062.918          44.000  
G15  20514099.704   107802326.477       -1649.026          45.000  
G19  22989233.694   120809250.119        2559.420          43.000  
G22  22406934.420   117749347.930       -2378.933          46.000  
G24  20350544.450   106942864.441        1359.387          48.000  
E07  24841845.726   130544772.832       -2042.009          42.000  
G10  23865733.212   125415274.940        1939.417          42.000  
G17  22839006.008   120019784.120         438.004          44.000  
G23  22460281.525   118029452.449        -417.946          39.000  
E14  25729063.019   135207131.586        4440.241          40.000  
E30  24513515.481   128819453.127       -1511.166          44.000  
E20  28347697.618   148968108.738        1857.206          37.000  
E27  23674202.744   124408776.404        1334.139          45.000  
G12  23464921.822   123309013.522        3914.692          37.000  
> 2024 02 13 08 32 22.0000000  0 15                     
G13  21923604.057   115209298.731       -2805.145          46.000  
G14  23663908.452   124354703.849       -3062.684          44.000  
G15  20514413.390   107803975.686       -1649.138          45.000  
G19  22988746.772   120806690.653        2559.289          43.000  
G22  22407387.123   117751726.882       -2378.940          46.000  
G24  20350285.969   106941505.024        1359.213          48.000  
E07  24842233.993   130546814.791       -2041.960          42.000  
G10  23865364.550   125413335.579        1938.971          42.000  
G17  22838923.425   120019346.165         437.841          44.000  
G23  22460361.464   118029870.627        -418.471          39.000  
E14  25728217.862   135202691.418        4440.305          40.000  
E30  24513802.407   128820964.550       -1511.524          44.000  
E20  28347344.068   148966251.631        1857.088          37.000  
E27  23673948.738   124407442.280        1334.099          45.000  
G12  23464177.047   123305098.952        3914.946          37.000  
> 2024 02 13 08 32 23.0000000  0 15                     
G13  21924138.138   115212104.211       -2805.788          46.000  
G14  23664491.106   124357766.761       -3063.112          44.000  
G15  20514727.520   107805625.458       -1650.228          45.000  
G19  22988260.137   120804131.569        2558.914          43.000  
G22  22407840.296   117754106.124       -2379.720          46.000  
G24  20350027.601   106940146.010        1358.573          48.000  
E07  24842623.028   130548856.982       -2042.308          42.000  
G10  23864995.740   125411396.692        1938.361          42.000  
G17  22838840.781   120018908.784         436.867          44.000  
G23  22460440.740   118030289.424        -419.065          39.000  
E14  25727373.646   135198251.355        4439.769          40.000  
E30  24514090.283   128822476.203       -1512.060          44.000  
E20  28346990.561   148964394.758        1856.542          37.000  
E27  23673694.960   124406108.509        1333.311          45.000  
G12  23463432.507   123301184.544        3914.563          38.000  
> 2024 02 13 08 32 24.0000000  0 15                     
G13  21924672.228   115214909.849       -2805.577          45.000  
G14  23665074.031   124360829.694       -3062.632          44.000  
G15  20515041.397   107807275.661       -1650.274          45.000  
G19  22987772.866   120801572.775        2559.241          43.000  
G22  22408293.112   117756485.549       -2379.369          46.000  
G24  20349769.198   106938787.287        1358.685          48.000  
E07  24843011.775   130550899.323       -2042.251          42.000  
G10  23864627.165   125409458.227        1938.641          42.000  
G17  22838757.919   120018471.853         436.863          44.000  
G23  22460520.645   118030708.717        -419.061          39.000  
E14  25726528.872   135193811.332        4440.130          40.000  
E30  24514377.758   128823987.986       -1511.726          44.000  
E20  28346637.072   148962538.051        1856.499          37.000  
E27  23673441.085   124404774.961        1333.725          45.000  
G12  23462687.993   123297270.245        3914.578          38.000  
> 2024 02 13 08 32 25.0000000  0 15                     
G13  21925206.048   115217715.735       -2806.058          46.000  
G14  23665656.711   124363892.750       -3063.142          44.000  
G15  20515355.283   107808926.325       -1650.645          45.000  
G19  22987286.433   120799014.359        2558.262          43.000  
G22  22408746.163   117758865.193       -2379.580          46.000  
G24  20349511.240   106937428.924        1358.179          48.000  
E07  24843400.575   130552941.811       -2042.553          42.000  
G10  23864258.302   125407520.261        1937.524          42.000  
G17  22838675.004   120018035.452         436.412          44.000  
G23  22460600.244   118031128.622        -420.201          40.000  
E14  25725683.863   135189371.348        4439.863          40.000  
E30  24514665.582   128825499.973       -1511.755          44.000  
E20  28346283.792   148960681.473        1856.830          37.000  
E27  23673187.159   124403441.700        1333.276          45.000  
G12  23461943.445   123293356.025        3914.251          37.000  
> 2024 02 13 08 32 26.0000000  0 15                     
G13  21925740.443   115220521.879       -2806.635          46.000  
G14  23666239.321   124366955.912       -3063.262          44.000  
G15  20515669.596   107810577.547       -1651.631          45.000  
G19  22986799.729   120796456.276        2557.711          44.000  
G22  22409199.092   117761245.113       -2380.116          46.000  
G24  20349253.143   106936070.914        1357.688          48.000  
E07  24843789.846   130554984.506       -2043.024          42.000  
G10  23863889.605   125405582.755        1936.951          41.000  
G17  22838591.897   120017599.585         435.288          44.000  
G23  22460680.515   118031549.116        -420.815          40.000  
E14  25724838.627   135184931.439        4439.544          42.000  
E30  24514953.214   128827012.193       -1512.326          43.000  
E20  28345930.373   148958825.151        1856.017          36.000  
E27  23672934.026   124402108.751        1332.653          45.000  
G12  23461198.975   123289441.946        3913.848          37.000  
> 2024 02 13 08 32 27.0000000  0 15                     
G13  21926274.385   115223328.172       -2806.312          46.000  
G14  23666821.618   124370019.108       -3062.957          44.000  
G15  20515983.778   107812229.163       -1651.890          45.000  
G19  22986313.033   120793898.472        2557.716          44.000  
G22  22409652.187   117763625.182       -2380.124          47.000  
G24  20348994.967   106934713.178        1357.687          48.000  
E07  24844178.811   130557027.284       -2042.526          42.000  
G10  23863521.161   125403645.668        1937.335          41.000  
G17  22838508.791   120017164.150         435.098          44.000  
G23  22460760.254   118031970.083        -421.153          40.000  
E14  25723994.071   135180491.507        4440.208          42.000  
E30  24515241.491   128828524.553       -1512.340          43.000  
E20  28345577.757   148956968.949        1856.117          37.000  
E27  23672680.160   124400776.002        1332.890          45.000  
G12  23460454.531   123285527.916        3914.289          38.000  
> 2024 02 13 08 32 28.0000000  0 15                     
G13  21926808.536   115226134.629       -2806.939          46.000  
G14  23667404.551   124373082.335       -3063.379          43.000  
G15  20516298.161   107813881.195       -1652.461          45.000  
G19  22985826.216   120791340.940        2557.321          44.000  
G22  22410105.020   117766005.417       -2380.816          46.000  
G24  20348736.625   106933355.705        1356.883          48.000  
E07  24844567.881   130559070.181       -2043.418          43.000  
G10  23863152.159   125401708.977        1936.041          41.000  
G17  22838425.501   120016729.139         434.583          44.000  
G23  22460840.080   118032391.562        -422.398          40.000  
E14  25723149.376   135176051.564        4439.600          42.000  
E30  24515529.891   128830037.019       -1513.030          43.000  
E20  28345224.346   148955112.811        1855.864          36.000  
E27  23672426.791   124399443.486        1331.952          45.000  
G12  23459710.184   123281613.932        3913.774          38.000  
> 2024 02 13 08 32 29.0000000  0 15                     
G13  21927342.731   115228941.553       -2807.516          46.000  
G14  23667987.144   124376145.894       -3064.163          43.000  
G15  20516612.291   107815533.940       -1653.531          45.000  
G19  22985339.608   120788783.995        2556.182          44.000  
G22  22410557.513   117768386.117       -2381.297          46.000  
G24  20348478.615   106931998.808        1356.201          48.000  
E07  24844956.803   130561113.478       -2043.893          43.000  
G10  23862783.898   125399772.987        1935.046          40.000  
G17  22838342.787   120016294.896         433.531          44.000  
G23  22460920.604   118032813.839        -422.878          40.000  
E14  25722304.829   135171611.922        4439.080          42.000  
E30  24515818.186   128831549.913       -1513.698          43.000  
E20  28344871.346   148953257.136        1854.718          37.000  
E27  23672173.440   124398111.462        1331.260          45.000  
G12  23458965.513   123277700.278        3912.812          38.000  
> 2024 02 13 08 32 30.0000000  0 15                     
G13  21927877.109   115231748.995       -2807.820          46.000  
G14  23668570.278   124379209.830       -3064.549          43.000  
G15  20516927.059   107817187.448       -1654.074          45.000  
G19  22984853.087   120786227.680        2555.775          44.000  
G22  22411010.433   117770767.304       -2381.474          46.000  
G24  20348220.517   106930642.520        1355.761          48.000  
E07  24845345.707   130563157.207       -2044.082          43.000  
G10  23862415.542   125397837.728        1934.613          40.000  
G17  22838260.064   120015861.423         432.866          44.000  
G23  22461001.294   118033236.971        -423.589          40.000  
E14  25721460.605   135167172.616        4438.939          42.000  
E30  24516105.600   128833063.281       -1513.799          43.000  
E20  28344518.249   148951401.887        1854.970          37.000  
E27  23671919.889   124396779.991        1331.164          45.000  
G12  23458221.200   123273786.998        3912.994          38.000  
> 2024 02 13 08 32 31.0000000  0 15                     
G13  21928411.443   115234556.792       -2808.043          46.000  
G14  23669153.307   124382273.979       -3063.925          43.000  
G15  20517241.581   107818841.585       -1654.358          45.000  
G19  22984366.593   120783671.829        2555.661          44.000  
G22  22411463.363   117773148.877       -2381.464          46.000  
G24  20347962.463   106929286.721        1355.690          48.000  
E07  24845734.699   130565201.266       -2044.141          43.000  
G10  23862047.778   125395903.067        1934.186          41.000  
G17  22838177.428   120015428.606         432.559          44.000  
G23  22461081.547   118033660.805        -424.117          41.000  
E14  25720615.657   135162733.491        4439.043          42.000  
E30  24516393.476   128834576.973       -1513.732          43.000  
E20  28344164.970   148949546.976        1854.485          37.000  
E27  23671666.765   124395448.957        1330.832          45.000  
G12  23457476.660   123269873.985        3912.870          38.000  
> 2024 02 13 08 32 32.0000000  0 15                     
G13  21928945.891   115237364.748       -2807.942          46.000  
G14  23669736.223   124385338.173       -3064.031          43.000  
G15  20517556.244   107820496.116       -1654.664          45.000  
G19  22983880.351   120781116.269        2555.370          44.000  
G22  22411916.676   117775530.614       -2382.118          46.000  
G24  20347704.593   106927931.182        1355.350          48.000  
E07  24846123.559   130567245.414       -2044.132          43.000  
G10  23861679.640   125393968.796        1933.960          40.000  
G17  22838095.151   120014996.206         432.228          44.000  
G23  22461162.359   118034085.117        -424.251          41.000  
E14  25719771.311   135158294.372        4438.897          42.000  
E30  24516681.483   128836090.808       -1513.922          43.000  
E20  28343812.510   148947692.165        1854.967          37.000  
E27  23671413.832   124394118.129        1330.699          45.000  
G12  23456732.278   123265960.998        3913.187          38.000  
> 2024 02 13 08 32 33.0000000  0 15                     
G13  21929480.644   115240173.336       -2808.997          46.000  
G14  23670319.619   124388402.852       -3065.088          43.000  
G15  20517871.264   107822151.551       -1656.229          45.000  
G19  22983394.205   120778561.409        2554.354          44.000  
G22  22412369.936   117777912.936       -2382.839          46.000  
G24  20347446.853   106926576.362        1354.338          48.000  
E07  24846512.568   130569290.116       -2045.194          43.000  
G10  23861312.103   125392035.409        1933.057          41.000  
G17  22838013.012   120014564.703         430.932          44.000  
G23  22461243.450   118034510.400        -425.926          41.000  
E14  25718926.258   135153855.661        4438.511          42.000  
E30  24516970.057   128837605.199       -1514.719          43.000  
E20  28343460.059   148945837.906        1854.405          37.000  
E27  23671160.604   124392787.965        1329.662          45.000  
G12  23455987.904   123262048.522        3911.702          38.000  
> 2024 02 13 08 32 34.0000000  0 15                     
G13  21930015.293   115242982.391       -2809.600          46.000  
G14  23670902.971   124391467.862       -3065.512          44.000  
G15  20518186.196   107823807.689       -1656.747          45.000  
G19  22982908.234   120776007.155        2554.058          44.000  
G22  22412822.865   117780295.746       -2383.048          46.000  
G24  20347189.358   106925222.124        1353.749          48.000  
E07  24846901.525   130571335.233       -2045.509          43.000  
G10  23860943.851   125390102.718        1932.404          41.000  
G17  22837930.691   120014133.954         430.395          44.000  
G23  22461324.227   118034936.495        -426.865          41.000  
E14  25718081.964   135149417.272        4438.052          42.000  
E30  24517258.518   128839120.051       -1515.419          44.000  
E20  28343107.469   148943984.141        1853.125          36.000  
E27  23670907.706   124391458.312        1329.239          45.000  
G12  23455243.626   123258136.419        3911.261          38.000  
> 2024 02 13 08 32 35.0000000  0 15                     
G13  21930549.610   115245791.797       -2809.676          46.000  
G14  23671486.532   124394533.116       -3065.958          44.000  
G15  20518500.798   107825464.444       -1657.262          45.000  
G19  22982422.097   120773453.391        2553.427          44.000  
G22  22413276.397   117782678.924       -2383.703          46.000  
G24  20346932.019   106923868.370        1353.360          48.000  
E07  24847290.604   130573380.656       -2045.786          43.000  
G10  23860576.664   125388170.633        1931.555          42.000  
G17  22837849.007   120013703.865         429.439          44.000  
G23  22461405.484   118035363.263        -427.045          41.000  
E14  25717237.321   135144979.072        4437.988          41.000  
E30  24517546.787   128840635.211       -1515.427          44.000  
E20  28342754.861   148942130.619        1853.531          36.000  
E27  23670654.765   124390129.087        1328.898          45.000  
G12  23454499.069   123254224.526        3911.544          39.000  
> 2024 02 13 08 32 36.0000000  0 15                     
G13  21931083.674   115248599.544       -2805.341          46.000  
G14  23672069.500   124397596.526       -3060.853          44.000  
G15  20518815.739   107827119.761       -1653.006          44.000  
G19  22981936.187   120770898.036        2557.663          44.000  
G22  22413730.032   117785060.404       -2379.036          46.000  
G24  20346673.843   106922513.056        1357.786          48.000  
E07  24847679.333   130575424.342       -2041.448          43.000  
G10  23860209.049   125386237.108        1935.669          42.000  
G17  22837767.060   120013272.349         433.826          44.000  
G23  22461486.453   118035788.713        -423.190          41.000  
E14  25716392.372   135140539.012        4442.242          41.000  
E30  24517834.681   128842148.682       -1511.330          43.000  
E20  28342401.512   148940275.403        1857.780          36.000  
E27  23670401.563   124388798.236        1333.116          45.000  
G12  23453754.607   123250310.873        3915.791          39.000  
> 2024 02 13 08 32 37.0000000  0 15                     
G13  21931618.087   115251406.037       -2802.223          46.000  
G14  23672652.364   124400658.571       -3057.445          44.000  
G15  20519129.808   107828774.093       -1650.006          44.000  
G19  22981450.652   120768341.549        2560.730          44.000  
G22  22414183.319   117787440.638       -2375.968          46.000  
G24  20346415.423   106921156.601        1360.727          48.000  
E07  24848067.784   130577466.719       -2037.937          43.000  
G10  23859841.207   125384302.570        1938.416          42.000  
G17  22837684.678   120012839.877         436.553          44.000  
G23  22461567.353   118036213.252        -420.426          41.000  
E14  25715546.918   135136097.531        4446.151          41.000  
E30  24518122.662   128843660.842       -1507.666          43.000  
E20  28342047.822   148938418.924        1860.667          36.000  
E27  23670147.549   124387466.186        1336.521          45.000  
G12  23453009.658   123246395.814        3919.451          39.000  
> 2024 02 13 08 32 38.0000000  0 15                     
G13  21932151.784   115254209.952       -2803.706          47.000  
G14  23673234.634   124403717.916       -3058.960          44.000  
G15  20519443.677   107830426.117       -1651.973          44.000  
G19  22980964.524   120765782.602        2559.302          44.000  
G22  22414635.463   117789818.282       -2377.148          46.000  
G24  20346156.706   106919797.692        1359.004          48.000  
E07  24848456.086   130579506.453       -2039.261          43.000  
G10  23859472.999   125382365.670        1937.189          42.000  
G17  22837602.086   120012405.107         435.104          44.000  
G23  22461647.702   118036635.558        -422.037          41.000  
E14  25714700.967   135131653.294        4445.205          41.000  
E30  24518409.805   128845170.389       -1508.859          43.000  
E20  28341694.603   148936559.755        1860.095          36.000  
E27  23669894.014   124386131.596        1335.285          45.000  
G12  23452264.080   123242478.097        3917.981          39.000  
> 2024 02 13 08 32 39.0000000  0 15                     
G13  21932686.014   115257015.649       -2805.543          47.000  
G14  23673816.913   124406778.920       -3060.912          43.000  
G15  20519758.321   107832080.183       -1654.539          44.000  
G19  22980478.492   120763225.586        2557.289          45.000  
G22  22415088.148   117792197.726       -2379.142          46.000  
G24  20345898.565   106918440.679        1356.897          47.000  
E07  24848844.755   130581547.930       -2041.297          43.000  
G10  23859105.305   125380430.802        1935.016          42.000  
G17  22837519.817   120011972.415         432.876          44.000  
G23  22461728.601   118037059.981        -424.535          41.000  
E14  25713855.879   135127210.704        4442.939          41.000  
E30  24518697.603   128846681.715       -1511.072          43.000  
E20  28341341.332   148934702.388        1857.360          36.000  
E27  23669640.742   124384798.876        1333.030          45.000  
G12  23451519.034   123238562.039        3915.854          39.000  
> 2024 02 13 08 32 40.0000000  0 15                     
G13  21933220.043   115259822.057       -2806.575          47.000  
G14  23674399.890   124409840.468       -3061.720          44.000  
G15  20520072.678   107833735.182       -1655.323          44.000  
G19  22979992.442   120760669.363        2555.977          45.000  
G22  22415541.051   117794577.863       -2380.223          46.000  
G24  20345640.476   106917084.457        1355.894          47.000  
E07  24849233.258   130583590.025       -2042.241          43.000  
G10  23858737.411   125378496.888        1933.624          42.000  
G17  22837437.705   120011540.708         431.287          44.000  
G23  22461809.893   118037485.431        -426.040          41.000  
E14  25713010.747   135122768.615        4441.991          41.000  
E30  24518984.999   128848193.680       -1511.993          43.000  
E20  28340987.974   148932845.668        1856.353          36.000  
E27  23669387.286   124383466.900        1331.719          45.000  
G12  23450773.779   123234646.558        3915.118          39.000  
> 2024 02 13 08 32 41.0000000  0 15                     
G13  21933754.386   115262628.975       -2807.121          47.000  
G14  23674982.578   124412902.383       -3061.550          44.000  
G15  20520387.428   107835390.937       -1655.692          44.000  
G19  22979506.018   120758113.744        2555.633          45.000  
G22  22415993.989   117796958.493       -2380.492          46.000  
G24  20345382.213   106915728.862        1355.519          47.000  
E07  24849621.796   130585632.577       -2042.526          43.000  
G10  23858369.927   125376563.707        1932.672          42.000  
G17  22837355.820   120011109.753         430.972          44.000  
G23  22461891.272   118037911.727        -426.192          41.000  
E14  25712165.485   135118326.858        4442.110          41.000  
E30  24519273.198   128849706.121       -1512.315          43.000  
E20  28340635.305   148930989.360        1856.385          36.000  
E27  23669133.831   124382135.466        1331.466          45.000  
G12  23450028.436   123230731.457        3915.097          38.000  
> 2024 02 13 08 32 42.0000000  0 15                     
G13  21934288.982   115265436.587       -2807.832          47.000  
G14  23675565.616   124415964.907       -3062.906          44.000  
G15  20520702.378   107837047.668       -1657.105          43.000  
G19  22979020.099   120755558.953        2554.654          45.000  
G22  22416447.057   117799339.841       -2381.627          46.000  
G24  20345123.959   106914374.077        1354.566          47.000  
E07  24850010.709   130587675.786       -2043.570          43.000  
G10  23858002.565   125374631.455        1932.098          42.000  
G17  22837273.943   120010679.797         429.776          44.000  
G23  22461972.791   118038339.068        -427.667          41.000  
E14  25711320.240   135113885.658        4440.986          41.000  
E30  24519561.083   128851219.243       -1513.457          43.000  
E20  28340281.581   148929133.781        1854.885          36.000  
E27  23668880.593   124380804.797        1330.374          46.000  
G12  23449283.434   123226816.941        3914.336          38.000  
> 2024 02 13 08 32 43.0000000  0 15                     
G13  21934823.386   115268244.502       -2808.068          47.000  
G14  23676148.523   124419027.574       -3062.887          44.000  
G15  20521017.756   107838704.964       -1657.577          44.000  
G19  22978534.032   120753004.590        2553.976          45.000  
G22  22416900.004   117801721.485       -2381.795          46.000  
G24  20344865.887   106913019.722        1354.041          47.000  
E07  24850399.456   130589719.220       -2043.621          43.000  
G10  23857635.028   125372699.769        1931.543          42.000  
G17  22837192.660   120010250.427         429.248          45.000  
G23  22462054.798   118038767.044        -428.243          42.000  
E14  25710475.641   135109444.555        4441.198          42.000  
E30  24519848.776   128852732.614       -1513.433          43.000  
E20  28339928.589   148927278.391        1855.457          36.000  
E27  23668627.609   124379474.476        1330.243          46.000  
G12  23448538.380   123222902.629        3914.150          38.000  
> 2024 02 13 08 32 44.0000000  0 15                     
G13  21935357.625   115271052.731       -2808.428          47.000  
G14  23676731.431   124422090.403       -3063.014          44.000  
G15  20521332.994   107840362.812       -1658.364          44.000  
G19  22978048.226   120750450.639        2553.775          45.000  
G22  22417353.020   117804103.447       -2382.243          46.000  
G24  20344608.270   106911665.773        1353.680          47.000  
E07  24850788.517   130591762.913       -2043.823          43.000  
G10  23857267.361   125370768.622        1930.933          42.000  
G17  22837111.307   120009821.642         428.504          45.000  
G23  22462136.963   118039195.657        -428.735          42.000  
E14  25709630.492   135105003.614        4440.868          42.000  
E30  24520137.106   128854246.265       -1513.793          43.000  
E20  28339575.484   148925423.268        1855.045          36.000  
E27  23668374.572   124378144.525        1329.774          45.000  
G12  23447793.281   123218988.514        3913.929          38.000  
> 2024 02 13 08 32 45.0000000  0 15                     
G13  21935891.706   115273861.337       -2808.779          47.000  
G14  23677314.407   124425153.507       -3063.303          44.000  
G15  20521648.669   107842021.293       -1658.847          44.000  
G19  22977562.343   120747897.215        2553.305          45.000  
G22  22417806.107   117806485.774       -2382.404          46.000  
G24  20344350.495   106910312.332        1353.286          47.000  
E07  24851177.657   130593806.931       -2043.918          43.000  
G10  23856899.921   125368838.105        1930.316          41.000  
G17  22837030.172   120009393.536         427.883          45.000  
G23  22462218.926   118039625.018        -429.606          42.000  
E14  25708785.159   135100562.890        4440.929          41.000  
E30  24520425.113   128855760.283       -1514.002          43.000  
E20  28339222.815   148923568.554        1854.665          36.000  
E27  23668121.212   124376815.014        1329.444          45.000  
G12  23447048.122   123215074.660        3913.651          38.000  
> 2024 02 13 08 32 46.0000000  0 15                     
G13  21936426.084   115276670.315       -2809.206          47.000  
G14  23677897.454   124428216.829       -3063.618          44.000  
G15  20521964.535   107843680.383       -1659.311          44.000  
G19  22977076.747   120745344.258        2552.638          45.000  
G22  22418259.306   117808868.472       -2382.808          46.000  
G24  20344092.773   106908959.342        1352.755          47.000  
E07  24851566.745   130595851.246       -2044.390          43.000  
G10  23856532.934   125366908.185        1929.333          41.000  
G17  22836949.160   120008966.055         427.125          45.000  
G23  22462300.881   118040055.081        -430.610          41.000  
E14  25707940.316   135096122.343        4440.145          41.000  
E30  24520713.225   128857274.616       -1514.536          43.000  
E20  28338869.814   148921714.084        1854.594          36.000  
E27  23667867.940   124375485.911        1328.826          46.000  
G12  23446302.771   123211161.016        3913.458          38.000  
> 2024 02 13 08 32 47.0000000  0 15                     
G13  21936960.218   115279479.635       -2809.416          47.000  
G14  23678480.475   124431280.348       -3063.545          44.000  
G15  20522280.602   107845340.089       -1659.926          44.000  
G19  22976591.526   120742791.755        2552.365          45.000  
G22  22418712.392   117811251.509       -2383.256          46.000  
G24  20343835.173   106907606.824        1352.394          47.000  
E07  24851956.068   130597895.856       -2044.699          43.000  
G10  23856165.912   125364978.834        1929.297          41.000  
G17  22836868.575   120008539.194         426.686          45.000  
G23  22462383.046   118040485.809        -430.975          42.000  
E14  25707095.054   135091681.952        4440.634          41.000  
E30  24521001.119   128858789.247       -1514.767          43.000  
E20  28338516.735   148919859.958        1853.951          36.000  
E27  23667615.077   124374157.199        1328.524          46.000  
G12  23445557.542   123207247.601        3913.302          38.000  
> 2024 02 13 08 32 48.0000000  0 15                     
G13  21937494.796   115282289.341       -2810.090          47.000  
G14  23679063.399   124434344.107       -3063.857          44.000  
G15  20522596.547   107847000.385       -1660.704          45.000  
G19  22976105.729   120740239.719        2551.727          44.000  
G22  22419165.880   117813634.900       -2383.469          46.000  
G24  20343578.096   106906254.787        1351.775          47.000  
E07  24852344.963   130599940.767       -2044.921          43.000  
G10  23855798.768   125363050.077        1928.467          41.000  
G17  22836787.798   120008112.965         425.912          46.000  
G23  22462465.001   118040917.202        -431.481          42.000  
E14  25706249.844   135087241.765        4440.283          42.000  
E30  24521289.457   128860304.198       -1515.044          43.000  
E20  28338164.320   148918006.111        1853.995          36.000  
E27  23667362.311   124372828.899        1328.257          44.000  
G12  23444812.235   123203334.462        3913.428          37.000  
> 2024 02 13 08 32 49.0000000  0 15                     
G13  21938029.916   115285099.496       -2810.292          46.000  
G14  23679646.603   124437408.220       -3063.993          44.000  
G15  20522912.989   107848661.443       -1661.156          45.000  
G19  22975619.802   120737688.296        2551.249          44.000  
G22  22419619.263   117816018.774       -2383.912          46.000  
G24  20343321.342   106904903.330        1351.388          48.000  
E07  24852734.077   130601986.100       -2045.388          43.000  
G10  23855431.319   125361122.066        1927.917          41.000  
G17  22836706.898   120007687.511         425.262          45.000  
G23  22462547.427   118041349.452        -432.295          42.000  
E14  25705404.878   135082801.912        4440.014          42.000  
E30  24521578.102   128861819.607       -1515.331          43.000  
E20  28337811.677   148916152.726        1853.282          37.000  
E27  23667109.265   124371501.144        1327.770          44.000  
G12  23444067.381   123199421.673        3912.891          37.000  
> 2024 02 13 08 32 50.0000000  0 15                     
G13  21938564.434   115287909.922       -2810.527          46.000  
G14  23680229.841   124440472.452       -3064.233          44.000  
G15  20523229.597   107850322.999       -1661.633          45.000  
G19  22975134.503   120735137.234        2551.224          44.000  
G22  22420072.733   117818402.903       -2384.205          46.000  
G24  20343063.821   106903552.235        1351.196          47.000  
E07  24853123.077   130604031.625       -2045.455          43.000  
G10  23855064.437   125359194.545        1927.734          41.000  
G17  22836625.999   120007262.597         424.699          45.000  
G23  22462629.669   118041782.321        -433.026          42.000  
E14  25704559.999   135078362.124        4439.971          42.000  
E30  24521866.911   128863335.237       -1515.554          43.000  
E20  28337458.668   148914299.541        1853.064          36.000  
E27  23666856.394   124370173.688        1327.551          45.000  
G12  23443322.649   123195509.024        3912.676          37.000  
> 2024 02 13 08 32 51.0000000  0 15                     
G13  21939099.187   115290720.739       -2811.023          46.000  
G14  23680813.185   124443536.949       -3064.823          44.000  
G15  20523546.406   107851985.218       -1662.562          45.000  
G19  22974649.221   120732586.710        2549.956          44.000  
G22  22420526.151   117820787.435       -2384.809          46.000  
G24  20342806.657   106902201.666        1350.297          47.000  
E07  24853512.557   130606077.494       -2046.164          43.000  
G10  23854697.354   125357267.701        1926.172          41.000  
G17  22836545.248   120006838.369         423.740          45.000  
G23  22462711.851   118042215.883        -433.981          42.000  
E14  25703714.720   135073922.583        4439.323          42.000  
E30  24522155.320   128864851.242       -1516.124          43.000  
E20  28337105.903   148912446.706        1852.902          36.000  
E27  23666603.453   124368846.689        1326.795          45.000  
G12  23442578.389   123191596.660        3912.186          37.000  
> 2024 02 13 08 32 52.0000000  0 15                     
G13  21939633.905   115293531.829       -2811.139          46.000  
G14  23681396.607   124446601.579       -3064.833          44.000  
G15  20523862.979   107853647.938       -1662.927          45.000  
G19  22974163.677   120730036.547        2549.828          44.000  
G22  22420980.397   117823172.210       -2384.885          46.000  
G24  20342549.458   106900851.472        1350.002          47.000  
E07  24853901.898   130608123.575       -2046.369          43.000  
G10  23854330.359   125355341.305        1926.050          41.000  
G17  22836464.864   120006414.663         423.449          45.000  
G23  22462794.138   118042650.073        -434.693          41.000  
E14  25702870.042   135069483.124        4439.295          42.000  
E30  24522443.824   128866367.445       -1516.219          43.000  
E20  28336753.365   148910594.112        1852.225          37.000  
E27  23666350.931   124367520.001        1326.560          45.000  
G12  23441833.893   123187684.468        3911.846          37.000  
> 2024 02 13 08 32 53.0000000  0 15                     
G13  21940169.130   115296343.448       -2811.711          46.000  
G14  23681980.116   124449666.603       -3064.936          44.000  
G15  20524179.613   107855311.467       -1663.716          45.000  
G19  22973678.483   120727487.036        2549.479          44.000  
G22  22421434.312   117825557.521       -2385.202          46.000  
G24  20342292.643   106899501.912        1349.528          47.000  
E07  24854291.073   130610170.116       -2046.446          43.000  
G10  23853963.494   125353415.691        1925.763          41.000  
G17  22836384.113   120005991.781         422.768          45.000  
G23  22462876.616   118043085.103        -435.110          41.000  
E14  25702025.547   135065044.011        4439.343          42.000  
E30  24522732.765   128867884.164       -1516.392          43.000  
E20  28336401.097   148908742.008        1852.295          37.000  
E27  23666098.793   124366193.897        1326.295          45.000  
G12  23441089.466   123183772.670        3912.056          37.000  
> 2024 02 13 08 32 54.0000000  0 15                     
G13  21940704.328   115299155.387       -2811.889          46.000  
G14  23682563.468   124452731.825       -3065.278          44.000  
G15  20524496.649   107856975.582       -1664.689          45.000  
G19  22973193.524   120724937.982        2548.906          44.000  
G22  22421888.419   117827943.170       -2385.749          46.000  
G24  20342035.802   106898152.803        1348.824          47.000  
E07  24854680.509   130612216.945       -2047.073          43.000  
G10  23853596.751   125351490.663        1924.622          41.000  
G17  22836303.624   120005569.520         422.096          45.000  
G23  22462959.269   118043520.836        -436.304          41.000  
E14  25701180.957   135060605.089        4438.718          42.000  
E30  24523021.505   128869401.196       -1517.239          43.000  
E20  28336048.995   148906890.151        1851.864          36.000  
E27  23665846.559   124364868.192        1325.483          45.000  
G12  23440345.188   123179861.074        3911.512          37.000  
> 2024 02 13 08 32 55.0000000  0 15                     
G13  21941238.985   115301967.607       -2812.401          46.000  
G14  23683146.890   124455797.173       -3065.296          44.000  
G15  20524813.711   107858640.201       -1665.036          45.000  
G19  22972708.442   120722389.294        2548.391          44.000  
G22  22422342.666   117830329.078       -2386.142          46.000  
G24  20341779.214   106896804.076        1348.476          47.000  
E07  24855070.129   130614263.972       -2047.204          43.000  
G10  23853230.567   125349566.127        1924.280          41.000  
G17  22836223.301   120005147.802         421.377          45.000  
G23  22463041.957   118043957.146        -436.651          41.000  
E14  25700336.375   135056166.248        4438.825          42.000  
E30  24523309.495   128870918.445       -1517.539          43.000  
E20  28335696.510   148905038.556        1851.271          37.000  
E27  23665594.185   124363542.789        1325.217          45.000  
G12  23439600.849   123175949.641        3911.263          37.000  
> 2024 02 13 08 32 56.0000000  0 15                     
G13  21941773.913   115304780.089       -2812.567          46.000  
G14  23683730.085   124458862.660       -3065.460          44.000  
G15  20525130.493   107860305.336       -1665.312          45.000  
G19  22972223.544   120719840.987        2548.375          44.000  
G22  22422796.520   117832715.242       -2386.292          46.000  
G24  20341522.748   106895455.718        1348.215          47.000  
E07  24855459.845   130616311.197       -2047.558          43.000  
G10  23852864.287   125347642.100        1923.798          41.000  
G17  22836142.384   120004726.598         421.079          45.000  
G23  22463124.689   118044394.054        -437.003          41.000  
E14  25699491.409   135051727.503        4438.589          42.000  
E30  24523598.662   128872435.909       -1517.452          43.000  
E20  28335344.644   148903187.164        1851.527          37.000  
E27  23665342.431   124362217.711        1324.822          45.000  
G12  23438856.362   123172038.365        3911.072          37.000  
> 2024 02 13 08 32 57.0000000  0 15                     
G13  21942308.936   115307592.875       -2812.872          46.000  
G14  23684313.271   124461928.303       -3065.668          44.000  
G15  20525447.590   107861971.040       -1665.919          45.000  
G19  22971738.315   120717293.112        2547.652          44.000  
G22  22423250.348   117835101.719       -2386.361          46.000  
G24  20341266.230   106894107.758        1347.968          47.000  
E07  24855849.028   130618358.654       -2047.542          43.000  
G10  23852498.208   125345718.605        1923.273          41.000  
G17  22836061.493   120004305.987         420.505          44.000  
G23  22463207.621   118044831.615        -437.700          41.000  
E14  25698647.098   135047288.878        4438.743          41.000  
E30  24523887.455   128873953.645       -1517.720          43.000  
E20  28334992.350   148901336.019        1851.251          37.000  
E27  23665090.179   124360892.981        1324.615          45.000  
G12  23438112.075   123168127.231        3911.454          37.000  
> 2024 02 13 08 32 58.0000000  0 15                     
G13  21942843.881   115310405.694       -2813.232          46.000  
G14  23684896.483   124464993.868       -3065.765          44.000  
G15  20525764.817   107863637.054       -1666.560          45.000  
G19  22971253.138   120714745.388        2547.200          44.000  
G22  22423705.022   117837488.239       -2386.884          46.000  
G24  20341010.000   106892759.976        1347.406          47.000  
E07  24856238.962   130620406.109       -2047.778          43.000  
G10  23852131.692   125343795.398        1922.638          41.000  
G17  22835980.882   120003885.708         419.697          44.000  
G23  22463291.146   118045269.557        -438.616          41.000  
E14  25697802.202   135042850.131        4438.560          41.000  
E30  24524176.195   128875471.391       -1518.002          43.000  
E20  28334639.812   148899484.907        1850.582          37.000  
E27  23664838.111   124359568.345        1324.319          44.000  
G12  23437367.754   123164216.085        3911.080          38.000  
> 2024 02 13 08 32 59.0000000  0 15                     
G13  21943378.984   115313219.290       -2814.063          46.000  
G14  23685480.237   124468060.063       -3066.614          44.000  
G15  20526082.184   107865304.079       -1667.955          45.000  
G19  22970768.371   120712198.573        2546.151          44.000  
G22  22424159.338   117839875.525       -2387.953          46.000  
G24  20340753.857   106891413.085        1346.148          47.000  
E07  24856628.364   130622454.285       -2048.716          43.000  
G10  23851765.473   125341873.192        1921.692          41.000  
G17  22835900.882   120003466.482         418.436          44.000  
G23  22463374.811   118045708.620        -440.047          41.000  
E14  25696957.507   135038412.007        4437.563          41.000  
E30  24524465.493   128876989.890       -1519.075          44.000  
E20  28334288.146   148897634.483        1850.008          37.000  
E27  23664586.426   124358244.552        1323.096          45.000  
G12  23436623.676   123160305.582        3909.557          37.000  
> 2024 02 13 08 33 00.0000000  0 15                     
G13  21943914.269   115316033.296       -2814.135          46.000  
G14  23686063.633   124471126.537       -3066.864          43.000  
G15  20526399.778   107866971.726       -1667.814          45.000  
G19  22970284.014   120709652.252        2546.112          44.000  
G22  22424613.698   117842263.214       -2388.015          46.000  
G24  20340497.897   106890066.685        1346.051          47.000  
E07  24857018.402   130624502.802       -2048.929          43.000  
G10  23851399.603   125339951.655        1920.990          41.000  
G17  22835820.846   120003047.918         418.419          44.000  
G23  22463458.450   118046148.406        -440.270          41.000  
E14  25696112.829   135033974.103        4437.735          41.000  
E30  24524754.600   128878508.739       -1519.229          44.000  
E20  28333936.045   148895784.451        1849.738          37.000  
E27  23664334.480   124356921.193        1323.105          44.000  
G12  23435879.712   123156395.349        3910.261          37.000  
> 2024 02 13 08 33 01.0000000  0 15                     
G13  21944450.008   115318847.634       -2815.003          46.000  
G14  23686647.543   124474193.200       -3067.017          43.000  
G15  20526717.189   107868640.001       -1668.931          45.000  
G19  22969799.692   120707106.408        2545.128          44.000  
G22  22425068.364   117844651.218       -2388.419          46.000  
G24  20340241.763   106888720.753        1345.156          47.000  
E07  24857407.777   130626551.588       -2049.339          43.000  
G10  23851033.742   125338030.663        1920.441          40.000  
G17  22835740.872   120002629.990         417.405          44.000  
G23  22463542.098   118046588.858        -441.046          41.000  
E14  25695268.465   135029536.355        4437.164          41.000  
E30  24525043.645   128880027.871       -1519.688          44.000  
E20  28333583.978   148893934.685        1849.335          37.000  
E27  23664082.804   124355598.226        1322.396          44.000  
G12  23435135.775   123152485.342        3909.667          37.000  
> 2024 02 13 08 33 02.0000000  0 15                     
G13  21944985.625   115321662.719       -2815.200          46.000  
G14  23687231.104   124477260.484       -3067.572          43.000  
G15  20527034.617   107870309.290       -1669.650          45.000  
G19  22969315.099   120704561.414        2544.828          44.000  
G22  22425522.916   117847039.996       -2388.977          46.000  
G24  20339985.917   106887375.672        1344.664          47.000  
E07  24857797.589   130628601.065       -2049.616          43.000  
G10  23850668.395   125336110.684        1919.757          40.000  
G17  22835661.098   120002213.075         416.630          44.000  
G23  22463625.955   118047030.405        -441.890          41.000  
E14  25694424.564   135025099.188        4437.135          41.000  
E30  24525332.673   128881547.744       -1520.085          44.000  
E20  28333231.963   148892085.606        1849.078          37.000  
E27  23663830.840   124354276.071        1321.914          44.000  
G12  23434392.273   123148575.975        3909.615          38.000  
> 2024 02 13 08 33 03.0000000  0 15                     
G13  21945520.858   115324478.011       -2815.559          46.000  
G14  23687814.387   124480327.830       -3067.578          43.000  
G15  20527352.473   107871979.010       -1670.045          45.000  
G19  22968830.899   120702016.732        2544.539          44.000  
G22  22425978.009   117849428.954       -2389.156          46.000  
G24  20339730.044   106886030.898        1344.334          47.000  
E07  24858187.287   130630650.688       -2049.919          42.000  
G10  23850302.848   125334191.133        1919.147          41.000  
G17  22835581.569   120001796.657         415.754          44.000  
G23  22463710.178   118047472.504        -442.586          42.000  
E14  25693579.921   135020662.075        4436.879          41.000  
E30  24525622.093   128883067.765       -1520.417          44.000  
E20  28332880.010   148890236.765        1847.735          37.000  
E27  23663579.531   124352954.153        1321.596          44.000  
G12  23433648.798   123144666.705        3909.204          38.000  
> 2024 02 13 08 33 04.0000000  0 15                     
G13  21946056.484   115327293.680       -2816.318          46.000  
G14  23688397.905   124483395.416       -3068.115          43.000  
G15  20527670.477   107873649.380       -1671.196          45.000  
G19  22968347.144   120699472.561        2543.620          44.000  
G22  22426432.430   117851818.305       -2389.941          46.000  
G24  20339474.285   106884686.616        1343.825          47.000  
E07  24858577.405   130632700.626       -2050.450          42.000  
G10  23849937.790   125332272.191        1918.427          40.000  
G17  22835502.354   120001380.890         414.977          44.000  
G23  22463794.716   118047915.298        -443.489          42.000  
E14  25692735.034   135016225.126        4436.667          41.000  
E30  24525911.505   128884588.142       -1520.900          44.000  
E20  28332528.048   148888388.133        1848.005          37.000  
E27  23663328.012   124351632.672        1321.048          44.000  
G12  23432905.244   123140757.705        3908.469          38.000  
> 2024 02 13 08 33 05.0000000  0 15                     
G13  21946592.206   115330109.948       -2816.766          45.000  
G14  23688981.693   124486463.488       -3068.445          43.000  
G15  20527989.013   107875320.587       -1671.655          45.000  
G19  22967863.259   120696929.121        2543.039          44.000  
G22  22426887.593   117854208.242       -2390.360          46.000  
G24  20339218.229   106883343.076        1343.133          46.000  
E07  24858967.635   130634751.127       -2050.911          42.000  
G10  23849572.461   125330354.112        1917.859          40.000  
G17  22835423.112   120000966.011         414.339          44.000  
G23  22463879.480   118048359.053        -444.357          42.000  
E14  25691890.356   135011788.673        4435.993          41.000  
E30  24526200.629   128886109.063       -1521.238          44.000  
E20  28332176.452   148886540.130        1847.551          37.000  
E27  23663076.764   124350311.854        1320.435          44.000  
G12  23432162.066   123136849.173        3907.900          38.000  
> 2024 02 13 08 33 06.0000000  0 15                     
G13  21947128.006   115332926.467       -2816.717          45.000  
G14  23689565.568   124489531.633       -3068.146          43.000  
G15  20528307.297   107876992.300       -1672.000          45.000  
G19  22967379.006   120694386.017        2542.912          43.000  
G22  22427342.799   117856598.416       -2390.381          47.000  
G24  20338962.610   106881999.871        1343.069          46.000  
E07  24859357.752   130636801.786       -2050.805          42.000  
G10  23849207.446   125328436.507        1917.365          40.000  
G17  22835344.316   120000551.635         414.211          44.000  
G23  22463963.957   118048803.367        -444.589          42.000  
E14  25691046.612   135007352.257        4436.389          41.000  
E30  24526490.216   128887630.203       -1521.078          44.000  
E20  28331824.935   148884692.346        1847.576          37.000  
E27  23662825.682   124348991.330        1320.412          44.000  
G12  23431418.582   123132940.760        3908.422          39.000  
> 2024 02 13 08 33 07.0000000  0 15                     
G13  21947663.405   115335743.362       -2817.342          45.000  
G14  23690149.261   124492600.077       -3068.695          43.000  
G15  20528625.580   107878664.670       -1672.779          46.000  
G19  22966895.068   120691843.434        2542.162          44.000  
G22  22427798.014   117858988.981       -2390.724          47.000  
G24  20338707.252   106880657.175        1342.293          47.000  
E07  24859748.122   130638852.786       -2051.257          42.000  
G10  23848842.640   125326519.551        1916.687          40.000  
G17  22835265.423   120000137.963         413.167          44.000  
G23  22464048.233   118049248.424        -445.378          42.000  
E14  25690202.527   135002916.075        4436.037          40.000  
E30  24526780.064   128889151.722       -1521.778          44.000  
E20  28331473.487   148882844.869        1847.468          37.000  
E27  23662574.748   124347671.247        1319.857          44.000  
G12  23430675.595   123129032.654        3907.835          39.000  
> 2024 02 13 08 33 08.0000000  0 15                     
G13  21948198.917   115338560.556       -2817.271          45.000  
G14  23690733.128   124495668.653       -3068.530          43.000  
G15  20528944.343   107880337.564       -1673.061          46.000  
G19  22966411.348   120689301.265        2542.203          44.000  
G22  22428253.552   117861379.841       -2390.794          47.000  
G24  20338451.964   106879314.880        1342.170          47.000  
E07  24860138.675   130640904.015       -2051.053          42.000  
G10  23848478.166   125324603.100        1916.333          40.000  
G17  22835186.688   119999724.829         413.416          44.000  
G23  22464132.988   118049694.105        -445.966          42.000  
E14  25689358.556   134998480.001        4436.343          40.000  
E30  24527069.633   128890673.473       -1521.873          44.000  
E20  28331122.153   148880997.677        1847.109          37.000  
E27  23662323.508   124346351.495        1319.950          44.000  
G12  23429932.355   123125124.714        3907.877          39.000  
> 2024 02 13 08 33 09.0000000  0 15                     
G13  21948734.839   115341378.128       -2817.618          44.000  
G14  23691316.898   124498737.467       -3068.921          43.000  
G15  20529263.028   107882011.097       -1673.917          46.000  
G19  22965927.567   120686759.589        2541.461          44.000  
G22  22428708.558   117863771.054       -2391.447          47.000  
G24  20338196.423   106877973.058        1341.772          47.000  
E07  24860529.246   130642955.554       -2051.629          42.000  
G10  23848113.806   125322687.268        1915.643          40.000  
G17  22835108.450   119999312.378         412.150          44.000  
G23  22464217.945   118050140.500        -446.781          42.000  
E14  25688514.611   134994044.161        4435.628          40.000  
E30  24527359.332   128892195.557       -1522.255          43.000  
E20  28330770.741   148879150.763        1847.040          37.000  
E27  23662072.251   124345032.188        1319.299          44.000  
G12  23429189.046   123121217.002        3907.652          39.000  
> 2024 02 13 08 33 10.0000000  0 15                     
G13  21949270.683   115344195.808       -2817.762          44.000  
G14  23691900.538   124501806.256       -3068.848          43.000  
G15  20529581.703   107883684.980       -1674.342          46.000  
G19  22965443.943   120684218.127        2541.176          44.000  
G22  22429163.834   117866162.397       -2391.827          47.000  
G24  20337941.327   106876631.462        1341.192          47.000  
E07  24860919.887   130645007.134       -2051.647          43.000  
G10  23847749.471   125320771.794        1914.929          40.000  
G17  22835030.439   119998900.310         411.651          44.000  
G23  22464302.796   118050587.335        -447.312          42.000  
E14  25687670.675   134989608.228        4435.582          40.000  
E30  24527649.032   128893717.718       -1522.489          43.000  
E20  28330419.407   148877303.940        1846.580          37.000  
E27  23661821.299   124343713.031        1318.873          44.000  
G12  23428445.789   123117309.313        3907.854          39.000  
> 2024 02 13 08 33 11.0000000  0 15                     
G13  21949806.963   115347013.713       -2817.753          44.000  
G14  23692484.388   124504875.118       -3068.683          42.000  
G15  20529900.432   107885359.329       -1674.388          46.000  
G19  22964960.249   120681677.023        2540.949          44.000  
G22  22429619.258   117868553.927       -2391.392          47.000  
G24  20337686.135   106875290.197        1341.381          47.000  
E07  24861310.344   130647058.899       -2051.685          43.000  
G10  23847384.814   125318856.758        1915.192          40.000  
G17  22834952.227   119998488.741         411.488          44.000  
G23  22464388.076   118051034.719        -447.454          42.000  
E14  25686826.390   134985172.377        4435.918          40.000  
E30  24527938.680   128895240.068       -1522.233          44.000  
E20  28330068.370   148875457.317        1846.580          37.000  
E27  23661570.339   124342394.153        1318.819          44.000  
G12  23427702.671   123113401.714        3907.609          39.000  
> 2024 02 13 08 33 12.0000000  0 15                     
G13  21950342.973   115349831.880       -2817.975          45.000  
G14  23693068.185   124507944.121       -3068.488          42.000  
G15  20530218.907   107887034.200       -1674.556          46.000  
G19  22964476.302   120679136.270        2541.258          44.000  
G22  22430074.500   117870945.714       -2391.416          47.000  
G24  20337431.013   106873949.299        1341.098          47.000  
E07  24861700.732   130649110.848       -2051.651          43.000  
G10  23847020.279   125316942.238        1914.746          40.000  
G17  22834874.599   119998077.696         411.144          44.000  
G23  22464473.311   118051482.686        -447.640          42.000  
E14  25685982.375   134980736.582        4436.010          40.000  
E30  24528228.170   128896762.616       -1522.205          44.000  
E20  28329717.088   148873610.860        1847.031          37.000  
E27  23661319.466   124341075.564        1318.851          44.000  
G12  23426959.283   123109494.274        3907.919          39.000  
> 2024 02 13 08 33 13.0000000  0 15                     
G13  21950879.279   115352650.409       -2818.635          45.000  
G14  23693651.799   124511013.393       -3069.562          42.000  
G15  20530537.495   107888709.725       -1675.886          46.000  
G19  22963992.983   120676596.052        2539.817          44.000  
G22  22430529.889   117873337.917       -2392.654          47.000  
G24  20337175.952   106872608.923        1340.038          47.000  
E07  24862091.311   130651163.141       -2052.538          43.000  
G10  23846656.084   125315028.375        1913.348          40.000  
G17  22834796.737   119997667.354         409.716          44.000  
G23  22464558.974   118051931.400        -448.992          42.000  
E14  25685138.134   134976301.025        4435.337          40.000  
E30  24528517.826   128898285.552       -1523.195          44.000  
E20  28329365.902   148871764.811        1845.342          37.000  
E27  23661068.541   124339757.442        1317.791          44.000  
G12  23426215.913   123105587.105        3906.990          39.000  
> 2024 02 13 08 33 14.0000000  0 15                     
G13  21951415.751   115355469.273       -2819.119          45.000  
G14  23694235.639   124514082.793       -3069.507          41.000  
G15  20530856.293   107890385.802       -1676.479          46.000  
G19  22963509.909   120674056.240        2539.408          44.000  
G22  22430984.869   117875730.385       -2392.715          47.000  
G24  20336920.917   106871268.948        1339.608          47.000  
E07  24862482.248   130653215.656       -2052.713          43.000  
G10  23846292.081   125313115.016        1913.245          40.000  
G17  22834718.839   119997257.558         409.374          44.000  
G23  22464644.847   118052380.753        -449.771          43.000  
E14  25684293.971   134971865.599        4435.089          40.000  
E30  24528807.744   128899808.739       -1523.626          44.000  
E20  28329014.132   148869918.993        1845.502          37.000  
E27  23660817.310   124338439.656        1317.474          44.000  
G12  23425472.228   123101680.091        3907.030          39.000  
> 2024 02 13 08 33 15.0000000  0 15                     
G13  21951952.407   115358288.393       -2819.018          45.000  
G14  23694819.951   124517152.357       -3069.446          41.000  
G15  20531175.231   107892062.408       -1676.641          46.000  
G19  22963026.826   120671516.824        2539.324          44.000  
G22  22431440.180   117878123.140       -2392.734          47.000  
G24  20336666.187   106869929.353        1339.645          47.000  
E07  24862872.697   130655268.386       -2052.537          43.000  
G10  23845928.009   125311202.194        1912.848          40.000  
G17  22834641.150   119996848.340         409.071          45.000  
G23  22464730.213   118052830.720        -450.033          43.000  
E14  25683449.633   134967430.290        4435.320          40.000  
E30  24529097.461   128901332.170       -1523.475          44.000  
E20  28328662.877   148868073.359        1846.239          37.000  
E27  23660566.472   124337122.218        1317.368          44.000  
G12  23424728.718   123097773.302        3906.818          39.000  
> 2024 02 13 08 33 16.0000000  0 15                     
G13  21952488.617   115361107.787       -2819.816          44.000  
G14  23695403.862   124520222.036       -3069.989          41.000  
G15  20531494.413   107893739.536       -1677.647          46.000  
G19  22962543.813   120668977.789        2538.699          44.000  
G22  22431895.980   117880516.153       -2393.421          47.000  
G24  20336411.074   106868590.151        1338.958          47.000  
E07  24863263.713   130657321.333       -2053.151          43.000  
G10  23845563.718   125309289.876        1911.853          40.000  
G17  22834563.584   119996439.647         408.345          45.000  
G23  22464816.365   118053281.258        -451.128          43.000  
E14  25682605.627   134962995.054        4434.900          40.000  
E30  24529387.388   128902855.813       -1523.918          44.000  
E20  28328311.674   148866228.045        1844.469          37.000  
E27  23660315.887   124335805.078        1316.769          44.000  
G12  23423985.470   123093866.622        3906.369          39.000  
> 2024 02 13 08 33 17.0000000  0 15                     
G13  21953024.626   115363927.391       -2819.817          45.000  
G14  23695987.484   124523291.807       -3070.282          41.000  
G15  20531813.543   107895417.173       -1678.403          47.000  
G19  22962060.660   120666439.111        2538.101          44.000  
G22  22432351.238   117882909.392       -2393.776          47.000  
G24  20336156.362   106867251.288        1338.351          47.000  
E07  24863654.362   130659374.443       -2053.677          44.000  
G10  23845200.213   125307378.027        1911.206          40.000  
G17  22834486.236   119996031.496         407.287          45.000  
G23  22464902.368   118053732.392        -451.863          43.000  
E14  25681761.412   134958559.927        4434.197          40.000  
E30  24529676.730   128904379.661       -1524.343          44.000  
E20  28327960.270   148864382.828        1844.870          38.000  
E27  23660064.804   124334488.227        1316.296          44.000  
G12  23423242.125   123089960.071        3906.276          39.000  
> 2024 02 13 08 33 18.0000000  0 15                     
G13  21953561.055   115366747.393       -2819.915          44.000  
G14  23696571.447   124526361.843       -3069.659          41.000  
G15  20532132.803   107897095.419       -1678.211          46.000  
G19  22961577.681   120663900.934        2538.245          45.000  
G22  22432806.750   117885303.010       -2393.192          47.000  
G24  20335901.667   106865912.917        1338.693          47.000  
E07  24864045.360   130661427.888       -2053.048          44.000  
G10  23844836.559   125305466.808        1911.298          40.000  
G17  22834408.844   119995623.991         407.674          45.000  
G23  22464988.529   118054184.238        -451.657          43.000  
E14  25680917.432   134954124.969        4435.481          40.000  
E30  24529966.325   128905903.851       -1523.782          44.000  
E20  28327608.910   148862537.978        1845.147          38.000  
E27  23659814.289   124333171.815        1316.537          45.000  
G12  23422498.981   123086053.790        3906.585          39.000  
> 2024 02 13 08 33 19.0000000  0 15                     
G13  21954098.164   115369567.590       -2820.079          45.000  
G14  23697155.366   124529431.927       -3070.202          41.000  
G15  20532452.186   107898774.120       -1678.866          46.000  
G19  22961094.904   120661363.042        2537.859          44.000  
G22  22433261.991   117887696.812       -2393.892          47.000  
G24  20335647.155   106864574.853        1337.971          47.000  
E07  24864436.394   130663481.448       -2053.484          43.000  
G10  23844472.896   125303556.004        1910.681          40.000  
G17  22834331.749   119995216.958         406.799          45.000  
G23  22465074.532   118054636.598        -452.557          43.000  
E14  25680073.330   134949690.053        4434.926          40.000  
E30  24530256.130   128907428.210       -1524.421          44.000  
E20  28327258.178   148860693.300        1844.610          38.000  
E27  23659563.590   124331855.637        1316.100          44.000  
G12  23421755.471   123082147.554        3906.517          39.000  
> 2024 02 13 08 33 20.0000000  0 15                     
G13  21954634.645   115372388.280       -2821.264          45.000  
G14  23697739.024   124532502.362       -3070.917          41.000  
G15  20532771.577   107900453.535       -1680.077          46.000  
G19  22960612.074   120658825.775        2536.662          44.000  
G22  22433717.486   117890091.115       -2394.805          47.000  
G24  20335392.426   106863237.378        1337.068          47.000  
E07  24864827.270   130665535.441       -2054.184          43.000  
G10  23844109.391   125301645.947        1909.405          40.000  
G17  22834254.768   119994810.688         405.931          45.000  
G23  22465161.016   118055089.789        -453.771          43.000  
E14  25679228.792   134945255.450        4434.353          39.000  
E30  24530546.205   128908952.987       -1524.991          43.000  
E20  28326907.420   148858848.997        1844.627          37.000  
E27  23659312.935   124330540.003        1315.338          44.000  
G12  23421012.005   123078241.751        3905.084          39.000  
> 2024 02 13 08 33 21.0000000  0 15                     
G13  21955171.518   115375209.360       -2821.341          45.000  
G14  23698323.135   124535573.059       -3070.880          41.000  
G15  20533091.466   107902133.630       -1680.538          46.000  
G19  22960129.165   120656289.051        2536.296          44.000  
G22  22434173.224   117892485.813       -2395.034          47.000  
G24  20335137.801   106861900.460        1336.382          47.000  
E07  24865218.582   130667589.802       -2054.619          43.000  
G10  23843746.409   125299736.530        1908.874          40.000  
G17  22834177.655   119994405.125         405.207          45.000  
G23  22465247.324   118055543.741        -454.398          43.000  
E14  25678385.022   134940821.115        4434.062          39.000  
E30  24530836.315   128910478.169       -1525.498          43.000  
E20  28326556.365   148857005.151        1843.268          37.000  
E27  23659062.394   124329224.842        1314.881          44.000  
G12  23420268.652   123074336.210        3905.180          39.000  
> 2024 02 13 08 33 22.0000000  0 15                     
G13  21955708.234   115378030.192       -2819.582          45.000  
G14  23698907.150   124538643.386       -3069.153          41.000  
G15  20533411.241   107903813.702       -1678.876          46.000  
G19  22959646.719   120653752.176        2538.102          44.000  
G22  22434628.945   117894880.250       -2393.063          47.000  
G24  20334883.551   106860563.362        1338.329          47.000  
E07  24865609.249   130669643.840       -2052.662          43.000  
G10  23843382.816   125297827.093        1910.632          40.000  
G17  22834100.263   119993999.567         406.690          45.000  
G23  22465334.069   118055997.762        -452.960          43.000  
E14  25677541.583   134936386.340        4436.192          39.000  
E30  24531126.712   128912003.050       -1523.618          43.000  
E20  28326205.965   148855160.946        1845.836          38.000  
E27  23658812.437   124327909.469        1316.660          44.000  
G12  23419525.360   123070430.290        3907.318          38.000  
> 2024 02 13 08 33 23.0000000  0 15                     
G13  21956245.204   115380849.654       -2819.202          45.000  
G14  23699491.025   124541712.199       -3068.304          41.000  
G15  20533730.580   107905492.664       -1678.693          46.000  
G19  22959163.653   120651214.049        2538.571          44.000  
G22  22435084.047   117897273.329       -2392.822          47.000  
G24  20334629.040   106859225.013        1338.688          47.000  
E07  24865999.933   130671696.435       -2051.892          43.000  
G10  23843019.215   125295916.543        1910.419          41.000  
G17  22834022.619   119993592.944         406.733          45.000  
G23  22465420.308   118056450.760        -452.818          43.000  
E14  25676697.411   134931950.041        4436.692          40.000  
E30  24531416.918   128913526.519       -1523.016          43.000  
E20  28325854.962   148853315.348        1846.107          38.000  
E27  23658562.166   124326592.780        1317.248          44.000  
G12  23418781.439   123066522.908        3908.139          38.000  
> 2024 02 13 08 33 24.0000000  0 13                     
G13  21956782.252                       -2820.561          45.000  
G14  23700073.627                       -3069.598          40.000  
G15  20534048.043                       -1680.509          46.000  
G19  22958678.223                        2536.373          44.000  
G22  22435538.433                       -2394.080          46.000  
E07  24866388.637                       -2053.650          43.000  
G10  23842656.843                        1909.436          40.000  
G17  22833944.642                         405.646          44.000  
E14  25675846.678                        4435.897          40.000  
E30  24531704.629                       -1523.950          43.000  
E20  28325500.199                        1844.161          37.000  
E27  23658307.506                        1315.369          44.000  
G12  23418040.111                        3907.861          39.000  
> 2024 02 13 08 33 25.0000000  0 15                     
G13  21957319.570   115386492.5283      -2820.979          45.000  
G14  23700660.583   124547811.3473      -3069.855          41.000  
G15  20534371.003   107908847.2953      -1681.048          46.000  
G19  22958197.757   120646142.6043       2536.485          44.000  
G22  22435993.910   117901942.8603      -2394.419          46.000  
G24  20334125.270   106856549.0993       1336.861          47.000  
E07  24866777.654   130675817.9221      -2053.992          43.000  
G10  23842294.778   125292104.5773       1908.765          40.000  
G17  22833864.991   119992769.9253        404.727          44.000  
G23  22465592.298   118057484.1933       -455.177          43.000  
E14  25674999.147   134923041.3521       4435.112          40.000  
E30  24531989.678   128916512.7931      -1524.852          43.000  
E20  28325146.815   148849661.4791       1844.759          38.000  
E27  23658058.317   124323939.9971       1315.261          44.000  
G12  23417287.980   123058678.2283       3906.287          38.000  
> 2024 02 13 08 33 26.0000000  0 15                     
G13  21957857.822   115389314.1642      -2821.595          45.000  
G14  23701246.360   124550881.9262      -3070.850          41.000  
G15  20534690.735   107910529.1892      -1682.012          46.000  
G19  22957710.635   120643607.0212       2535.513          44.000  
G22  22436449.247   117904338.0802      -2395.223          47.000  
G24  20333868.507   106855213.2722       1335.716          47.000  
E07  24867163.906   130677872.516       -2054.579          43.000  
G10  23841930.129   125290196.9362       1907.440          41.000  
G17  22833790.470   119992366.3042        403.329          44.000  
G23  22465681.503   118057940.3582       -456.381          43.000  
E14  25674159.923   134918606.731        4434.467          40.000  
E30  24532283.304   128918038.329       -1525.641          43.000  
E20  28324802.845   148847817.956        1843.324          38.000  
E27  23657805.926   124322625.654        1314.303          45.000  
G12  23416549.731   123054772.6802       3905.473          38.000  
> 2024 02 13 08 33 27.0000000  0 15                     
G13  21958396.868   115392136.1682      -2822.170          45.000  
G14  23701829.573   124553952.7042      -3070.819          41.000  
G15  20535011.251   107912211.6922      -1682.629          46.000  
G19  22957232.158   120641071.9182       2534.599          44.000  
G22  22436906.836   117906733.6572      -2395.813          47.000  
G24  20333613.769   106853877.9202       1335.046          47.000  
E07  24867556.091   130679927.409       -2055.161          43.000  
G10  23841567.086   125288289.8602       1906.818          41.000  
G17  22833713.654   119991963.3052        402.876          44.000  
G23  22465769.889   118058397.2072       -456.813          44.000  
E14  25673308.701   134914172.271        4434.165          40.000  
E30  24532573.231   128919564.173       -1525.958          43.000  
E20  28324453.003   148845974.720        1843.283          38.000  
E27  23657556.117   124321311.702        1313.754          44.000  
G12  23415806.046   123050867.3732       3905.013          38.000  
> 2024 02 13 08 33 28.0000000  0 15                     
G13  21958932.563   115394958.0602      -2821.752          45.000  
G14  23702413.134   124557023.2732      -3070.276          41.000  
G15  20535332.894   107913894.3632      -1682.567          47.000  
G19  22956750.323   120638536.8332       2535.123          44.000  
G22  22437361.711   117909129.1322      -2395.404          47.000  
G24  20333356.989   106852542.5822       1335.400          47.000  
E07  24867952.647   130681982.153       -2054.656          43.000  
G10  23841205.919   125286382.9612       1906.567          40.000  
G17  22833635.617   119991560.5082        402.927          44.000  
G23  22465855.133   118058854.3272       -457.016          44.000  
E14  25672476.823   134909737.578        4434.721          40.000  
E30  24532868.410   128921089.913       -1525.693          43.000  
E20  28324100.264   148844131.324        1843.898          38.000  
E27  23657313.036   124319997.734        1313.956          44.000  
G12  23415061.699   123046961.8642       3905.677          37.000  
> 2024 02 13 08 33 29.0000000  0 15                     
G13  21959468.686   115397780.6152      -2822.969          46.000  
G14  23702998.920   124560094.3502      -3071.393          41.000  
G15  20535654.632   107915577.9362      -1684.132          47.000  
G19  22956268.322   120636002.5102       2533.671          44.000  
G22  22437818.941   117911525.2462      -2396.504          47.000  
G24  20333103.699   106851208.0082       1334.162          47.000  
E07  24868344.475   130684037.485       -2055.843          43.000  
G10  23840840.982   125284476.9272       1905.536          40.000  
G17  22833559.315   119991158.6452        401.254          44.000  
G23  22465941.764   118059312.4342       -458.659          44.000  
E14  25671633.838   134905303.349        4433.654          40.000  
E30  24533159.628   128922616.224       -1526.766          43.000  
E20  28323749.593   148842288.595        1841.774          38.000  
E27  23657062.206   124318684.440        1312.801          44.000  
G12  23414319.401   123043056.8792       3904.725          37.000  
> 2024 02 13 08 33 30.0000000  0 15                     
G13  21960007.898   115400603.6562      -2823.457          46.000  
G14  23703581.793   124563165.7792      -3071.661          41.000  
G15  20535975.210   107917262.2512      -1684.972          47.000  
G19  22955785.439   120633468.8262       2532.893          44.000  
G22  22438274.915   117913921.8412      -2397.079          47.000  
G24  20332848.865   106849874.0252       1333.321          47.000  
E07  24868736.031   130686093.236       -2056.028          43.000  
G10  23840482.110   125282571.6392       1904.547          40.000  
G17  22833483.477   119990757.5422        400.376          44.000  
G23  22466028.928   118059771.3692       -459.679          44.000  
E14  25670791.001   134900869.448        4433.637          40.000  
E30  24533448.621   128924143.000       -1526.924          44.000  
E20  28323397.797   148840446.258        1842.055          38.000  
E27  23656814.108   124317371.693        1312.473          45.000  
G12  23413576.109   123039152.3022       3903.937          36.000  
> 2024 02 13 08 33 31.0000000  0 15                     
G13  21960545.792   115403427.3682      -2824.111          46.000  
G14  23704167.492   124566237.7662      -3072.302          41.000  
G15  20536295.753   107918947.5092      -1685.796          47.000  
G19  22955305.288   120630935.9102       2532.538          45.000  
G22  22438730.776   117916319.1252      -2397.675          47.000  
G24  20332596.037   106848540.8562       1332.649          47.000  
E07  24869127.169   130688149.630       -2056.619          43.000  
G10  23840119.084   125280667.2642       1903.766          40.000  
G17  22833406.966   119990357.4052        399.574          44.000  
G23  22466116.528   118060231.3082       -460.665          44.000  
E14  25669944.561   134896436.087        4433.102          40.000  
E30  24533739.193   128925670.450       -1527.827          44.000  
E20  28323048.095   148838604.593        1841.021          38.000  
E27  23656563.366   124316059.693        1311.546          45.000  
G12  23412833.219   123035248.2922       3903.083          36.000  
> 2024 02 13 08 33 32.0000000  0 15                     
G13  21961083.399   115406251.2122      -2824.036          46.000  
G14  23704750.975   124569309.7302      -3072.150          41.000  
G15  20536616.200   107920633.1252      -1685.804          47.000  
G19  22954823.295   120628403.2482       2532.530          45.000  
G22  22439186.262   117918716.4952      -2397.328          47.000  
G24  20332342.538   106847207.8992       1332.846          47.000  
E07  24869517.740   130690206.065       -2056.293          43.000  
G10  23839755.483   125278763.2622       1903.900          40.000  
G17  22833330.325   119989957.6712        399.539          44.000  
G23  22466203.596   118060691.6912       -460.550          44.000  
E14  25669101.174   134892002.664        4433.394          40.000  
E30  24534030.202   128927197.961       -1527.456          44.000  
E20  28322696.953   148836763.004        1841.405          38.000  
E27  23656313.714   124314747.845        1311.884          45.000  
G12  23412090.398   123031344.2502       3903.986          36.000  
> 2024 02 13 08 33 33.0000000  0 15                     
G13  21961620.822   115409075.2152      -2824.195          46.000  
G14  23705335.287   124572381.6942      -3072.003          41.000  
G15  20536936.970   107922319.1742      -1686.347          47.000  
G19  22954341.390   120625870.8852       2532.017          45.000  
G22  22439642.690   117921114.0602      -2397.814          46.000  
G24  20332089.091   106845875.2452       1332.303          47.000  
E07  24869909.175   130692262.640       -2056.854          43.000  
G10  23839393.051   125276859.6562       1903.436          40.000  
G17  22833254.181   119989558.3852        398.845          44.000  
G23  22466291.423   118061152.5932       -461.112          44.000  
E14  25668257.561   134887569.247        4433.456          40.000  
E30  24534321.062   128928725.611       -1527.845          44.000  
E20  28322347.084   148834921.481        1841.743          38.000  
E27  23656064.036   124313436.255        1311.284          45.000  
G12  23411347.402   123027440.2922       3903.729          36.000  
> 2024 02 13 08 33 34.0000000  0 15                     
G13  21962158.446   115411899.9032      -2824.921          46.000  
G14  23705920.384   124575454.2312      -3072.601          41.000  
G15  20537257.932   107924006.1582      -1687.353          47.000  
G19  22953859.808   120623339.3102       2531.331          45.000  
G22  22440098.533   117923512.2832      -2398.373          46.000  
G24  20331835.374   106844543.3662       1331.702          48.000  
E07  24870300.880   130694319.804       -2057.369          43.000  
G10  23839030.836   125274957.0022       1902.246          40.000  
G17  22833178.220   119989160.0572        397.997          44.000  
G23  22466379.268   118061614.5142       -462.216          44.000  
E14  25667414.541   134883136.353        4432.805          40.000  
E30  24534611.948   128930253.899       -1528.498          44.000  
E20  28321996.937   148833080.679        1840.234          38.000  
E27  23655815.231   124312125.371        1310.574          45.000  
G12  23410604.433   123023536.9062       3903.389          36.000  
> 2024 02 13 08 33 35.0000000  0 15                     
G13  21962695.685   115414724.7362      -2825.835          46.000  
G14  23706504.442   124578526.7772      -3073.590          40.000  
G15  20537579.574   107925693.5372      -1688.628          47.000  
G19  22953378.452   120620808.0202       2530.381          45.000  
G22  22440554.891   117925910.6602      -2399.400          46.000  
G24  20331581.979   106843211.7562       1330.572          47.000  
E07  24870692.733   130696377.050       -2057.953          43.000  
G10  23838668.919   125273054.7272       1901.092          40.000  
G17  22833102.530   119988762.1742        396.378          44.000  
G23  22466467.147   118062076.9312       -463.707          44.000  
E14  25666571.085   134878703.410        4432.369          40.000  
E30  24534902.730   128931782.304       -1529.246          44.000  
E20  28321646.484   148831239.911        1840.386          38.000  
E27  23655565.876   124310814.678        1310.014          45.000  
G12  23409861.638   123019633.5402       3902.321          36.000  
> 2024 02 13 08 33 36.0000000  0 15                     
G13  21963233.876   115417551.1262      -2824.990          46.000  
G14  23707089.086   124581600.7332      -3072.333          40.000  
G15  20537900.597   107927382.7492      -1688.009          47.000  
G19  22952897.324   120618278.4112       2530.822          45.000  
G22  22441010.909   117928310.5852      -2398.578          46.000  
G24  20331329.064   106841881.8362       1331.236          47.000  
E07  24871084.813   130698435.829       -2057.204          43.000  
G10  23838307.263   125271154.2522       1901.788          40.000  
G17  22833027.005   119988366.1352        397.137          44.000  
G23  22466555.628   118062541.2292       -463.030          44.000  
E14  25665728.440   134874271.917        4433.160          41.000  
E30  24535193.782   128933312.230       -1528.325          44.000  
E20  28321295.997   148829400.718        1840.828          38.000  
E27  23655316.949   124309505.638        1310.563          45.000  
G12  23409118.809   123015731.6312       3903.375          36.000  
> 2024 02 13 08 33 37.0000000  0 15                     
G13  21963771.919   115420376.4871      -2825.944          46.000  
G14  23707674.087   124584673.5371      -3073.291          41.000  
G15  20538221.891   107929071.1681      -1689.283          47.000  
G19  22952415.523   120615748.365        2529.751          45.000  
G22  22441467.311   117930709.952       -2399.402          46.000  
G24  20331076.149   106840551.4762       1330.040          48.000  
E07  24871476.850   130700494.004       -2058.468          43.000  
G10  23837945.267   125269253.485        1900.763          40.000  
G17  22832951.481   119987969.813         395.883          44.000  
G23  22466643.996   118063005.333        -464.401          44.000  
E14  25664885.429   134869839.700        4432.102          41.000  
E30  24535484.503   128934841.607       -1529.689          44.000  
E20  28320946.225   148827560.938        1839.428          38.000  
E27  23655067.777   124308196.099        1309.210          45.000  
G12  23408375.718   123011829.0782       3902.411          36.000  
> 2024 02 13 08 33 38.0000000  0 15                     
G13  21964309.927   115423202.966       -2826.700          46.000  
G14  23708258.599   124587747.305       -3074.170          40.000  
G15  20538543.027   107930760.937       -1690.237          47.000  
G19  22951934.342   120613219.082        2528.994          45.000  
G22  22441923.869   117933109.969       -2400.320          46.000  
G24  20330823.462   106839221.8492       1329.230          48.000  
E07  24871868.721   130702552.728       -2058.731          43.000  
G10  23837583.481   125267353.600        1899.225          40.000  
G17  22832876.227   119987574.404         394.922          44.000  
G23  22466732.530   118063470.385        -465.516          44.000  
E14  25664042.871   134865407.927        4431.662          41.000  
E30  24535775.799   128936371.520       -1530.138          44.000  
E20  28320596.278   148825721.678        1839.468          38.000  
E27  23654818.431   124306887.217        1308.698          45.000  
G12  23407632.748   123007927.0002       3902.254          36.000  
> 2024 02 13 08 33 39.0000000  0 15                     
G13  21964847.812   115426029.914       -2826.874          47.000  
G14  23708843.531   124590821.424       -3074.402          41.000  
G15  20538864.678   107932451.438       -1690.572          47.000  
G19  22951453.274   120610690.381        2528.783          45.000  
G22  22442380.533   117935510.440       -2400.554          46.000  
G24  20330570.407   106837892.8072       1328.979          48.000  
E07  24872260.565   130704611.879       -2059.094          44.000  
G10  23837221.537   125265454.389        1899.164          40.000  
G17  22832800.964   119987179.751         394.423          44.000  
G23  22466821.107   118063936.260        -466.160          44.000  
E14  25663199.903   134860976.458        4431.629          41.000  
E30  24536067.776   128937901.893       -1530.413          44.000  
E20  28320246.558   148823882.910        1838.606          38.000  
E27  23654568.963   124305578.863        1308.425          44.000  
G12  23406889.997   123004025.3332       3901.763          36.000  
> 2024 02 13 08 33 40.0000000  0 15                     
G13  21965386.038   115428857.188       -2827.932          46.000  
G14  23709428.349   124593895.728       -3074.963          40.000  
G15  20539186.190   107934142.514       -1691.966          47.000  
G19  22950971.779   120608162.140        2527.394          45.000  
G22  22442836.969   117937911.206       -2401.327          45.000  
G24  20330317.737   106836564.2202       1327.796          48.000  
E07  24872652.567   130706671.283       -2060.097          43.000  
G10  23836860.309   125263555.769        1897.967          40.000  
G17  22832726.076   119986785.712         393.248          44.000  
G23  22466909.815   118064402.776        -467.296          44.000  
E14  25662357.023   134856545.167        4430.588          41.000  
E30  24536358.741   128939432.538       -1531.196          44.000  
E20  28319896.376   148822044.400        1838.007          38.000  
E27  23654319.948   124304270.912        1307.205          44.000  
G12  23406147.325   123000123.8612       3900.920          35.000  
> 2024 02 13 08 33 41.0000000  0 15                     
G13  21965924.115   115431684.648       -2827.731          46.000  
G14  23710013.454   124596970.064       -3074.329          40.000  
G15  20539507.841   107935834.039       -1691.687          47.000  
G19  22950490.598   120605634.203        2527.646          45.000  
G22  22443293.973   117940312.163       -2400.989          46.000  
G24  20330065.215   106835235.9122       1328.094          48.000  
E07  24873044.534   130708730.821       -2059.666          43.000  
G10  23836499.089   125261657.600        1897.754          40.000  
G17  22832651.250   119986392.120         393.404          44.000  
G23  22466999.091   118064869.818        -467.309          44.000  
E14  25661514.256   134852113.889        4431.333          41.000  
E30  24536649.750   128940963.352       -1531.073          44.000  
E20  28319546.455   148820206.011        1838.653          38.000  
E27  23654071.056   124302963.173        1307.494          44.000  
G12  23405404.818   122996222.3902       3901.656          35.000  
> 2024 02 13 08 33 42.0000000  0 15                     
G13  21966462.167   115434512.298       -2827.516          46.000  
G14  23710598.551   124600044.458       -3073.914          40.000  
G15  20539829.728   107937526.020       -1691.955          47.000  
G19  22950009.993   120603106.580        2527.596          45.000  
G22  22443750.768   117942713.312       -2400.971          45.000  
G24  20329812.614   106833907.9222       1328.207          48.000  
E07  24873436.474   130710790.482       -2059.501          43.000  
G10  23836137.651   125259759.826        1897.565          40.000  
G17  22832576.982   119985999.022         393.104          44.000  
G23  22467088.043   118065337.406        -467.688          44.000  
E14  25660671.280   134847682.629        4431.476          41.000  
E30  24536941.195   128942494.312       -1530.783          43.000  
E20  28319196.744   148818367.859        1837.866          38.000  
E27  23653822.312   124301655.689        1307.584          44.000  
G12  23404661.988   122992321.0902       3901.231          35.000  
> 2024 02 13 08 33 43.0000000  0 15                     
G13  21967000.401   115437340.253       -2828.001          46.000  
G14  23711183.710   124603119.029       -3074.512          40.000  
G15  20540151.239   107939218.537       -1692.677          47.000  
G19  22949528.777   120600579.364        2527.117          45.000  
G22  22444207.518   117945114.759       -2401.740          45.000  
G24  20329560.197   106832580.3552       1327.410          48.000  
E07  24873828.991   130712850.397       -2059.990          43.000  
G10  23835776.580   125257862.626        1896.820          40.000  
G17  22832502.766   119985606.506         392.233          44.000  
G23  22467177.510   118065805.626        -468.681          44.000  
E14  25659827.762   134843251.516        4431.273          41.000  
E30  24537232.325   128944025.533       -1531.256          43.000  
E20  28318846.937   148816529.890        1838.374          38.000  
E27  23653573.419   124300348.554        1307.174          44.000  
G12  23403919.211   122988419.897        3901.793          35.000  
> 2024 02 13 08 33 44.0000000  0 15                     
G13  21967538.112   115440168.616       -2828.315          46.000  
G14  23711769.077   124606193.889       -3074.908          41.000  
G15  20540473.484   107940911.735       -1693.398          47.000  
G19  22949047.771   120598052.717        2526.528          45.000  
G22  22444664.487   117947516.619       -2401.950          45.000  
G24  20329307.596   106831253.3162       1326.906          48.000  
E07  24874221.010   130714910.665       -2060.284          43.000  
G10  23835415.396   125255966.068        1896.008          40.000  
G17  22832428.123   119985214.687         391.569          44.000  
G23  22467266.611   118066274.574        -469.006          44.000  
E14  25658984.856   134838820.668        4430.881          41.000  
E30  24537523.735   128945557.135       -1531.682          43.000  
E20  28318497.270   148814692.310        1837.743          38.000  
E27  23653324.597   124299041.909        1306.510          45.000  
G12  23403176.722   122984519.100        3900.218          34.000  
> 2024 02 13 08 33 45.0000000  0 15                     
G13  21968076.216   115442997.456       -2828.702          46.000  
G14  23712354.558   124609269.075       -3075.085          41.000  
G15  20540795.842   107942605.653       -1694.056          47.000  
G19  22948566.930   120595526.657        2525.953          45.000  
G22  22445121.630   117949918.957       -2402.416          45.000  
G24  20329055.388   106829926.8722       1326.384          48.000  
E07  24874613.177   130716971.334       -2060.545          43.000  
G10  23835054.403   125254070.220        1895.697          40.000  
G17  22832353.689   119984823.638         390.775          44.000  
G23  22467356.262   118066744.359        -470.098          45.000  
E14  25658141.740   134834390.119        4430.697          41.000  
E30  24537815.084   128947089.169       -1531.953          43.000  
E20  28318147.602   148812855.219        1836.850          38.000  
E27  23653075.695   124297735.769        1306.083          45.000  
G12  23402434.119   122980618.639        3900.478          34.000  
> 2024 02 13 08 33 46.0000000  0 15                     
G13  21968614.380   115445826.648       -2829.309          46.000  
G14  23712940.214   124612344.460       -3075.500          41.000  
G15  20541118.295   107944300.167       -1694.780          47.000  
G19  22948086.272   120593001.050        2525.466          45.000  
G22  22445578.809   117952321.615       -2402.763          45.000  
G24  20328802.892   106828600.8632       1325.809          48.000  
E07  24875005.668   130719032.300       -2061.059          43.000  
G10  23834693.192   125252174.970        1895.117          40.000  
G17  22832279.194   119984433.195         390.146          44.000  
G23  22467445.773   118067214.819        -470.961          45.000  
E14  25657298.423   134829959.748        4430.256          41.000  
E30  24538106.416   128948621.519       -1532.437          43.000  
E20  28317797.882   148811018.341        1837.032          37.000  
E27  23652827.082   124296430.040        1305.436          45.000  
G12  23401691.656   122976718.372        3899.920          34.000  
> 2024 02 13 08 33 47.0000000  0 15                     
G13  21969152.685   115448656.141       -2829.370          46.000  
G14  23713525.520   124615420.034       -3075.745          41.000  
G15  20541440.924   107945995.248       -1695.141          47.000  
G19  22947605.702   120590475.897        2525.147          45.000  
G22  22446035.856   117954724.588       -2402.941          45.000  
G24  20328550.981   106827275.3032       1325.457          48.000  
E07  24875397.713   130721093.529       -2061.343          43.000  
G10  23834332.165   125250280.294        1894.647          39.000  
G17  22832205.030   119984043.364         389.651          44.000  
G23  22467535.397   118067685.912        -471.290          45.000  
E14  25656455.098   134825529.536        4430.244          41.000  
E30  24538398.044   128950154.155       -1532.712          43.000  
E20  28317448.608   148809181.834        1835.879          37.000  
E27  23652579.010   124295124.672        1305.314          45.000  
G12  23400949.376   122972818.340        3899.938          34.000  
> 2024 02 13 08 33 48.0000000  0 15                     
G13  21969691.129   115451486.013       -2830.463          46.000  
G14  23714110.870   124618495.832       -3076.422          41.000  
G15  20541763.465   107947690.951       -1696.217          47.000  
G19  22947125.254   120587951.223        2524.185          45.000  
G22  22446493.061   117957127.931       -2403.884          45.000  
G24  20328298.581   106825950.2202       1324.447          48.000  
E07  24875790.456   130723155.056       -2062.149          43.000  
G10  23833971.469   125248386.192        1893.591          39.000  
G17  22832130.910   119983654.159         388.703          44.000  
G23  22467625.187   118068157.727        -472.591          44.000  
E14  25655612.095   134821099.532        4429.539          42.000  
E30  24538689.951   128951687.110       -1533.519          43.000  
E20  28317098.713   148807345.575        1835.976          37.000  
E27  23652330.850   124293819.728        1304.303          45.000  
G12  23400206.808   122968918.539        3899.282          34.000  
> 2024 02 13 08 33 49.0000000  0 15                     
G13  21970229.677   115454316.402       -2830.360          46.000  
G14  23714696.403   124621572.031       -3076.410          41.000  
G15  20542086.512   107949387.451       -1696.737          47.000  
G19  22946644.849   120585427.203        2523.800          45.000  
G22  22446950.579   117959531.788       -2404.121          45.000  
G24  20328046.225   106824625.781        1324.146          48.000  
E07  24876182.676   130725217.050       -2062.134          43.000  
G10  23833610.921   125246492.909        1893.036          40.000  
G17  22832056.860   119983265.800         388.158          44.000  
G23  22467715.527   118068630.410        -472.826          45.000  
E14  25654769.494   134816669.893        4429.611          42.000  
E30  24538981.701   128953220.554       -1533.630          43.000  
E20  28316749.133   148805509.842        1835.572          37.000  
E27  23652082.647   124292515.364        1304.332          45.000  
G12  23399464.764   122965019.176        3899.475          34.000  
> 2024 02 13 08 33 50.0000000  0 15                     
G13  21970768.531   115457146.967       -2830.785          46.000  
G14  23715281.989   124624648.236       -3076.172          41.000  
G15  20542409.341   107951084.349       -1697.250          47.000  
G19  22946164.733   120582903.490        2523.349          45.000  
G22  22447408.159   117961935.800       -2404.144          45.000  
G24  20327794.043   106823301.616        1323.953          48.000  
E07  24876575.393   130727279.154       -2062.184          43.000  
G10  23833250.574   125244600.017        1892.645          40.000  
G17  22831983.290   119982877.881         387.419          44.000  
G23  22467805.640   118069103.596        -473.673          45.000  
E14  25653926.927   134812240.253        4429.556          42.000  
E30  24539273.251   128954754.131       -1533.758          43.000  
E20  28316399.841   148803674.236        1835.224          37.000  
E27  23651834.409   124291211.218        1303.915          45.000  
G12  23398722.737   122961119.895        3898.389          34.000  
> 2024 02 13 08 33 51.0000000  0 15                     
G13  21971307.298   115459977.770       -2830.990          46.000  
G14  23715867.496   124627724.561       -3076.446          41.000  
G15  20542732.414   107952781.747       -1697.706          47.000  
G19  22945684.739   120580380.117        2523.189          45.000  
G22  22447866.017   117964340.060       -2404.478          46.000  
G24  20327541.939   106821977.815        1323.596          48.000  
E07  24876967.639   130729341.443       -2062.296          43.000  
G10  23832890.244   125242707.614        1892.023          40.000  
G17  22831909.520   119982490.473         387.167          44.000  
G23  22467895.979   118069577.352        -473.941          45.000  
E14  25653084.239   134807810.690        4429.429          42.000  
E30  24539565.271   128956287.920       -1534.203          43.000  
E20  28316050.601   148801838.807        1835.478          37.000  
E27  23651586.546   124289907.384        1303.481          45.000  
G12  23397980.745   122957220.671        3899.800          34.000  
> 2024 02 13 08 33 52.0000000  0 15                     
G13  21971846.196   115462808.874       -2831.049          46.000  
G14  23716453.012   124630801.067       -3076.501          41.000  
G15  20543055.758   107954479.715       -1698.163          47.000  
G19  22945204.404   120577857.197        2522.729          45.000  
G22  22448323.981   117966744.618       -2404.788          46.000  
G24  20327290.159   106820654.438        1323.125          48.000  
E07  24877360.548   130731403.997       -2062.745          43.000  
G10  23832530.194   125240815.763        1891.571          40.000  
G17  22831835.304   119982103.668         386.425          44.000  
G23  22467986.127   118070051.754        -474.574          45.000  
E14  25652240.948   134803381.292        4429.250          42.000  
E30  24539857.135   128957821.962       -1534.073          43.000  
E20  28315701.370   148800003.666        1834.932          37.000  
E27  23651338.561   124288603.899        1303.254          45.000  
G12  23397238.168   122953321.697        3899.364          34.000  
> 2024 02 13 08 33 53.0000000  0 15                     
G13  21972385.041   115465640.148       -2831.783          46.000  
G14  23717038.903   124633877.576       -3076.660          41.000  
G15  20543378.980   107956178.081       -1698.799          47.000  
G19  22944724.375   120575334.556        2522.321          45.000  
G22  22448781.648   117969149.339       -2405.135          46.000  
G24  20327038.640   106819331.327        1322.677          48.000  
E07  24877752.864   130733466.622       -2062.868          43.000  
G10  23832170.406   125238924.307        1890.924          40.000  
G17  22831761.507   119981717.297         385.758          44.000  
G23  22468076.554   118070526.662        -475.401          45.000  
E14  25651398.269   134798951.872        4429.335          42.000  
E30  24540149.199   128959356.143       -1534.655          43.000  
E20  28315352.051   148798168.642        1834.581          37.000  
E27  23651090.559   124287300.625        1302.889          45.000  
G12  23396495.906   122949422.807        3898.205          34.000  
> 2024 02 13 08 33 54.0000000  0 15                     
G13  21972923.982   115468471.761       -2831.408          47.000  
G14  23717624.428   124636954.323       -3076.642          41.000  
G15  20543702.236   107957877.067       -1699.029          47.000  
G19  22944244.659   120572812.400        2522.246          45.000  
G22  22449239.576   117971554.395       -2405.058          46.000  
G24  20326786.991   106818008.698        1322.572          48.000  
E07  24878145.512   130735529.569       -2062.982          43.000  
G10  23831810.931   125237033.460        1890.906          40.000  
G17  22831688.460   119981331.573         385.522          44.000  
G23  22468167.374   118071002.269        -475.719          45.000  
E14  25650555.205   134794522.654        4429.245          42.000  
E30  24540440.949   128960890.638       -1534.392          43.000  
E20  28315003.186   148796333.914        1834.640          37.000  
E27  23650842.923   124285997.768        1302.814          45.000  
G12  23395753.678   122945524.107        3899.034          34.000  
> 2024 02 13 08 33 55.0000000  0 15                     
G13  21973462.766   115471303.408       -2831.579          47.000  
G14  23718209.874   124640030.948       -3076.593          41.000  
G15  20544025.615   107959576.326       -1699.242          47.000  
G19  22943764.831   120570290.395        2521.925          45.000  
G22  22449697.741   117973959.476       -2405.048          46.000  
G24  20326535.263   106816686.197        1322.455          48.000  
E07  24878538.159   130737592.477       -2062.889          43.000  
G10  23831451.378   125235142.897        1890.454          40.000  
G17  22831615.152   119980946.153         385.244          44.000  
G23  22468258.106   118071478.218        -476.114          45.000  
E14  25649712.813   134790093.301        4429.617          42.000  
E30  24540733.101   128962425.122       -1534.411          43.000  
E20  28314654.182   148794499.204        1834.674          37.000  
E27  23650595.112   124284694.995        1302.669          45.000  
G12  23395011.747   122941625.350        3898.837          34.000  
> 2024 02 13 08 33 56.0000000  0 15                     
G13  21974001.411   115474135.390       -2832.529          46.000  
G14  23718795.634   124643107.761       -3077.258          41.000  
G15  20544349.160   107961276.172       -1700.417          47.000  
G19  22943285.220   120567768.842        2520.920          45.000  
G22  22450155.695   117976364.897       -2406.017          46.000  
G24  20326283.639   106815364.157        1321.562          48.000  
E07  24878930.588   130739655.652       -2063.581          43.000  
G10  23831092.113   125233252.884        1889.361          41.000  
G17  22831541.817   119980561.336         384.166          44.000  
G23  22468348.804   118071954.861        -477.403          45.000  
E14  25648870.038   134785664.133        4428.661          42.000  
E30  24541025.383   128963959.905       -1535.371          43.000  
E20  28314304.811   148792664.767        1833.938          37.000  
E27  23650347.214   124283392.601        1301.810          45.000  
G12  23394269.738   122937726.842        3897.917          34.000  
> 2024 02 13 08 33 57.0000000  0 15                     
G13  21974540.300   115476967.825       -2833.094          46.000  
G14  23719381.237   124646184.896       -3077.484          41.000  
G15  20544672.861   107962976.726       -1701.140          47.000  
G19  22942805.374   120565247.870        2520.359          45.000  
G22  22450613.772   117978770.758       -2406.281          46.000  
G24  20326031.832   106814042.675        1321.105          48.000  
E07  24879323.358   130741719.227       -2063.911          43.000  
G10  23830732.508   125231363.590        1888.733          41.000  
G17  22831468.457   119980177.269         383.480          44.000  
G23  22468439.379   118072432.275        -477.839          45.000  
E14  25648027.148   134781235.235        4428.575          41.000  
E30  24541317.596   128965495.100       -1535.608          43.000  
E20  28313955.973   148790830.730        1833.590          37.000  
E27  23650099.482   124282090.714        1301.428          45.000  
G12  23393528.121   122933828.640        3898.127          34.000  
> 2024 02 13 08 33 58.0000000  0 15                     
G13  21975079.224   115479800.299       -2832.547          46.000  
G14  23719966.631   124649261.936       -3076.764          41.000  
G15  20544996.423   107964677.590       -1701.099          47.000  
G19  22942325.659   120562727.090        2520.555          45.000  
G22  22451072.294   117981176.662       -2406.052          47.000  
G24  20325780.000   106812721.366        1321.048          47.000  
E07  24879715.926   130743782.798       -2063.592          43.000  
G10  23830372.806   125229474.597        1888.751          41.000  
G17  22831395.550   119979793.549         383.640          43.000  
G23  22468530.155   118072910.071        -477.863          44.000  
E14  25647184.251   134776806.241        4428.954          42.000  
E30  24541609.433   128967030.311       -1535.240          43.000  
E20  28313607.283   148788996.745        1833.452          37.000  
E27  23649851.794   124280788.938        1301.765          45.000  
G12  23392786.260   122929930.375        3898.568          34.000  
> 2024 02 13 08 33 59.0000000  0 15                     
G13  21975618.392   115482632.797       -2832.852          47.000  
G14  23720552.191   124652338.877       -3077.216          41.000  
G15  20545319.906   107966378.713       -1701.742          46.000  
G19  22941845.691   120560206.426        2520.205          45.000  
G22  22451530.589   117983582.577       -2406.227          47.000  
G24  20325528.525   106811400.179        1320.818          47.000  
E07  24880108.574   130745846.331       -2064.046          43.000  
G10  23830013.698   125227585.843        1888.385          41.000  
G17  22831322.259   119979410.100         382.888          43.000  
G23  22468621.045   118073388.237        -478.608          44.000  
E14  25646341.047   134772377.104        4428.656          42.000  
E30  24541901.707   128968565.501       -1535.474          43.000  
E20  28313258.461   148787162.666        1833.886          37.000  
E27  23649603.643   124279487.236        1301.234          44.000  
G12  23392044.408   122926032.065        3898.182          34.000  
> 2024 02 13 08 34 00.0000000  0 15                     
G13  21976157.508   115485465.791       -2833.123          47.000  
G14  23721137.602   124655416.173       -3077.551          41.000  
G15  20545643.364   107968080.590       -1702.301          46.000  
G19  22941366.071   120557686.391        2519.607          45.000  
G22  22451989.068   117985988.987       -2406.659          47.000  
G24  20325277.102   106810079.620        1320.389          48.000  
E07  24880501.457   130747910.302       -2064.333          43.000  
G10  23829654.861   125225697.853        1887.622          42.000  
G17  22831249.343   119979027.442         382.444          43.000  
G23  22468712.178   118073867.243        -479.492          44.000  
E14  25645498.420   134767948.322        4428.450          42.000  
E30  24542194.234   128970101.168       -1536.073          43.000  
E20  28312909.221   148785329.111        1833.315          37.000  
E27  23649355.789   124278186.095        1300.856          44.000  
G12  23391302.337   122922134.122        3898.136          34.000  
> 2024 02 13 08 34 01.0000000  0 15                     
G13  21976696.702   115488299.606       -2834.236          47.000  
G14  23721723.170   124658494.153       -3078.125          41.000  
G15  20545967.327   107969783.567       -1703.431          47.000  
G19  22940886.513   120555167.320        2518.802          44.000  
G22  22452447.180   117988396.228       -2407.574          47.000  
G24  20325025.644   106808760.014        1319.006          48.000  
E07  24880893.720   130749975.033       -2065.132          44.000  
G10  23829296.014   125223810.939        1886.517          42.000  
G17  22831177.047   119978645.926         380.972          43.000  
G23  22468803.513   118074347.420        -480.704          44.000  
E14  25644655.382   134763520.183        4427.866          42.000  
E30  24542487.171   128971637.626       -1536.832          44.000  
E20  28312560.461   148783496.368        1832.334          37.000  
E27  23649108.903   124276885.850        1299.765          45.000  
G12  23390561.305   122918236.909        3896.940          35.000  
> 2024 02 13 08 34 02.0000000  0 15                     
G13  21977236.158   115491134.180       -2834.541          47.000  
G14  23722308.503   124661572.777       -3078.345          41.000  
G15  20546291.369   107971487.518       -1704.109          47.000  
G19  22940407.313   120552649.123        2518.091          45.000  
G22  22452905.361   117990804.220       -2408.120          47.000  
G24  20324774.492   106807441.269        1318.633          48.000  
E07  24881287.135   130752040.470       -2065.348          44.000  
G10  23828937.473   125221925.029        1885.596          42.000  
G17  22831104.733   119978265.416         380.297          43.000  
G23  22468894.856   118074828.672        -481.348          44.000  
E14  25643812.650   134759092.656        4427.684          42.000  
E30  24542779.531   128973174.784       -1537.255          44.000  
E20  28312211.649   148781664.257        1832.484          37.000  
E27  23648861.686   124275586.389        1299.474          45.000  
G12  23389820.587   122914340.319        3897.328          35.000  
> 2024 02 13 08 34 03.0000000  0 15                     
G13  21977775.972   115493969.164       -2835.081          47.000  
G14  23722894.507   124664651.647       -3078.796          41.000  
G15  20546615.995   107973192.156       -1704.804          47.000  
G19  22939927.851   120550131.459        2517.570          45.000  
G22  22453363.831   117993212.597       -2408.532          47.000  
G24  20324523.854   106806123.035        1318.100          47.000  
E07  24881679.975   130754106.237       -2065.706          44.000  
G10  23828579.194   125220039.747        1885.046          42.000  
G17  22831032.655   119977885.600         379.688          43.000  
G23  22468986.339   118075310.656        -482.131          44.000  
E14  25642970.642   134754665.350        4427.401          42.000  
E30  24543071.910   128974712.316       -1537.532          43.000  
E20  28311863.168   148779832.595        1831.476          37.000  
E27  23648614.285   124274287.395        1298.958          45.000  
G12  23389079.895   122910444.084        3896.319          37.000  
> 2024 02 13 08 34 04.0000000  0 15                     
G13  21978315.271   115496804.650       -2835.905          47.000  
G14  23723480.215   124667730.892       -3079.675          41.000  
G15  20546940.587   107974897.535       -1705.712          47.000  
G19  22939448.615   120547614.429        2516.819          45.000  
G22  22453822.326   117995621.485       -2409.316          47.000  
G24  20324273.086   106804805.434        1317.079          47.000  
E07  24882072.988   130756172.487       -2066.664          44.000  
G10  23828221.107   125218155.235        1884.143          42.000  
G17  22830960.681   119977506.579         378.558          44.000  
G23  22469077.734   118075793.497        -483.302          44.000  
E14  25642128.163   134750238.431        4426.615          42.000  
E30  24543365.074   128976250.317       -1538.303          44.000  
E20  28311514.286   148778001.330        1831.055          37.000  
E27  23648367.042   124272988.973        1297.876          45.000  
G12  23388339.063   122906548.231        3895.105          35.000  
> 2024 02 13 08 34 05.0000000  0 15                     
G13  21978855.137   115499640.801       -2836.322          46.000  
G14  23724066.280   124670810.656       -3079.748          41.000  
G15  20547265.108   107976603.840       -1706.327          47.000  
G19  22938969.956   120545098.187        2516.242          45.000  
G22  22454280.508   117998031.026       -2409.762          47.000  
G24  20324022.431   106803488.626        1316.771          47.000  
E07  24882466.447   130758239.324       -2066.887          43.000  
G10  23827863.692   125216271.662        1883.276          43.000  
G17  22830888.821   119977128.522         377.690          44.000  
G23  22469169.173   118076277.362        -484.193          43.000  
E14  25641285.728   134745812.011        4426.181          42.000  
E30  24543658.324   128977788.950       -1538.690          44.000  
E20  28311166.302   148776170.748        1830.539          37.000  
E27  23648120.933   124271691.264        1297.704          45.000  
G12  23387598.293   122902652.925        3895.001          35.000  
> 2024 02 13 08 34 06.0000000  0 15                     
G13  21979395.169   115502477.155       -2836.718          46.000  
G14  23724652.774   124673890.491       -3080.176          41.000  
G15  20547590.110   107978310.616       -1707.194          47.000  
G19  22938491.392   120542582.292        2515.568          44.000  
G22  22454739.301   118000440.759       -2409.880          47.000  
G24  20323771.741   106802172.145        1316.096          47.000  
E07  24882859.513   130760306.301       -2067.061          43.000  
G10  23827505.421   125214388.492        1882.922          43.000  
G17  22830817.546   119976750.927         377.203          44.000  
G23  22469260.970   118076761.745        -484.808          43.000  
E14  25640443.162   134741385.597        4426.362          42.000  
E30  24543951.357   128979327.750       -1538.905          44.000  
E20  28310817.926   148774340.329        1830.133          37.000  
E27  23647874.440   124270393.817        1297.179          45.000  
G12  23386857.522   122898757.675        3895.158          35.000  
> 2024 02 13 08 34 07.0000000  0 15                     
G13  21979934.799   115505313.802       -2836.524          47.000  
G14  23725238.647   124676970.518       -3080.188          40.000  
G15  20547914.893   107980017.939       -1707.552          47.000  
G19  22938012.427   120540066.828        2515.313          44.000  
G22  22455198.014   118002850.824       -2410.282          47.000  
G24  20323521.278   106800856.076        1316.137          47.000  
E07  24883253.382   130762373.563       -2067.417          43.000  
G10  23827147.107   125212505.930        1882.147          42.000  
G17  22830746.428   119976373.952         376.626          44.000  
G23  22469353.439   118077246.778        -485.313          43.000  
E14  25639601.363   134736959.376        4426.182          42.000  
E30  24544244.224   128980866.847       -1539.040          44.000  
E20  28310469.411   148772510.135        1830.550          37.000  
E27  23647627.467   124269096.728        1297.023          45.000  
G12  23386116.935   122894862.676        3895.129          36.000  
> 2024 02 13 08 34 08.0000000  0 15                     
G13  21980474.648   115508150.596       -2837.246          47.000  
G14  23725824.442   124680050.504       -3080.273          41.000  
G15  20548239.563   107981725.627       -1708.306          46.000  
G19  22937533.916   120537551.616        2514.703          44.000  
G22  22455656.885   118005260.983       -2410.802          47.000  
G24  20323270.929   106799540.255        1315.261          47.000  
E07  24883646.754   130764440.865       -2068.218          43.000  
G10  23826789.125   125210623.686        1881.744          43.000  
G17  22830674.751   119975997.366         376.007          44.000  
G23  22469445.777   118077732.270        -486.169          43.000  
E14  25638758.788   134732533.128        4425.121          42.000  
E30  24544537.623   128982406.004       -1540.061          44.000  
E20  28310120.956   148770680.109        1828.763          37.000  
E27  23647380.773   124267799.831        1295.847          45.000  
G12  23385376.435   122890967.672        3894.767          36.000  
> 2024 02 13 08 34 09.0000000  0 15                     
G13  21981014.575   115510987.945       -2838.631          47.000  
G14  23726410.979   124683130.930       -3081.482          41.000  
G15  20548564.443   107983434.150       -1709.972          46.000  
G19  22937055.370   120535037.101        2513.080          44.000  
G22  22456115.180   118007671.710       -2411.913          47.000  
G24  20323020.614   106798225.112        1313.839          47.000  
E07  24884039.837   130766508.676       -2069.346          43.000  
G10  23826431.029   125208742.270        1879.852          43.000  
G17  22830603.240   119975621.635         374.281          44.000  
G23  22469538.045   118078218.670        -488.076          43.000  
E14  25637916.815   134728107.242        4424.509          42.000  
E30  24544830.499   128983945.695       -1541.109          44.000  
E20  28309772.955   148768850.540        1828.062          37.000  
E27  23647134.315   124266503.533        1294.888          45.000  
G12  23384635.674   122887073.199        3892.762          35.000  
> 2024 02 13 08 34 10.0000000  0 15                     
G13  21981554.581   115513825.639       -2838.510          46.000  
G14  23726997.420   124686211.584       -3081.640          41.000  
G15  20548889.645   107985143.268       -1710.322          46.000  
G19  22936576.964   120532523.071        2512.777          44.000  
G22  22456573.633   118010082.780       -2412.011          47.000  
G24  20322770.195   106796910.428        1313.691          47.000  
E07  24884433.732   130768576.762       -2069.082          43.000  
G10  23826073.875   125206861.438        1879.962          43.000  
G17  22830532.470   119975246.540         374.021          44.000  
G23  22469630.732   118078705.759        -488.326          43.000  
E14  25637074.990   134723681.568        4424.641          42.000  
E30  24545123.419   128985485.694       -1540.842          44.000  
E20  28309425.024   148767021.266        1828.370          37.000  
E27  23646887.665   124265207.663        1294.782          45.000  
G12  23383895.810   122883178.867        3893.160          36.000  
> 2024 02 13 08 34 11.0000000  0 15                     
G13  21982094.927   115516664.642       -2839.062          47.000  
G14  23727584.079   124689293.375       -3081.812          41.000  
G15  20549214.734   107986853.932       -1710.903          45.000  
G19  22936098.784   120530010.442        2512.593          44.000  
G22  22457032.547   118012495.138       -2412.458          47.000  
G24  20322520.491   106795597.169        1313.082          47.000  
E07  24884827.584   130770646.108       -2069.432          43.000  
G10  23825716.111   125204982.185        1878.870          43.000  
G17  22830461.535   119974873.023         373.427          44.000  
G23  22469723.366   118079194.478        -489.009          43.000  
E14  25636233.410   134719257.037        4424.445          42.000  
E30  24545416.408   128987026.976       -1541.496          44.000  
E20  28309076.682   148765193.328        1827.425          37.000  
E27  23646640.849   124263913.139        1294.341          45.000  
G12  23383155.651   122879285.757        3893.151          36.000  
> 2024 02 13 08 34 12.0000000  0 15                     
G13  21982635.055   115519503.730       -2837.442          46.000  
G14  23728170.458   124692375.128       -3079.968          41.000  
G15  20549540.320   107988564.946       -1709.242          46.000  
G19  22935620.482   120527498.049        2514.014          44.000  
G22  22457491.680   118014907.580       -2410.801          46.000  
G24  20322270.551   106794284.113        1314.784          47.000  
E07  24885221.531   130772715.488       -2067.528          43.000  
G10  23825358.853   125203103.254        1880.457          43.000  
G17  22830390.914   119974499.901         374.753          44.000  
G23  22469816.350   118079683.637        -487.599          43.000  
E14  25635391.454   134714832.443        4426.309          42.000  
E30  24545709.737   128988568.289       -1539.604          44.000  
E20  28308728.655   148763365.373        1829.882          37.000  
E27  23646394.609   124262618.766        1296.081          45.000  
G12  23382415.500   122875392.652        3894.877          36.000  
