     3.00           OBSERVATION DATA    M: Mixed            RINEX VERSION / TYPE
RTKCONV demo5 b34f.1                    20240213 161513 UTC PGM / RUN BY / DATE 
format: u-blox UBX                                          COMMENT             
log: C:\Users\oo\Desktop\divers\verniquet\Reseau\temp\log_gnCOMMENT             
                                                            MARKER NAME         
                                                            MARKER NUMBER       
                                                            MARKER TYPE         
                                                            OBSERVER / AGENCY   
                                                            REC # / TYPE / VERS 
                                                            ANT # / TYPE        
  4202094.5465   178663.8193  4778955.6956                  APPROX POSITION XYZ 
        0.0000        0.0000        0.0000                  ANTENNA: DELTA H/E/N
G    4 C1C L1C D1C S1C                                      SYS / # / OBS TYPES 
E    4 C1X L1X D1X S1X                                      SYS / # / OBS TYPES 
  2024    02    13    13    57   34.9880000     GPS         TIME OF FIRST OBS   
  2024    02    13    14    41   47.9900000     GPS         TIME OF LAST OBS    
                                                            END OF HEADER       
> 2024 02 13 13 57 34.9880000  0 10                     
G11  21742925.200   114259725.5223      -2705.354          32.000  
G18  20506652.161   107763217.3483       3729.200          35.000  
G04  21671522.321   113884644.2463       1330.592          35.000  
G28  17857663.292    93842653.4603       -744.021          33.000  
G26  19330715.727   101583640.6803       2988.850          40.000  
G31  18210383.619    95696204.8253       1077.757          41.000  
G29  17492799.796    91925255.2603       -317.554          34.000  
G12  21628794.145   113660122.2153      -3191.917          37.000  
G20  21536153.373   113173231.2433       1074.347          38.000  
G25  18558303.277    97524564.0013      -2396.808          39.000  
> 2024 02 13 13 57 35.9880000  0 10                     
G11  21743438.472   114262431.0932      -2705.552          31.000  
G18  20505949.214   107759488.4532       3728.587          34.000  
G04  21671269.502   113883313.8162       1329.970          33.000  
G28  17857806.367    93843397.6502       -744.688          36.000  
G26  19330150.672   101580652.2132       2987.999          40.000  
G31  18210177.767    95695127.7802       1076.369          40.000  
G29  17492862.564    91925573.3072       -318.539          37.000  
G12  21629401.936   113663314.2652      -3191.680          37.000  
G20  21535949.598   113172157.1292       1074.196          37.000  
G25  18558759.879    97526960.9902      -2397.124          39.000  
> 2024 02 13 13 57 36.9880000  0 10                     
G11  21743949.013   114265136.8011      -2707.254          32.000  
G18  20505238.344   107755759.7902       3728.080          31.000  
G04  21671024.178   113881983.6681       1328.645          33.000  
G28  17857944.450    93844142.6562       -745.923          36.000  
G26  19329581.114   101577664.137        2987.252          39.000  
G31  18209974.298    95694051.0281       1075.500          39.000  
G29  17492926.170    91925891.5361       -320.056          38.000  
G12  21630009.893   113666506.1161      -3192.890          36.000  
G20  21535741.801   113171083.7652       1072.183          37.000  
G25  18559216.394    97529357.9861      -2398.313          39.000  
> 2024 02 13 13 57 37.9880000  0 10                     
G11  21744457.626   114267843.719       -2707.101          32.000  
G18  20504530.974   107752031.9442       3728.821          31.000  
G04  21670769.099   113880654.928        1328.596          32.000  
G28  17858090.919    93844888.6282       -746.000          37.000  
G26  19329012.019   101574676.605        2988.188          38.000  
G31  18209767.478    95692975.777        1075.263          38.000  
G29  17492984.315    91926211.060        -319.380          39.000  
G12  21630617.667   113669698.880       -3192.413          35.000  
G20  21535535.610   113170011.3202       1073.009          34.000  
G25  18559673.267    97531756.117       -2397.888          39.000  
> 2024 02 13 13 57 38.9880000  0 10                     
G11  21744967.137   114270551.216       -2707.810          36.000  
G18  20503809.110   107748304.4122       3726.966          34.000  
G04  21670516.560   113879327.040        1326.708          35.000  
G28  17858231.114    93845635.4532       -747.734          36.000  
G26  19328445.157   101571689.519        2986.916          37.000  
G31  18209563.511    95691901.330        1073.905          38.000  
G29  17493044.797    91926531.317        -320.607          39.000  
G12  21631225.318   113672891.940       -3193.980          34.000  
G20  21535331.346   113168939.7262       1070.742          32.000  
G25  18560129.939    97534154.717       -2398.642          37.000  
> 2024 02 13 13 58 40.9900000  0 18                     
G11  21777052.172   114439180.634       -2736.441          43.000  
G18  20459921.813   107517615.925        3708.333          45.000  
G04  21655074.679   113798158.3711       1284.695          38.000  
G28  17867291.337    93893251.6701       -793.512          45.000  
G26  19293289.800   101386924.774        2966.776          42.000  
G31  18197127.465    95626521.561        1028.610          46.000  
G29  17497017.801    91947464.2441       -358.342          47.000  
G12  21668930.597   113870988.315       -3204.479          43.000  
E15  24929773.944   131006856.7441      -2453.939          32.000  
G20  21522897.726   113103601.4231       1031.304          41.000  
G25  18588548.710    97683476.679       -2423.329          46.000  
G05  22199741.886   116660435.5641       2893.225          43.000  
E04  24175498.944   127043086.6761      -2163.057          39.000  
E13  21712491.163   114099921.3091       -141.501          43.000  
E18  25957559.320   136407895.8951       4078.928          38.000  
E09  24190339.089   127121086.1571       -136.507          38.000  
E21  21571266.988   113357790.0081      -1364.646          43.000  
E26  22001637.616   115619386.5261       2683.060          43.000  
> 2024 02 13 13 58 41.9900000  0 18                     
G11  21777573.183   114441917.581       -2736.297          43.000  
G18  20459216.396   107513907.917        3708.597          44.000  
G04  21654830.167   113796874.218        1285.006          38.000  
G28  17867442.360    93894045.625        -793.494          45.000  
G26  19292725.399   101383957.969        2967.495          42.000  
G31  18196931.857    95625493.487        1028.458          46.000  
G29  17497085.613    91947823.029        -358.296          47.000  
G12  21669540.465   113874193.078       -3204.172          42.000  
E15  24930239.158   131009310.592       -2454.297          32.000  
G20  21522701.184   113102570.339        1031.217          41.000  
G25  18589009.762    97685900.470       -2423.298          46.000  
G05  22199191.367   116657542.775        2893.587          44.000  
E04  24175910.682   127045250.444       -2163.594          39.000  
E13  21712518.264   114100063.620        -142.214          43.000  
E18  25956783.108   136403817.344        4078.795          38.000  
E09  24190364.950   127121223.395        -137.078          38.000  
E21  21571526.525   113359155.083       -1364.883          43.000  
E26  22001127.170   115616704.092        2682.723          43.000  
> 2024 02 13 13 58 42.9900000  0 18                     
G11  21778094.142   114444653.993       -2735.931          43.000  
G18  20458510.683   107510199.248        3709.110          44.000  
G04  21654585.410   113795589.806        1284.523          38.000  
G28  17867593.409    93894839.345        -793.488          45.000  
G26  19292160.387   101380990.523        2967.885          43.000  
G31  18196736.091    95624465.159        1028.636          46.000  
G29  17497153.686    91948181.434        -358.003          47.000  
G12  21670149.948   113877397.034       -3203.674          42.000  
E15  24930705.471   131011763.720       -2452.662          32.000  
G20  21522504.703   113101538.897        1031.561          41.000  
G25  18589470.666    97688323.643       -2422.738          46.000  
G05  22198640.777   116654649.334        2893.891          43.000  
E04  24176321.958   127047413.513       -2162.500          39.000  
E13  21712545.503   114100205.512        -141.743          43.000  
E18  25956006.486   136399737.564        4080.521          38.000  
E09  24190391.012   127121360.209        -136.612          38.000  
E21  21571786.193   113360519.456       -1363.920          43.000  
E26  22000616.551   115614021.049        2683.536          43.000  
> 2024 02 13 13 58 43.9900000  0 18                     
G11  21778614.935   114447390.979       -2737.900          43.000  
G18  20457805.066   107506490.985        3707.411          44.000  
G04  21654340.993   113794306.157        1282.530          38.000  
G28  17867744.763    93895633.903        -795.624          45.000  
G26  19291595.794   101378023.490        2966.312          43.000  
G31  18196540.361    95623437.660        1026.336          46.000  
G29  17497221.882    91948540.550        -360.093          47.000  
G12  21670759.493   113880601.270       -3204.952          42.000  
E15  24931171.924   131014217.370       -2454.347          32.000  
G20  21522308.432   113100508.216        1029.730          41.000  
G25  18589931.709    97690747.324       -2424.710          46.000  
G05  22198090.302   116651756.338        2892.146          43.000  
E04  24176733.809   127049577.019       -2163.976          39.000  
E13  21712572.368   114100348.088        -143.308          43.000  
E18  25955230.082   136395657.719        4079.419          38.000  
E09  24190416.717   127121497.657        -137.783          37.000  
E21  21572046.122   113361884.223       -1365.276          43.000  
E26  22000105.905   115611338.516        2681.995          43.000  
> 2024 02 13 13 58 44.9900000  0 18                     
G11  21779135.693   114450127.638       -2737.429          43.000  
G18  20457099.257   107502782.215        3708.213          44.000  
G04  21654096.411   113793022.380        1282.897          38.000  
G28  17867896.074    93896428.383        -794.891          45.000  
G26  19291030.817   101375055.977        2967.098          43.000  
G31  18196344.814    95622410.086        1026.793          46.000  
G29  17497289.911    91948899.457        -359.554          47.000  
G12  21671368.977   113883804.876       -3204.061          42.000  
E15  24931638.648   131016670.469       -2453.426          32.000  
G20  21522112.562   113099477.354        1030.361          42.000  
G25  18590392.831    97693170.582       -2423.776          46.000  
G05  22197539.712   116648862.856        2893.044          43.000  
E04  24177145.529   127051740.056       -2163.345          39.000  
E13  21712599.128   114100490.460        -143.023          43.000  
E18  25954453.766   136391576.912        4080.303          38.000  
E09  24190442.621   127121634.914        -137.603          37.000  
E21  21572306.017   113363248.490       -1364.538          43.000  
E26  21999595.006   115608655.600        2682.469          43.000  
> 2024 02 13 13 58 45.9900000  0 18                     
G11  21779656.748   114452864.987       -2736.604          43.000  
G18  20456393.545   107499074.016        3709.194          44.000  
G04  21653852.099   113791739.556        1283.673          38.000  
G28  17868047.725    93897223.881        -794.806          45.000  
G26  19290466.268   101372089.042        2967.792          43.000  
G31  18196149.729    95621383.508        1027.170          46.000  
G29  17497358.552    91949259.232        -358.953          47.000  
G12  21671978.548   113887008.906       -3202.829          42.000  
E15  24932105.677   131019124.171       -2452.083          32.000  
G20  21521916.622   113098447.404        1030.659          42.000  
G25  18590854.363    97695594.497       -2422.966          46.000  
G05  22196989.332   116645969.988        2893.758          43.000  
E04  24177557.215   127053903.693       -2162.673          39.000  
E13  21712626.385   114100633.690        -142.769          43.000  
E18  25953676.839   136387496.156        4081.664          38.000  
E09  24190468.910   127121772.998        -137.368          37.000  
E21  21572565.860   113364613.341       -1364.064          43.000  
E26  21999084.090   115605973.355        2682.820          43.000  
> 2024 02 13 13 58 46.9900000  0 18                     
G11  21780177.611   114455601.992       -2737.300          43.000  
G18  20455687.456   107495365.343        3708.329          44.000  
G04  21653607.796   113790456.673        1282.483          38.000  
G28  17868198.966    93898019.324        -795.978          45.000  
G26  19289901.614   101369121.598        2967.414          43.000  
G31  18195954.304    95620356.856        1026.014          45.000  
G29  17497426.651    91949618.811        -359.888          47.000  
G12  21672588.241   113890212.364       -3203.611          43.000  
E15  24932572.837   131021577.427       -2453.248          33.000  
G20  21521720.865   113097417.303        1029.692          42.000  
G25  18591315.433    97698017.995       -2423.520          46.000  
G05  22196438.691   116643076.662        2892.934          43.000  
E04  24177969.162   127056066.882       -2163.433          39.000  
E13  21712653.895   114100776.700        -143.588          43.000  
E18  25952900.365   136383414.398        4081.904          38.000  
E09  24190495.051   127121910.821        -137.942          37.000  
E21  21572825.475   113365977.663       -1364.448          43.000  
E26  21998573.427   115603290.736        2682.154          43.000  
> 2024 02 13 13 58 47.9900000  0 18                     
G11  21780698.875   114458339.735       -2737.837          44.000  
G18  20454981.665   107491657.232        3708.032          44.000  
G04  21653363.633   113789174.692        1281.717          39.000  
G28  17868350.539    93898815.751        -796.515          45.000  
G26  19289336.995   101366154.788        2966.716          43.000  
G31  18195758.905    95619331.205        1025.518          45.000  
G29  17497495.074    91949979.272        -360.614          47.000  
G12  21673198.100   113893416.253       -3203.877          43.000  
E15  24933040.005   131024031.295       -2453.964          33.000  
G20  21521525.510   113096388.142        1028.562          42.000  
G25  18591777.044    97700442.177       -2424.255          46.000  
G05  22195888.276   116640183.945        2892.521          43.000  
E04  24178380.944   127058230.652       -2163.924          40.000  
E13  21712681.222   114100920.586        -144.038          43.000  
E18  25952123.411   136379332.764        4081.624          38.000  
E09  24190521.400   127122049.524        -138.786          37.000  
E21  21573085.457   113367342.570       -1364.885          43.000  
E26  21998063.139   115600608.756        2682.007          42.000  
> 2024 02 13 13 58 48.9900000  0 18                     
G11  21781220.148   114461077.973       -2738.751          44.000  
G18  20454276.126   107487949.449        3707.470          43.000  
G04  21653120.063   113787893.432        1280.474          39.000  
G28  17868502.225    93899612.962        -797.632          45.000  
G26  19288772.611   101363188.306        2966.140          43.000  
G31  18195563.777    95618306.302        1024.564          45.000  
G29  17497563.714    91950340.337        -361.557          47.000  
G12  21673807.880   113896620.315       -3204.404          43.000  
E15  24933507.078   131026485.483       -2454.416          34.000  
G20  21521329.937   113095359.574        1028.052          42.000  
G25  18592238.331    97702866.756       -2424.919          46.000  
G05  22195338.027   116637291.610        2892.312          43.000  
E04  24178792.664   127060394.744       -2164.096          40.000  
E13  21712709.099   114101065.080        -144.917          43.000  
E18  25951346.667   136375250.923        4081.818          38.000  
E09  24190547.977   127122188.792        -139.445          37.000  
E21  21573345.178   113368707.778       -1365.299          43.000  
E26  21997552.834   115597927.195        2681.431          42.000  
> 2024 02 13 13 58 49.9900000  0 18                     
G11  21781741.299   114463816.964       -2738.550          43.000  
G18  20453570.570   107484242.309        3707.188          43.000  
G04  21652876.615   113786613.204        1280.319          39.000  
G28  17868653.876    93900411.250        -798.553          45.000  
G26  19288208.227   101360222.447        2965.767          43.000  
G31  18195369.041    95617282.475        1023.912          45.000  
G29  17497632.355    91950702.341        -362.049          47.000  
G12  21674417.617   113899824.890       -3204.099          43.000  
E15  24933973.958   131028940.311       -2454.154          34.000  
G20  21521134.529   113094332.008        1027.562          42.000  
G25  18592699.907    97705292.056       -2425.256          46.000  
G05  22194787.665   116634399.926        2891.733          44.000  
E04  24179204.672   127062559.541       -2164.748          39.000  
E13  21712736.758   114101210.503        -145.713          43.000  
E18  25950570.124   136371169.228        4081.971          38.000  
E09  24190574.388   127122328.953        -140.296          37.000  
E21  21573605.160   113370073.635       -1365.776          43.000  
E26  21997042.711   115595246.415        2680.581          42.000  
> 2024 02 13 13 58 50.9900000  0 18                     
G11  21782262.956   114466556.312       -2739.719          43.000  
G18  20452864.892   107480535.331        3706.871          43.000  
G04  21652633.097   113785333.525        1279.370          39.000  
G28  17868805.667    93901210.138        -799.573          45.000  
G26  19287644.193   101357256.773        2965.387          43.000  
G31  18195174.393    95616259.248        1022.794          45.000  
G29  17497700.908    91951064.814        -362.899          47.000  
G12  21675027.389   113903029.546       -3204.762          43.000  
E15  24934441.415   131031395.376       -2455.296          34.000  
G20  21520938.974   113093304.963        1026.622          42.000  
G25  18593161.404    97707717.629       -2426.063          46.000  
G05  22194237.555   116631508.458        2891.208          44.000  
E04  24179616.890   127064724.527       -2165.292          40.000  
E13  21712764.486   114101356.360        -146.198          43.000  
E18  25949793.441   136367087.253        4081.854          38.000  
E09  24190601.314   127122469.565        -141.060          38.000  
E21  21573864.801   113371439.638       -1366.235          43.000  
E26  21996532.868   115592565.851        2680.379          43.000  
> 2024 02 13 13 58 51.9900000  0 18                     
G11  21782784.298   114469296.297       -2739.853          43.000  
G18  20452159.328   107476828.863        3706.575          43.000  
G04  21652389.658   113784054.726        1278.804          39.000  
G28  17868957.300    93902009.940        -800.006          45.000  
G26  19287079.844   101354291.623        2965.253          43.000  
G31  18194979.779    95615236.942        1021.993          45.000  
G29  17497769.993    91951428.079        -363.397          47.000  
G12  21675637.213   113906234.554       -3204.917          43.000  
E15  24934908.828   131033850.936       -2455.631          34.000  
G20  21520743.522   113092278.734        1025.891          41.000  
G25  18593622.762    97710143.765       -2426.120          46.000  
G05  22193687.498   116628617.519        2890.808          44.000  
E04  24180029.309   127066890.016       -2165.470          40.000  
E13  21712792.276   114101503.020        -146.792          43.000  
E18  25949016.662   136363005.272        4081.915          38.000  
E09  24190627.759   127122610.920        -141.452          37.000  
E21  21574124.565   113372806.134       -1366.491          43.000  
E26  21996023.148   115589885.922        2679.872          43.000  
> 2024 02 13 13 58 52.9900000  0 18                     
G11  21783305.693   114472036.753       -2740.581          43.000  
G18  20451453.789   107473122.720        3705.936          43.000  
G04  21652146.637   113782776.632        1277.848          39.000  
G28  17869109.196    93902810.526        -801.196          45.000  
G26  19286515.835   101351326.808        2964.600          43.000  
G31  18194785.305    95614215.379        1021.149          45.000  
G29  17497839.052    91951791.974        -364.303          47.000  
G12  21676247.456   113909439.764       -3205.505          43.000  
E15  24935376.354   131036306.870       -2456.406          34.000  
G20  21520547.897   113091253.163        1025.199          41.000  
G25  18594084.294    97712570.325       -2426.764          45.000  
G05  22193137.371   116625726.937        2890.242          44.000  
E04  24180441.675   127069055.878       -2166.209          39.000  
E13  21712819.646   114101650.282        -147.551          43.000  
E18  25948239.682   136358923.096        4082.081          38.000  
E09  24190654.484   127122752.866        -142.590          37.000  
E21  21574384.609   113374172.960       -1367.143          43.000  
E26  21995512.772   115587206.406        2679.379          43.000  
> 2024 02 13 13 58 53.9900000  0 18                     
G11  21783827.455   114474777.705       -2740.907          43.000  
G18  20450748.390   107469416.924        3705.954          43.000  
G04  21651903.704   113781499.259        1277.680          39.000  
G28  17869261.623    93903611.860        -801.514          45.000  
G26  19285951.705   101348362.334        2964.507          43.000  
G31  18194591.084    95613194.582        1020.588          45.000  
G29  17497908.408    91952156.499        -364.561          47.000  
G12  21676857.271   113912645.163       -3205.082          43.000  
E15  24935843.496   131038763.115       -2456.046          34.000  
G20  21520353.074   113090228.262        1024.630          41.000  
G25  18594545.774    97714997.305       -2426.865          45.000  
G05  22192587.358   116622836.747        2890.284          44.000  
E04  24180853.919   127071222.092       -2166.395          39.000  
E13  21712847.645   114101798.186        -148.032          43.000  
E18  25947462.746   136354840.795        4082.248          38.000  
E09  24190681.532   127122895.422        -142.786          38.000  
E21  21574644.381   113375540.095       -1367.147          43.000  
E26  21995003.462   115584527.355        2679.034          43.000  
> 2024 02 13 13 58 54.9900000  0 18                     
G11  21784349.173   114477519.126       -2741.526          43.000  
G18  20450043.192   107465711.451        3705.365          43.000  
G04  21651660.849   113780222.616        1276.280          39.000  
G28  17869413.929    93904413.959        -802.264          44.000  
G26  19285387.513   101345398.209        2964.193          43.000  
G31  18194397.204    95612174.527        1019.838          45.000  
G29  17497978.061    91952521.650        -365.455          47.000  
G12  21677467.331   113915850.777       -3205.533          43.000  
E15  24936310.857   131041219.713       -2456.583          34.000  
G20  21520158.233   113089204.028        1023.896          41.000  
G25  18595007.166    97717424.690       -2427.226          45.000  
G05  22192037.659   116619946.918        2889.728          44.000  
E04  24181266.154   127073388.653       -2166.857          39.000  
E13  21712876.054   114101946.674        -148.567          43.000  
E18  25946686.150   136350758.288        4082.588          38.000  
E09  24190708.859   127123038.555        -143.397          38.000  
E21  21574904.712   113376907.552       -1367.554          43.000  
E26  21994493.793   115581848.714        2678.382          43.000  
> 2024 02 13 13 58 55.9900000  0 18                     
G11  21784870.873   114480261.115       -2742.194          43.000  
G18  20449338.491   107462006.390        3704.782          43.000  
G04  21651418.030   113778946.734        1275.554          39.000  
G28  17869566.662    93905216.904        -803.247          44.000  
G26  19284823.461   101342434.495        2963.650          43.000  
G31  18194203.402    95611155.295        1018.889          45.000  
G29  17498047.582    91952887.483        -366.103          47.000  
G12  21678077.015   113919056.667       -3205.933          43.000  
E15  24936778.505   131043676.791       -2457.273          34.000  
G20  21519963.777   113088180.538        1023.024          42.000  
G25  18595468.698    97719852.583       -2428.101          45.000  
G05  22191488.020   116617057.522        2889.156          44.000  
E04  24181678.799   127075555.617       -2167.146          39.000  
E13  21712904.428   114102095.872        -149.531          43.000  
E18  25945909.092   136346675.730        4082.555          38.000  
E09  24190736.265   127123182.347        -143.965          38.000  
E21  21575165.366   113378275.412       -1368.084          43.000  
E26  21993984.264   115579170.573        2677.948          43.000  
> 2024 02 13 13 58 56.9900000  0 18                     
G11  21785392.792   114483003.405       -2742.302          43.000  
G18  20448633.215   107458301.487        3704.755          43.000  
G04  21651175.472   113777671.406        1275.255          39.000  
G28  17869719.517    93906020.446        -803.809          44.000  
G26  19284259.435   101339470.951        2963.624          43.000  
G31  18194009.748    95610136.650        1018.442          45.000  
G29  17498117.567    91953253.795        -366.595          47.000  
G12  21678687.145   113922262.574       -3205.809          43.000  
E15  24937246.197   131046134.011       -2457.369          34.000  
G20  21519769.041   113087157.549        1022.708          42.000  
G25  18595930.693    97722280.702       -2428.083          45.000  
G05  22190938.339   116614168.308        2889.273          44.000  
E04  24182090.956   127077722.811       -2167.382          39.000  
E13  21712932.759   114102245.499        -149.825          43.000  
E18  25945132.209   136342592.828        4082.961          38.000  
E09  24190763.697   127123326.585        -144.600          38.000  
E21  21575425.706   113379643.414       -1368.053          43.000  
E26  21993475.076   115576492.712        2677.708          44.000  
> 2024 02 13 13 58 57.9900000  0 18                     
G11  21785914.693   114485746.172       -2743.252          43.000  
G18  20447928.330   107454596.905        3704.044          43.000  
G04  21650933.210   113776396.805        1273.936          39.000  
G28  17869872.512    93906824.731        -804.865          44.000  
G26  19283695.444   101336507.749        2962.560          43.000  
G31  18193815.876    95609118.754        1017.146          45.000  
G29  17498187.420    91953620.717        -367.678          47.000  
G12  21679297.222   113925468.692       -3206.552          43.000  
E15  24937713.776   131048591.573       -2458.024          34.000  
G20  21519574.471   113086135.196        1021.445          41.000  
G25  18596392.731    97724709.237       -2429.244          45.000  
G05  22190388.587   116611279.449        2888.247          44.000  
E04  24182503.339   127079890.324       -2167.991          39.000  
E13  21712961.464   114102395.750        -151.042          43.000  
E18  25944355.220   136338509.753        4082.611          37.000  
E09  24190791.469   127123471.386        -145.358          38.000  
E21  21575685.819   113381011.732       -1368.824          43.000  
E26  21992965.625   115573815.259        2676.881          44.000  
> 2024 02 13 13 58 58.9900000  0 18                     
G11  21786436.594   114488490.161       -2744.049          43.000  
G18  20447223.263   107450893.415        3703.387          43.000  
G04  21650690.949   113775123.643        1272.809          39.000  
G28  17870025.969    93907630.523        -805.713          44.000  
G26  19283131.889   101333545.609        2962.298          43.000  
G31  18193622.353    95608102.359        1016.232          45.000  
G29  17498257.701    91953989.011        -368.328          47.000  
G12  21679907.456   113928675.752       -3207.056          43.000  
E15  24938181.729   131051050.228       -2458.670          34.000  
G20  21519379.762   113085114.276        1020.626          41.000  
G25  18596855.162    97727138.924       -2429.599          45.000  
G05  22189839.123   116608391.694        2887.701          44.000  
E04  24182916.089   127082058.949       -2168.841          39.000  
E13  21712990.667   114102547.352        -151.947          43.000  
E18  25943578.520   136334427.272        4082.670          38.000  
E09  24190819.564   127123617.541        -146.091          38.000  
E21  21575946.865   113382381.118       -1369.267          44.000  
E26  21992456.175   115571139.002        2676.046          44.000  
> 2024 02 13 13 58 59.9900000  0 18                     
G11  21786958.600   114491234.116       -2744.290          43.000  
G18  20446518.283   107447189.734        3703.269          43.000  
G04  21650448.330   113773850.678        1272.583          39.000  
G28  17870179.077    93908436.570        -806.543          44.000  
G26  19282567.907   101330583.334        2961.834          43.000  
G31  18193429.136    95607086.214        1015.631          46.000  
G29  17498327.929    91954357.432        -368.954          47.000  
G12  21680517.699   113931882.510       -3207.139          43.000  
E15  24938649.762   131053508.747       -2458.615          35.000  
G20  21519185.192   113084093.493        1019.875          41.000  
G25  18597317.680    97729568.524       -2430.206          45.000  
G05  22189289.424   116605503.800        2887.358          44.000  
E04  24183328.743   127084227.405       -2168.868          39.000  
E13  21713019.678   114102699.061        -152.320          43.000  
E18  25942801.549   136330344.104        4083.190          38.000  
E09  24190847.702   127123763.773        -146.888          38.000  
E21  21576207.589   113383750.319       -1369.535          44.000  
E26  21991946.960   115568462.644        2675.735          44.000  
> 2024 02 13 13 59 00.9900000  0 18                     
G11  21787481.016   114493978.885       -2745.172          43.000  
G18  20445813.382   107443486.717        3702.593          43.000  
G04  21650206.400   113772578.762        1271.249          39.000  
G28  17870332.718    93909243.715        -807.825          44.000  
G26  19282003.942   101327621.712        2961.073          43.000  
G31  18193235.988    95606071.147        1014.494          46.000  
G29  17498398.227    91954726.797        -369.867          47.000  
G12  21681128.133   113935089.791       -3207.667          43.000  
E15  24939117.707   131055967.915       -2459.385          35.000  
G20  21518990.892   113083073.693        1019.154          41.000  
G25  18597780.407    97731998.849       -2430.859          45.000  
G05  22188740.266   116602616.575        2886.860          44.000  
E04  24183741.555   127086396.532       -2169.510          39.000  
E13  21713049.012   114102851.700        -153.191          43.000  
E18  25942024.534   136326261.100        4082.878          38.000  
E09  24190875.814   127123910.900        -147.523          38.000  
E21  21576467.711   113385120.153       -1370.084          43.000  
E26  21991437.832   115565787.041        2675.172          44.000  
> 2024 02 13 13 59 01.9900000  0 18                     
G11  21788003.240   114496723.936       -2745.031          43.000  
G18  20445108.707   107439783.835        3702.743          43.000  
G04  21649964.418   113771307.361        1271.348          38.000  
G28  17870486.454    93910051.416        -807.873          44.000  
G26  19281440.378   101324660.223        2961.608          42.000  
G31  18193043.111    95605056.631        1014.229          45.000  
G29  17498468.857    91955096.598        -370.096          47.000  
G12  21681738.333   113938297.059       -3207.142          43.000  
E15  24939585.852   131058427.243       -2459.240          34.000  
G20  21518796.767   113082054.380        1018.883          41.000  
G25  18598243.082    97734429.401       -2430.727          46.000  
G05  22188190.601   116599729.533        2887.108          44.000  
E04  24184153.833   127088565.833       -2169.192          39.000  
E13  21713078.459   114103004.769        -153.125          43.000  
E18  25941247.206   136322177.736        4083.690          38.000  
E09  24190903.560   127124058.444        -147.619          38.000  
E21  21576728.461   113386490.122       -1369.890          44.000  
E26  21990928.722   115563111.688        2675.316          44.000  
> 2024 02 13 13 59 02.9900000  0 18                     
G11  21788525.586   114499469.491       -2746.077          43.000  
G18  20444403.788   107436081.292        3702.135          43.000  
G04  21649722.436   113770036.675        1270.017          39.000  
G28  17870640.522    93910859.898        -809.210          45.000  
G26  19280876.614   101321699.096        2960.608          42.000  
G31  18192850.111    95604042.890        1012.951          45.000  
G29  17498539.295    91955467.024        -371.003          47.000  
G12  21682349.064   113941504.560       -3207.987          43.000  
E15  24940053.684   131060886.927       -2460.171          35.000  
G20  21518602.930   113081035.743        1017.997          41.000  
G25  18598705.792    97736860.369       -2431.438          46.000  
G05  22187641.233   116596842.871        2886.130          44.000  
E04  24184566.487   127090735.506       -2170.186          39.000  
E13  21713108.221   114103158.460        -154.445          43.000  
E18  25940470.278   136318094.236        4083.307          38.000  
E09  24190931.873   127124206.576        -148.578          38.000  
E21  21576989.420   113387860.433       -1370.867          43.000  
E26  21990419.743   115560436.771        2674.204          44.000  
> 2024 02 13 13 59 03.9900000  0 18                     
G11  21789048.141   114502216.018       -2747.427          43.000  
G18  20443699.445   107432379.592        3700.942          43.000  
G04  21649481.020   113768767.200        1268.502          39.000  
G28  17870794.651    93911669.631        -810.693          45.000  
G26  19280313.190   101318738.806        2959.533          42.000  
G31  18192657.400    95603030.393        1011.578          45.000  
G29  17498610.003    91955838.584        -372.527          47.000  
G12  21682959.420   113944712.760       -3209.029          43.000  
E15  24940521.646   131063347.449       -2461.083          35.000  
G20  21518409.521   113080018.257        1016.460          42.000  
G25  18599168.738    97739292.250       -2432.743          45.000  
G05  22187091.935   116593957.077        2884.983          44.000  
E04  24184979.255   127092906.009       -2171.204          39.000  
E13  21713137.546   114103313.270        -155.871          42.000  
E18  25939693.264   136314011.067        4082.364          38.000  
E09  24190960.151   127124355.804        -149.944          38.000  
E21  21577250.405   113389231.546       -1371.806          44.000  
E26  21989910.886   115557762.768        2673.210          44.000  
> 2024 02 13 13 59 04.9900000  0 18                     
G11  21789570.993   114504963.099       -2747.113          43.000  
G18  20442995.102   107428678.298        3701.219          43.000  
G04  21649239.413   113767498.535        1268.495          39.000  
G28  17870949.068    93912480.212        -810.785          45.000  
G26  19279750.081   101315778.936        2959.922          42.000  
G31  18192465.194    95602018.744        1011.327          46.000  
G29  17498681.130    91956210.844        -372.487          47.000  
G12  21683569.846   113947921.230       -3208.628          43.000  
E15  24940990.333   131065808.463       -2461.264          35.000  
G20  21518215.832   113079001.527        1016.442          42.000  
G25  18599631.517    97741724.621       -2432.206          45.000  
G05  22186542.978   116591071.712        2885.452          44.000  
E04  24185392.441   127095076.949       -2170.659          38.000  
E13  21713167.359   114103468.760        -155.652          42.000  
E18  25938916.240   136309927.793        4083.459          37.000  
E09  24190988.961   127124505.701        -149.907          38.000  
E21  21577511.339   113390603.074       -1371.570          43.000  
E26  21989401.889   115555089.289        2673.515          44.000  
> 2024 02 13 13 59 05.9900000  0 18                     
G11  21790094.081   114507710.417       -2747.650          43.000  
G18  20442290.898   107424977.101        3700.702          43.000  
G04  21648998.042   113766230.359        1267.555          39.000  
G28  17871103.729    93913291.312        -811.719          45.000  
G26  19279186.761   101312819.169        2959.319          42.000  
G31  18192272.710    95601007.598        1010.501          46.000  
G29  17498752.039    91956583.498        -373.216          47.000  
G12  21684180.246   113951129.647       -3208.675          43.000  
E15  24941458.810   131068269.516       -2461.282          35.000  
G20  21518022.510   113077985.208        1016.025          42.000  
G25  18600094.480    97744157.188       -2432.930          45.000  
G05  22185993.872   116588186.469        2885.110          44.000  
E04  24185805.566   127097248.001       -2171.166          38.000  
E13  21713196.868   114103624.628        -156.218          42.000  
E18  25938139.130   136305844.128        4083.660          37.000  
E09  24191017.449   127124655.959        -150.873          38.000  
E21  21577772.158   113391974.665       -1371.836          43.000  
E26  21988893.355   115552416.012        2672.770          44.000  
> 2024 02 13 13 59 06.9900000  0 18                     
G11  21790617.090   114510458.049       -2747.475          43.000  
G18  20441586.825   107421276.066        3701.312          44.000  
G04  21648756.828   113764962.682        1268.082          39.000  
G28  17871258.670    93914103.015        -811.755          45.000  
G26  19278623.704   101309859.581        2959.897          42.000  
G31  18192080.469    95599997.034        1010.851          46.000  
G29  17498823.480    91956956.592        -372.888          47.000  
G12  21684790.681   113954338.129       -3208.102          43.000  
E15  24941927.218   131070730.793       -2461.087          35.000  
G20  21517829.188   113076969.409        1015.992          42.000  
G25  18600557.365    97746589.991       -2432.450          46.000  
G05  22185444.748   116585301.432        2885.349          44.000  
E04  24186218.447   127099419.247       -2170.761          38.000  
E13  21713226.542   114103780.942        -156.058          42.000  
E18  25937362.011   136301760.149        4084.389          37.000  
E09  24191045.945   127124806.620        -150.268          38.000  
E21  21578033.248   113393346.420       -1371.506          43.000  
E26  21988384.481   115549742.971        2673.521          44.000  
> 2024 02 13 13 59 07.9900000  0 18                     
G11  21791139.890   114513206.082       -2748.712          43.000  
G18  20440882.796   107417575.282        3700.131          44.000  
G04  21648515.753   113763695.685        1266.144          39.000  
G28  17871413.602    93914915.383        -813.220          45.000  
G26  19278060.350   101306900.243        2958.726          42.000  
G31  18191888.334    95598987.159        1009.115          46.000  
G29  17498894.860    91957330.246        -374.436          47.000  
G12  21685401.596   113957546.723       -3209.302          43.000  
E15  24942395.669   131073192.292       -2461.643          35.000  
G20  21517635.927   113075954.184        1014.408          41.000  
G25  18601020.145    97749023.123       -2433.808          46.000  
G05  22184895.450   116582416.648        2884.146          44.000  
E04  24186631.503   127101590.778       -2172.139          38.000  
E13  21713256.164   114103937.777        -157.410          42.000  
E18  25936584.839   136297675.899        4084.304          37.000  
E09  24191074.598   127124957.780        -151.861          38.000  
E21  21578294.766   113394718.404       -1372.451          43.000  
E26  21987875.650   115547070.309        2672.022          43.000  
> 2024 02 13 13 59 08.9900000  0 18                     
G11  21791662.611   114515954.718       -2749.121          43.000  
G18  20440178.855   107413874.984        3699.956          43.000  
G04  21648274.870   113762429.527        1265.156          39.000  
G28  17871568.341    93915728.657        -813.831          45.000  
G26  19277497.528   101303941.367        2958.739          42.000  
G31  18191696.486    95597978.154        1008.522          46.000  
G29  17498966.476    91957704.647        -375.072          47.000  
G12  21686012.083   113960755.613       -3208.721          43.000  
E15  24942864.085   131075654.316       -2462.454          35.000  
G20  21517442.561   113074939.732        1013.989          41.000  
G25  18601483.352    97751456.798       -2433.979          46.000  
G05  22184346.641   116579532.394        2883.804          44.000  
E04  24187044.436   127103762.763       -2172.189          38.000  
E13  21713286.091   114104095.389        -158.294          42.000  
E18  25935807.720   136293591.619        4084.682          37.000  
E09  24191103.801   127125109.689        -152.178          38.000  
E21  21578555.568   113396090.849       -1372.857          43.000  
E26  21987367.281   115544398.190        2671.776          43.000  
> 2024 02 13 13 59 09.9900000  0 18                     
G11  21792185.516   114518703.889       -2749.835          43.000  
G18  20439475.183   107410175.049        3699.405          43.000  
G04  21648034.520   113761164.109        1264.682          39.000  
G28  17871723.168    93916542.741        -814.575          45.000  
G26  19276934.566   101300982.917        2957.958          43.000  
G31  18191504.595    95596969.963        1007.611          46.000  
G29  17499037.900    91958079.722        -375.514          47.000  
G12  21686623.093   113963964.790       -3209.211          43.000  
E15  24943332.466   131078116.692       -2462.770          35.000  
G20  21517249.509   113073926.042        1013.021          41.000  
G25  18601946.760    97753890.959       -2434.658          46.000  
G05  22183797.971   116576648.546        2883.257          44.000  
E04  24187457.901   127105935.161       -2172.739          38.000  
E13  21713316.044   114104253.646        -158.771          42.000  
E18  25935030.461   136289507.246        4084.513          37.000  
E09  24191132.969   127125262.228        -152.921          38.000  
E21  21578816.824   113397463.664       -1373.219          43.000  
E26  21986858.799   115541726.555        2671.341          43.000  
> 2024 02 13 13 59 10.9900000  0 18                     
G11  21792708.534   114521453.430       -2749.473          43.000  
G18  20438771.329   107406475.328        3699.935          44.000  
G04  21647794.003   113759899.273        1264.714          39.000  
G28  17871878.379    93917357.492        -814.801          45.000  
G26  19276371.326   101298024.681        2958.451          42.000  
G31  18191312.782    95595962.418        1007.449          46.000  
G29  17499109.707    91958455.322        -375.592          47.000  
G12  21687233.860   113967174.056       -3208.937          43.000  
E15  24943801.232   131080579.367       -2462.443          35.000  
G20  21517056.571   113072912.882        1013.031          41.000  
G25  18602410.116    97756325.396       -2434.146          46.000  
G05  22183249.511   116573764.959        2883.713          44.000  
E04  24187871.210   127108107.790       -2172.392          38.000  
E13  21713345.648   114104412.420        -158.942          42.000  
E18  25934253.115   136285422.608        4084.994          37.000  
E09  24191161.884   127125415.276        -153.128          38.000  
E21  21579078.316   113398836.691       -1372.793          43.000  
E26  21986350.789   115539055.249        2671.415          43.000  
> 2024 02 13 13 59 11.9900000  0 18                     
G11  21793232.197   114524205.478       -2747.394          43.000  
G18  20438067.849   107402778.005        3701.861          44.000  
G04  21647553.975   113758637.216        1266.309          39.000  
G28  17872034.271    93918175.032        -813.263          45.000  
G26  19275808.678   101295068.825        2960.352          42.000  
G31  18191121.676    95594957.662        1009.241          46.000  
G29  17499181.637    91958833.598        -373.896          47.000  
G12  21687845.097   113970385.557       -3206.612          43.000  
E15  24944270.328   131083044.418       -2460.334          35.000  
G20  21516863.973   113071902.408        1015.218          41.000  
G25  18602873.759    97758762.311       -2432.427          46.000  
G05  22182701.539   116570883.783        2885.713          44.000  
E04  24188284.928   127110282.834       -2170.391          37.000  
E13  21713376.483   114104573.848        -157.116          43.000  
E18  25933475.821   136281339.832        4087.455          37.000  
E09  24191191.672   127125570.916        -151.083          38.000  
E21  21579340.008   113400212.082       -1370.749          43.000  
E26  21985842.917   115536386.411        2673.494          43.000  
> 2024 02 13 13 59 12.9900000  0 18                     
G11  21793755.896   114526959.127       -2750.483          43.000  
G18  20437365.042   107399082.107        3698.950          44.000  
G04  21647314.183   113757376.980        1263.001          39.000  
G28  17872189.901    93918994.428        -816.540          45.000  
G26  19275246.520   101292114.416        2957.578          42.000  
G31  18190931.119    95593954.753        1005.959          46.000  
G29  17499253.890    91959213.577        -376.885          47.000  
G12  21688456.483   113973598.364       -3209.441          43.000  
E15  24944739.451   131085510.896       -2463.733          36.000  
G20  21516671.950   113070893.711        1011.467          41.000  
G25  18603338.040    97761200.708       -2435.324          45.000  
G05  22182153.637   116568004.039        2882.855          43.000  
E04  24188699.135   127112459.345       -2173.512          37.000  
E13  21713407.492   114104736.989        -160.514          42.000  
E18  25932699.094   136277257.972        4085.199          37.000  
E09  24191221.791   127125728.264        -154.643          38.000  
E21  21579602.023   113401588.908       -1374.002          43.000  
E26  21985334.776   115533719.110        2670.195          43.000  
> 2024 02 13 13 59 13.9900000  0 18                     
G11  21794279.638   114529711.048       -2752.027          43.000  
G18  20436661.798   107395384.337        3697.834          44.000  
G04  21647073.964   113756115.299        1261.176          39.000  
G28  17872345.199    93919812.397        -818.219          45.000  
G26  19274683.977   101289158.155        2956.404          42.000  
G31  18190739.996    95592950.414        1004.177          46.000  
G29  17499325.759    91959592.000        -378.379          47.000  
G12  21689067.773   113976809.172       -3210.892          43.000  
E15  24945208.592   131087975.526       -2464.282          37.000  
G20  21516479.806   113069883.499        1009.792          41.000  
G25  18603801.788    97763637.355       -2436.696          45.000  
G05  22181605.456   116565122.455        2881.483          43.000  
E04  24189112.819   127114633.979       -2174.798          37.000  
E13  21713438.161   114104898.518        -161.667          42.000  
E18  25931921.678   136273173.792        4084.198          37.000  
E09  24191251.046   127125884.019        -156.280          37.000  
E21  21579863.471   113402963.825       -1374.926          43.000  
E26  21984826.896   115531050.040        2669.043          42.000  
> 2024 02 13 13 59 14.9900000  0 18                     
G11  21794803.275   114532463.266       -2752.307          43.000  
G18  20435958.380   107391686.713        3697.349          44.000  
G04  21646833.814   113754854.058        1260.815          40.000  
G28  17872500.628    93920630.930        -818.951          45.000  
G26  19274121.583   101286202.031        2955.886          42.000  
G31  18190549.187    95591946.635        1003.364          46.000  
G29  17499397.584    91959970.857        -379.231          47.000  
G12  21689679.185   113980019.997       -3211.023          44.000  
E15  24945677.505   131090440.333       -2465.076          36.000  
G20  21516287.714   113068873.732        1009.199          41.000  
G25  18604265.545    97766074.210       -2437.420          45.000  
G05  22181057.284   116562241.042        2881.119          44.000  
E04  24189526.974   127116808.766       -2175.221          37.000  
E13  21713468.908   114105060.473        -162.331          42.000  
E18  25931144.271   136269089.217        4084.687          37.000  
E09  24191281.026   127126040.132        -156.832          38.000  
E21  21580125.468   113404338.867       -1375.186          43.000  
E26  21984318.999   115528381.206        2668.320          43.000  
> 2024 02 13 13 59 15.9900000  0 18                     
G11  21795326.939   114535215.680       -2752.746          41.000  
G18  20435254.691   107387989.186        3697.268          44.000  
G04  21646594.004   113753593.311        1260.317          39.000  
G28  17872656.301    93921449.968        -819.403          45.000  
G26  19273559.293   101283245.995        2956.078          42.000  
G31  18190358.316    95590943.353        1003.058          46.000  
G29  17499469.828    91960350.065        -379.495          47.000  
G12  21690290.309   113983230.773       -3210.825          45.000  
E15  24946146.628   131092905.183       -2465.279          35.000  
G20  21516095.718   113067864.382        1008.856          41.000  
G25  18604729.136    97768511.184       -2437.159          45.000  
G05  22180509.076   116559359.745        2881.059          45.000  
E04  24189940.875   127118983.655       -2175.036          37.000  
E13  21713499.830   114105222.793        -162.561          42.000  
E18  25930367.213   136265004.277        4084.982          36.000  
E09  24191310.927   127126196.629        -156.962          38.000  
E21  21580387.248   113405713.980       -1375.200          43.000  
E26  21983810.866   115525712.542        2668.465          43.000  
> 2024 02 13 13 59 16.9900000  0 18                     
G11  21795850.864   114537968.878       -2753.669          41.000  
G18  20434551.212   107384292.267        3696.530          44.000  
G04  21646354.282   113752333.576        1259.317          39.000  
G28  17872812.167    93922270.085        -820.880          45.000  
G26  19272997.073   101280290.607        2954.915          43.000  
G31  18190167.760    95589941.116        1001.741          46.000  
G29  17499542.263    91960730.206        -380.747          47.000  
G12  21690901.372   113986442.038       -3211.731          45.000  
E15  24946615.611   131095370.669       -2465.712          35.000  
G20  21515904.062   113066855.988        1007.674          41.000  
G25  18605193.268    97770948.910       -2438.161          45.000  
G05  22179961.017   116556479.070        2880.470          44.000  
E04  24190354.306   127121159.157       -2175.659          36.000  
E13  21713530.778   114105386.038        -163.783          43.000  
E18  25929589.561   136260919.407        4085.157          36.000  
E09  24191340.889   127126353.949        -157.663          38.000  
E21  21580649.019   113407089.740       -1376.311          43.000  
E26  21983302.820   115523044.602        2667.585          43.000  
> 2024 02 13 13 59 17.9900000  0 18                     
G11  21796375.156   114540722.451       -2753.677          41.000  
G18  20433847.663   107380595.592        3696.401          44.000  
G04  21646114.428   113751074.444        1259.176          39.000  
G28  17872968.146    93923090.830        -821.088          44.000  
G26  19272435.045   101277335.453        2954.873          43.000  
G31  18189977.151    95588939.553        1001.095          45.000  
G29  17499614.333    91961110.872        -381.039          47.000  
G12  21691512.522   113989653.391       -3211.379          45.000  
E15  24947084.420   131097836.476       -2465.729          34.000  
G20  21515712.459   113065848.181        1007.507          41.000  
G25  18605657.243    97773386.939       -2438.421          45.000  
G05  22179412.889   116553598.714        2880.204          45.000  
E04  24190768.094   127123335.011       -2176.115          35.000  
E13  21713562.013   114105549.786        -164.047          43.000  
E18  25928812.145   136256834.343        4084.777          36.000  
E09  24191371.113   127126511.823        -158.421          38.000  
E21  21580910.781   113408465.680       -1376.167          43.000  
E26  21982795.525   115520377.011        2667.446          43.000  
> 2024 02 13 13 59 18.9900000  0 18                     
G11  21796899.526   114543476.027       -2754.048          41.000  
G18  20433144.262   107376898.745        3696.930          45.000  
G04  21645874.662   113749815.564        1258.499          39.000  
G28  17873124.351    93923911.874        -821.246          44.000  
G26  19271873.201   101274380.128        2955.387          43.000  
G31  18189786.307    95587938.222        1001.160          45.000  
G29  17499686.708    91961491.661        -380.914          47.000  
G12  21692123.603   113992864.443       -3210.692          45.000  
E15  24947553.377   131100302.064       -2465.294          34.000  
G20  21515521.143   113064840.514        1007.446          40.000  
G25  18606120.739    97775824.889       -2438.128          45.000  
G05  22178864.873   116550718.178        2880.466          44.000  
E04  24191182.109   127125510.653       -2175.685          35.000  
E13  21713593.197   114105713.654        -164.163          42.000  
E18  25928034.511   136252748.545        4085.843          37.000  
E09  24191401.040   127126669.733        -157.907          38.000  
E21  21581172.577   113409841.443       -1375.543          43.000  
E26  21982288.046   115517709.355        2667.552          43.000  
> 2024 02 13 13 59 19.9900000  0 18                     
G11  21797423.687   114546229.858       -2754.632          42.000  
G18  20432440.843   107373202.041        3696.119          45.000  
G04  21645635.403   113748557.149        1257.495          39.000  
G28  17873280.592    93924733.450        -822.217          44.000  
G26  19271311.024   101271424.961        2954.768          43.000  
G31  18189595.750    95586937.444         999.995          45.000  
G29  17499758.978    91961872.879        -381.945          47.000  
G12  21692734.718   113996075.490       -3211.550          45.000  
E15  24948022.509   131102767.862       -2465.967          34.000  
G20  21515329.435   113063833.353        1006.456          41.000  
G25  18606584.277    97778263.048       -2438.830          45.000  
G05  22178316.736   116547837.834        2880.049          45.000  
E04  24191596.177   127127686.457       -2176.860          35.000  
E13  21713624.415   114105877.929        -164.991          42.000  
E18  25927257.078   136248662.412        4085.867          36.000  
E09  24191431.255   127126828.065        -159.161          38.000  
E21  21581434.435   113411217.350       -1376.159          43.000  
E26  21981780.507   115515041.891        2666.928          43.000  
> 2024 02 13 13 59 20.9900000  0 18                     
G11  21797947.822   114548984.324       -2754.832          42.000  
G18  20431737.504   107369505.785        3696.301          45.000  
G04  21645396.047   113747299.618        1257.033          39.000  
G28  17873436.893    93925555.925        -822.614          44.000  
G26  19270748.883   101268470.268        2954.950          42.000  
G31  18189405.142    95585937.564         999.680          45.000  
G29  17499831.928    91962254.851        -382.124          47.000  
G12  21693345.633   113999286.866       -3211.354          43.000  
E15  24948491.772   131105234.169       -2466.077          35.000  
G20  21515138.172   113062826.975        1006.135          41.000  
G25  18607048.157    97780701.743       -2438.673          45.000  
G05  22177768.860   116544958.007        2879.823          42.000  
E04  24192010.340   127129862.709       -2176.286          38.000  
E13  21713656.053   114106042.960        -165.003          42.000  
E18  25926479.523   136244576.228        4086.438          37.000  
E09  24191461.426   127126987.152        -159.301          37.000  
E21  21581696.058   113412593.698       -1376.014          43.000  
E26  21981272.985   115512375.001        2666.942          43.000  
> 2024 02 13 13 59 21.9900000  0 18                     
G11  21798472.149   114551739.205       -2755.300          42.000  
G18  20431034.365   107365809.846        3695.549          45.000  
G04  21645156.891   113746042.738        1256.552          39.000  
G28  17873593.335    93926379.149        -823.987          44.000  
G26  19270186.768   101265515.905        2953.976          42.000  
G31  18189214.908    95584938.407         998.715          45.000  
G29  17499904.329    91962637.411        -383.021          47.000  
G12  21693956.591   114002498.399       -3211.726          43.000  
E15  24948961.174   131107700.776       -2467.021          35.000  
G20  21514946.831   113061821.211        1005.609          41.000  
G25  18607512.376    97783140.847       -2439.498          45.000  
G05  22177220.949   116542078.507        2879.249          42.000  
E04  24192424.861   127132039.313       -2177.350          37.000  
E13  21713687.603   114106208.586        -166.183          43.000  
E18  25925701.836   136240489.907        4086.322          36.000  
E09  24191491.336   127127146.740        -159.925          38.000  
E21  21581958.169   113413970.358       -1376.954          43.000  
E26  21980765.620   115509708.540        2666.021          43.000  
> 2024 02 13 13 59 22.9900000  0 18                     
G11  21798996.371   114554494.604       -2756.227          42.000  
G18  20430331.077   107362114.260        3695.071          45.000  
G04  21644918.076   113744786.602        1255.368          40.000  
G28  17873750.107    93927203.125        -824.750          44.000  
G26  19269624.871   101262561.873        2953.716          42.000  
G31  18189024.666    95583940.015         997.740          45.000  
G29  17499977.210    91963020.603        -383.706          47.000  
G12  21694567.698   114005710.175       -3212.387          43.000  
E15  24949430.558   131110167.713       -2467.415          35.000  
G20  21514755.498   113060816.164        1004.275          41.000  
G25  18607976.988    97785580.342       -2439.931          45.000  
G05  22176672.759   116539199.383        2878.545          42.000  
E04  24192838.938   127134216.247       -2177.253          36.000  
E13  21713719.685   114106374.824        -166.994          43.000  
E18  25924924.350   136236403.387        4086.354          37.000  
E09  24191521.778   127127306.979        -161.069          38.000  
E21  21582220.166   113415347.331       -1377.511          43.000  
E26  21980258.342   115507042.515        2665.625          43.000  
> 2024 02 13 13 59 23.9900000  0 18                     
G11  21799520.645   114557250.272       -2755.998          42.000  
G18  20429627.877   107358418.794        3695.472          45.000  
G04  21644679.331   113743530.973        1255.342          39.000  
G28  17873906.906    93928027.687        -825.092          44.000  
G26  19269062.826   101259607.997        2953.756          43.000  
G31  18188834.764    95582942.191         997.540          45.000  
G29  17500050.073    91963404.244        -383.936          47.000  
G12  21695178.595   114008921.950       -3211.931          44.000  
E15  24949900.275   131112634.807       -2467.212          36.000  
G20  21514564.008   113059811.559        1004.370          40.000  
G25  18608441.766    97788020.081       -2439.944          45.000  
G05  22176124.788   116536320.439        2878.738          42.000  
E04  24193253.241   127136393.383       -2177.203          36.000  
E13  21713751.383   114106541.464        -167.013          43.000  
E18  25924146.315   136232316.531        4086.833          37.000  
E09  24191552.359   127127467.585        -161.177          37.000  
E21  21582482.173   113416724.435       -1377.263          44.000  
E26  21979750.872   115504376.720        2665.606          43.000  
> 2024 02 13 13 59 24.9900000  0 18                     
G11  21800045.277   114560006.501       -2756.491          42.000  
G18  20428924.721   107354723.761        3694.960          45.000  
G04  21644440.342   113742276.159        1254.477          39.000  
G28  17874063.600    93928853.075        -825.653          44.000  
G26  19268500.763   101256654.530        2953.391          43.000  
G31  18188644.932    95581945.196         996.641          45.000  
G29  17500123.181    91963788.578        -384.588          47.000  
G12  21695789.754   114012133.988       -3212.299          44.000  
E15  24950369.904   131115102.351       -2467.830          36.000  
G20  21514372.727   113058807.700        1003.407          40.000  
G25  18608906.247    97790460.305       -2440.667          45.000  
G05  22175576.388   116533441.941        2878.124          42.000  
E04  24193667.692   127138570.889       -2177.500          37.000  
E13  21713783.029   114106708.817        -167.762          43.000  
E18  25923368.821   136228229.580        4086.740          37.000  
E09  24191583.168   127127628.865        -161.715          38.000  
E21  21582744.319   113418101.925       -1377.708          44.000  
E26  21979243.428   115501711.444        2664.927          43.000  
> 2024 02 13 13 59 25.9900000  0 18                     
G11  21800569.578   114562763.155       -2757.358          42.000  
G18  20428221.826   107351028.991        3694.394          45.000  
G04  21644201.684   113741021.983        1253.916          39.000  
G28  17874220.539    93929679.166        -826.636          44.000  
G26  19267938.648   101253701.351        2952.821          43.000  
G31  18188455.108    95580948.899         995.485          45.000  
G29  17500196.446    91964173.478        -385.502          47.000  
G12  21696400.904   114015346.172       -3212.577          43.000  
E15  24950839.716   131117570.139       -2468.162          36.000  
G20  21514181.551   113057804.430        1002.737          40.000  
G25  18609370.850    97792900.866       -2440.929          45.000  
G05  22175028.443   116530563.715        2877.900          42.000  
E04  24194082.065   127140748.717       -2178.097          36.000  
E13  21713815.094   114106876.714        -168.393          43.000  
E18  25922590.977   136224142.431        4086.838          36.000  
E09  24191613.758   127127790.668        -162.274          38.000  
E21  21583006.613   113419479.683       -1378.118          43.000  
E26  21978736.639   115499046.534        2664.444          43.000  
> 2024 02 13 13 59 26.9900000  0 18                     
G11  21801094.253   114565520.081       -2757.519          42.000  
G18  20427518.695   107347334.375        3694.598          45.000  
G04  21643963.017   113739768.303        1253.491          40.000  
G28  17874378.158    93930505.833        -827.008          44.000  
G26  19267376.585   101250748.322        2953.135          43.000  
G31  18188265.764    95579953.158         995.451          45.000  
G29  17500269.850    91964558.795        -385.505          47.000  
G12  21697012.046   114018558.358       -3212.332          43.000  
E15  24951309.388   131120038.123       -2468.350          36.000  
G20  21513990.244   113056801.638        1002.534          40.000  
G25  18609834.965    97795341.655       -2440.770          45.000  
G05  22174480.428   116527685.669        2878.156          42.000  
E04  24194496.630   127142926.748       -2178.247          36.000  
E13  21713846.853   114107045.028        -168.473          43.000  
E18  25921813.090   136220054.868        4087.505          36.000  
E09  24191644.872   127127952.877        -162.596          38.000  
E21  21583268.907   113420857.572       -1378.119          44.000  
E26  21978229.658   115496381.859        2664.549          43.000  
> 2024 02 13 13 59 27.9900000  0 18                     
G11  21801618.981   114568277.256       -2757.405          42.000  
G18  20426815.661   107343639.874        3694.329          45.000  
G04  21643725.023   113738515.175        1252.714          39.000  
G28  17874535.821    93931333.047        -827.478          44.000  
G26  19266814.574   101247795.425        2952.845          43.000  
G31  18188076.133    95578957.963         994.847          45.000  
G29  17500343.499    91964944.538        -386.141          47.000  
G12  21697623.292   114021770.548       -3212.274          44.000  
E15  24951779.384   131122506.219       -2468.349          36.000  
G20  21513799.627   113055799.303        1002.030          40.000  
G25  18610299.385    97797782.656       -2440.996          45.000  
G05  22173932.499   116524807.790        2877.991          41.000  
E04  24194910.671   127145104.867       -2178.388          37.000  
E13  21713878.517   114107213.752        -168.950          43.000  
E18  25921035.255   136215966.963        4088.180          36.000  
E09  24191675.662   127128115.453        -162.801          38.000  
E21  21583530.878   113422235.559       -1378.086          44.000  
E26  21977722.398   115493717.414        2664.153          43.000  
> 2024 02 13 13 59 28.9900000  0 18                     
G11  21802143.840   114571034.884       -2758.155          42.000  
G18  20426112.566   107339945.661        3693.834          45.000  
G04  21643486.836   113737262.672        1252.194          39.000  
G28  17874693.614    93932160.971        -828.351          44.000  
G26  19266252.634   101244842.837        2952.195          43.000  
G31  18187887.060    95577963.473         994.054          45.000  
G29  17500416.659    91965330.847        -386.701          47.000  
G12  21698234.521   114024982.876       -3212.422          44.000  
E15  24952249.336   131124974.588       -2468.642          36.000  
G20  21513609.236   113054797.608        1001.156          40.000  
G25  18610763.753    97800224.039       -2441.870          45.000  
G05  22173384.563   116521930.235        2877.363          41.000  
E04  24195325.533   127147283.300       -2178.894          37.000  
E13  21713910.686   114107383.040        -169.575          43.000  
E18  25920257.054   136211878.858        4088.199          37.000  
E09  24191706.558   127128278.574        -163.731          37.000  
E21  21583793.330   113423613.832       -1378.646          44.000  
E26  21977215.268   115491053.344        2663.606          43.000  
> 2024 02 13 13 59 29.9900000  0 18                     
G11  21802668.874   114573793.466       -2759.208          42.000  
G18  20425409.531   107336252.255        3693.147          45.000  
G04  21643248.998   113736011.385        1251.006          39.000  
G28  17874851.469    93932990.138        -829.718          44.000  
G26  19265690.964   101241891.049        2951.264          43.000  
G31  18187698.030    95576970.227         992.657          45.000  
G29  17500490.421    91965718.271        -387.841          47.000  
G12  21698846.081   114028195.900       -3213.321          44.000  
E15  24952719.602   131127443.819       -2469.525          37.000  
G20  21513418.898   113053797.033        1000.220          40.000  
G25  18611228.862    97802666.286       -2442.648          45.000  
G05  22172837.079   116519053.517        2876.327          41.000  
E04  24195740.560   127149462.552       -2179.603          37.000  
E13  21713942.734   114107553.421        -170.921          43.000  
E18  25919479.403   136207791.081        4087.421          36.000  
E09  24191737.838   127128442.761        -164.667          37.000  
E21  21584055.903   113424992.887       -1379.281          44.000  
E26  21976708.348   115488390.185        2662.744          43.000  
> 2024 02 13 13 59 30.9900000  0 18                     
G11  21803193.986   114576552.323       -2758.540          42.000  
G18  20424706.654   107332559.007        3693.635          45.000  
G04  21643011.195   113734760.612        1250.948          39.000  
G28  17875009.489    93933819.882        -829.736          44.000  
G26  19265129.512   101238939.424        2952.010          43.000  
G31  18187509.184    95575977.534         992.953          45.000  
G29  17500564.061    91966106.127        -387.634          47.000  
G12  21699457.545   114031408.933       -3212.639          44.000  
E15  24953189.135   131129913.185       -2468.642          37.000  
G20  21513228.761   113052796.951        1000.458          40.000  
G25  18611693.989    97805108.761       -2442.275          46.000  
G05  22172289.718   116516176.980        2877.027          41.000  
E04  24196155.360   127151641.970       -2178.891          37.000  
E13  21713975.226   114107724.222        -170.526          43.000  
E18  25918701.716   136203702.924        4088.737          36.000  
E09  24191769.658   127128607.348        -164.111          37.000  
E21  21584318.319   113426372.089       -1378.764          44.000  
E26  21976201.079   115485727.268        2663.288          43.000  
> 2024 02 13 13 59 31.9900000  0 18                     
G11  21803718.941   114579311.523       -2759.311          42.000  
G18  20424003.750   107328865.945        3692.980          44.000  
G04  21642773.209   113733510.425        1249.827          39.000  
G28  17875167.580    93934650.238        -830.499          44.000  
G26  19264567.754   101235987.992        2951.422          42.000  
G31  18187320.434    95574985.452         991.822          45.000  
G29  17500637.823    91966494.454        -388.501          47.000  
G12  21700069.071   114034622.016       -3213.180          44.000  
E15  24953659.034   131132382.793       -2469.719          37.000  
G20  21513038.579   113051797.392         999.161          40.000  
G25  18612159.107    97807551.499       -2442.821          46.000  
G05  22171742.253   116513300.691        2876.154          41.000  
E04  24196570.283   127153821.612       -2179.713          37.000  
E13  21714007.552   114107895.501        -171.461          43.000  
E18  25917923.245   136199614.476        4088.417          36.000  
E09  24191800.955   127128772.398        -165.087          37.000  
E21  21584580.910   113427751.466       -1379.418          44.000  
E26  21975694.534   115483064.632        2662.819          43.000  
> 2024 02 13 13 59 32.9900000  0 18                     
G11  21804244.122   114582071.567       -2760.427          42.000  
G18  20423300.891   107325173.584        3692.280          44.000  
G04  21642535.406   113732261.301        1248.834          39.000  
G28  17875325.766    93935481.723        -831.891          44.000  
G26  19264005.979   101233037.276        2950.469          42.000  
G31  18187132.006    95573994.521         990.376          45.000  
G29  17500712.126    91966883.794        -389.685          47.000  
G12  21700680.849   114037835.674       -3213.941          44.000  
E15  24954129.082   131134853.083       -2470.555          37.000  
G20  21512848.817   113050798.875         997.843          40.000  
G25  18612624.417    97809995.028       -2443.750          46.000  
G05  22171195.215   116510425.105        2875.267          41.000  
E04  24196985.074   127156001.938       -2180.584          37.000  
E13  21714040.158   114108067.771        -172.727          43.000  
E18  25917145.296   136195526.223        4088.240          36.000  
E09  24191832.758   127128938.415        -166.511          37.000  
E21  21584843.205   113429131.532       -1380.335          44.000  
E26  21975188.006   115480402.828        2661.423          43.000  
> 2024 02 13 13 59 33.9900000  0 19                     
G11  21804769.479   114584832.073       -2760.702          42.000  
G18  20422598.249   107321481.561        3691.791          44.000  
G04  21642298.005   113731012.878        1248.009          39.000  
G28  17875484.380    93936313.966        -832.648          44.000  
G26  19263444.318   101230086.883        2950.071          42.000  
G31  18186943.666    95573004.305         989.711          45.000  
G29  17500786.281    91967273.735        -390.338          47.000  
G12  21701292.462   114041049.516       -3214.247          44.000  
E15  24954598.999   131137323.732       -2470.689          37.000  
G20  21512658.915   113049800.998         997.424          41.000  
G25  18613089.771    97812438.949       -2444.261          46.000  
G05  22170648.290   116507549.878        2874.867          41.000  
E04  24197400.442   127158182.635       -2180.928          37.000  
E13  21714073.253   114108240.619        -173.244          43.000  
E18  25916367.121   136191437.795        4088.552          36.000  
E09  24191864.334   127129104.983        -166.969          37.000  
E21  21585105.891   113430511.907       -1380.672          43.000  
E26  21974681.671   115477741.428        2660.946          43.000  
E31  23953452.052   125876249.8051       2645.041          37.000  
> 2024 02 13 13 59 34.9900000  0 19                     
G11  21805294.756   114587592.894       -2760.969          42.000  
G18  20421895.398   107317789.692        3691.802          44.000  
G04  21642060.429   113729765.015        1247.838          39.000  
G28  17875642.889    93937146.799        -833.051          44.000  
G26  19262882.665   101227136.677        2950.077          42.000  
G31  18186755.754    95572014.700         989.198          45.000  
G29  17500860.488    91967664.134        -390.693          47.000  
G12  21701904.511   114044263.387       -3213.853          44.000  
E15  24955069.361   131139794.554       -2470.831          37.000  
G20  21512469.231   113048803.605         997.279          41.000  
G25  18613554.872    97814883.126       -2444.315          46.000  
G05  22170101.330   116504674.867        2874.631          41.000  
E04  24197815.373   127160363.509       -2180.778          37.000  
E13  21714106.670   114108413.918        -173.313          43.000  
E18  25915588.981   136187349.055        4088.794          36.000  
E09  24191895.692   127129271.980        -166.854          37.000  
E21  21585368.849   113431892.431       -1380.603          43.000  
E26  21974175.414   115475080.287        2660.988          43.000  
E31  23952947.112   125873604.784        2645.136          37.000  
> 2024 02 13 13 59 35.9900000  0 19                     
G11  21805820.104   114590354.021       -2761.345          42.000  
G18  20421192.791   107314097.996        3691.558          44.000  
G04  21641823.176   113728517.689        1247.127          39.000  
G28  17875801.991    93937980.220        -833.783          45.000  
G26  19262320.873   101224186.626        2950.017          42.000  
G31  18186567.884    95571025.662         988.771          45.000  
G29  17500934.974    91968054.971        -391.034          47.000  
G12  21702515.897   114047477.291       -3213.907          44.000  
E15  24955539.548   131142265.565       -2471.231          37.000  
G20  21512279.512   113047806.725         996.451          40.000  
G25  18614020.068    97817327.529       -2444.606          46.000  
G05  22169554.624   116501800.012        2874.869          41.000  
E04  24198230.811   127162544.554       -2181.312          37.000  
E13  21714139.712   114108587.662        -173.913          43.000  
E18  25914810.920   136183259.968        4088.993          36.000  
E09  24191927.495   127129439.409        -167.625          37.000  
E21  21585631.379   113433273.093       -1380.559          43.000  
E26  21973669.000   115472419.403        2660.700          43.000  
E31  23952444.476   125870959.704        2644.989          37.000  
> 2024 02 13 13 59 36.9900000  0 19                     
G11  21806345.731   114593115.388       -2761.782          42.000  
G18  20420490.175   107310406.399        3691.374          44.000  
G04  21641586.018   113727270.876        1246.388          39.000  
G28  17875960.727    93938814.178        -834.442          45.000  
G26  19261759.246   101221236.699        2949.759          42.000  
G31  18186380.007    95570037.162         988.098          46.000  
G29  17501009.277    91968446.222        -391.555          47.000  
G12  21703127.588   114050691.193       -3214.083          44.000  
E15  24956009.858   131144736.682       -2471.403          36.000  
G20  21512089.759   113046810.282         995.784          40.000  
G25  18614485.160    97819772.140       -2445.138          45.000  
G05  22169008.004   116498925.349        2874.385          41.000  
E04  24198645.969   127164725.716       -2181.318          37.000  
E13  21714172.762   114108761.794        -174.397          43.000  
E18  25914032.657   136179170.429        4089.433          36.000  
E09  24191959.665   127129607.211        -167.932          39.000  
E21  21585893.830   113434653.877       -1381.146          43.000  
E26  21973162.612   115469758.758        2660.310          43.000  
E31  23951943.062   125868314.589        2644.904          38.000  
> 2024 02 13 13 59 37.9900000  0 19                     
G11  21806871.244   114595877.060       -2761.426          42.000  
G18  20419787.691   107306714.993        3691.430          44.000  
G04  21641348.879   113726024.584        1246.541          39.000  
G28  17876119.707    93939648.741        -834.552          45.000  
G26  19261198.108   101218286.943        2950.061          42.000  
G31  18186191.745    95569049.261         987.753          45.000  
G29  17501083.955    91968837.937        -391.810          47.000  
G12  21703739.253   114053905.108       -3213.745          44.000  
E15  24956480.010   131147207.961       -2471.167          35.000  
G20  21511899.996   113045814.309         996.244          39.000  
G25  18614950.104    97822217.003       -2444.948          45.000  
G05  22168461.115   116496050.833        2874.692          41.000  
E04  24199061.197   127166907.087       -2181.352          37.000  
E13  21714205.935   114108936.384        -174.571          43.000  
E18  25913254.596   136175080.659        4090.347          36.000  
E09  24191991.738   127129775.452        -168.293          37.000  
E21  21586156.796   113436034.816       -1380.923          43.000  
E26  21972656.399   115467098.368        2660.399          43.000  
E31  23951438.436   125865669.411        2645.420          37.000  
> 2024 02 13 13 59 38.9900000  0 19                     
G11  21807396.583   114598638.972       -2762.051          42.000  
G18  20419085.337   107303023.651        3691.122          43.000  
G04  21641111.678   113724778.780        1245.201          40.000  
G28  17876278.679    93940483.790        -835.376          45.000  
G26  19260636.674   101215337.289        2949.430          42.000  
G31  18186004.208    95568061.843         987.208          45.000  
G29  17501158.267    91969229.997        -392.294          47.000  
G12  21704350.866   114057118.969       -3214.010          44.000  
E15  24956950.154   131149679.336       -2471.211          35.000  
G20  21511710.312   113044818.777         995.415          39.000  
G25  18615414.890    97824661.992       -2445.114          45.000  
G05  22167913.911   116493176.453        2874.052          41.000  
E04  24199476.643   127169088.529       -2181.633          37.000  
E13  21714239.265   114109111.323        -174.980          43.000  
E18  25912476.220   136170990.438        4090.320          35.000  
E09  24192023.751   127129943.982        -168.703          37.000  
E21  21586419.125   113437415.791       -1380.949          43.000  
E26  21972150.159   115464438.132        2660.114          43.000  
E31  23950934.971   125863024.131        2645.249          36.000  
> 2024 02 13 13 59 39.9900000  0 19                     
G11  21807922.140   114601401.430       -2761.968          42.000  
G18  20418382.957   107299332.732        3691.041          43.000  
G04  21640874.599   113723533.764        1244.756          40.000  
G28  17876437.641    93941319.706        -835.913          45.000  
G26  19260075.318   101212388.063        2949.523          42.000  
G31  18185816.295    95567075.277         986.672          45.000  
G29  17501233.111    91969622.782        -392.699          47.000  
G12  21704962.775   114060333.100       -3213.724          45.000  
E15  24957420.263   131152151.159       -2471.411          35.000  
G20  21511520.681   113043824.024         994.609          39.000  
G25  18615879.668    97827107.504       -2445.348          45.000  
G05  22167366.960   116490302.503        2874.166          41.000  
E04  24199891.304   127171270.405       -2181.667          36.000  
E13  21714273.084   114109286.962        -175.375          43.000  
E18  25911697.853   136166900.138        4090.633          35.000  
E09  24192055.990   127130113.198        -168.914          37.000  
E21  21586681.681   113438797.190       -1381.222          43.000  
E26  21971643.893   115461778.441        2659.865          43.000  
E31  23950431.472   125860379.081        2645.528          36.000  
> 2024 02 13 13 59 40.9900000  0 19                     
G11  21808447.801   114604164.043       -2762.829          42.000  
G18  20417680.489   107295641.809        3690.844          44.000  
G04  21640637.233   113722289.082        1244.456          39.000  
G28  17876596.883    93942156.013        -836.639          45.000  
G26  19259514.189   101209438.822        2949.007          42.000  
G31  18185628.531    95566089.110         985.921          46.000  
G29  17501307.955    91970015.826        -393.373          47.000  
G12  21705574.484   114063547.089       -3214.015          45.000  
E15  24957890.503   131154622.988       -2471.550          35.000  
G20  21511331.503   113042829.575         993.903          39.000  
G25  18616344.847    97829553.060       -2445.604          45.000  
G05  22166820.070   116487428.586        2873.868          41.000  
E04  24200306.784   127173452.277       -2181.939          36.000  
E13  21714306.527   114109462.860        -175.952          43.000  
E18  25910919.460   136162809.302        4091.191          36.000  
E09  24192088.325   127130282.654        -169.662          37.000  
E21  21586944.333   113440178.530       -1381.343          43.000  
E26  21971137.828   115459118.814        2659.554          43.000  
E31  23949928.181   125857733.822        2645.331          36.000  
> 2024 02 13 13 59 41.9900000  0 19                     
G11  21808973.262   114606927.410       -2763.183          42.000  
G18  20416978.284   107291951.540        3690.288          43.000  
G04  21640400.573   113721045.447        1243.842          39.000  
G28  17876756.300    93942993.414        -837.396          45.000  
G26  19258953.138   101206490.245        2948.786          42.000  
G31  18185441.089    95565104.036         984.866          46.000  
G29  17501383.139    91970409.830        -394.111          47.000  
G12  21706186.271   114066761.614       -3214.127          45.000  
E15  24958360.795   131157095.485       -2472.273          35.000  
G20  21511142.160   113041836.066         993.873          39.000  
G25  18616810.201    97831999.368       -2445.986          45.000  
G05  22166273.529   116484555.357        2873.634          41.000  
E04  24200721.855   127175634.843       -2182.049          36.000  
E13  21714340.215   114109639.704        -176.716          43.000  
E18  25910141.494   136158718.658        4091.064          36.000  
E09  24192120.599   127130453.017        -170.238          37.000  
E21  21587207.587   113441560.555       -1381.833          43.000  
E26  21970631.920   115456459.946        2659.169          43.000  
E31  23949424.969   125855089.044        2645.338          36.000  
> 2024 02 13 13 59 42.9900000  0 19                     
G11  21809499.072   114609690.980       -2763.552          41.000  
G18  20416276.026   107288261.287        3690.408          43.000  
G04  21640164.131   113719802.253        1243.002          39.000  
G28  17876915.664    93943831.276        -838.232          45.000  
G26  19258392.087   101203541.719        2948.476          42.000  
G31  18185253.743    95564119.390         984.341          46.000  
G29  17501458.001    91970804.148        -394.481          47.000  
G12  21706798.110   114069976.032       -3214.335          45.000  
E15  24958831.078   131159568.016       -2472.511          35.000  
G20  21510953.165   113040842.970         993.080          39.000  
G25  18617275.790    97834445.786       -2446.535          45.000  
G05  22165726.927   116481682.201        2873.145          41.000  
E04  24201137.389   127177817.460       -2182.739          36.000  
E13  21714374.400   114109816.864        -177.451          43.000  
E18  25909363.206   136154627.531        4091.396          36.000  
E09  24192153.066   127130623.693        -170.712          37.000  
E21  21587470.064   113442942.593       -1382.299          43.000  
E26  21970126.239   115453801.217        2658.442          43.000  
E31  23948921.923   125852444.129        2644.943          36.000  
> 2024 02 13 13 59 43.9900000  0 19                     
G11  21810025.231   114612454.848       -2763.981          41.000  
G18  20415573.646   107284571.236        3689.927          43.000  
G04  21639927.454   113718559.609        1242.223          39.000  
G28  17877075.107    93944669.730        -838.770          45.000  
G26  19257831.133   101200593.367        2948.186          43.000  
G31  18185066.651    95563135.344         983.711          46.000  
G29  17501532.766    91971198.926        -395.009          47.000  
G12  21707409.549   114073190.483       -3214.641          44.000  
E15  24959301.990   131162040.739       -2472.649          35.000  
G20  21510764.231   113039850.391         992.290          39.000  
G25  18617741.781    97836892.441       -2446.678          45.000  
G05  22165180.125   116478809.244        2872.915          41.000  
E04  24201552.460   127180000.248       -2182.951          36.000  
E13  21714408.576   114109994.457        -177.783          43.000  
E18  25908584.726   136150536.097        4091.515          35.000  
E09  24192185.776   127130794.772        -171.538          37.000  
E21  21587733.772   113444324.754       -1382.071          43.000  
E26  21969620.244   115451142.741        2658.515          43.000  
E31  23948418.659   125849799.180        2644.867          36.000  
> 2024 02 13 13 59 44.9900000  0 19                     
G11  21810551.198   114615219.191       -2764.952          41.000  
G18  20414871.223   107280881.500        3689.347          43.000  
G04  21639691.056   113717317.656        1241.211          40.000  
G28  17877234.436    93945508.937        -839.886          45.000  
G26  19257270.283   101197645.342        2947.750          43.000  
G31  18184879.628    95562152.049         982.720          46.000  
G29  17501608.073    91971594.325        -396.037          47.000  
G12  21708021.301   114076405.123       -3215.018          45.000  
E15  24959772.561   131164513.799       -2473.439          36.000  
G20  21510575.603   113038858.437         991.510          39.000  
G25  18618207.841    97839339.501       -2447.321          45.000  
G05  22164633.575   116475936.656        2872.084          41.000  
E04  24201967.679   127182183.377       -2183.569          36.000  
E13  21714442.202   114110172.660        -178.589          42.000  
E18  25907806.053   136146444.482        4091.562          36.000  
E09  24192218.399   127130966.437        -172.116          37.000  
E21  21587996.930   113445707.249       -1382.707          43.000  
E26  21969114.554   115448484.692        2657.854          43.000  
E31  23947915.621   125847154.361        2644.823          36.000  
> 2024 02 13 13 59 45.9900000  0 19                     
G11  21811077.532   114617984.103       -2765.190          41.000  
G18  20414169.008   107277192.207        3688.959          43.000  
G04  21639454.972   113716076.508        1240.596          39.000  
G28  17877394.289    93946349.008        -840.607          45.000  
G26  19256709.616   101194697.793        2947.005          43.000  
G31  18184692.597    95561169.606         981.870          45.000  
G29  17501683.728    91971990.440        -396.681          47.000  
G12  21708632.966   114079620.047       -3215.093          44.000  
E15  24960243.054   131166987.313       -2474.105          35.000  
G20  21510386.783   113037867.247         990.842          39.000  
G25  18618673.832    97841787.070       -2447.891          45.000  
G05  22164087.183   116473064.521        2871.906          41.000  
E04  24202383.160   127184366.951       -2183.760          36.000  
E13  21714476.073   114110351.572        -179.324          42.000  
E18  25907027.590   136142352.783        4091.536          36.000  
E09  24192251.101   127131138.793        -173.147          37.000  
E21  21588260.367   113447090.180       -1383.442          43.000  
E26  21968609.074   115445827.195        2656.947          43.000  
E31  23947412.601   125844509.799        2644.551          37.000  
> 2024 02 13 13 59 46.9900000  0 19                     
G11  21811603.839   114620749.426       -2765.652          41.000  
G18  20413466.890   107273503.182        3688.472          43.000  
G04  21639219.080   113714835.996        1239.972          39.000  
G28  17877554.002    93947189.762        -841.376          45.000  
G26  19256149.001   101191750.483        2946.721          43.000  
G31  18184505.696    95560187.837         981.106          45.000  
G29  17501759.235    91972387.098        -397.146          47.000  
G12  21709244.893   114082835.101       -3215.434          44.000  
E15  24960713.983   131169461.093       -2474.231          36.000  
G20  21510198.426   113036876.657         990.286          39.000  
G25  18619139.945    97844234.973       -2448.346          45.000  
G05  22163540.895   116470192.692        2871.640          41.000  
E04  24202798.745   127186550.789       -2184.240          36.000  
E13  21714510.119   114110531.025        -179.920          43.000  
E18  25906248.770   136138260.870        4091.793          36.000  
E09  24192284.239   127131311.653        -173.239          37.000  
E21  21588523.752   113448473.323       -1383.586          43.000  
E26  21968103.279   115443170.034        2656.816          43.000  
E31  23946909.145   125841865.286        2644.257          37.000  
> 2024 02 13 13 59 47.9900000  0 19                     
G11  21812130.181   114623515.313       -2765.896          42.000  
G18  20412765.077   107269814.552        3688.555          43.000  
G04  21638983.144   113713596.285        1239.449          38.000  
G28  17877713.942    93948031.353        -841.779          45.000  
G26  19255588.596   101188803.587        2946.844          43.000  
G31  18184318.813    95559206.900         980.730          45.000  
G29  17501834.917    91972784.466        -397.504          47.000  
G12  21709856.654   114086050.436       -3215.433          44.000  
E15  24961185.226   131171935.294       -2474.593          36.000  
G20  21510010.461   113035886.852         989.768          39.000  
G25  18619606.075    97846683.377       -2448.646          45.000  
G05  22162994.520   116467321.321        2871.074          41.000  
E04  24203214.252   127188735.087       -2184.276          36.000  
E13  21714543.963   114110711.180        -180.363          42.000  
E18  25905470.219   136134168.863        4092.296          36.000  
E09  24192317.412   127131485.215        -173.762          37.000  
E21  21588786.893   113449856.889       -1383.671          43.000  
E26  21967597.685   115440513.398        2656.458          42.000  
E31  23946405.881   125839221.015        2644.507          37.000  
> 2024 02 13 13 59 48.9900000  0 19                     
G11  21812656.515   114626281.404       -2766.088          42.000  
G18  20412063.238   107266126.019        3688.586          43.000  
G04  21638747.296   113712357.050        1238.819          38.000  
G28  17877874.178    93948873.464        -842.151          45.000  
G26  19255027.816   101185856.807        2946.698          43.000  
G31  18184132.235    95558226.483         980.309          45.000  
G29  17501910.764    91973182.211        -397.939          47.000  
G12  21710468.458   114089265.722       -3215.303          44.000  
E15  24961656.434   131174409.577       -2474.289          36.000  
G20  21509822.295   113034897.459         988.781          39.000  
G25  18620072.074    97849131.928       -2448.600          45.000  
G05  22162447.935   116464450.080        2870.923          41.000  
E04  24203629.856   127190919.457       -2184.412          36.000  
E13  21714578.201   114110891.691        -180.618          42.000  
E18  25904691.442   136130076.452        4092.507          36.000  
E09  24192350.576   127131659.079        -173.825          38.000  
E21  21589050.470   113451240.510       -1383.601          43.000  
E26  21967092.231   115437856.941        2656.544          42.000  
E31  23945902.329   125836576.644        2644.574          37.000  
> 2024 02 13 13 59 49.9900000  0 19                     
G11  21813183.197   114629047.933       -2766.520          42.000  
G18  20411361.303   107262437.761        3688.253          43.000  
G04  21638511.770   113711118.472        1237.961          38.000  
G28  17878034.842    93949716.280        -842.944          45.000  
G26  19254467.272   101182910.309        2946.448          43.000  
G31  18183945.553    95557246.759         979.508          45.000  
G29  17501986.786    91973580.524        -398.596          47.000  
G12  21711080.586   114092481.151       -3215.314          45.000  
E15  24962127.642   131176884.166       -2474.607          36.000  
G20  21509634.583   113033908.623         988.555          40.000  
G25  18620538.021    97851580.847       -2448.818          45.000  
G05  22161901.412   116461579.133        2870.764          41.000  
E04  24204045.720   127193104.147       -2184.858          37.000  
E13  21714612.325   114111072.771        -181.349          42.000  
E18  25903912.630   136125983.815        4092.811          36.000  
E09  24192383.496   127131833.510        -174.629          38.000  
E21  21589313.235   113452624.408       -1384.048          43.000  
E26  21966586.445   115435200.876        2655.872          43.000  
E31  23945399.204   125833932.355        2644.559          37.000  
> 2024 02 13 13 59 50.9900000  0 19                     
G11  21813709.705   114631814.862       -2767.153          41.000  
G18  20410659.421   107258749.781        3687.870          43.000  
G04  21638275.930   113709880.508        1237.907          38.000  
G28  17878195.323    93950559.785        -843.695          45.000  
G26  19253906.631   101179964.087        2946.004          43.000  
G31  18183759.167    95556267.737         978.681          45.000  
G29  17502062.659    91973979.378        -398.927          47.000  
G12  21711692.521   114095696.701       -3215.437          45.000  
E15  24962598.763   131179359.047       -2475.138          36.000  
G20  21509447.054   113032920.387         988.207          40.000  
G25  18621003.733    97854030.113       -2449.269          45.000  
G05  22161354.679   116458708.469        2870.456          41.000  
E04  24204462.030   127195289.075       -2184.950          37.000  
E13  21714646.981   114111254.382        -181.799          42.000  
E18  25903133.949   136121890.963        4093.086          36.000  
E09  24192417.009   127132008.423        -174.968          38.000  
E21  21589576.506   113454008.547       -1383.937          43.000  
E26  21966080.912   115432545.152        2655.612          43.000  
E31  23944895.809   125831288.173        2644.300          37.000  
> 2024 02 13 13 59 51.9900000  0 19                     
G11  21814236.571   114634582.001       -2767.360          42.000  
G18  20409957.974   107255061.877        3687.864          43.000  
G04  21638040.213   113708643.036        1237.761          38.000  
G28  17878355.813    93951403.793        -844.128          45.000  
G26  19253346.182   101177017.943        2946.123          43.000  
G31  18183572.973    95555289.206         978.229          45.000  
G29  17502138.760    91974378.613        -399.318          47.000  
G12  21712304.457   114098912.201       -3215.327          45.000  
E15  24963069.945   131181833.966       -2474.504          36.000  
G20  21509259.159   113031932.575         988.077          40.000  
G25  18621469.470    97856479.536       -2449.513          45.000  
G05  22160808.304   116455837.922        2870.545          41.000  
E04  24204877.773   127197474.125       -2185.125          37.000  
E13  21714681.244   114111436.340        -182.053          42.000  
E18  25902354.867   136117797.682        4093.622          36.000  
E09  24192450.234   127132183.707        -175.518          38.000  
E21  21589839.891   113455392.755       -1384.107          43.000  
E26  21965575.894   115429889.608        2655.611          43.000  
E31  23944392.483   125828643.853        2644.447          37.000  
> 2024 02 13 13 59 52.9900000  0 19                     
G11  21814763.419   114637349.787       -2768.528          42.000  
G18  20409256.196   107251374.480        3686.874          44.000  
G04  21637804.914   113707406.454        1235.753          39.000  
G28  17878516.495    93952248.726        -845.612          45.000  
G26  19252785.873   101174072.319        2945.152          43.000  
G31  18183386.849    95554311.588         976.866          45.000  
G29  17502215.026    91974778.620        -400.452          47.000  
G12  21712916.139   114102128.065       -3216.184          44.000  
E15  24963541.040   131184309.455       -2475.807          36.000  
G20  21509071.508   113030945.616         985.947          40.000  
G25  18621935.199    97858929.523       -2450.307          45.000  
G05  22160261.824   116452967.907        2869.580          41.000  
E04  24205293.777   127199659.682       -2185.958          37.000  
E13  21714715.953   114111619.087        -183.199          42.000  
E18  25901575.994   136113704.382        4093.170          36.000  
E09  24192483.939   127132359.727        -176.563          38.000  
E21  21590103.529   113456777.456       -1385.153          43.000  
E26  21965070.806   115427234.674        2654.315          43.000  
E31  23943889.280   125825999.845        2643.678          37.000  
> 2024 02 13 13 59 53.9900000  0 19                     
G11  21815290.285   114640118.053       -2768.159          42.000  
G18  20408554.462   107247687.447        3686.937          43.000  
G04  21637569.676   113706170.617        1235.374          39.000  
G28  17878677.543    93953094.439        -845.959          44.000  
G26  19252225.538   101171127.050        2944.823          43.000  
G31  18183200.725    95553334.754         976.390          45.000  
G29  17502291.353    91975179.284        -401.101          47.000  
G12  21713528.057   114105344.144       -3215.712          44.000  
E15  24964012.222   131186785.273       -2475.852          37.000  
G20  21508884.101   113029959.338         985.802          41.000  
G25  18622401.251    97861379.961       -2450.864          45.000  
G05  22159715.851   116450098.312        2869.403          40.000  
E04  24205709.756   127201845.603       -2186.168          37.000  
E13  21714750.871   114111802.477        -183.703          43.000  
E18  25900796.964   136109610.947        4093.839          36.000  
E09  24192517.278   127132536.376        -176.678          37.000  
E21  21590367.027   113458162.479       -1385.073          43.000  
E26  21964565.849   115424580.174        2654.188          43.000  
E31  23943385.964   125823356.012        2643.831          37.000  
> 2024 02 13 13 59 54.9900000  0 19                     
G11  21815817.142   114642887.014       -2769.775          42.000  
G18  20407853.007   107244000.959        3685.813          43.000  
G04  21637334.299   113704935.668        1234.336          37.000  
G28  17878838.626    93953941.123        -847.491          44.000  
G26  19251665.107   101168182.316        2944.121          43.000  
G31  18183015.064    95552358.879         974.969          45.000  
G29  17502367.750    91975580.765        -402.205          47.000  
G12  21714140.202   114108560.667       -3217.063          44.000  
E15  24964483.875   131189261.675       -2477.195          37.000  
G20  21508696.599   113028973.930         984.597          41.000  
G25  18622867.721    97863831.005       -2451.650          45.000  
G05  22159169.772   116447229.257        2868.563          39.000  
E04  24206125.708   127204032.081       -2187.136          37.000  
E13  21714786.015   114111986.684        -185.033          42.000  
E18  25900018.021   136105517.613        4092.722          36.000  
E09  24192551.131   127132713.797        -177.973          37.000  
E21  21590630.508   113459548.043       -1386.246          43.000  
E26  21964061.163   115421926.336        2653.064          43.000  
E31  23942883.005   125820712.530        2642.940          38.000  
> 2024 02 13 13 59 55.9900000  0 19                     
G11  21816344.147   114645656.521       -2769.453          42.000  
G18  20407151.525   107240314.889        3686.029          43.000  
G04  21637099.175   113703701.555        1233.450          38.000  
G28  17878999.682    93954788.666        -847.601          44.000  
G26  19251104.929   101165238.050        2944.173          43.000  
G31  18182829.577    95551383.838         974.771          45.000  
G29  17502444.444    91975982.965        -402.412          47.000  
G12  21714752.469   114111777.434       -3216.865          44.000  
E15  24964955.651   131191738.484       -2476.923          37.000  
G20  21508509.210   113027989.258         984.729          41.000  
G25  18623334.523    97866282.562       -2451.852          45.000  
G05  22158623.589   116444360.642        2868.691          39.000  
E04  24206541.808   127206218.997       -2186.867          37.000  
E13  21714821.527   114112171.565        -185.005          43.000  
E18  25899239.253   136101424.130        4093.655          36.000  
E09  24192584.705   127132891.919        -178.024          37.000  
E21  21590894.076   113460934.000       -1385.859          43.000  
E26  21963556.223   115419272.994        2653.367          43.000  
E31  23942379.836   125818069.281        2643.226          38.000  
> 2024 02 13 13 59 56.9900000  0 19                     
G11  21816871.117   114648426.188       -2770.266          42.000  
G18  20406450.306   107236628.808        3685.689          43.000  
G04  21636864.112   113702467.756        1233.430          37.000  
G28  17879161.158    93955636.605        -848.444          44.000  
G26  19250544.349   101162293.749        2943.862          43.000  
G31  18182644.046    95550409.204         974.108          45.000  
G29  17502520.719    91976385.444        -403.136          47.000  
G12  21715364.605   114114994.065       -3216.919          44.000  
E15  24965426.946   131194215.319       -2477.496          37.000  
G20  21508321.943   113027004.944         983.842          41.000  
G25  18623801.474    97868734.173       -2452.123          45.000  
G05  22158077.424   116441492.088        2868.442          39.000  
E04  24206958.057   127208405.928       -2187.177          38.000  
E13  21714856.636   114112356.745        -185.656          43.000  
E18  25898460.423   136097330.172        4093.872          37.000  
E09  24192618.480   127133070.253        -178.355          37.000  
E21  21591158.107   113462319.957       -1386.370          43.000  
E26  21963051.511   115416619.773        2652.809          43.000  
E31  23941876.869   125815425.809        2643.374          37.000  
> 2024 02 13 13 59 57.9900000  0 19                     
G11  21817398.140   114651196.151       -2770.166          42.000  
G18  20405749.025   107232942.914        3685.821          44.000  
G04  21636629.336   113701234.551        1232.673          37.000  
G28  17879322.677    93956485.163        -849.042          44.000  
G26  19249983.918   101159349.665        2943.587          43.000  
G31  18182458.585    95549435.190         973.617          45.000  
G29  17502597.186    91976788.396        -403.272          47.000  
G12  21715976.724   114118210.751       -3216.889          44.000  
E15  24965898.931   131196692.333       -2477.478          37.000  
G20  21508134.667   113026021.119         983.812          41.000  
G25  18624268.476    97871186.045       -2452.047          46.000  
G05  22157531.223   116438623.729        2868.444          39.000  
E04  24207374.166   127210593.037       -2187.342          38.000  
E13  21714891.694   114112542.371        -185.914          42.000  
E18  25897681.245   136093235.889        4094.333          37.000  
E09  24192652.351   127133249.066        -179.293          37.000  
E21  21591421.867   113463706.058       -1386.157          43.000  
E26  21962546.763   115413966.824        2652.615          43.000  
E31  23941373.735   125812782.407        2642.842          37.000  
> 2024 02 13 13 59 58.9900000  0 19                     
G11  21817925.381   114653966.272       -2770.173          42.000  
G18  20405047.465   107229257.044        3685.751          44.000  
G04  21636394.526   113700001.747        1232.345          37.000  
G28  17879484.458    93957334.168        -849.567          44.000  
G26  19249423.740   101156405.576        2944.098          43.000  
G31  18182273.168    95548461.594         973.352          46.000  
G29  17502674.063    91977191.645        -403.592          47.000  
G12  21716588.773   114121427.297       -3216.477          44.000  
E15  24966370.034   131199169.342       -2476.920          37.000  
G20  21507947.208   113025037.683         983.153          40.000  
G25  18624735.226    97873638.006       -2452.009          46.000  
G05  22156984.918   116435755.448        2868.270          39.000  
E04  24207790.153   127212780.178       -2187.207          38.000  
E13  21714927.048   114112728.301        -186.178          42.000  
E18  25896901.726   136089141.130        4094.840          37.000  
E09  24192686.318   127133428.126        -179.387          37.000  
E21  21591685.915   113465092.171       -1386.154          43.000  
E26  21962042.016   115411313.990        2652.727          43.000  
E31  23940870.619   125810138.736        2643.506          37.000  
> 2024 02 13 13 59 59.9900000  0 19                     
G11  21818452.465   114656736.859       -2770.919          41.000  
G18  20404346.036   107225571.500        3685.332          44.000  
G04  21636159.873   113698769.597        1231.799          37.000  
G28  17879646.309    93958183.890        -850.018          44.000  
G26  19248863.466   101153461.847        2943.457          43.000  
G31  18182088.108    95547488.774         972.192          45.000  
G29  17502750.913    91977595.501        -404.083          47.000  
G12  21717200.744   114124644.043       -3216.607          45.000  
E15  24966841.225   131201646.703       -2477.484          37.000  
G20  21507760.342   113024054.831         982.656          40.000  
G25  18625202.351    97876090.369       -2452.549          46.000  
G05  22156438.726   116432887.537        2867.637          41.000  
E04  24208206.411   127214967.654       -2187.309          38.000  
E13  21714962.271   114112914.825        -186.871          42.000  
E18  25896122.400   136085046.168        4095.496          37.000  
E09  24192720.424   127133607.745        -179.898          37.000  
E21  21591949.867   113466478.581       -1386.404          43.000  
E26  21961537.495   115408661.586        2652.073          43.000  
E31  23940367.268   125807495.227        2643.665          37.000  
> 2024 02 13 14 00 00.9900000  0 19                     
G11  21818979.636   114659507.997       -2771.532          41.000  
G18  20403644.808   107221886.382        3684.734          44.000  
G04  21635925.683   113697538.301        1230.676          38.000  
G28  17879808.186    93959034.494        -851.123          44.000  
G26  19248303.584   101150518.542        2942.852          43.000  
G31  18181903.197    95546516.757         971.528          46.000  
G29  17502827.886    91978000.077        -405.215          47.000  
G12  21717812.923   114127861.068       -3217.133          45.000  
E15  24967312.817   131204124.481       -2477.672          36.000  
G20  21507573.232   113023072.803         981.262          40.000  
G25  18625669.328    97878543.226       -2453.290          45.000  
G05  22155893.215   116430020.060        2867.064          41.000  
E04  24208623.026   127217155.590       -2188.494          37.000  
E13  21714997.652   114113102.035        -187.685          42.000  
E18  25895343.247   136080951.213        4094.442          37.000  
E09  24192754.854   127133788.052        -180.677          37.000  
E21  21592214.046   113467865.420       -1387.294          43.000  
E26  21961032.695   115406009.678        2651.536          43.000  
E31  23939863.820   125804851.989        2642.777          37.000  
> 2024 02 13 14 00 01.9900000  0 19                     
G11  21819507.313   114662279.922       -2772.254          40.000  
G18  20402943.720   107218201.855        3684.072          43.000  
G04  21635691.675   113696307.991        1229.229          38.000  
G28  17879970.264    93959886.117        -852.002          44.000  
G26  19247743.249   101147575.854        2942.265          43.000  
G31  18181718.678    95545545.806         970.239          46.000  
G29  17502904.851    91978405.538        -405.953          47.000  
G12  21718425.400   114131078.542       -3217.725          46.000  
E15  24967783.729   131206602.923       -2479.000          36.000  
G20  21507386.253   113022091.671         980.574          41.000  
G25  18626135.894    97880996.779       -2453.967          45.000  
G05  22155347.808   116427153.204        2866.521          43.000  
E04  24209039.877   127219344.094       -2188.860          37.000  
E13  21715033.320   114113290.151        -188.449          43.000  
E18  25894563.912   136076856.291        4094.932          37.000  
E09  24192788.995   127133969.263        -182.129          37.000  
E21  21592478.303   113469252.841       -1387.865          43.000  
E26  21960528.209   115403358.495        2651.036          43.000  
E31  23939360.626   125802209.135        2642.573          37.000  
> 2024 02 13 14 00 02.9900000  0 19                     
G11  21820034.685   114665052.074       -2772.214          41.000  
G18  20402242.439   107214517.479        3684.516          42.000  
G04  21635458.104   113695078.206        1229.209          38.000  
G28  17880132.376    93960738.316        -852.698          44.000  
G26  19247183.036   101144633.311        2942.603          43.000  
G31  18181533.881    95544575.400         969.894          45.000  
G29  17502982.042    91978811.432        -406.180          47.000  
G12  21719037.414   114134296.066       -3217.425          45.000  
E15  24968254.928   131209081.478       -2478.519          36.000  
G20  21507199.754   113021111.038         980.405          42.000  
G25  18626602.286    97883450.529       -2453.751          45.000  
G05  22154802.192   116424286.555        2866.565          42.000  
E04  24209456.265   127221532.772       -2188.460          37.000  
E13  21715069.215   114113478.683        -188.665          43.000  
E18  25893785.030   136072761.042        4095.087          37.000  
E09  24192823.800   127134150.812        -181.811          37.000  
E21  21592742.377   113470640.390       -1387.720          43.000  
E26  21960023.392   115400707.543        2650.719          43.000  
E31  23938857.658   125799566.228        2642.917          37.000  
> 2024 02 13 14 00 03.9900000  0 19                     
G11  21820562.126   114667824.508       -2772.829          42.000  
G18  20401541.359   107210833.238        3684.075          42.000  
G04  21635224.070   113693848.907        1228.361          38.000  
G28  17880294.820    93961591.050        -853.204          44.000  
G26  19246623.041   101141690.917        2942.036          43.000  
G31  18181349.632    95543605.537         969.314          45.000  
G29  17503059.651    91979217.751        -406.826          47.000  
G12  21719649.533   114137513.560       -3217.779          45.000  
E15  24968726.678   131211560.206       -2478.940          38.000  
G20  21507013.185   113020130.850         979.839          42.000  
G25  18627068.861    97885904.506       -2454.362          45.000  
G05  22154256.925   116421420.072        2865.933          42.000  
E04  24209872.523   127223721.611       -2189.185          37.000  
E13  21715105.450   114113667.611        -189.433          43.000  
E18  25893005.738   136068665.404        4095.708          37.000  
E09  24192858.238   127134332.765        -182.314          38.000  
E21  21593006.251   113472028.052       -1387.991          43.000  
E26  21959519.081   115398056.825        2650.324          43.000  
E31  23938355.109   125796923.301        2642.529          38.000  
> 2024 02 13 14 00 04.9900000  0 19                     
G11  21821089.716   114670597.529       -2773.410          42.000  
G18  20400840.349   107207149.449        3683.926          42.000  
G04  21634990.342   113692620.438        1228.384          38.000  
G28  17880457.369    93962444.662        -853.790          44.000  
G26  19246063.587   101138748.957        2941.798          44.000  
G31  18181165.245    95542636.546         968.806          45.000  
G29  17503136.973    91979624.791        -407.399          47.000  
G12  21720262.018   114140731.366       -3217.927          45.000  
E15  24969198.523   131214039.380       -2479.314          38.000  
G20  21506826.843   113019151.437         979.132          41.000  
G25  18627535.942    97888358.997       -2454.813          45.000  
G05  22153711.501   116418554.054        2865.729          42.000  
E04  24210289.373   127225910.907       -2189.427          37.000  
E13  21715141.747   114113857.251        -189.857          43.000  
E18  25892226.132   136064569.728        4095.558          37.000  
E09  24192893.312   127134515.422        -183.134          38.000  
E21  21593270.299   113473416.134       -1388.222          43.000  
E26  21959015.162   115395406.651        2650.011          43.000  
E31  23937852.308   125794280.603        2642.554          38.000  
> 2024 02 13 14 00 05.9900000  0 19                     
G11  21821617.507   114673371.055       -2773.744          42.000  
G18  20400139.522   107203466.053        3683.283          42.000  
G04  21634756.719   113691392.752        1227.124          38.000  
G28  17880620.459    93963299.059        -854.620          44.000  
G26  19245503.993   101135807.389        2941.317          44.000  
G31  18180981.058    95541668.355         967.693          46.000  
G29  17503214.426    91980032.482        -407.904          47.000  
G12  21720874.695   114143949.400       -3218.183          45.000  
E15  24969670.691   131216518.921       -2479.601          39.000  
G20  21506640.640   113018172.745         978.190          42.000  
G25  18628003.085    97890813.915       -2454.944          45.000  
G05  22153166.400   116415688.421        2865.531          42.000  
E04  24210706.120   127228100.581       -2189.842          37.000  
E13  21715177.930   114114047.559        -190.587          43.000  
E18  25891446.771   136060473.880        4096.269          37.000  
E09  24192928.291   127134698.697        -183.261          37.000  
E21  21593534.556   113474804.581       -1388.623          43.000  
E26  21958510.947   115392756.929        2649.694          43.000  
E31  23937349.314   125791638.084        2642.596          38.000  
> 2024 02 13 14 00 06.9900000  0 19                     
G11  21822145.315   114676144.947       -2773.841          42.000  
G18  20399438.468   107199782.873        3683.196          42.000  
G04  21634523.174   113690165.633        1226.985          38.000  
G28  17880783.112    93964154.140        -855.383          44.000  
G26  19244944.182   101132866.067        2941.272          44.000  
G31  18180796.949    95540700.810         967.489          46.000  
G29  17503291.800    91980440.716        -408.395          46.000  
G12  21721486.927   114147167.536       -3217.977          45.000  
E15  24970142.745   131218998.715       -2479.589          39.000  
G20  21506454.534   113017194.609         977.982          42.000  
G25  18628469.939    97893269.180       -2455.214          45.000  
G05  22152621.473   116412823.118        2865.313          42.000  
E04  24211122.805   127230290.503       -2189.753          37.000  
E13  21715214.567   114114238.372        -190.884          43.000  
E18  25890667.208   136056377.835        4096.156          38.000  
E09  24192963.358   127134882.456        -183.531          37.000  
E21  21593798.534   113476193.242       -1388.594          43.000  
E26  21958006.443   115390107.561        2649.352          43.000  
E31  23936845.988   125788995.635        2642.538          38.000  
> 2024 02 13 14 00 07.9900000  0 19                     
G11  21822673.149   114678918.963       -2774.421          41.000  
G18  20398737.406   107196099.643        3683.208          42.000  
G04  21634289.585   113688938.857        1226.670          38.000  
G28  17880945.966    93965009.586        -855.945          44.000  
G26  19244384.588   101129924.700        2941.313          43.000  
G31  18180613.059    95539733.644         966.749          46.000  
G29  17503369.192    91980849.188        -408.928          46.000  
G12  21722099.386   114150385.471       -3218.097          45.000  
E15  24970614.591   131221478.487       -2479.774          36.000  
G20  21506268.671   113016216.764         977.675          41.000  
G25  18628937.134    97895724.440       -2455.395          45.000  
G05  22152076.686   116409957.781        2864.974          43.000  
E04  24211539.437   127232480.355       -2190.129          37.000  
E13  21715251.107   114114429.403        -191.321          43.000  
E18  25889887.690   136052281.215        4096.653          37.000  
E09  24192998.450   127135066.444        -184.374          38.000  
E21  21594062.757   113477581.840       -1388.795          43.000  
E26  21957502.359   115387458.218        2649.268          43.000  
E31  23936343.448   125786352.900        2642.966          38.000  
> 2024 02 13 14 00 08.9900000  0 19                     
G11  21823201.210   114681693.186       -2774.748          42.000  
G18  20398036.500   107192416.548        3682.392          42.000  
G04  21634055.979   113687712.603        1225.484          38.000  
G28  17881108.960    93965865.574        -856.659          45.000  
G26  19243825.012   101126983.464        2940.677          44.000  
G31  18180428.915    95538767.006         965.938          46.000  
G29  17503446.872    91981258.055        -409.545          46.000  
G12  21722711.845   114153603.399       -3218.394          45.000  
E15  24971086.497   131223958.348       -2480.255          37.000  
G20  21506082.888   113015239.343         976.652          41.000  
G25  18629404.128    97898179.916       -2456.098          45.000  
G05  22151531.498   116407092.560        2864.635          41.000  
E04  24211956.262   127234670.357       -2190.459          37.000  
E13  21715287.849   114114620.842        -192.072          43.000  
E18  25889108.206   136048184.210        4096.417          37.000  
E09  24193033.848   127135250.779        -185.059          38.000  
E21  21594327.276   113478970.531       -1389.117          43.000  
E26  21956998.083   115384809.119        2648.780          43.000  
E31  23935840.786   125783710.130        2642.484          38.000  
> 2024 02 13 14 00 09.9900000  0 19                     
G11  21823729.271   114684468.135       -2775.566          42.000  
G18  20397335.411   107188733.994        3682.084          42.000  
G04  21633822.774   113686487.232        1224.733          38.000  
G28  17881272.233    93966722.522        -857.690          45.000  
G26  19243265.052   101124042.779        2940.283          44.000  
G31  18180245.365    95537801.355         964.957          46.000  
G29  17503524.578    91981667.752        -410.250          46.000  
G12  21723324.191   114156821.724       -3218.490          45.000  
E15  24971558.237   131226438.786       -2480.573          37.000  
G20  21505896.799   113014262.843         975.771          41.000  
G25  18629871.750    97900635.996       -2456.514          45.000  
G05  22150986.309   116404227.938        2864.228          42.000  
E04  24212373.095   127236860.917       -2190.816          37.000  
E13  21715324.913   114114813.086        -192.791          43.000  
E18  25888328.181   136044087.241        4097.114          37.000  
E09  24193068.993   127135435.923        -185.869          38.000  
E21  21594591.594   113480359.762       -1389.623          43.000  
E26  21956494.208   115382160.649        2647.927          43.000  
E31  23935338.237   125781067.694        2642.126          39.000  
> 2024 02 13 14 00 10.9900000  0 19                     
G11  21824257.489   114687243.841       -2775.737          42.000  
G18  20396634.942   107185052.086        3681.793          42.000  
G04  21633589.779   113685262.915        1223.717          38.000  
G28  17881435.358    93967580.540        -858.337          45.000  
G26  19242705.833   101121102.728        2940.230          44.000  
G31  18180061.763    95536836.730         964.475          46.000  
G29  17503602.702    91982078.378        -410.840          46.000  
G12  21723936.737   114160040.568       -3218.892          45.000  
E15  24972030.344   131228919.907       -2481.555          37.000  
G20  21505710.989   113013287.295         975.221          41.000  
G25  18630339.364    97903092.783       -2456.835          45.000  
G05  22150441.182   116401363.992        2863.636          42.000  
E04  24212790.313   127239052.152       -2191.360          37.000  
E13  21715362.047   114115006.273        -193.503          43.000  
E18  25887548.697   136039990.423        4097.382          37.000  
E09  24193104.521   127135621.950        -186.322          38.000  
E21  21594856.078   113481749.614       -1389.985          43.000  
E26  21955990.333   115379512.918        2647.598          43.000  
E31  23934835.453   125778425.725        2642.039          39.000  
> 2024 02 13 14 00 11.9900000  0 19                     
G11  21824785.864   114690019.707       -2776.382          41.000  
G18  20395933.967   107181370.179        3681.736          42.000  
G04  21633356.880   113684038.958        1223.702          39.000  
G28  17881598.831    93968438.998        -858.917          45.000  
G26  19242146.292   101118162.716        2939.839          44.000  
G31  18179878.535    95535872.554         963.924          46.000  
G29  17503680.888    91982489.304        -411.337          46.000  
G12  21724548.987   114163259.273       -3218.667          45.000  
E15  24972502.399   131231400.977       -2481.120          37.000  
G20  21505525.153   113012312.067         974.749          41.000  
G25  18630807.099    97905549.660       -2457.091          45.000  
G05  22149896.247   116398500.096        2863.556          42.000  
E04  24213207.530   127241243.378       -2191.396          37.000  
E13  21715398.710   114115199.717        -193.716          43.000  
E18  25886768.891   136035893.154        4097.443          37.000  
E09  24193139.823   127135808.244        -186.605          38.000  
E21  21595120.414   113483139.463       -1390.108          43.000  
E26  21955486.388   115376865.296        2647.428          43.000  
E31  23934333.035   125775783.575        2642.083          39.000  
> 2024 02 13 14 00 12.9900000  0 19                     
G11  21825314.204   114692796.102       -2777.105          41.000  
G18  20395233.210   107177688.702        3681.390          42.000  
G04  21633124.286   113682815.825        1222.407          39.000  
G28  17881762.445    93969298.287        -859.851          45.000  
G26  19241586.699   101115223.116        2939.383          44.000  
G31  18179695.343    95534909.217         962.931          46.000  
G29  17503759.196    91982900.906        -411.917          46.000  
G12  21725161.620   114166478.262       -3219.340          45.000  
E15  24972974.689   131233882.491       -2481.965          37.000  
G20  21505339.186   113011337.577         974.127          41.000  
G25  18631275.175    97908007.020       -2457.539          46.000  
G05  22149351.224   116395636.635        2863.238          42.000  
E04  24213624.433   127243435.032       -2191.713          36.000  
E13  21715435.259   114115393.865        -194.378          43.000  
E18  25885989.154   136031795.756        4097.438          37.000  
E09  24193175.709   127135995.206        -187.439          38.000  
E21  21595384.968   113484529.700       -1390.469          43.000  
E26  21954982.600   115374218.184        2646.792          43.000  
E31  23933830.294   125773141.638        2642.164          39.000  
> 2024 02 13 14 00 13.9900000  0 19                     
G11  21825842.519   114695572.841       -2777.020          41.000  
G18  20394532.715   107174007.431        3681.308          42.000  
G04  21632891.927   113681593.278        1222.226          39.000  
G28  17881925.796    93970158.209        -860.229          44.000  
G26  19241027.297   101112283.744        2939.056          43.000  
G31  18179512.308    95533946.505         962.263          46.000  
G29  17503837.617    91983313.024        -412.469          47.000  
G12  21725774.079   114169697.314       -3219.193          45.000  
E15  24973446.979   131236364.261       -2482.214          37.000  
G20  21505153.533   113010363.681         973.114          40.000  
G25  18631743.417    97910464.671       -2457.811          46.000  
G05  22148806.568   116392773.474        2862.759          42.000  
E04  24214041.633   127245626.892       -2191.993          36.000  
E13  21715472.559   114115588.525        -195.104          43.000  
E18  25885209.269   136027698.080        4097.577          37.000  
E09  24193211.465   127136182.646        -187.962          38.000  
E21  21595649.374   113485920.143       -1390.785          43.000  
E26  21954478.638   115371571.385        2646.412          43.000  
E31  23933327.632   125770499.759        2641.778          39.000  
> 2024 02 13 14 00 14.9900000  0 19                     
G11  21826370.972   114698350.073       -2777.280          41.000  
G18  20393832.368   107170326.539        3680.684          42.000  
G04  21632659.604   113680371.439        1221.659          39.000  
G28  17882089.043    93971018.910        -860.919          44.000  
G26  19240467.730   101109344.729        2938.676          43.000  
G31  18179329.237    95532984.549         961.906          46.000  
G29  17503916.318    91983725.771        -412.894          47.000  
G12  21726386.652   114172916.575       -3219.155          45.000  
E15  24973919.618   131238846.314       -2481.656          37.000  
G20  21504968.133   113009390.420         973.016          40.000  
G25  18632211.737    97912922.744       -2458.027          46.000  
G05  22148261.711   116389910.635        2862.713          42.000  
E04  24214458.859   127247819.157       -2192.344          36.000  
E13  21715509.196   114115783.773        -195.310          43.000  
E18  25884429.794   136023600.244        4098.580          37.000  
E09  24193247.325   127136370.662        -187.931          39.000  
E21  21595914.356   113487310.905       -1390.641          43.000  
E26  21953975.269   115368925.026        2646.338          43.000  
E31  23932824.970   125767857.998        2641.947          39.000  
> 2024 02 13 14 00 15.9900000  0 19                     
G11  21826899.365   114701127.536       -2778.059          42.000  
G18  20393131.846   107166645.714        3680.277          42.000  
G04  21632427.411   113679150.064        1221.057          39.000  
G28  17882252.473    93971880.131        -861.902          44.000  
G26  19239908.468   101106405.791        2938.511          43.000  
G31  18179146.350    95532023.128         960.875          46.000  
G29  17503994.983    91984138.894        -413.668          47.000  
G12  21726999.486   114176135.798       -3219.605          45.000  
E15  24974392.083   131241328.509       -2482.311          39.000  
G20  21504782.759   113008417.567         972.125          41.000  
G25  18632679.316    97915381.007       -2458.688          45.000  
G05  22147716.976   116387047.964        2862.427          41.000  
E04  24214875.901   127250011.499       -2192.863          36.000  
E13  21715546.653   114115979.423        -196.228          43.000  
E18  25883649.804   136019502.033        4098.103          37.000  
E09  24193282.897   127136559.032        -188.932          39.000  
E21  21596179.049   113488701.749       -1391.244          42.000  
E26  21953471.839   115366278.880        2645.553          43.000  
E31  23932322.656   125765216.161        2641.274          39.000  
> 2024 02 13 14 00 16.9900000  0 19                     
G11  21827427.976   114703905.241       -2778.055          42.000  
G18  20392431.377   107162965.005        3680.523          42.000  
G04  21632195.044   113677929.193        1220.506          39.000  
G28  17882416.130    93972741.865        -862.073          44.000  
G26  19239349.144   101103466.970        2938.518          43.000  
G31  18178963.306    95531062.221         960.606          46.000  
G29  17504073.553    91984552.406        -413.740          47.000  
G12  21727611.954   114179354.971       -3219.373          45.000  
E15  24974864.120   131243810.833       -2482.511          39.000  
G20  21504598.101   113007445.187         971.620          41.000  
G25  18633146.999    97917839.420       -2458.614          45.000  
G05  22147172.276   116384185.424        2862.110          41.000  
E04  24215293.075   127252203.950       -2192.773          36.000  
E13  21715584.084   114116175.420        -196.216          43.000  
E18  25882869.875   136015403.399        4098.851          37.000  
E09  24193318.696   127136747.751        -189.051          39.000  
E21  21596443.656   113490092.671       -1390.959          42.000  
E26  21952968.435   115363632.913        2645.526          43.000  
E31  23931820.142   125762574.200        2641.820          39.000  
> 2024 02 13 14 00 17.9900000  0 19                     
G11  21827956.316   114706683.093       -2778.189          41.000  
G18  20391730.890   107159284.336        3679.991          42.000  
G04  21631963.174   113676708.751        1219.614          40.000  
G28  17882580.162    93973604.085        -862.823          44.000  
G26  19238790.074   101100528.210        2938.503          43.000  
G31  18178780.446    95530101.793         959.646          46.000  
G29  17504152.402    91984966.250        -414.396          46.000  
G12  21728224.491   114182574.055       -3219.484          45.000  
E15  24975336.445   131246293.183       -2482.744          38.000  
G20  21504413.417   113006473.156         971.500          41.000  
G25  18633614.316    97920297.955       -2458.953          45.000  
G05  22146627.489   116381322.932        2862.116          42.000  
E04  24215709.970   127254396.423       -2192.497          36.000  
E13  21715621.244   114116371.732        -196.649          42.000  
E18  25882089.650   136011304.311        4098.858          37.000  
E09  24193354.941   127136936.776        -189.392          39.000  
E21  21596708.724   113491483.627       -1391.237          42.000  
E26  21952464.630   115360987.083        2645.416          43.000  
E31  23931317.288   125759932.138        2642.053          39.000  
> 2024 02 13 14 00 18.9900000  0 19                     
G11  21828484.665   114709461.535       -2778.413          40.000  
G18  20391030.342   107155604.076        3680.230          42.000  
G04  21631731.462   113675489.098        1219.563          40.000  
G28  17882744.298    93974467.115        -863.110          44.000  
G26  19238231.249   101097589.883        2938.307          43.000  
G31  18178597.742    95529142.161         959.702          46.000  
G29  17504231.189    91985380.787        -414.446          47.000  
G12  21728837.116   114185793.418       -3219.262          45.000  
E15  24975808.953   131248775.966       -2482.680          38.000  
G20  21504229.212   113005501.894         971.305          41.000  
G25  18634081.798    97922756.990       -2458.918          45.000  
G05  22146083.348   116378460.871        2862.263          42.000  
E04  24216127.091   127256589.379       -2192.927          36.000  
E13  21715658.657   114116568.760        -197.177          42.000  
E18  25881309.625   136007205.134        4099.368          36.000  
E09  24193391.115   127137126.447        -189.494          39.000  
E21  21596973.689   113492874.981       -1391.182          43.000  
E26  21951961.330   115358341.764        2645.445          43.000  
E31  23930814.347   125757290.295        2642.070          39.000  
> 2024 02 13 14 00 19.9900000  0 19                     
G11  21829013.258   114712240.167       -2778.635          40.000  
G18  20390329.952   107151923.933        3679.974          41.000  
G04  21631499.836   113674269.894        1219.040          40.000  
G28  17882908.488    93975330.692        -864.136          44.000  
G26  19237672.336   101094651.632        2938.097          43.000  
G31  18178415.221    95528183.075         958.809          46.000  
G29  17504310.466    91985795.714        -415.168          46.000  
G12  21729449.496   114189012.726       -3219.334          45.000  
E15  24976281.523   131251258.816       -2483.062          38.000  
G20  21504044.912   113004531.049         970.491          41.000  
G25  18634548.915    97925216.188       -2459.067          44.000  
G05  22145538.622   116375598.959        2861.868          42.000  
E04  24216544.317   127258782.398       -2192.694          36.000  
E13  21715696.437   114116766.146        -197.558          42.000  
E18  25880529.662   136003105.549        4100.048          36.000  
E09  24193427.403   127137316.481        -190.179          39.000  
E21  21597238.749   113494266.421       -1391.435          43.000  
E26  21951458.040   115355696.658        2644.927          43.000  
E31  23930311.650   125754648.333        2641.865          39.000  
> 2024 02 13 14 00 20.9900000  0 19                     
G11  21829542.104   114715019.249       -2779.279          40.000  
G18  20389629.805   107148244.074        3679.702          42.000  
G04  21631268.263   113673051.393        1217.904          40.000  
G28  17883072.973    93976194.962        -864.575          44.000  
G26  19237113.623   101091713.690        2938.055          43.000  
G31  18178232.753    95527224.699         958.205          46.000  
G29  17504389.847    91986211.221        -415.743          47.000  
G12  21730062.374   114192232.210       -3219.484          45.000  
E15  24976753.874   131253742.005       -2483.227          38.000  
G20  21503860.271   113003560.828         970.004          41.000  
G25  18635016.545    97927675.766       -2459.677          44.000  
G05  22144994.018   116372737.408        2861.289          42.000  
E04  24216961.996   127260975.750       -2193.313          36.000  
E13  21715734.461   114116964.091        -197.930          42.000  
E18  25879749.157   135999005.775        4100.178          36.000  
E09  24193463.839   127137507.066        -190.726          38.000  
E21  21597503.713   113495658.126       -1391.638          42.000  
E26  21950954.470   115353051.931        2644.765          43.000  
E31  23929809.083   125752006.484        2641.960          39.000  
> 2024 02 13 14 00 21.9900000  0 19                     
G11  21830070.986   114717798.610       -2779.786          40.000  
G18  20388929.607   107144564.343        3679.517          42.000  
G04  21631036.603   113671833.336        1217.988          41.000  
G28  17883237.363    93977059.767        -865.192          44.000  
G26  19236554.632   101088775.881        2937.813          43.000  
G31  18178050.346    95526266.857         957.449          46.000  
G29  17504468.896    91986627.124        -416.310          47.000  
G12  21730674.868   114195451.650       -3219.517          45.000  
E15  24977226.513   131256225.330       -2483.711          37.000  
G20  21503675.883   113002591.074         969.264          41.000  
G25  18635484.159    97930135.522       -2460.041          44.000  
G05  22144449.414   116369875.970        2861.186          42.000  
E04  24217378.987   127263169.216       -2193.569          36.000  
E13  21715772.057   114117162.449        -198.822          42.000  
E18  25878969.211   135994905.617        4099.947          37.000  
E09  24193500.187   127137698.008        -191.120          38.000  
E21  21597768.982   113497049.926       -1391.908          42.000  
E26  21950451.101   115350407.409        2644.306          43.000  
E31  23929306.473   125749364.547        2641.795          39.000  
> 2024 02 13 14 00 22.9900000  0 19                     
G11  21830600.006   114720578.353       -2779.794          40.000  
G18  20388229.609   107140884.889        3679.332          42.000  
G04  21630805.187   113670616.004        1216.804          40.000  
G28  17883402.259    93977925.282        -865.698          44.000  
G26  19235995.884   101085838.376        2937.512          43.000  
G31  18177868.131    95525309.709         956.903          46.000  
G29  17504548.373    91987043.588        -416.650          47.000  
G12  21731287.353   114198671.251       -3219.698          45.000  
E15  24977698.812   131258708.919       -2483.600          37.000  
G20  21503491.426   113001621.879         969.396          41.000  
G25  18635952.165    97932595.633       -2460.186          44.000  
G05  22143905.194   116367014.866        2860.936          42.000  
E04  24217796.475   127265362.965       -2193.960          36.000  
E13  21715809.767   114117361.334        -198.930          42.000  
E18  25878188.758   135990805.225        4100.407          37.000  
E09  24193536.589   127137889.500        -191.505          38.000  
E21  21598033.711   113498442.005       -1392.080          42.000  
E26  21949947.933   115347763.275        2644.067          43.000  
E31  23928803.733   125746722.730        2642.075          39.000  
> 2024 02 13 14 00 23.9900000  0 19                     
G11  21831129.071   114723358.531       -2780.836          40.000  
G18  20387529.933   107137205.744        3678.899          42.000  
G04  21630573.727   113669399.298        1216.597          40.000  
G28  17883567.382    93978791.540        -867.047          44.000  
G26  19235436.928   101082901.161        2936.990          43.000  
G31  18177685.942    95524353.283         955.915          46.000  
G29  17504627.649    91987460.640        -417.525          47.000  
G12  21731899.996   114201891.000       -3220.082          45.000  
E15  24978171.390   131261192.806       -2484.104          37.000  
G20  21503306.610   113000653.350         968.086          40.000  
G25  18636420.328    97935056.119       -2460.896          44.000  
G05  22143360.870   116364154.090        2860.428          42.000  
E04  24218213.875   127267557.024       -2194.195          36.000  
E13  21715848.097   114117560.815        -200.021          42.000  
E18  25877408.411   135986704.657        4100.142          37.000  
E09  24193572.937   127138081.548        -192.669          38.000  
E21  21598298.396   113499834.362       -1392.766          42.000  
E26  21949445.340   115345119.541        2643.391          43.000  
E31  23928300.948   125744081.024        2641.327          39.000  
> 2024 02 13 14 00 24.9900000  0 19                     
G11  21831658.048   114726139.070       -2780.729          40.000  
G18  20386829.613   107133526.819        3678.617          41.000  
G04  21630342.337   113668183.234        1215.257          40.000  
G28  17883732.618    93979658.405        -867.316          44.000  
G26  19234877.997   101079964.170        2936.783          43.000  
G31  18177504.049    95523397.480         955.532          46.000  
G29  17504707.039    91987878.181        -417.811          47.000  
G12  21732512.446   114205110.813       -3219.819          45.000  
E15  24978644.064   131263676.924       -2484.148          37.000  
G20  21503121.708   112999685.353         967.858          40.000  
G25  18636889.050    97937516.881       -2461.062          44.000  
G05  22142816.283   116361293.559        2860.443          42.000  
E04  24218631.310   127269751.312       -2194.609          36.000  
E13  21715886.025   114117760.783        -200.367          42.000  
E18  25876628.421   135982603.760        4101.133          37.000  
E09  24193609.086   127138274.021        -192.715          38.000  
E21  21598563.368   113501226.905       -1392.553          42.000  
E26  21948942.085   115342476.129        2643.015          43.000  
E31  23927798.373   125741439.311        2641.573          39.000  
> 2024 02 13 14 00 25.9900000  0 19                     
G11  21832187.514   114728919.908       -2780.799          40.000  
G18  20386129.597   107129848.091        3678.560          41.000  
G04  21630111.209   113666967.680        1215.367          40.000  
G28  17883898.220    93980525.885        -867.609          44.000  
G26  19234319.285   101077027.382        2936.749          43.000  
G31  18177322.122    95522442.304         954.884          46.000  
G29  17504786.813    91988296.206        -418.298          47.000  
G12  21733125.053   114208330.689       -3219.855          45.000  
E15  24979116.764   131266161.246       -2484.462          37.000  
G20  21502937.634   112998717.891         967.124          40.000  
G25  18637357.885    97939977.899       -2461.159          45.000  
G05  22142272.386   116358433.263        2860.093          42.000  
E04  24219049.147   127271945.788       -2194.425          36.000  
E13  21715924.564   114117961.206        -200.624          42.000  
E18  25875847.820   135978502.578        4101.555          37.000  
E09  24193645.731   127138466.979        -193.393          38.000  
E21  21598827.827   113502619.642       -1393.041          43.000  
E26  21948439.170   115339832.981        2642.805          43.000  
E31  23927295.737   125738797.616        2641.730          39.000  
> 2024 02 13 14 00 26.9900000  0 19                     
G11  21832716.709   114731701.421       -2781.630          40.000  
G18  20385429.617   107126169.868        3678.030          41.000  
G04  21629880.116   113665753.050        1214.271          40.000  
G28  17884063.596    93981394.317        -868.616          44.000  
G26  19233760.381   101074091.090        2936.336          43.000  
G31  18177140.474    95521488.058         954.015          46.000  
G29  17504866.796    91988715.036        -419.148          47.000  
G12  21733737.722   114211550.952       -3220.308          44.000  
E15  24979589.682   131268646.071       -2484.961          37.000  
G20  21502753.779   112997751.259         966.388          40.000  
G25  18637826.982    97942439.516       -2461.758          45.000  
G05  22141728.201   116355573.519        2859.680          42.000  
E04  24219466.757   127274140.793       -2195.029          36.000  
E13  21715962.902   114118162.432        -201.438          42.000  
E18  25875067.325   135974401.421        4101.393          37.000  
E09  24193682.254   127138660.660        -193.579          38.000  
E21  21599092.136   113504012.859       -1393.272          42.000  
E26  21947936.359   115337190.454        2642.491          43.000  
E31  23926793.354   125736156.255        2641.357          39.000  
> 2024 02 13 14 00 27.9900000  0 19                     
G11  21833246.088   114734483.126       -2781.629          40.000  
G18  20384729.374   107122491.707        3677.996          41.000  
G04  21629648.970   113664538.872        1213.932          40.000  
G28  17884229.260    93982263.226        -869.208          44.000  
G26  19233201.346   101071154.893        2936.271          43.000  
G31  18176958.931    95520534.305         953.319          46.000  
G29  17504946.954    91989134.205        -419.502          47.000  
G12  21734350.521   114214771.121       -3220.274          44.000  
E15  24980062.592   131271130.982       -2485.122          37.000  
G20  21502570.229   112996785.018         966.537          41.000  
G25  18638295.668    97944901.256       -2461.919          45.000  
G05  22141184.138   116352713.829        2859.676          42.000  
E04  24219884.611   127276335.890       -2195.097          36.000  
E13  21716001.074   114118364.002        -201.936          42.000  
E18  25874287.047   135970299.825        4101.852          37.000  
E09  24193719.284   127138854.695        -194.251          38.000  
E21  21599357.153   113505406.114       -1393.311          43.000  
E26  21947433.313   115334548.087        2642.212          43.000  
E31  23926290.413   125733514.750        2641.340          39.000  
> 2024 02 13 14 00 28.9900000  0 19                     
G11  21833775.527   114737265.262       -2781.961          40.000  
G18  20384029.324   107118813.864        3677.819          41.000  
G04  21629417.798   113663325.354        1213.582          40.000  
G28  17884395.089    93983132.874        -869.879          45.000  
G26  19232642.511   101068219.023        2935.875          43.000  
G31  18176777.841    95519581.269         952.812          46.000  
G29  17505026.797    91989553.972        -419.935          47.000  
G12  21734963.407   114217991.460       -3220.274          44.000  
E15  24980535.781   131273616.212       -2485.272          37.000  
G20  21502386.469   112995819.465         965.268          41.000  
G25  18638764.294    97947363.399       -2462.369          45.000  
G05  22140640.032   116349854.516        2859.452          41.000  
E04  24220302.448   127278531.270       -2195.370          36.000  
E13  21716039.761   114118566.148        -202.516          42.000  
E18  25873506.202   135966198.029        4101.919          37.000  
E09  24193756.435   127139049.274        -194.761          38.000  
E21  21599621.646   113506799.678       -1393.508          43.000  
E26  21946930.616   115331906.142        2641.953          43.000  
E31  23925787.951   125730873.365        2641.502          39.000  
> 2024 02 13 14 00 29.9900000  0 19                     
G11  21834304.941   114740047.471       -2782.007          40.000  
G18  20383329.291   107115135.959        3678.069          41.000  
G04  21629187.089   113662112.172        1213.039          40.000  
G28  17884560.674    93984002.864        -870.123          45.000  
G26  19232083.502   101065283.070        2936.006          43.000  
G31  18176597.057    95518628.587         952.504          46.000  
G29  17505106.798    91989973.949        -420.163          47.000  
G12  21735576.032   114221211.597       -3219.930          44.000  
E15  24981008.237   131276101.374       -2485.380          37.000  
G20  21502202.753   112994854.130         965.134          41.000  
G25  18639232.762    97949825.536       -2462.292          44.000  
G05  22140096.030   116346995.181        2859.183          41.000  
E04  24220720.276   127280726.627       -2195.422          36.000  
E13  21716078.562   114118768.493        -202.431          42.000  
E18  25872725.409   135962095.669        4102.722          37.000  
E09  24193793.822   127139244.021        -194.452          38.000  
E21  21599886.828   113508193.151       -1393.354          43.000  
E26  21946427.971   115329264.211        2642.063          43.000  
E31  23925284.870   125728231.711        2641.877          39.000  
> 2024 02 13 14 00 30.9900000  0 19                     
G11  21834834.703   114742830.035       -2782.686          40.000  
G18  20382629.633   107111458.275        3677.650          41.000  
G04  21628956.179   113660899.564        1212.615          40.000  
G28  17884726.416    93984873.490        -870.789          45.000  
G26  19231524.668   101062347.347        2935.924          43.000  
G31  18176416.028    95517676.540         951.839          46.000  
G29  17505186.981    91990394.432        -420.702          47.000  
G12  21736188.814   114224431.809       -3220.219          44.000  
E15  24981481.312   131278586.749       -2485.649          37.000  
G20  21502018.723   112993889.351         964.749          41.000  
G25  18639701.004    97952287.961       -2462.530          44.000  
G05  22139551.775   116344136.070        2859.229          42.000  
E04  24221137.947   127282922.172       -2195.667          35.000  
E13  21716116.882   114118971.317        -202.992          42.000  
E18  25871944.713   135957993.010        4103.171          37.000  
E09  24193830.843   127139439.249        -195.050          38.000  
E21  21600152.019   113509586.806       -1393.578          43.000  
E26  21945924.977   115326622.601        2641.612          43.000  
E31  23924782.548   125725590.089        2641.723          39.000  
> 2024 02 13 14 00 31.9900000  0 20                     
G11  21835364.317   114745613.096       -2783.447          40.000  
G18  20381929.836   107107780.969        3676.759          41.000  
G04  21628725.339   113659687.722        1211.441          40.000  
G28  17884892.350    93985744.923        -872.131          45.000  
G26  19230966.095   101059412.002        2935.045          43.000  
G31  18176235.270    95516725.285         950.622          46.000  
G29  17505267.174    91990815.564        -421.628          47.000  
G12  21736801.491   114227652.243       -3220.718          44.000  
E15  24981954.222   131281072.504       -2486.227          37.000  
G20  21501835.426   112992925.290         963.488          41.000  
G25  18640169.150    97954750.837       -2463.397          44.000  
G05  22139007.764   116341277.404        2858.154          42.000  
E04  24221555.775   127285118.108       -2196.508          35.000  
E13  21716155.465   114119174.799        -203.871          42.000  
E18  25871164.112   135953890.260        4102.679          37.000  
E09  24193867.846   127139635.122        -196.241          38.000  
E21  21600417.123   113510980.829       -1394.256          42.000  
E26  21945422.585   115323981.459        2640.880          43.000  
E31  23924279.764   125722948.654        2641.128          39.000  
G16  21964385.835                        3682.000          32.000  
> 2024 02 13 14 00 32.9900000  0 20                     
G11  21835893.835   114748396.829       -2783.778          40.000  
G18  20381230.056   107104104.192        3676.637          41.000  
G04  21628494.795   113658476.787        1210.813          39.000  
G28  17885058.511    93986617.299        -872.662          45.000  
G26  19230407.470   101056477.206        2934.875          43.000  
G31  18176054.826    95515774.981         949.955          46.000  
G29  17505347.497    91991237.524        -422.257          47.000  
G12  21737414.517   114230873.079       -3220.747          44.000  
E15  24982427.533   131283558.798       -2486.506          37.000  
G20  21501652.286   112991962.075         963.018          40.000  
G25  18640637.540    97957214.319       -2463.624          44.000  
G05  22138464.086   116338419.274        2857.953          42.000  
E04  24221973.708   127287314.592       -2196.684          35.000  
E13  21716193.995   114119379.098        -204.492          42.000  
E18  25870383.442   135949787.519        4102.695          37.000  
E09  24193905.643   127139831.753        -196.589          38.000  
E21  21600682.907   113512375.377       -1394.548          42.000  
E26  21944920.298   115321340.954        2640.368          43.000  
E31  23923776.988   125720307.566        2641.022          39.000  
G16  21963692.896   115419985.0133       3677.640          32.000  
> 2024 02 13 14 00 33.9900000  0 20                     
G11  21836423.973   114751180.717       -2784.147          40.000  
G18  20380530.206   107100427.424        3676.951          41.000  
G04  21628264.191   113657266.245        1210.441          39.000  
G28  17885224.498    93987490.116        -873.022          44.000  
G26  19229849.010   101053542.428        2934.915          43.000  
G31  18175874.513    95514825.104         949.923          47.000  
G29  17505427.847    91991659.774        -422.384          47.000  
G12  21738027.474   114234093.817       -3220.550          44.000  
E15  24982900.538   131286045.096       -2486.031          37.000  
G20  21501469.007   112990999.226         962.384          41.000  
G25  18641105.956    97959677.892       -2463.662          44.000  
G05  22137920.337   116335561.212        2858.029          42.000  
E04  24222391.606   127289511.076       -2196.356          36.000  
E13  21716233.031   114119583.670        -204.384          42.000  
E18  25869602.422   135945684.267        4103.841          37.000  
E09  24193943.205   127140028.656        -196.846          38.000  
E21  21600948.743   113513769.902       -1394.358          42.000  
E26  21944417.776   115318700.548        2640.589          43.000  
E31  23923274.212   125717666.275        2641.675          39.000  
G16  21962984.286   115416306.6912       3678.524          32.000  
> 2024 02 13 14 00 34.9900000  0 20                     
G11  21836954.006   114753964.823       -2784.880          40.000  
G18  20379830.452   107096750.791        3676.416          41.000  
G04  21628033.830   113656056.186        1209.593          39.000  
G28  17885390.450    93988363.460        -874.078          44.000  
G26  19229290.638   101050607.766        2934.481          43.000  
G31  18175693.773    95513875.780         948.607          46.000  
G29  17505508.091    91992082.417        -423.202          47.000  
G12  21738640.151   114237314.529       -3221.087          44.000  
E15  24983373.596   131288531.527       -2486.635          38.000  
G20  21501285.797   112990036.759         962.220          41.000  
G25  18641574.791    97962141.640       -2464.231          44.000  
G05  22137376.431   116332703.285        2857.418          42.000  
E04  24222809.870   127291707.687       -2197.115          36.000  
E13  21716271.980   114119788.644        -205.478          42.000  
E18  25868821.534   135941580.666        4103.598          37.000  
E09  24193980.854   127140225.924        -197.833          38.000  
E21  21601214.144   113515164.542       -1395.106          42.000  
E26  21943915.332   115316060.371        2639.583          43.000  
E31  23922771.786   125715024.934        2640.878          39.000  
G16  21962287.080   115412628.3142       3678.353          32.000  
> 2024 02 13 14 00 35.9900000  0 20                     
G11  21837483.969   114756749.627       -2785.040          40.000  
G18  20379130.777   107093074.707        3675.941          41.000  
G04  21627803.426   113654847.072        1208.771          39.000  
G28  17885556.549    93989237.778        -874.646          44.000  
G26  19228732.074   101047673.662        2934.026          43.000  
G31  18175513.285    95512927.397         948.015          46.000  
G29  17505588.694    91992505.894        -423.733          47.000  
G12  21739252.837   114240535.637       -3221.108          44.000  
E15  24983846.881   131291018.528       -2487.181          38.000  
G20  21501102.979   112989075.234         961.149          41.000  
G25  18642043.652    97964606.009       -2464.627          44.000  
G05  22136832.743   116329845.947        2857.153          42.000  
E04  24223227.977   127293904.870       -2197.112          35.000  
E13  21716310.981   114119994.416        -205.899          42.000  
E18  25868040.584   135937477.115        4103.787          37.000  
E09  24194018.712   127140423.991        -198.335          38.000  
E21  21601479.553   113516559.688       -1395.100          42.000  
E26  21943412.975   115313420.818        2639.316          43.000  
E31  23922269.141   125712383.940        2641.055          39.000  
G16  21961583.199   115408950.3402       3678.024          32.000  
> 2024 02 13 14 00 36.9900000  0 20                     
G11  21838014.185   114759535.105       -2785.546          40.000  
G18  20378431.294   107089399.175        3675.560          41.000  
G04  21627573.319   113653638.864        1208.289          39.000  
G28  17885722.702    93990113.075        -875.482          44.000  
G26  19228173.868   101044740.125        2933.527          43.000  
G31  18175333.042    95511979.994         947.230          47.000  
G29  17505669.471    91992930.211        -424.496          47.000  
G12  21739865.933   114243757.160       -3221.335          44.000  
E15  24984320.323   131293506.061       -2487.396          38.000  
G20  21500920.311   112988114.567         960.648          41.000  
G25  18642512.871    97967071.003       -2465.011          44.000  
G05  22136289.361   116326989.195        2856.831          42.000  
E04  24223645.945   127296102.592       -2197.573          35.000  
E13  21716350.026   114120201.046        -206.887          42.000  
E18  25867259.600   135933373.605        4103.564          37.000  
E09  24194056.640   127140622.871        -199.128          38.000  
E21  21601745.337   113517955.388       -1395.636          42.000  
E26  21942910.801   115310781.922        2638.970          43.000  
E31  23921766.575   125709743.306        2640.877          39.000  
G16  21960884.676   115405272.6792       3677.636          32.000  
> 2024 02 13 14 00 37.9900000  0 20                     
G11  21838544.384   114762320.726       -2785.973          40.000  
G18  20377732.134   107085723.642        3675.380          41.000  
G04  21627343.378   113652431.049        1207.518          39.000  
G28  17885889.386    93990988.783        -876.166          44.000  
G26  19227615.540   101041806.590        2933.340          43.000  
G31  18175153.304    95511033.006         946.660          47.000  
G29  17505750.196    91993354.803        -424.867          47.000  
G12  21740479.011   114246978.537       -3221.486          44.000  
E15  24984793.756   131295993.613       -2487.797          37.000  
G20  21500737.712   112987154.242         959.974          42.000  
G25  18642982.308    97969536.046       -2465.235          44.000  
G05  22135745.769   116324132.482        2856.534          42.000  
E04  24224064.087   127298300.335       -2197.869          35.000  
E13  21716389.429   114120407.919        -207.219          42.000  
E18  25866478.528   135929269.566        4104.292          37.000  
E09  24194094.559   127140821.966        -199.297          38.000  
E21  21602010.406   113519351.054       -1395.792          42.000  
E26  21942408.462   115308143.122        2638.671          43.000  
E31  23921264.323   125707102.489        2640.696          39.000  
G16  21960185.332   115401594.8482       3677.907          32.000  
> 2024 02 13 14 00 38.9900000  0 20                     
G11  21839074.303   114765106.575       -2786.221          41.000  
G18  20377032.851   107082048.211        3675.335          41.000  
G04  21627113.349   113651223.695        1207.160          39.000  
G28  17886055.948    93991865.008        -876.556          44.000  
G26  19227057.089   101038873.143        2933.323          43.000  
G31  18174973.297    95510086.550         945.967          47.000  
G29  17505831.034    91993779.768        -425.137          47.000  
G12  21741092.395   114250199.876       -3221.499          44.000  
E15  24985266.971   131298481.240       -2487.496          37.000  
G20  21500554.920   112986194.330         959.900          42.000  
G25  18643451.789    97972001.286       -2465.597          44.000  
G05  22135202.204   116321275.914        2856.396          42.000  
E04  24224482.430   127300498.177       -2197.747          35.000  
E13  21716428.936   114120615.160        -207.341          42.000  
E18  25865697.395   135925165.150        4104.634          37.000  
E09  24194132.697   127141021.434        -199.733          38.000  
E21  21602275.710   113520746.804       -1395.842          42.000  
E26  21941906.227   115305504.519        2638.567          43.000  
E31  23920761.739   125704461.559        2640.923          39.000  
G16  21959485.412   115397916.8702       3678.777          32.000  
> 2024 02 13 14 00 39.9900000  0 20                     
G11  21839604.284   114767892.589       -2786.300          40.000  
G18  20376333.769   107078372.826        3675.162          41.000  
G04  21626883.512   113650016.753        1206.752          39.000  
G28  17886222.607    93992741.694        -877.039          44.000  
G26  19226498.630   101035939.758        2932.966          43.000  
G31  18174793.219    95509140.528         945.678          47.000  
G29  17505911.741    91994205.057        -425.575          47.000  
G12  21741705.474   114253421.096       -3221.361          44.000  
E15  24985739.951   131300968.935       -2488.016          37.000  
G20  21500372.243   112985234.790         959.304          41.000  
G25  18643921.104    97974466.610       -2465.545          44.000  
G05  22134658.856   116318419.405        2856.632          42.000  
E04  24224900.554   127302696.053       -2198.103          35.000  
E13  21716468.339   114120822.735        -207.798          42.000  
E18  25864916.638   135921060.264        4105.147          37.000  
E09  24194171.279   127141221.176        -199.987          38.000  
E21  21602540.352   113522142.563       -1395.798          43.000  
E26  21941404.158   115302866.034        2638.390          43.000  
E31  23920259.007   125701820.472        2641.241          39.000  
G16  21958786.243   115394238.7972       3677.908          32.000  
> 2024 02 13 14 00 40.9900000  0 20                     
G11  21840134.570   114770678.812       -2786.226          41.000  
G18  20375634.425   107074697.500        3675.545          41.000  
G04  21626653.536   113648810.238        1207.238          39.000  
G28  17886389.562    93993618.888        -877.258          44.000  
G26  19225940.336   101033006.452        2933.739          43.000  
G31  18174613.334    95508195.002         945.505          47.000  
G29  17505992.335    91994630.699        -425.578          47.000  
G12  21742318.491   114256642.248       -3220.855          44.000  
E15  24986213.262   131303456.713       -2487.789          39.000  
G20  21500189.644   112984275.668         959.133          40.000  
G25  18644390.506    97976932.100       -2465.328          45.000  
G05  22134115.474   116315563.017        2856.355          42.000  
E04  24225318.801   127304894.035       -2197.987          35.000  
E13  21716507.724   114121030.659        -207.959          42.000  
E18  25864135.479   135916954.977        4105.293          37.000  
E09  24194209.739   127141421.235        -199.960          38.000  
E21  21602805.673   113523538.408       -1395.637          43.000  
E26  21940901.880   115300227.771        2638.200          43.000  
E31  23919756.406   125699179.293        2641.277          39.000  
G16  21958086.690   115390560.5792       3678.792          32.000  
> 2024 02 13 14 00 41.9900000  0 20                     
G11  21840664.672   114773465.086       -2786.498          41.000  
G18  20374934.837   107071022.158        3675.324          42.000  
G04  21626423.838   113647604.106        1206.172          39.000  
G28  17886556.543    93994496.423        -877.582          44.000  
G26  19225381.851   101030073.112        2933.240          43.000  
G31  18174433.335    95507249.844         944.994          46.000  
G29  17506073.051    91995056.560        -425.884          47.000  
G12  21742931.465   114259863.208       -3220.819          45.000  
E15  24986686.669   131305944.408       -2487.584          38.000  
G20  21500006.992   112983316.801         958.898          41.000  
G25  18644859.515    97979397.598       -2465.391          45.000  
G05  22133572.039   116312706.585        2856.406          41.000  
E04  24225737.170   127307091.928       -2197.564          35.000  
E13  21716547.414   114121238.784        -208.169          42.000  
E18  25863353.761   135912849.105        4106.113          37.000  
E09  24194247.772   127141621.511        -200.382          39.000  
E21  21603071.205   113524934.138       -1395.652          42.000  
E26  21940400.177   115297589.500        2638.192          43.000  
E31  23919253.857   125696537.837        2641.625          40.000  
G16  21957386.657   115386882.1342       3678.578          31.000  
> 2024 02 13 14 00 42.9900000  0 20                     
G11  21841195.246   114776251.893       -2787.143          41.000  
G18  20374235.564   107067347.165        3674.750          43.000  
G04  21626194.525   113646398.708        1205.138          39.000  
G28  17886723.629    93995374.774        -879.083          44.000  
G26  19224823.688   101027140.132        2932.642          42.000  
G31  18174253.449    95506305.491         943.809          46.000  
G29  17506154.090    91995483.090        -426.911          46.000  
G12  21743544.517   114263084.372       -3221.053          44.000  
E15  24987160.006   131308432.515       -2488.626          38.000  
G20  21499824.472   112982358.649         957.288          42.000  
G25  18645328.586    97981863.550       -2466.540          45.000  
G05  22133028.674   116309850.591        2855.613          41.000  
E04  24226155.347   127309290.215       -2198.439          36.000  
E13  21716586.808   114121447.576        -209.182          42.000  
E18  25862572.079   135908743.111        4105.798          37.000  
E09  24194285.779   127141822.387        -201.119          39.000  
E21  21603336.902   113526330.254       -1396.431          42.000  
E26  21939898.300   115294951.710        2637.452          43.000  
E31  23918750.907   125693896.588        2640.926          40.000  
G16  21956686.424   115383203.8062       3678.978          31.000  
> 2024 02 13 14 00 43.9900000  0 20                     
G11  21841725.785   114779039.182       -2787.399          41.000  
G18  20373536.333   107063672.565        3674.442          43.000  
G04  21625965.220   113645194.056        1204.042          39.000  
G28  17886890.845    93996253.909        -879.395          44.000  
G26  19224265.508   101024207.557        2932.490          42.000  
G31  18174073.860    95505361.922         943.215          46.000  
G29  17506235.041    91995910.273        -427.325          46.000  
G12  21744157.465   114266305.800       -3221.498          44.000  
E15  24987634.198   131310920.975       -2488.556          38.000  
G20  21499642.065   112981401.184         957.107          41.000  
G25  18645797.805    97984329.932       -2466.421          45.000  
G05  22132485.440   116306994.988        2855.615          42.000  
E04  24226574.161   127311488.890       -2198.682          35.000  
E13  21716626.638   114121656.997        -209.584          42.000  
E18  25861791.016   135904636.984        4106.177          37.000  
E09  24194323.628   127142023.908        -201.518          39.000  
E21  21603602.817   113527726.714       -1396.537          42.000  
E26  21939396.362   115292314.404        2637.049          43.000  
E31  23918248.428   125691255.514        2640.938          39.000  
G16  21955986.312   115379525.7622       3678.349          31.000  
> 2024 02 13 14 00 44.9900000  0 20                     
G11  21842256.368   114781826.863       -2787.958          41.000  
G18  20372837.374   107059998.219        3673.932          43.000  
G04  21625736.213   113643990.027        1203.530          39.000  
G28  17887058.490    93997133.696        -880.286          44.000  
G26  19223707.267   101021275.199        2931.998          42.000  
G31  18173894.358    95504419.025         942.333          46.000  
G29  17506316.229    91996337.979        -428.183          46.000  
G12  21744770.212   114269527.322       -3221.546          43.000  
E15  24988107.683   131313409.680       -2489.064          38.000  
G20  21499460.033   112980444.317         956.276          41.000  
G25  18646267.041    97986796.633       -2467.090          44.000  
G05  22131941.927   116304139.679        2854.818          42.000  
E04  24226992.408   127313687.833       -2199.472          35.000  
E13  21716666.433   114121866.933        -210.345          42.000  
E18  25861009.796   135900530.575        4106.502          37.000  
E09  24194361.923   127142225.912        -202.274          39.000  
E21  21603868.749   113529123.389       -1396.949          42.000  
E26  21938894.110   115289677.416        2636.762          42.000  
E31  23917745.896   125688614.482        2640.781          39.000  
G16  21955286.611   115375847.7002       3677.365          31.000  
> 2024 02 13 14 00 45.9900000  0 20                     
G11  21842786.828   114784615.089       -2788.558          41.000  
G18  20372138.283   107056324.264        3673.834          43.000  
G04  21625507.248   113642786.758        1202.989          39.000  
G28  17887226.256    93998014.327        -881.018          44.000  
G26  19223149.593   101018343.257        2931.831          42.000  
G31  18173714.708    95503476.951         941.792          46.000  
G29  17506397.747    91996766.376        -428.824          46.000  
G12  21745383.116   114272749.126       -3221.902          43.000  
E15  24988581.247   131315898.813       -2489.172          39.000  
G20  21499278.446   112979488.150         955.953          41.000  
G25  18646736.496    97989263.807       -2467.238          45.000  
G05  22131398.667   116301284.778        2855.011          40.000  
E04  24227410.733   127315887.156       -2199.667          35.000  
E13  21716706.613   114122077.556        -210.608          42.000  
E18  25860228.410   135896424.114        4106.347          36.000  
E09  24194400.243   127142428.581        -202.914          38.000  
E21  21604134.656   113530520.446       -1397.222          42.000  
E26  21938392.661   115287040.946        2636.240          42.000  
E31  23917243.225   125685973.704        2640.432          40.000  
G16  21954586.726   115372169.8422       3678.061          32.000  
> 2024 02 13 14 00 46.9900000  0 20                     
G11  21843317.568   114787403.723       -2789.042          41.000  
G18  20371439.629   107052650.594        3673.587          43.000  
G04  21625278.493   113641584.164        1202.289          39.000  
G28  17887394.127    93998895.644        -881.604          44.000  
G26  19222591.709   101015411.617        2931.554          42.000  
G31  18173535.146    95502535.570         941.257          46.000  
G29  17506479.240    91997195.333        -429.072          47.000  
G12  21745996.281   114275971.067       -3222.077          44.000  
E15  24989055.143   131318388.211       -2489.239          38.000  
G20  21499096.519   112978532.636         955.177          42.000  
G25  18647206.229    97991731.338       -2467.552          45.000  
G05  22130855.442   116298430.213        2854.471          41.000  
E04  24227829.617   127318086.755       -2199.435          35.000  
E13  21716746.574   114122288.721        -211.188          42.000  
E18  25859446.623   135892317.424        4106.769          37.000  
E09  24194438.555   127142631.772        -203.512          38.000  
E21  21604400.693   113531917.770       -1397.321          42.000  
E26  21937890.888   115284404.834        2636.261          42.000  
E31  23916740.284   125683332.968        2640.715          39.000  
G16  21953886.746   115368492.1212       3677.896          32.000  
> 2024 02 13 14 00 47.9900000  0 20                     
G11  21843848.281   114790192.572       -2789.499          41.000  
G18  20370740.817   107048977.037        3673.284          43.000  
G04  21625049.581   113640382.054        1201.417          39.000  
G28  17887561.798    93999777.485        -882.294          44.000  
G26  19222033.826   101012480.082        2931.387          42.000  
G31  18173355.906    95501594.718         940.531          46.000  
G29  17506560.942    91997624.676        -429.709          47.000  
G12  21746609.220   114279192.951       -3222.086          44.000  
E15  24989529.030   131320877.711       -2489.551          38.000  
G20  21498915.071   112977577.534         954.442          42.000  
G25  18647675.780    97994199.045       -2467.884          45.000  
G05  22130312.330   116295575.791        2854.115          41.000  
E04  24228248.169   127320286.481       -2199.636          35.000  
E13  21716787.032   114122500.290        -211.929          42.000  
E18  25858664.888   135888210.310        4107.203          37.000  
E09  24194477.330   127142835.312        -203.904          38.000  
E21  21604666.652   113533315.182       -1397.579          42.000  
E26  21937389.543   115281768.943        2635.811          42.000  
E31  23916237.866   125680692.134        2640.772          39.000  
G16  21953186.678   115364814.2542       3678.347          32.000  
> 2024 02 13 14 00 48.9900000  0 20                     
G11  21844379.169   114792981.650       -2789.091          41.000  
G18  20370042.268   107045303.609        3673.201          43.000  
G04  21624821.123   113639180.453        1200.902          39.000  
G28  17887729.346    94000659.874        -882.770          44.000  
G26  19221476.169   101009548.698        2931.148          42.000  
G31  18173176.570    95500654.429         939.685          46.000  
G29  17506642.644    91998054.434        -429.975          47.000  
G12  21747221.897   114282414.812       -3221.870          43.000  
E15  24990002.838   131323367.386       -2490.034          38.000  
G20  21498733.606   112976622.859         954.360          42.000  
G25  18648145.801    97996666.939       -2467.967          45.000  
G05  22129768.817   116292721.519        2853.940          40.000  
E04  24228667.079   127322486.343       -2199.988          35.000  
E13  21716827.464   114122712.233        -212.213          42.000  
E18  25857883.380   135884102.835        4107.576          36.000  
E09  24194516.244   127143039.230        -204.192          38.000  
E21  21604932.803   113534712.707       -1397.683          42.000  
E26  21936888.391   115279133.289        2635.486          42.000  
E31  23915735.099   125678051.274        2640.753          39.000  
G16  21952486.846   115361136.3902       3677.533          32.000  
> 2024 02 13 14 00 49.9900000  0 20                     
G11  21844909.883   114795771.222       -2789.894          41.000  
G18  20369343.203   107041630.497        3673.099          44.000  
G04  21624592.700   113637979.509        1200.719          39.000  
G28  17887897.234    94001543.012        -883.496          44.000  
G26  19220918.478   101006617.615        2930.997          42.000  
G31  18172997.583    95499714.841         939.116          46.000  
G29  17506724.738    91998484.785        -430.738          47.000  
G12  21747834.871   114285636.872       -3222.314          43.000  
E15  24990476.524   131325857.354       -2490.329          38.000  
G20  21498552.150   112975668.860         953.655          43.000  
G25  18648615.893    97999135.229       -2468.447          45.000  
G05  22129225.678   116289867.604        2853.761          40.000  
E04  24229085.806   127324686.529       -2200.350          35.000  
E13  21716867.887   114122924.784        -213.145          42.000  
E18  25857101.610   135879995.206        4107.443          37.000  
E09  24194555.123   127143243.717        -204.779          38.000  
E21  21605198.927   113536110.532       -1398.130          42.000  
E26  21936387.255   115276498.028        2634.946          42.000  
E31  23915232.794   125675410.515        2640.619          39.000  
G16  21951786.882   115357458.6032       3677.454          32.000  
> 2024 02 13 14 00 50.9900000  0 20                     
G11  21845440.876   114798560.994       -2790.073          41.000  
G18  20368644.592   107037957.497        3672.743          44.000  
G04  21624364.564   113636779.076        1199.897          39.000  
G28  17888065.175    94002426.656        -884.149          44.000  
G26  19220360.681   101003686.659        2930.763          42.000  
G31  18172818.779    95498775.777         938.631          46.000  
G29  17506806.920    91998915.510        -431.143          47.000  
G12  21748447.889   114288858.868       -3222.351          43.000  
E15  24990950.324   131328347.413       -2490.304          38.000  
G20  21498370.860   112974715.286         953.281          43.000  
G25  18649086.028    98001603.683       -2468.811          45.000  
G05  22128682.209   116287013.835        2853.410          40.000  
E04  24229504.611   127326886.794       -2200.276          35.000  
E13  21716908.738   114123137.679        -213.384          42.000  
E18  25856319.945   135875887.140        4107.767          36.000  
E09  24194594.430   127143448.535        -205.000          38.000  
E21  21605464.633   113537508.432       -1398.199          42.000  
E26  21935885.884   115273862.968        2634.819          42.000  
E31  23914730.115   125672769.671        2640.641          39.000  
G16  21951087.146   115353780.6952       3678.371          32.000  
> 2024 02 13 14 00 51.9900000  0 20                     
G11  21845971.860   114801351.282       -2790.488          41.000  
G18  20367945.720   107034284.874        3672.480          44.000  
G04  21624136.394   113635579.376        1199.597          39.000  
G28  17888233.282    94003311.101        -884.601          44.000  
G26  19219803.016   101000756.085        2930.450          42.000  
G31  18172640.272    95497837.508         937.974          46.000  
G29  17506889.067    91999346.904        -431.611          47.000  
G12  21749061.020   114292081.094       -3222.292          44.000  
E15  24991424.298   131330837.852       -2490.559          39.000  
G20  21498189.796   112973762.440         952.136          43.000  
G25  18649556.294    98004072.590       -2469.163          45.000  
G05  22128138.940   116284160.483        2853.382          39.000  
E04  24229923.207   127329087.479       -2201.036          35.000  
E13  21716949.223   114123351.213        -213.646          42.000  
E18  25855538.062   135871778.938        4108.325          36.000  
E09  24194633.082   127143654.011        -205.788          38.000  
E21  21605730.539   113538906.697       -1398.517          42.000  
E26  21935384.854   115271228.394        2634.426          42.000  
E31  23914227.426   125670128.993        2640.684          39.000  
G16  21950387.218   115350102.9972       3678.463          32.000  
> 2024 02 13 14 00 52.9900000  0 20                     
G11  21846502.852   114804141.713       -2791.102          41.000  
G18  20367246.926   107030612.270        3672.146          44.000  
G04  21623908.424   113634380.089        1198.724          39.000  
G28  17888401.519    94004195.981        -885.522          44.000  
G26  19219245.447   100997825.510        2930.085          42.000  
G31  18172461.940    95496899.684         937.018          46.000  
G29  17506971.702    91999778.594        -432.461          47.000  
G12  21749674.194   114295303.186       -3222.386          43.000  
E15  24991898.926   131333328.312       -2491.185          39.000  
G20  21498008.812   112972809.906         951.869          42.000  
G25  18650026.263    98006541.566       -2469.445          45.000  
G05  22127595.933   116281307.172        2852.704          39.000  
E04  24230341.995   127331288.144       -2201.072          35.000  
E13  21716989.795   114123565.058        -214.582          42.000  
E18  25854756.048   135867670.264        4108.210          36.000  
E09  24194671.900   127143859.730        -206.328          38.000  
E21  21605996.114   113540304.938       -1398.788          42.000  
E26  21934883.631   115268593.924        2633.789          42.000  
E31  23913724.869   125667488.180        2639.999          39.000  
G16  21949687.106   115346425.1402       3677.658          32.000  
> 2024 02 13 14 00 53.9900000  0 20                     
G11  21847033.941   114806932.781       -2791.043          41.000  
G18  20366548.219   107026940.209        3672.063          44.000  
G04  21623680.315   113633181.711        1198.004          38.000  
G28  17888570.062    94005081.804        -885.895          44.000  
G26  19218687.938   100994895.502        2929.769          42.000  
G31  18172283.642    95495962.791         936.768          46.000  
G29  17507054.233    92000211.080        -432.538          47.000  
G12  21750287.307   114298525.677       -3222.528          43.000  
E15  24992373.119   131335819.290       -2490.851          39.000  
G20  21497827.888   112971858.238         951.954          43.000  
G25  18650496.189    98009011.146       -2469.380          45.000  
G05  22127052.716   116278454.433        2852.551          38.000  
E04  24230761.035   127333489.375       -2201.828          35.000  
E13  21717030.454   114123779.703        -214.739          42.000  
E18  25853974.173   135863561.608        4109.081          36.000  
E09  24194710.962   127144066.240        -206.568          38.000  
E21  21606262.431   113541703.689       -1398.690          42.000  
E26  21934382.496   115265960.070        2633.837          42.000  
E31  23913222.311   125664847.659        2640.767          39.000  
G16  21948987.222   115342747.6152       3678.043          32.000  
> 2024 02 13 14 00 54.9900000  0 20                     
G11  21847564.846   114809723.934       -2791.223          41.000  
G18  20365849.338   107023268.060        3671.853          44.000  
G04  21623452.110   113631983.590        1197.586          38.000  
G28  17888738.675    94005967.967        -886.493          44.000  
G26  19218130.369   100991965.394        2929.934          42.000  
G31  18172105.458    95495026.242         936.263          46.000  
G29  17507136.694    92000643.774        -432.957          47.000  
G12  21750900.377   114301747.936       -3222.190          44.000  
E15  24992847.259   131338310.202       -2491.003          39.000  
G20  21497647.138   112970906.836         951.184          43.000  
G25  18650965.983    98011480.723       -2469.725          45.000  
G05  22126509.857   116275601.604        2852.428          38.000  
E04  24231179.841   127335690.483       -2201.095          34.000  
E13  21717071.252   114123994.537        -215.018          42.000  
E18  25853192.072   135859452.396        4109.406          36.000  
E09  24194750.330   127144272.908        -206.896          38.000  
E21  21606528.154   113543102.335       -1398.606          42.000  
E26  21933881.552   115263326.228        2633.776          42.000  
E31  23912719.658   125662206.870        2640.880          39.000  
G16  21948287.695   115339069.797        3677.910          32.000  
> 2024 02 13 14 00 55.9900000  0 20                     
G11  21848096.109   114812515.522       -2791.613          41.000  
G18  20365150.448   107019596.236        3671.699          44.000  
G04  21623224.097   113630786.184        1197.398          38.000  
G28  17888907.523    94006854.871        -887.183          44.000  
G26  19217572.922   100989035.627        2929.466          42.000  
G31  18171927.414    95494090.429         935.414          46.000  
G29  17507219.417    92001077.074        -433.680          47.000  
G12  21751513.569   114304970.372       -3222.497          43.000  
E15  24993321.381   131340801.458       -2491.504          39.000  
G20  21497466.424   112969956.088         950.668          43.000  
G25  18651435.665    98013950.704       -2470.210          45.000  
G05  22125966.885   116272749.145        2852.478          38.000  
E04  24231598.689   127337891.958       -2201.546          34.000  
E13  21717112.321   114124209.972        -215.729          42.000  
E18  25852410.197   135855342.988        4109.328          37.000  
E09  24194789.322   127144480.156        -207.591          38.000  
E21  21606794.776   113544501.310       -1399.030          42.000  
E26  21933380.365   115260692.832        2633.229          42.000  
E31  23912217.196   125659566.234        2640.337          39.000  
G16  21947587.505   115335392.148        3677.602          31.000  
> 2024 02 13 14 00 56.9900000  0 20                     
G11  21848627.599   114815307.649       -2792.314          41.000  
G18  20364451.933   107015924.828        3671.066          44.000  
G04  21622996.485   113629589.610        1195.888          38.000  
G28  17889076.476    94007742.624        -888.293          44.000  
G26  19217015.571   100986106.264        2929.412          42.000  
G31  18171749.413    95493155.462         934.340          46.000  
G29  17507302.166    92001511.068        -434.580          47.000  
G12  21752126.796   114308193.084       -3222.995          44.000  
E15  24993795.687   131343293.094       -2491.624          39.000  
G20  21497285.561   112969006.070         949.641          43.000  
G25  18651905.049    98016421.138       -2470.616          45.000  
G05  22125424.297   116269897.171        2851.359          38.000  
E04  24232017.687   127340093.842       -2202.279          34.000  
E13  21717153.617   114124426.078        -216.359          42.000  
E18  25851628.018   135851233.491        4109.314          36.000  
E09  24194828.611   127144688.031        -207.993          38.000  
E21  21607061.127   113545900.659       -1399.617          41.000  
E26  21932878.845   115258059.931        2632.509          42.000  
E31  23911714.673   125656925.816        2640.333          39.000  
G16  21946887.402   115331714.680        3677.140          31.000  
> 2024 02 13 14 00 57.9900000  0 20                     
G11  21849159.055   114818100.252       -2792.861          41.000  
G18  20363753.069   107012253.751        3670.936          44.000  
G04  21622768.916   113628393.691        1195.930          39.000  
G28  17889245.778    94008631.104        -888.947          44.000  
G26  19216458.176   100983177.262        2928.787          43.000  
G31  18171571.577    95492221.225         933.847          46.000  
G29  17507384.723    92001945.660        -434.869          47.000  
G12  21752740.145   114311415.966       -3222.889          43.000  
E15  24994269.957   131345785.095       -2492.105          39.000  
G20  21497105.300   112968056.723         949.532          43.000  
G25  18652375.010    98018891.991       -2470.856          45.000  
G05  22124881.429   116267045.563        2851.162          38.000  
E04  24232436.466   127342296.082       -2202.714          34.000  
E13  21717195.114   114124642.795        -217.104          42.000  
E18  25850846.309   135847123.820        4109.565          37.000  
E09  24194868.546   127144896.521        -208.778          38.000  
E21  21607327.470   113547300.330       -1399.852          41.000  
E26  21932377.789   115255427.458        2632.238          42.000  
E31  23911211.863   125654285.507        2640.344          39.000  
G16  21946187.587   115328037.372        3676.809          31.000  
> 2024 02 13 14 00 58.9900000  0 20                     
G11  21849690.632   114820893.287       -2792.744          41.000  
G18  20363054.363   107008583.013        3671.006          44.000  
G04  21622541.427   113627198.532        1194.860          39.000  
G28  17889415.124    94009520.335        -889.307          44.000  
G26  19215901.095   100980248.576        2929.256          43.000  
G31  18171393.891    95491287.746         933.260          46.000  
G29  17507467.960    92002380.889        -435.377          47.000  
G12  21753353.529   114314639.054       -3222.861          43.000  
E15  24994744.333   131348277.421       -2492.332          39.000  
G20  21496924.726   112967108.056         948.656          43.000  
G25  18652845.145    98021363.248       -2471.270          45.000  
G05  22124338.920   116264194.291        2851.227          38.000  
E04  24232855.698   127344498.615       -2202.814          35.000  
E13  21717236.480   114124860.112        -217.258          42.000  
E18  25850064.007   135843013.988        4110.180          37.000  
E09  24194908.551   127145105.583        -209.163          38.000  
E21  21607594.266   113548700.299       -1399.786          41.000  
E26  21931877.072   115252795.425        2631.933          42.000  
E31  23910709.855   125651645.383        2640.109          39.000  
G16  21945487.389   115324360.164        3677.582          31.000  
> 2024 02 13 14 00 59.9900000  0 20                     
G11  21850222.139   114823686.586       -2793.526          41.000  
G18  20362355.726   107004912.399        3670.344          44.000  
G04  21622314.085   113626003.816        1194.142          39.000  
G28  17889584.670    94010410.102        -890.387          44.000  
G26  19215344.032   100977320.053        2928.145          43.000  
G31  18171216.247    95490354.777         932.891          46.000  
G29  17507550.910    92002816.491        -435.934          47.000  
G12  21753967.105   114317862.111       -3223.287          43.000  
E15  24995218.778   131350769.819       -2492.472          39.000  
G20  21496743.837   112966159.812         947.601          42.000  
G25  18653315.289    98023834.670       -2471.716          45.000  
G05  22123796.575   116261343.174        2851.023          38.000  
E04  24233274.739   127346701.264       -2202.954          34.000  
E13  21717278.360   114125077.817        -217.982          42.000  
E18  25849281.906   135838903.754        4110.140          37.000  
E09  24194948.468   127145314.994        -209.695          38.000  
E21  21607860.897   113550100.367       -1400.227          41.000  
E26  21931376.251   115250163.574        2631.514          42.000  
E31  23910207.708   125649005.137        2640.285          39.000  
G16  21944787.522   115320682.928        3677.115          31.000  
> 2024 02 13 14 01 00.9900000  0 20                     
G11  21850753.821   114826480.189       -2793.370          41.000  
G18  20361657.167   107001241.975        3670.490          44.000  
G04  21622086.779   113624809.695        1193.915          38.000  
G28  17889754.391    94011300.487        -890.729          44.000  
G26  19214786.680   100974391.717        2928.085          42.000  
G31  18171038.796    95489422.461         931.955          46.000  
G29  17507633.912    92003252.576        -436.225          47.000  
G12  21754580.506   114321085.221       -3223.047          44.000  
E15  24995693.380   131353262.479       -2492.889          39.000  
G20  21496562.930   112965212.090         947.570          42.000  
G25  18653785.747    98026306.367       -2471.747          45.000  
G05  22123254.502   116258492.300        2850.889          39.000  
E04  24233693.719   127348904.118       -2202.192          34.000  
E13  21717319.726   114125295.994        -218.260          43.000  
E18  25848499.822   135834793.219        4110.883          37.000  
E09  24194988.115   127145524.856        -209.651          38.000  
E21  21608127.711   113551500.602       -1400.256          41.000  
E26  21930875.665   115247532.041        2631.440          42.000  
E31  23909705.473   125646364.917        2640.296          39.000  
G16  21944087.541   115317005.633        3677.690          31.000  
> 2024 02 13 14 01 01.9900000  0 20                     
G11  21851285.329   114829274.195       -2794.227          41.000  
G18  20360958.688   106997571.811        3670.141          44.000  
G04  21621859.498   113623616.207        1192.717          38.000  
G28  17889924.060    94012191.528        -891.296          45.000  
G26  19214229.460   100971463.590        2928.120          42.000  
G31  18170861.711    95488490.774         931.368          46.000  
G29  17507717.167    92003689.180        -436.799          47.000  
G12  21755193.907   114324308.423       -3223.242          44.000  
E15  24996167.625   131355755.341       -2493.101          39.000  
G20  21496382.207   112964264.944         946.932          42.000  
G25  18654256.615    98028778.381       -2472.286          45.000  
G05  22122712.760   116255641.741        2850.139          39.000  
E04  24234112.655   127351107.260       -2202.913          34.000  
E13  21717361.257   114125514.680        -218.825          43.000  
E18  25847717.877   135830682.433        4110.945          37.000  
E09  24195028.303   127145735.216        -210.361          39.000  
E21  21608394.743   113552901.074       -1400.589          42.000  
E26  21930374.530   115244900.841        2630.984          42.000  
E31  23909203.212   125643724.752        2639.953          39.000  
G16  21943387.683   115313328.452        3677.063          31.000  
> 2024 02 13 14 01 02.9900000  0 20                     
G11  21851817.141   114832068.444       -2793.931          41.000  
G18  20360260.435   106993901.782        3670.510          44.000  
G04  21621632.532   113622423.226        1192.668          38.000  
G28  17890093.362    94013083.124        -891.498          44.000  
G26  19213672.030   100968535.656        2927.873          42.000  
G31  18170684.251    95487559.669         931.090          46.000  
G29  17507800.343    92004126.208        -436.894          47.000  
G12  21755807.256   114327531.633       -3222.782          43.000  
E15  24996641.974   131358248.341       -2492.772          39.000  
G20  21496201.789   112963318.270         946.631          41.000  
G25  18654727.090    98031250.594       -2471.967          45.000  
G05  22122170.791   116252791.297        2850.491          39.000  
E04  24234531.992   127353310.525       -2203.089          33.000  
E13  21717403.199   114125733.776        -219.185          42.000  
E18  25846935.829   135826571.297        4111.445          37.000  
E09  24195068.473   127145945.969        -210.555          39.000  
E21  21608661.600   113554301.661       -1400.372          41.000  
E26  21929873.464   115242269.871        2631.078          42.000  
E31  23908701.012   125641084.514        2640.551          39.000  
G16  21942687.981   115309651.195        3677.227          31.000  
> 2024 02 13 14 01 03.9900000  0 20                     
G11  21852348.815   114834862.725       -2794.287          40.000  
G18  20359562.120   106990231.678        3669.960          44.000  
G04  21621405.688   113621230.492        1192.435          37.000  
G28  17890263.353    94013975.048        -892.145          44.000  
G26  19213114.670   100965607.599        2928.093          42.000  
G31  18170507.193    95486628.857         930.434          46.000  
G29  17507883.764    92004563.435        -437.464          47.000  
G12  21756420.605   114330754.606       -3222.883          43.000  
E15  24997116.271   131360741.257       -2493.163          39.000  
G20  21496021.459   112962371.828         945.944          41.000  
G25  18655197.836    98033722.782       -2472.201          45.000  
G05  22121628.944   116249940.819        2850.547          39.000  
E04  24234950.737   127355513.696       -2203.294          33.000  
E13  21717444.827   114125953.053        -219.619          42.000  
E18  25846153.396   135822459.514        4112.033          37.000  
E09  24195109.167   127146156.868        -211.162          39.000  
E21  21608927.925   113555702.135       -1400.692          41.000  
E26  21929372.957   115239638.921        2630.661          42.000  
E31  23908198.411   125638443.997        2640.402          39.000  
G16  21941988.376   115305973.651        3677.194          31.000  
> 2024 02 13 14 01 04.9900000  0 20                     
G11  21852880.628   114837657.504       -2795.198          40.000  
G18  20358863.920   106986561.913        3669.459          44.000  
G04  21621178.783   113620038.526        1191.466          38.000  
G28  17890433.336    94014867.763        -893.390          44.000  
G26  19212557.712   100962679.938        2927.245          42.000  
G31  18170330.291    95485698.844         929.401          46.000  
G29  17507966.906    92005001.299        -438.309          47.000  
G12  21757033.998   114333977.794       -3223.487          43.000  
E15  24997591.022   131363234.542       -2493.477          39.000  
G20  21495841.285   112961426.043         945.430          41.000  
G25  18655668.590    98036195.397       -2472.811          45.000  
G05  22121086.906   116247090.757        2849.302          40.000  
E04  24235369.839   127357717.229       -2203.766          33.000  
E13  21717486.768   114126172.941        -220.273          42.000  
E18  25845371.033   135818347.615        4111.946          37.000  
E09  24195149.626   127146368.375        -211.854          39.000  
E21  21609194.582   113557102.944       -1401.092          41.000  
E26  21928872.214   115237008.403        2630.220          42.000  
E31  23907695.984   125635803.647        2640.074          40.000  
G16  21941288.395   115302296.237        3676.844          30.000  
> 2024 02 13 14 01 05.9900000  0 20                     
G11  21853412.789   114840453.045       -2795.780          40.000  
G18  20358166.086   106982892.808        3669.123          43.000  
G04  21620952.209   113618847.558        1191.002          37.000  
G28  17890603.466    94015761.508        -893.726          44.000  
G26  19212000.832   100959752.894        2927.125          42.000  
G31  18170153.529    95484769.890         928.679          46.000  
G29  17508050.134    92005440.078        -438.811          47.000  
G12  21757647.382   114337201.457       -3223.378          43.000  
E15  24998065.223   131365728.476       -2494.020          39.000  
G20  21495661.827   112960481.248         944.878          41.000  
G25  18656139.772    98038668.730       -2473.305          45.000  
G05  22120545.364   116244241.323        2849.590          39.000  
E04  24235788.670   127359921.399       -2204.148          33.000  
E13  21717528.797   114126393.756        -220.959          42.000  
E18  25844588.504   135814235.866        4112.161          37.000  
E09  24195190.241   127146580.760        -212.514          39.000  
E21  21609461.457   113558504.362       -1401.287          41.000  
E26  21928371.262   115234378.617        2629.930          42.000  
E31  23907193.322   125633163.738        2639.996          39.000  
G16  21940588.432   115298619.269        3677.747          30.000  
> 2024 02 13 14 01 06.9900000  0 20                     
G11  21853945.082   114843248.716       -2795.642          40.000  
G18  20357467.763   106979223.695        3669.128          44.000  
G04  21620725.435   113617657.002        1190.078          38.000  
G28  17890773.624    94016655.690        -894.482          44.000  
G26  19211443.751   100956825.852        2927.020          42.000  
G31  18169976.689    95483841.341         928.250          46.000  
G29  17508133.398    92005879.127        -439.198          47.000  
G12  21758260.853   114340424.995       -3223.588          44.000  
E15  24998539.537   131368222.406       -2494.104          39.000  
G20  21495481.942   112959536.797         944.142          41.000  
G25  18656610.291    98041142.119       -2473.519          45.000  
G05  22120003.596   116241391.936        2849.496          39.000  
E04  24236207.292   127362125.597       -2204.562          33.000  
E13  21717571.131   114126614.836        -221.313          42.000  
E18  25843806.228   135810123.603        4112.375          37.000  
E09  24195231.040   127146793.375        -212.639          39.000  
E21  21609727.904   113559905.774       -1401.575          41.000  
E26  21927871.156   115231748.957        2629.506          42.000  
E31  23906691.009   125630523.643        2640.244          39.000  
G16  21939886.733   115294942.174        3676.881          31.000  
> 2024 02 13 14 01 07.9900000  0 20                     
G11  21854476.921   114846044.421       -2796.021          40.000  
G18  20356769.257   106975554.520        3668.661          43.000  
G04  21620499.114   113616466.687        1190.029          39.000  
G28  17890943.842    94017550.194        -895.068          44.000  
G26  19210886.740   100953898.765        2926.787          43.000  
G31  18169800.075    95482913.131         927.437          46.000  
G29  17508216.679    92006318.375        -439.706          47.000  
G12  21758874.027   114343648.282       -3223.490          44.000  
E15  24999014.070   131370716.227       -2494.003          39.000  
G20  21495302.213   112958592.564         943.964          41.000  
G25  18657080.932    98043615.505       -2473.861          45.000  
G05  22119461.575   116238542.530        2849.478          39.000  
E04  24236626.987   127364329.645       -2203.865          33.000  
E13  21717613.387   114126836.109        -221.781          42.000  
E18  25843023.673   135806010.769        4112.570          37.000  
E09  24195271.559   127147006.186        -213.270          39.000  
E21  21609994.439   113561307.068       -1401.591          41.000  
E26  21927370.833   115229119.291        2629.348          42.000  
E31  23906188.617   125627883.281        2640.047          39.000  
G16  21939186.778   115291264.732        3677.516          31.000  
> 2024 02 13 14 01 08.9900000  0 20                     
G11  21855009.127   114848840.825       -2796.930          40.000  
G18  20356071.074   106971885.908        3668.167          44.000  
G04  21620272.767   113615277.359        1189.354          38.000  
G28  17891114.077    94018445.702        -896.057          44.000  
G26  19210329.956   100950972.269        2925.928          43.000  
G31  18169623.889    95481985.909         926.635          45.000  
G29  17508300.275    92006758.485        -440.700          47.000  
G12  21759487.577   114346872.010       -3223.804          43.000  
E15  24999488.995   131373210.633       -2494.740          39.000  
G20  21495122.676   112957649.279         943.069          41.000  
G25  18657551.512    98046089.522       -2474.321          45.000  
G05  22118919.318   116235693.727        2848.463          39.000  
E04  24237046.325   127366534.320       -2204.201          32.000  
E13  21717655.678   114127058.218        -222.471          42.000  
E18  25842241.083   135801898.006        4112.314          37.000  
E09  24195312.218   127147219.817        -214.253          39.000  
E21  21610261.148   113562708.928       -1402.145          41.000  
E26  21926870.500   115226490.303        2628.472          42.000  
E31  23905685.998   125625243.288        2639.651          39.000  
G16  21938487.731   115287587.712        3677.112          31.000  
> 2024 02 13 14 01 09.9900000  0 20                     
G11  21855541.341   114851637.753       -2797.298          40.000  
G18  20355372.803   106968217.712        3667.666          43.000  
G04  21620046.578   113614088.827        1187.974          38.000  
G28  17891284.758    94019342.027        -896.869          44.000  
G26  19209773.381   100948046.146        2925.885          43.000  
G31  18169447.790    95481059.515         925.865          46.000  
G29  17508383.722    92007199.267        -441.324          47.000  
G12  21760101.153   114350096.005       -3224.385          43.000  
E15  24999963.719   131375705.452       -2494.844          39.000  
G20  21494943.393   112956706.716         942.271          41.000  
G25  18658022.197    98048564.024       -2475.077          45.000  
G05  22118377.358   116232845.368        2847.781          39.000  
E04  24237465.601   127368739.383       -2204.978          32.000  
E13  21717698.020   114127281.001        -223.043          42.000  
E18  25841458.449   135797785.109        4112.948          37.000  
E09  24195353.130   127147434.092        -214.690          39.000  
E21  21610527.953   113564111.166       -1402.413          41.000  
E26  21926370.141   115223861.817        2628.251          42.000  
E31  23905183.537   125622603.485        2639.794          40.000  
G16  21937789.243   115283910.913        3676.382          30.000  
> 2024 02 13 14 01 10.9900000  0 20                     
G11  21856073.878   114854435.097       -2797.596          40.000  
G18  20354674.821   106964549.786        3667.710          43.000  
G04  21619820.449   113612900.924        1187.485          38.000  
G28  17891455.622    94020239.036        -897.516          45.000  
G26  19209216.981   100945120.326        2925.431          43.000  
G31  18169271.796    95480133.815         925.192          46.000  
G29  17508467.483    92007640.591        -441.578          47.000  
G12  21760714.737   114353320.122       -3224.490          43.000  
E15  25000438.601   131378200.547       -2495.443          38.000  
G20  21494764.310   112955764.753         941.671          41.000  
G25  18658492.672    98051038.856       -2475.228          45.000  
G05  22117835.302   116229997.319        2847.581          39.000  
E04  24237885.174   127370944.772       -2205.649          32.000  
E13  21717740.416   114127504.328        -223.554          42.000  
E18  25840675.493   135793671.994        4113.059          37.000  
E09  24195394.077   127147648.888        -215.049          39.000  
E21  21610794.872   113565513.661       -1402.826          41.000  
E26  21925869.765   115221233.707        2627.825          42.000  
E31  23904681.258   125619963.795        2639.536          40.000  
G16  21937090.667   115280234.141        3676.877          30.000  
> 2024 02 13 14 01 11.9900000  0 20                     
G11  21856606.118   114857232.812       -2797.469          40.000  
G18  20353976.838   106960882.125        3668.203          43.000  
G04  21619594.539   113611713.665        1187.232          37.000  
G28  17891626.669    94021136.727        -897.552          44.000  
G26  19208660.345   100942194.772        2925.944          43.000  
G31  18169095.723    95479208.780         925.261          46.000  
G29  17508551.296    92008082.476        -441.821          47.000  
G12  21761328.348   114356544.359       -3223.949          43.000  
E15  25000913.395   131380695.889       -2495.016          38.000  
G20  21494584.773   112954823.395         941.115          41.000  
G25  18658963.767    98053514.032       -2474.935          45.000  
G05  22117293.342   116227149.556        2848.048          39.000  
E04  24238304.573   127373150.359       -2204.785          33.000  
E13  21717782.855   114127728.203        -223.545          42.000  
E18  25839892.772   135789558.659        4114.125          37.000  
E09  24195435.068   127147864.197        -215.312          39.000  
E21  21611062.035   113566916.396       -1402.456          41.000  
E26  21925369.319   115218605.947        2628.073          42.000  
E31  23904179.303   125617324.158        2640.190          40.000  
G16  21936386.978   115276557.441        3677.918          30.000  
> 2024 02 13 14 01 12.9900000  0 20                     
G11  21857138.498   114860030.587       -2798.031          40.000  
G18  20353278.576   106957214.430        3667.276          43.000  
G04  21619368.707   113610526.699        1186.945          37.000  
G28  17891797.410    94022034.785        -898.718          45.000  
G26  19208103.936   100939269.171        2925.293          43.000  
G31  18168919.860    95478284.117         923.977          46.000  
G29  17508635.589    92008524.562        -442.693          47.000  
G12  21761942.090   114359768.382       -3224.410          43.000  
E15  25001388.189   131383191.187       -2495.552          39.000  
G20  21494405.787   112953882.273         940.304          41.000  
G25  18659434.670    98055989.198       -2475.677          45.000  
G05  22116751.652   116224301.761        2847.338          39.000  
E04  24238724.198   127375355.938       -2205.812          33.000  
E13  21717825.224   114127952.275        -224.561          42.000  
E18  25839110.392   135785444.745        4113.874          37.000  
E09  24195476.206   127148079.677        -215.930          39.000  
E21  21611328.857   113568319.036       -1403.038          41.000  
E26  21924869.257   115215978.222        2627.403          42.000  
E31  23903677.016   125614684.287        2639.499          40.000  
G16  21935685.523   115272880.570        3676.604          31.000  
> 2024 02 13 14 01 13.9900000  0 20                     
G11  21857670.817   114862828.657       -2797.892          40.000  
G18  20352580.332   106953546.853        3667.797          43.000  
G04  21619143.005   113609340.244        1186.879          37.000  
G28  17891968.649    94022933.369        -898.517          44.000  
G26  19207547.248   100936343.688        2925.840          43.000  
G31  18168744.145    95477360.003         923.968          46.000  
G29  17508719.769    92008967.056        -442.420          47.000  
G12  21762555.596   114362992.406       -3223.765          43.000  
E15  25001863.324   131385686.601       -2495.060          39.000  
G20  21494226.520   112952941.633         940.612          41.000  
G25  18659906.035    98058464.574       -2475.196          45.000  
G05  22116209.840   116221454.127        2847.888          38.000  
E04  24239143.937   127377561.623       -2205.590          33.000  
E13  21717867.654   114128176.745        -224.159          42.000  
E18  25838327.383   135781330.488        4114.494          37.000  
E09  24195517.223   127148295.544        -215.713          39.000  
E21  21611596.064   113569721.808       -1402.825          42.000  
E26  21924369.264   115213350.731        2627.545          42.000  
E31  23903174.650   125612044.337        2640.293          40.000  
G16  21934994.486   115269203.566        3677.114          31.000  
> 2024 02 13 14 01 14.9900000  0 20                     
G11  21858203.197   114865626.790       -2798.649          40.000  
G18  20351882.262   106949879.231        3667.352          43.000  
G04  21618917.139   113608154.152        1185.379          38.000  
G28  17892139.766    94023832.345        -899.384          44.000  
G26  19206990.586   100933418.185        2925.163          43.000  
G31  18168568.386    95476436.252         923.180          46.000  
G29  17508804.028    92009409.797        -443.267          47.000  
G12  21763169.407   114366216.232       -3223.965          43.000  
E15  25002338.257   131388181.975       -2495.370          39.000  
G20  21494047.542   112952001.271         939.822          41.000  
G25  18660377.278    98060939.970       -2475.658          45.000  
G05  22115667.749   116218606.479        2847.477          38.000  
E04  24239563.911   127379767.264       -2205.929          33.000  
E13  21717910.337   114128401.462        -225.081          42.000  
E18  25837544.470   135777215.627        4115.331          37.000  
E09  24195558.057   127148511.619        -216.467          38.000  
E21  21611863.462   113571124.483       -1402.920          41.000  
E26  21923868.984   115210723.276        2627.244          42.000  
E31  23902672.215   125609404.144        2640.060          39.000  
G16  21934289.584   115265526.370        3676.412          31.000  
> 2024 02 13 14 01 15.9900000  0 20                     
G11  21858735.821   114868425.369       -2798.790          40.000  
G18  20351184.402   106946211.969        3666.925          43.000  
G04  21618691.717   113606968.770        1184.788          38.000  
G28  17892310.630    94024732.083        -900.317          44.000  
G26  19206433.985   100930493.027        2924.879          43.000  
G31  18168392.471    95475513.256         922.784          46.000  
G29  17508888.661    92009853.158        -443.813          47.000  
G12  21763783.175   114369440.274       -3224.208          43.000  
E15  25002813.226   131390677.708       -2495.941          39.000  
G20  21493868.765   112951061.576         939.092          41.000  
G25  18660848.591    98063415.766       -2476.145          45.000  
G05  22115125.693   116215759.269        2846.979          38.000  
E04  24239983.441   127381973.253       -2206.654          33.000  
E13  21717952.863   114128626.779        -225.778          42.000  
E18  25836761.401   135773100.655        4115.215          38.000  
E09  24195599.143   127148728.287        -217.289          38.000  
E21  21612130.599   113572527.507       -1403.307          41.000  
E26  21923368.765   115208096.292        2626.769          42.000  
E31  23902170.399   125606764.112        2639.955          39.000  
G16  21933590.459   115261849.262        3677.095          31.000  
> 2024 02 13 14 01 16.9900000  0 20                     
G11  21859268.533   114871224.573       -2799.348          40.000  
G18  20350486.411   106942545.178        3666.586          43.000  
G04  21618466.199   113605784.216        1184.199          38.000  
G28  17892481.982    94025632.697        -900.873          44.000  
G26  19205877.480   100927568.343        2924.717          43.000  
G31  18168216.886    95474591.154         921.738          46.000  
G29  17508973.059    92010297.254        -444.176          47.000  
G12  21764396.698   114372664.629       -3224.577          43.000  
E15  25003288.247   131393173.912       -2496.669          39.000  
G20  21493690.083   112950122.654         938.737          41.000  
G25  18661319.965    98065892.100       -2476.541          45.000  
G05  22114583.759   116212912.526        2846.359          38.000  
E04  24240403.677   127384179.691       -2206.667          33.000  
E13  21717996.114   114128852.819        -226.224          43.000  
E18  25835978.261   135768985.649        4115.091          37.000  
E09  24195640.378   127148945.669        -217.770          38.000  
E21  21612397.744   113573930.957       -1403.518          41.000  
E26  21922869.104   115205469.847        2626.229          42.000  
E31  23901668.164   125604124.355        2639.697          39.000  
G16  21932896.053   115258172.481        3676.339          31.000  
> 2024 02 13 14 01 17.9900000  0 20                     
G11  21859801.035   114874023.956       -2799.165          40.000  
G18  20349788.559   106938878.463        3666.905          43.000  
G04  21618241.222   113604600.128        1184.198          38.000  
G28  17892653.117    94026533.803        -901.263          44.000  
G26  19205320.906   100924643.734        2924.739          43.000  
G31  18168041.137    95473669.560         921.474          46.000  
G29  17509057.658    92010741.720        -444.506          47.000  
G12  21765010.231   114375888.905       -3224.087          43.000  
E15  25003763.443   131395670.156       -2496.181          39.000  
G20  21493511.829   112949184.199         938.461          41.000  
G25  18661791.060    98068368.574       -2476.352          45.000  
G05  22114041.712   116210065.899        2846.396          37.000  
E04  24240823.695   127386386.225       -2206.491          33.000  
E13  21718039.539   114129079.224        -226.587          43.000  
E18  25835194.999   135764870.186        4115.887          37.000  
E09  24195681.962   127149163.343        -217.480          38.000  
E21  21612664.663   113575334.500       -1403.770          41.000  
E26  21922369.295   115202843.596        2626.184          42.000  
E31  23901165.249   125601484.468        2640.165          39.000  
G16  21932192.042   115254495.556        3676.460          31.000  
> 2024 02 13 14 01 18.9900000  0 20                     
G11  21860334.113   114876823.847       -2799.839          40.000  
G18  20349090.943   106935212.130        3666.136          43.000  
G04  21618015.809   113603416.797        1182.825          38.000  
G28  17892824.548    94027435.699        -902.246          44.000  
G26  19204764.471   100921719.489        2924.632          43.000  
G31  18167865.666    95472748.751         920.348          46.000  
G29  17509142.370    92011186.819        -445.251          47.000  
G12  21765623.920   114379113.415       -3224.481          43.000  
E15  25004238.647   131398166.790       -2496.842          39.000  
G20  21493333.383   112948246.412         937.649          42.000  
G25  18662262.373    98070845.517       -2477.222          45.000  
G05  22113499.917   116207219.697        2845.860          37.000  
E04  24241243.739   127388593.136       -2207.378          34.000  
E13  21718082.868   114129306.265        -227.391          42.000  
E18  25834411.990   135760754.615        4115.775          38.000  
E09  24195723.380   127149381.683        -218.599          38.000  
E21  21612932.000   113576738.355       -1404.038          41.000  
E26  21921869.651   115200217.815        2625.337          42.000  
E31  23900662.796   125598844.779        2639.466          39.000  
G16  21931490.046   115250818.811        3677.124          31.000  
> 2024 02 13 14 01 19.9900000  0 20                     
G11  21860867.060   114879623.889       -2800.395          40.000  
G18  20348393.039   106931545.833        3666.230          43.000  
G04  21617790.561   113602233.846        1182.703          38.000  
G28  17892996.267    94028338.045        -902.716          44.000  
G26  19204208.044   100918795.340        2923.669          44.000  
G31  18167690.448    95471828.373         920.026          46.000  
G29  17509227.448    92011632.236        -445.747          47.000  
G12  21766237.539   114382337.814       -3224.662          43.000  
E15  25004713.302   131400663.454       -2497.234          38.000  
G20  21493155.313   112947309.014         936.876          42.000  
G25  18662733.799    98073322.527       -2477.155          45.000  
G05  22112957.905   116204373.529        2845.978          37.000  
E04  24241664.106   127390800.081       -2207.493          34.000  
E13  21718126.336   114129533.606        -227.649          42.000  
E18  25833629.078   135756638.575        4115.958          38.000  
E09  24195764.920   127149600.272        -218.823          38.000  
E21  21613198.901   113578142.227       -1404.050          41.000  
E26  21921370.689   115197592.146        2625.194          42.000  
E31  23900160.361   125596204.895        2639.923          39.000  
G16  21930792.997   115247141.933        3675.891          31.000  
> 2024 02 13 14 01 20.9900000  0 20                     
G11  21861399.972   114882424.592       -2801.533          40.000  
G18  20347695.431   106927880.074        3665.017          43.000  
G04  21617565.689   113601051.779        1181.643          38.000  
G28  17893168.090    94029241.342        -904.102          44.000  
G26  19203651.601   100915871.686        2922.635          44.000  
G31  18167515.449    95470908.953         918.565          45.000  
G29  17509312.405    92012078.455        -447.119          47.000  
G12  21766851.045   114385562.591       -3225.441          44.000  
E15  25005188.594   131403160.622       -2497.698          38.000  
G20  21492977.408   112946372.408         936.001          42.000  
G25  18663205.278    98075800.152       -2478.249          45.000  
G05  22112416.041   116201527.940        2844.624          37.000  
E04  24242084.604   127393007.495       -2207.718          33.000  
E13  21718170.110   114129761.737        -228.872          42.000  
E18  25832845.816   135752522.535        4115.744          38.000  
E09  24195806.644   127149819.622        -219.720          38.000  
E21  21613466.160   113579546.599       -1404.911          41.000  
E26  21920871.473   115194967.085        2624.575          42.000  
E31  23899658.126   125593565.366        2639.280          39.000  
G16  21930095.468   115243465.305        3675.827          31.000  
> 2024 02 13 14 01 21.9900000  0 20                     
G11  21861933.050   114885225.658       -2801.313          40.000  
G18  20346998.060   106924214.558        3665.413          43.000  
G04  21617341.000   113599870.409        1180.814          37.000  
G28  17893339.983    94030145.292        -904.193          44.000  
G26  19203095.113   100912948.285        2923.418          44.000  
G31  18167340.231    95469990.205         918.389          45.000  
G29  17509397.204    92012525.204        -447.018          47.000  
G12  21767464.761   114388787.466       -3224.834          44.000  
E15  25005664.033   131405658.072       -2497.482          38.000  
G20  21492799.538   112945436.451         935.582          42.000  
G25  18663676.923    98078278.083       -2478.067          45.000  
G05  22111874.229   116198682.645        2845.424          37.000  
E04  24242505.049   127395215.218       -2207.583          34.000  
E13  21718213.683   114129990.407        -228.965          42.000  
E18  25832062.432   135748406.268        4116.319          38.000  
E09  24195848.481   127150039.518        -220.171          38.000  
E21  21613733.183   113580951.216       -1404.769          41.000  
E26  21920372.187   115192342.391        2624.665          42.000  
E31  23899155.856   125590925.902        2639.324          39.000  
G16  21929394.859   115239788.802        3676.583          31.000  
> 2024 02 13 14 01 22.9900000  0 20                     
G11  21862466.172   114888027.048       -2801.887          40.000  
G18  20346300.819   106920549.233        3665.181          43.000  
G04  21617116.407   113598689.536        1180.613          38.000  
G28  17893511.982    94031049.856        -905.164          44.000  
G26  19202539.158   100910025.081        2922.931          44.000  
G31  18167165.284    95469072.043         917.898          45.000  
G29  17509482.422    92012972.408        -447.552          47.000  
G12  21768078.590   114392012.378       -3225.035          44.000  
E15  25006139.587   131408155.684       -2497.842          38.000  
G20  21492621.415   112944500.964         935.035          42.000  
G25  18664148.393    98080756.267       -2478.605          45.000  
G05  22111332.888   116195837.590        2844.801          37.000  
E04  24242924.928   127397423.126       -2208.045          34.000  
E13  21718257.719   114130219.510        -229.331          42.000  
E18  25831279.493   135744289.673        4116.478          38.000  
E09  24195890.239   127150259.802        -220.700          38.000  
E21  21614000.573   113582355.992       -1405.076          41.000  
E26  21919873.050   115189717.974        2624.195          42.000  
E31  23898653.334   125588286.417        2639.252          39.000  
G16  21928692.959   115236112.287        3675.990          31.000  
> 2024 02 13 14 01 23.9900000  0 20                     
G11  21862999.320   114890828.873       -2802.044          40.000  
G18  20345603.534   106916884.252        3664.772          43.000  
G04  21616891.744   113597509.393        1179.794          37.000  
G28  17893684.128    94031955.165        -905.994          44.000  
G26  19201982.740   100907102.241        2922.339          44.000  
G31  18166990.616    95468154.660         916.639          45.000  
G29  17509568.033    92013420.231        -448.316          47.000  
G12  21768692.357   114395237.495       -3225.450          44.000  
E15  25006614.686   131410653.653       -2498.584          38.000  
G20  21492443.536   112943566.156         934.377          42.000  
G25  18664620.037    98083234.860       -2478.998          45.000  
G05  22110791.216   116192992.892        2844.048          37.000  
E04  24243345.312   127399631.378       -2208.744          34.000  
E13  21718301.397   114130449.241        -230.351          42.000  
E18  25830495.874   135740172.902        4116.711          38.000  
E09  24195931.989   127150480.681        -221.547          38.000  
E21  21614267.648   113583761.070       -1405.555          41.000  
E26  21919373.764   115187094.008        2623.562          42.000  
E31  23898151.178   125585647.081        2639.014          39.000  
G16  21927992.097   115232435.872        3676.397          30.000  
> 2024 02 13 14 01 24.9900000  0 20                     
G11  21863532.310   114893631.003       -2801.916          40.000  
G18  20344906.302   106913219.477        3664.729          43.000  
G04  21616667.195   113596329.841        1179.531          37.000  
G28  17893856.100    94032861.066        -906.024          44.000  
G26  19201426.706   100904179.564        2922.758          44.000  
G31  18166815.931    95467237.837         916.916          45.000  
G29  17509653.260    92013868.510        -448.188          47.000  
G12  21769306.178   114398462.623       -3224.791          43.000  
E15  25007089.856   131413151.773       -2497.937          38.000  
G20  21492265.526   112942631.851         934.415          41.000  
G25  18665091.856    98085713.691       -2478.747          45.000  
G05  22110249.875   116190148.403        2844.509          37.000  
E04  24243765.339   127401839.753       -2208.135          34.000  
E13  21718345.188   114130679.401        -230.134          42.000  
E18  25829712.420   135736055.805        4117.585          38.000  
E09  24195973.782   127150701.975        -220.893          38.000  
E21  21614535.151   113585166.303       -1404.925          41.000  
E26  21918874.540   115184470.302        2623.848          43.000  
E31  23897648.786   125583007.723        2639.897          39.000  
G16  21927293.870   115228759.429        3677.120          30.000  
> 2024 02 13 14 01 25.9900000  0 20                     
G11  21864065.301   114896433.260       -2802.013          40.000  
G18  20344208.834   106909554.672        3664.671          43.000  
G04  21616442.628   113595150.632        1178.632          38.000  
G28  17894028.595    94033767.382        -906.543          44.000  
G26  19200870.786   100901256.892        2922.608          44.000  
G31  18166641.376    95466321.454         915.963          46.000  
G29  17509738.321    92014317.067        -448.811          47.000  
G12  21769919.919   114401687.619       -3224.778          44.000  
E15  25007565.217   131415649.888       -2498.128          38.000  
G20  21492087.307   112941697.911         933.519          40.000  
G25  18665563.544    98088192.573       -2478.833          45.000  
G05  22109708.762   116187303.986        2843.787          37.000  
E04  24244185.566   127404048.173       -2208.772          34.000  
E13  21718388.909   114130909.824        -230.579          42.000  
E18  25828928.940   135731938.196        4117.908          37.000  
E09  24196015.706   127150923.544        -221.975          38.000  
E21  21614802.620   113586571.525       -1405.155          41.000  
E26  21918375.664   115181846.701        2623.461          43.000  
E31  23897146.603   125580368.169        2639.602          39.000  
G16  21926593.026   115225082.820        3677.557          30.000  
> 2024 02 13 14 01 26.9900000  0 20                     
G11  21864598.431   114899235.883       -2802.567          39.000  
G18  20343511.262   106905890.132        3664.646          43.000  
G04  21616218.174   113593972.030        1178.652          38.000  
G28  17894201.239    94034674.374        -907.312          44.000  
G26  19200314.604   100898334.482        2922.227          44.000  
G31  18166466.856    95465405.719         915.509          45.000  
G29  17509823.871    92014766.151        -449.273          47.000  
G12  21770533.643   114404912.724       -3225.187          43.000  
E15  25008040.631   131418148.233       -2498.271          38.000  
G20  21491909.350   112940764.536         933.206          40.000  
G25  18666035.372    98090671.783       -2479.325          45.000  
G05  22109167.604   116184459.808        2844.145          38.000  
E04  24244606.082   127406256.815       -2208.879          34.000  
E13  21718432.683   114131140.776        -231.151          42.000  
E18  25828144.815   135727820.365        4117.882          37.000  
E09  24196057.735   127151145.582        -222.233          38.000  
E21  21615070.184   113587976.980       -1405.448          41.000  
E26  21917876.291   115179223.440        2623.113          43.000  
E31  23896644.674   125577728.678        2639.211          39.000  
G16  21925890.088   115221406.322        3677.301          29.000  
> 2024 02 13 14 01 27.9900000  0 20                     
G11  21865131.946   114902038.947       -2803.385          39.000  
G18  20342814.004   106902225.891        3663.875          43.000  
G04  21615994.053   113592794.151        1177.216          38.000  
G28  17894374.040    94035582.050        -908.160          44.000  
G26  19199758.579   100895412.352        2921.846          44.000  
G31  18166292.817    95464490.710         914.438          46.000  
G29  17509909.429    92015215.791        -450.217          47.000  
G12  21771147.385   114408137.958       -3225.453          43.000  
E15  25008516.385   131420646.898       -2498.779          38.000  
G20  21491731.672   112939831.770         931.787          40.000  
G25  18666507.086    98093151.353       -2480.084          45.000  
G05  22108626.168   116181615.958        2843.460          38.000  
E04  24245026.414   127408465.776       -2209.267          34.000  
E13  21718476.195   114131372.273        -231.844          42.000  
E18  25827361.064   135723702.296        4117.773          38.000  
E09  24196100.479   127151368.153        -223.006          38.000  
E21  21615337.940   113589382.694       -1406.004          41.000  
E26  21917377.494   115176600.564        2622.530          42.000  
E31  23896142.466   125575089.257        2639.344          39.000  
G16  21925195.604   115217729.889        3675.799          30.000  
> 2024 02 13 14 01 28.9900000  0 20                     
G11  21865665.425   114904842.733       -2803.969          39.000  
G18  20342116.859   106898562.258        3663.501          43.000  
G04  21615769.913   113591617.224        1176.537          37.000  
G28  17894547.181    94036490.769        -909.045          44.000  
G26  19199202.624   100892490.865        2921.228          44.000  
G31  18166119.039    95463576.735         913.734          46.000  
G29  17509995.380    92015666.326        -450.750          47.000  
G12  21771761.118   114411363.674       -3225.868          43.000  
E15  25008991.310   131423146.167       -2499.281          37.000  
G20  21491554.517   112938899.929         931.552          41.000  
G25  18666978.958    98095631.603       -2480.667          45.000  
G05  22108084.993   116178772.782        2842.858          38.000  
E04  24245446.641   127410675.333       -2209.259          34.000  
E13  21718520.109   114131604.677        -232.766          42.000  
E18  25826577.462   135719584.361        4117.837          38.000  
E09  24196142.892   127151591.619        -223.732          38.000  
E21  21615605.216   113590789.002       -1406.270          41.000  
E26  21916878.366   115173978.411        2621.929          42.000  
E31  23895640.370   125572450.269        2639.277          40.000  
G16  21924497.089   115214053.846        3677.222          31.000  
> 2024 02 13 14 01 29.9900000  0 20                     
G11  21866198.590   114907646.709       -2803.893          38.000  
G18  20341419.356   106894898.711        3663.519          43.000  
G04  21615545.582   113590440.742        1176.452          37.000  
G28  17894720.261    94037399.977        -909.515          44.000  
G26  19198646.948   100889569.436        2921.320          44.000  
G31  18165945.278    95462663.246         913.157          46.000  
G29  17510080.834    92016117.206        -450.988          47.000  
G12  21772374.929   114414589.314       -3225.550          43.000  
E15  25009466.689   131425645.520       -2499.444          37.000  
G20  21491377.170   112937968.486         931.344          41.000  
G25  18667450.995    98098111.978       -2480.403          45.000  
G05  22107544.010   116175929.689        2843.372          38.000  
E04  24245867.349   127412884.971       -2209.545          34.000  
E13  21718564.197   114131837.395        -232.803          42.000  
E18  25825793.834   135715465.954        4118.800          38.000  
E09  24196185.514   127151815.371        -223.806          38.000  
E21  21615872.929   113592195.358       -1406.381          42.000  
E26  21916379.097   115171356.405        2621.993          42.000  
E31  23895138.406   125569811.144        2639.444          40.000  
G16  21923799.534   115210377.720        3676.190          30.000  
> 2024 02 13 14 01 30.9900000  0 20                     
G11  21866732.131   114910451.103       -2804.351          38.000  
G18  20340722.403   106891235.446        3662.933          43.000  
G04  21615321.792   113589264.897        1175.603          37.000  
G28  17894893.533    94038309.869        -910.101          44.000  
G26  19198090.775   100886648.294        2921.215          44.000  
G31  18165771.762    95461750.441         912.574          45.000  
G29  17510166.689    92016568.640        -451.661          47.000  
G12  21772988.802   114417815.091       -3225.756          43.000  
E15  25009942.225   131428145.151       -2499.587          37.000  
G20  21491200.234   112937037.669         930.707          41.000  
G25  18667922.735    98100592.703       -2480.945          44.000  
G05  22107002.948   116173086.949        2842.541          38.000  
E04  24246287.794   127415094.879       -2209.928          34.000  
E13  21718608.712   114132070.679        -233.584          42.000  
E18  25825010.057   135711347.350        4118.606          38.000  
E09  24196228.180   127152039.626        -224.537          38.000  
E21  21616140.982   113593601.957       -1406.563          42.000  
E26  21915879.838   115168734.777        2621.547          42.000  
E31  23894636.189   125567172.149        2639.038          39.000  
G16  21923099.074   115206701.704        3675.665          30.000  
> 2024 02 13 14 01 31.9900000  0 20                     
G11  21867265.496   114913255.804       -2805.371          38.000  
G18  20340024.996   106887572.338        3663.079          42.000  
G04  21615098.106   113588089.612        1174.999          37.000  
G28  17895067.023    94039220.350        -910.907          44.000  
G26  19197535.020   100883727.358        2920.576          44.000  
G31  18165598.429    95460838.222         911.894          46.000  
G29  17510252.614    92017020.510        -452.113          47.000  
G12  21773602.875   114421040.885       -3225.954          43.000  
E15  25010417.604   131430644.926       -2499.853          37.000  
G20  21491022.966   112936107.330         929.835          41.000  
G25  18668394.825    98103073.674       -2481.288          44.000  
G05  22106462.192   116170244.439        2842.095          38.000  
E04  24246708.275   127417304.938       -2210.512          35.000  
E13  21718652.390   114132304.393        -234.063          42.000  
E18  25824226.490   135707228.391        4118.694          38.000  
E09  24196271.064   127152264.336        -225.296          38.000  
E21  21616408.432   113595008.708       -1406.608          42.000  
E26  21915380.491   115166113.408        2621.207          42.000  
E31  23894133.902   125564533.105        2639.009          39.000  
G16  21922399.704   115203025.543        3675.792          31.000  
> 2024 02 13 14 01 32.9900000  0 20                     
G11  21867799.054   114916060.659       -2805.291          39.000  
G18  20339327.991   106883909.343        3662.583          42.000  
G04  21614874.647   113586914.774        1174.577          37.000  
G28  17895240.330    94040131.336        -911.487          44.000  
G26  19196979.239   100880806.479        2920.566          44.000  
G31  18165425.236    95459926.526         911.245          46.000  
G29  17510338.704    92017472.771        -452.693          47.000  
G12  21774216.721   114424266.619       -3226.023          43.000  
E15  25010893.488   131433144.771       -2500.204          37.000  
G20  21490846.361   112935177.413         929.462          41.000  
G25  18668866.836    98105554.774       -2481.255          44.000  
G05  22105921.061   116167402.000        2842.562          38.000  
E04  24247129.209   127419515.056       -2209.770          35.000  
E13  21718697.168   114132538.454        -234.365          43.000  
E18  25823442.531   135703109.037        4119.323          38.000  
E09  24196313.494   127152489.354        -225.746          38.000  
E21  21616675.604   113596415.540       -1407.185          42.000  
E26  21914881.930   115163492.242        2620.896          42.000  
E31  23893631.562   125561893.963        2638.749          39.000  
G16  21921703.466   115199349.395        3675.583          31.000  
> 2024 02 13 14 01 33.9900000  0 20                     
G11  21868332.822   114918866.143       -2805.918          39.000  
G18  20338630.977   106880246.819        3662.210          42.000  
G04  21614651.415   113585740.836        1173.562          37.000  
G28  17895413.924    94041043.200        -912.347          44.000  
G26  19196423.825   100877886.108        2920.109          44.000  
G31  18165251.841    95459015.721         910.332          45.000  
G29  17510425.205    92017925.784        -453.383          47.000  
G12  21774830.690   114427492.692       -3226.260          43.000  
E15  25011369.077   131435645.126       -2500.553          37.000  
G20  21490669.826   112934248.360         928.669          40.000  
G25  18669338.785    98108036.439       -2481.911          44.000  
G05  22105380.043   116164560.095        2841.278          38.000  
E04  24247550.178   127421725.691       -2210.765          35.000  
E13  21718741.439   114132773.281        -235.329          42.000  
E18  25822658.501   135698989.630        4119.421          37.000  
E09  24196356.413   127152715.127        -226.421          38.000  
E21  21616943.404   113597822.804       -1407.751          42.000  
E26  21914383.290   115160871.635        2620.320          43.000  
E31  23893129.502   125559255.101        2638.612          39.000  
G16  21921001.339   115195673.477        3676.140          31.000  
> 2024 02 13 14 01 34.9900000  0 20                     
G11  21868866.842   114921671.892       -2805.702          39.000  
G18  20337933.797   106876584.447        3662.427          42.000  
G04  21614428.184   113584567.397        1173.477          37.000  
G28  17895587.729    94041955.642        -912.573          44.000  
G26  19195868.149   100874965.882        2920.359          44.000  
G31  18165078.735    95458105.459         910.371          45.000  
G29  17510511.392    92018379.214        -453.491          47.000  
G12  21775444.597   114430718.761       -3226.149          43.000  
E15  25011844.970   131438145.601       -2500.449          37.000  
G20  21490493.073   112933319.742         928.243          40.000  
G25  18669811.041    98110518.316       -2481.924          44.000  
G05  22104839.060   116161718.379        2841.889          37.000  
E04  24247970.972   127423936.488       -2210.813          36.000  
E13  21718786.068   114133008.520        -235.225          43.000  
E18  25821874.445   135694869.886        4119.986          38.000  
E09  24196399.707   127152941.249        -225.984          38.000  
E21  21617211.107   113599230.203       -1407.262          42.000  
E26  21913884.598   115158251.270        2620.478          43.000  
E31  23892626.823   125556616.192        2639.151          39.000  
G16  21920297.301   115191997.489        3676.969          31.000  
> 2024 02 13 14 01 35.9900000  0 20                     
G11  21869400.723   114924477.948       -2806.117          39.000  
G18  20337236.574   106872922.289        3661.749          41.000  
G04  21614205.231   113583394.526        1172.501          38.000  
G28  17895761.288    94042868.685        -913.379          44.000  
G26  19195312.290   100872045.862        2919.768          44.000  
G31  18164906.092    95457195.844         909.114          46.000  
G29  17510597.823    92018833.118        -454.397          47.000  
G12  21776058.557   114433944.866       -3226.191          43.000  
E15  25012320.628   131440646.257       -2500.660          37.000  
G20  21490316.511   112932391.657         927.355          40.000  
G25  18670283.427    98113000.457       -2482.604          44.000  
G05  22104298.261   116158876.877        2841.469          37.000  
E04  24248391.505   127426147.464       -2211.326          36.000  
E13  21718830.609   114133244.218        -236.066          43.000  
E18  25821090.259   135690749.832        4120.141          38.000  
E09  24196442.940   127153167.817        -226.816          37.000  
E21  21617478.933   113600637.781       -1407.835          42.000  
E26  21913386.437   115155631.212        2619.759          43.000  
E31  23892124.588   125553977.251        2638.983          39.000  
G16  21919601.404   115188321.571        3676.081          31.000  
> 2024 02 13 14 01 36.9900000  0 20                     
G11  21869934.752   114927284.544       -2806.482          39.000  
G18  20336539.987   106869260.520        3661.705          41.000  
G04  21613982.269   113582222.443        1171.737          38.000  
G28  17895935.337    94043782.537        -913.831          45.000  
G26  19194756.649   100869126.233        2919.675          44.000  
G31  18164733.134    95456287.014         908.813          46.000  
G29  17510684.454    92019287.684        -454.713          47.000  
G12  21776672.700   114437171.227       -3226.305          43.000  
E15  25012796.321   131443147.327       -2500.925          37.000  
G20  21490140.360   112931464.262         927.285          40.000  
G25  18670755.787    98115483.033       -2482.352          44.000  
G05  22103757.374   116156035.815        2841.060          37.000  
E04  24248812.404   127428358.834       -2211.312          35.000  
E13  21718874.968   114133480.582        -236.578          43.000  
E18  25820306.011   135686629.677        4120.345          38.000  
E09  24196486.016   127153395.072        -227.555          37.000  
E21  21617746.925   113602045.723       -1407.915          43.000  
E26  21912887.859   115153011.630        2619.621          43.000  
E31  23891622.423   125551338.548        2638.919          39.000  
G16  21918901.991   115184645.822        3675.318          30.000  
> 2024 02 13 14 01 37.9900000  0 20                     
G11  21870468.973   114930091.404       -2806.784          38.000  
G18  20335842.973   106865598.923        3661.586          41.000  
G04  21613759.613   113581050.871        1171.288          37.000  
G28  17896109.211    94044696.975        -914.673          45.000  
G26  19194200.929   100866206.778        2919.347          44.000  
G31  18164560.830    95455378.766         908.235          46.000  
G29  17510771.252    92019742.682        -455.040          47.000  
G12  21777286.581   114440397.595       -3226.429          43.000  
E15  25013272.320   131445648.553       -2501.347          37.000  
G20  21489963.912   112930537.387         926.456          40.000  
G25  18671228.522    98117965.856       -2482.812          45.000  
G05  22103216.905   116153194.959        2840.519          37.000  
E04  24249233.225   127430570.350       -2211.351          35.000  
E13  21718919.955   114133717.364        -236.867          43.000  
E18  25819521.789   135682509.168        4120.544          38.000  
E09  24196529.310   127153622.675        -227.677          37.000  
E21  21618015.013   113603453.808       -1407.994          43.000  
E26  21912389.384   115150392.320        2619.299          43.000  
E31  23891120.476   125548699.796        2638.823          39.000  
G16  21918202.909   115180969.967        3676.973          31.000  
> 2024 02 13 14 01 38.9900000  0 20                     
G11  21871003.159   114932898.510       -2807.059          38.000  
G18  20335146.291   106861937.462        3661.498          41.000  
G04  21613536.582   113579879.797        1170.907          37.000  
G28  17896283.155    94045611.959        -915.478          45.000  
G26  19193645.026   100863287.460        2919.028          44.000  
G31  18164388.082    95454471.065         907.385          46.000  
G29  17510858.128    92020198.097        -455.648          47.000  
G12  21777900.724   114443623.949       -3226.495          43.000  
E15  25013748.440   131448149.897       -2501.313          36.000  
G20  21489787.543   112929610.956         926.285          40.000  
G25  18671700.934    98120448.865       -2483.098          45.000  
G05  22102676.341   116150354.266        2840.160          37.000  
E04  24249654.351   127432782.012       -2211.710          36.000  
E13  21718965.116   114133954.544        -237.295          43.000  
E18  25818737.725   135678388.253        4121.218          38.000  
E09  24196572.874   127153850.686        -228.183          37.000  
E21  21618283.449   113604861.986       -1408.150          43.000  
E26  21911890.945   115147773.242        2618.829          43.000  
E31  23890618.555   125546060.984        2638.861          39.000  
G16  21917503.949   115177294.119        3676.475          31.000  
> 2024 02 13 14 01 39.9900000  0 20                     
G11  21871537.825   114935706.273       -2807.923          38.000  
G18  20334449.818   106858276.508        3660.720          42.000  
G04  21613313.943   113578709.628        1169.880          38.000  
G28  17896457.334    94046527.856        -916.168          44.000  
G26  19193089.464   100860368.645        2918.662          44.000  
G31  18164215.674    95453564.294         906.368          46.000  
G29  17510945.073    92020654.291        -456.469          47.000  
G12  21778514.692   114446850.651       -3226.607          43.000  
E15  25014224.081   131450651.733       -2502.218          37.000  
G20  21489611.269   112928685.362         925.391          39.000  
G25  18672173.713    98122932.455       -2483.679          45.000  
G05  22102136.118   116147514.107        2839.874          37.000  
E04  24250075.879   127434994.172       -2212.258          36.000  
E13  21719010.469   114134192.504        -238.234          43.000  
E18  25817953.565   135674267.379        4121.021          38.000  
E09  24196616.587   127154079.444        -229.287          38.000  
E21  21618551.729   113606270.668       -1408.905          42.000  
E26  21911392.951   115145154.760        2618.350          43.000  
E31  23890116.425   125543422.482        2638.231          39.000  
G16  21916805.024   115173618.591        3674.945          31.000  
> 2024 02 13 14 01 40.9900000  0 20                     
G11  21872072.194   114938514.122       -2808.016          38.000  
G18  20333753.161   106854615.539        3661.009          42.000  
G04  21613091.506   113577539.812        1169.595          38.000  
G28  17896631.452    94047444.157        -916.589          44.000  
G26  19192533.692   100857449.826        2919.191          43.000  
G31  18164043.274    95452657.915         906.117          46.000  
G29  17511032.115    92021110.734        -456.476          47.000  
G12  21779128.958   114450077.204       -3226.418          43.000  
E15  25014699.852   131453153.561       -2501.482          36.000  
G20  21489434.979   112927760.105         925.016          40.000  
G25  18672646.326    98125416.084       -2483.598          45.000  
G05  22101595.588   116144673.964        2840.187          37.000  
E04  24250497.179   127437206.305       -2212.059          36.000  
E13  21719056.040   114134430.725        -238.415          43.000  
E18  25817168.924   135670145.972        4121.551          38.000  
E09  24196660.361   127154308.423        -229.021          38.000  
E21  21618820.209   113607679.296       -1408.636          42.000  
E26  21910894.904   115142536.353        2618.515          43.000  
E31  23889614.391   125540783.776        2638.762          39.000  
G16  21916105.567   115169942.829        3676.359          32.000  
> 2024 02 13 14 01 41.9900000  0 20                     
G11  21872606.415   114941322.358       -2808.694          38.000  
G18  20333056.714   106850954.856        3660.398          42.000  
G04  21612869.425   113576370.631        1168.879          38.000  
G28  17896805.920    94048361.136        -917.487          44.000  
G26  19191978.129   100854531.288        2918.386          43.000  
G31  18163871.215    95451752.215         905.298          46.000  
G29  17511119.401    92021567.721        -457.396          47.000  
G12  21779743.013   114453303.899       -3226.906          43.000  
E15  25015176.077   131455655.676       -2502.439          36.000  
G20  21489258.871   112926835.415         924.360          40.000  
G25  18673119.192    98127900.034       -2484.125          44.000  
G05  22101055.129   116141834.110        2839.727          37.000  
E04  24250918.087   127439418.702       -2212.422          36.000  
E13  21719101.437   114134669.460        -238.902          43.000  
E18  25816384.729   135666024.325        4121.573          38.000  
E09  24196704.309   127154537.912        -229.697          38.000  
E21  21619088.201   113609088.167       -1408.986          42.000  
E26  21910396.770   115139918.310        2617.967          43.000  
E31  23889112.279   125538145.128        2638.578          39.000  
G16  21915406.189   115166267.155        3675.694          32.000  
> 2024 02 13 14 01 42.9900000  0 20                     
G11  21873140.880   114944131.103       -2808.736          38.000  
G18  20332360.416   106847294.579        3660.189          42.000  
G04  21612647.275   113575202.226        1168.000          38.000  
G28  17896980.718    94049278.928        -917.877          44.000  
G26  19191422.427   100851613.165        2918.029          42.000  
G31  18163699.435    95450847.344         904.826          46.000  
G29  17511206.408    92022025.389        -457.764          47.000  
G12  21780356.790   114456530.841       -3226.726          43.000  
E15  25015652.364   131458158.159       -2502.776          36.000  
G20  21489083.034   112925911.485         923.596          40.000  
G25  18673591.962    98130384.463       -2484.371          44.000  
G05  22100514.966   116138994.752        2839.354          36.000  
E04  24251339.301   127441631.547       -2213.065          37.000  
E13  21719146.921   114134908.874        -239.437          43.000  
E18  25815600.507   135661902.579        4122.178          37.000  
E09  24196747.970   127154768.060        -230.463          38.000  
E21  21619356.490   113610497.419       -1408.981          42.000  
E26  21909898.915   115137300.781        2617.373          43.000  
E31  23888609.922   125535506.704        2638.660          39.000  
G16  21914706.889   115162591.666        3675.463          32.000  
> 2024 02 13 14 01 43.9900000  0 20                     
G11  21873675.415   114946940.258       -2809.076          38.000  
G18  20331664.292   106843634.571        3659.973          42.000  
G04  21612425.213   113574034.456        1167.592          38.000  
G28  17897155.744    94050197.406        -918.671          44.000  
G26  19190867.152   100848695.283        2918.048          43.000  
G31  18163527.446    95449943.151         904.125          46.000  
G29  17511293.563    92022483.590        -458.313          47.000  
G12  21780970.941   114459757.893       -3226.823          43.000  
E15  25016128.327   131460660.903       -2502.627          36.000  
G20  21488907.441   112924988.128         922.976          40.000  
G25  18674064.575    98132869.225       -2484.953          44.000  
G05  22099974.899   116136155.663        2839.005          36.000  
E04  24251760.671   127443844.577       -2212.958          37.000  
E13  21719193.016   114135148.828        -240.113          43.000  
E18  25814815.954   135657780.595        4122.329          37.000  
E09  24196792.162   127154998.706        -230.816          38.000  
E21  21619624.315   113611906.927       -1409.576          42.000  
E26  21909401.218   115134683.600        2617.224          43.000  
E31  23888108.062   125532868.327        2638.551          39.000  
G16  21914007.685   115158916.260        3675.656          32.000  
> 2024 02 13 14 01 44.9900000  0 20                     
G11  21874209.898   114949749.457       -2809.537          38.000  
G18  20330967.853   106839974.484        3659.823          42.000  
G04  21612203.124   113572867.018        1166.817          38.000  
G28  17897330.499    94051116.215        -919.440          44.000  
G26  19190311.825   100845777.342        2917.529          43.000  
G31  18163355.509    95449039.309         903.311          46.000  
G29  17511381.032    92022941.989        -458.921          47.000  
G12  21781585.276   114462984.732       -3227.224          43.000  
E15  25016604.657   131463163.557       -2502.913          36.000  
G20  21488731.944   112924065.012         922.699          40.000  
G25  18674537.476    98135353.968       -2485.127          44.000  
G05  22099434.885   116133316.534        2838.507          36.000  
E04  24252182.102   127446057.559       -2213.255          37.000  
E13  21719238.613   114135388.965        -240.520          43.000  
E18  25814031.288   135653658.015        4122.793          37.000  
E09  24196836.285   127155229.513        -231.302          38.000  
E21  21619892.517   113613316.298       -1409.420          42.000  
E26  21908903.154   115132066.420        2617.014          43.000  
E31  23887605.758   125530229.702        2638.415          39.000  
G16  21913308.603   115155240.580        3674.872          32.000  
> 2024 02 13 14 01 45.9900000  0 20                     
G11  21874744.852   114952558.910       -2809.198          38.000  
G18  20330271.895   106836314.560        3659.932          42.000  
G04  21611981.035   113571700.035        1167.269          37.000  
G28  17897505.420    94052035.569        -919.421          44.000  
G26  19189756.699   100842859.556        2917.801          43.000  
G31  18163183.371    95448136.002         903.439          46.000  
G29  17511468.283    92023400.800        -458.796          47.000  
G12  21782199.402   114466211.558       -3226.645          42.000  
E15  25017081.109   131465666.379       -2502.653          36.000  
G20  21488556.535   112923142.382         922.709          41.000  
G25  18675010.176    98137838.905       -2484.688          44.000  
G05  22098894.827   116130477.575        2839.200          37.000  
E04  24252603.141   127448270.679       -2212.826          37.000  
E13  21719284.839   114135629.503        -240.433          43.000  
E18  25813246.962   135649535.090        4123.420          37.000  
E09  24196880.356   127155460.699        -231.035          38.000  
E21  21620160.185   113614725.826       -1409.307          43.000  
E26  21908404.967   115129449.506        2617.093          43.000  
E31  23887103.645   125527590.995        2638.919          39.000  
G16  21912609.076   115151564.818        3675.898          32.000  
> 2024 02 13 14 01 46.9900000  0 20                     
G11  21875279.317   114955368.572       -2809.483          38.000  
G18  20329575.675   106832654.717        3659.961          42.000  
G04  21611758.623   113570533.558        1166.782          37.000  
G28  17897680.551    94052955.419        -919.617          44.000  
G26  19189201.477   100839941.835        2918.221          43.000  
G31  18163011.399    95447233.213         902.808          46.000  
G29  17511555.787    92023859.961        -458.976          47.000  
G12  21782813.449   114469438.303       -3226.423          42.000  
E15  25017557.325   131468169.251       -2502.819          36.000  
G20  21488381.561   112922220.155         922.297          41.000  
G25  18675483.112    98140324.000       -2484.838          45.000  
G05  22098354.455   116127638.742        2839.140          38.000  
E04  24253024.102   127450483.853       -2212.792          37.000  
E13  21719330.532   114135870.389        -240.697          42.000  
E18  25812462.234   135645411.729        4124.180          37.000  
E09  24196924.531   127155692.233        -231.394          38.000  
E21  21620428.195   113616135.391       -1409.239          43.000  
E26  21907907.069   115126832.752        2617.057          43.000  
E31  23886601.812   125524952.194        2639.106          39.000  
G16  21911909.575   115147888.965        3676.204          32.000  
> 2024 02 13 14 01 47.9900000  0 20                     
G11  21875813.782   114958178.548       -2810.538          38.000  
G18  20328879.263   106828995.068        3659.482          42.000  
G04  21611536.473   113569367.611        1166.560          37.000  
G28  17897855.594    94053875.892        -920.844          44.000  
G26  19188646.385   100837024.364        2917.120          43.000  
G31  18162839.558    95446331.033         901.962          46.000  
G29  17511643.518    92024319.615        -460.018          47.000  
G12  21783427.400   114472665.114       -3226.637          42.000  
E15  25018033.594   131470672.325       -2503.209          35.000  
G20  21488206.553   112921298.482         921.263          41.000  
G25  18675955.995    98142809.367       -2485.510          44.000  
G05  22097814.240   116124800.187        2838.073          37.000  
E04  24253445.219   127452697.278       -2213.576          37.000  
E13  21719376.208   114136111.760        -241.753          42.000  
E18  25811677.594   135641288.103        4123.690          37.000  
E09  24196968.767   127155924.200        -232.361          38.000  
E21  21620696.012   113617545.139       -1409.932          42.000  
E26  21907409.057   115124216.317        2616.196          43.000  
E31  23886099.612   125522313.396        2638.710          40.000  
G16  21911210.345   115144213.101        3676.649          32.000  
> 2024 02 13 14 01 48.9900000  0 20                     
G11  21876348.509   114960988.930       -2810.616          37.000  
G18  20328183.165   106825335.745        3658.932          43.000  
G04  21611314.489   113568202.383        1165.301          36.000  
G28  17898030.838    94054797.084        -921.527          44.000  
G26  19188091.119   100834107.171        2917.052          43.000  
G31  18162667.822    95445429.576         901.261          46.000  
G29  17511730.935    92024779.830        -460.396          47.000  
G12  21784041.543   114475892.080       -3226.919          42.000  
E15  25018509.872   131473175.695       -2503.419          35.000  
G20  21488031.405   112920377.404         920.824          41.000  
G25  18676428.914    98145295.097       -2485.997          45.000  
G05  22097274.164   116121961.955        2838.087          37.000  
E04  24253866.764   127454910.967       -2213.772          37.000  
E13  21719422.451   114136353.681        -242.077          43.000  
E18  25810892.892   135637164.236        4123.652          37.000  
E09  24197012.497   127156156.698        -232.676          38.000  
E21  21620964.265   113618955.159       -1410.247          43.000  
E26  21906911.203   115121600.257        2616.055          43.000  
E31  23885597.561   125519674.701        2638.560          40.000  
G16  21910510.966   115140537.410        3674.822          32.000  
> 2024 02 13 14 01 49.9900000  0 20                     
G11  21876883.350   114963799.818       -2811.193          38.000  
G18  20327486.980   106821676.787        3659.112          42.000  
G04  21611092.862   113567037.898        1164.574          36.000  
G28  17898206.186    94055719.056        -922.333          44.000  
G26  19187535.932   100831190.359        2916.781          43.000  
G31  18162496.513    95444528.907         900.403          46.000  
G29  17511818.457    92025240.700        -460.961          47.000  
G12  21784655.389   114479119.264       -3226.977          42.000  
E15  25018985.992   131475679.397       -2503.837          35.000  
G20  21487855.943   112919457.035         920.408          41.000  
G25  18676902.024    98147781.259       -2486.118          45.000  
G05  22096733.792   116119124.144        2837.739          37.000  
E04  24254287.916   127457125.036       -2214.170          37.000  
E13  21719468.493   114136596.253        -242.692          43.000  
E18  25810108.104   135633040.231        4124.537          37.000  
E09  24197056.804   127156389.832        -233.232          38.000  
E21  21621232.833   113620365.528       -1410.219          43.000  
E26  21906413.182   115118984.684        2615.649          43.000  
E31  23885095.352   125517036.168        2638.835          40.000  
G16  21909811.483   115136861.761        3676.209          32.000  
> 2024 02 13 14 01 50.9900000  0 20                     
G11  21877418.356   114966611.195       -2811.806          38.000  
G18  20326790.603   106818018.197        3658.430          43.000  
G04  21610871.105   113565874.134        1163.416          37.000  
G28  17898381.482    94056641.779        -923.090          44.000  
G26  19186981.085   100828273.894        2916.362          43.000  
G31  18162325.440    95443628.983         899.519          46.000  
G29  17511906.083    92025702.177        -461.712          47.000  
G12  21785269.619   114482346.652       -3227.584          42.000  
E15  25019462.758   131478183.499       -2504.368          36.000  
G20  21487680.874   112918537.351         919.528          41.000  
G25  18677374.811    98150267.796       -2486.567          44.000  
G05  22096193.524   116116286.694        2837.169          36.000  
E04  24254709.793   127459339.453       -2214.924          37.000  
E13  21719514.894   114136839.429        -243.434          43.000  
E18  25809322.975   135628916.075        4124.479          37.000  
E09  24197101.502   127156623.563        -234.300          38.000  
E21  21621501.113   113621776.221       -1410.990          42.000  
E26  21905915.319   115116369.535        2614.876          43.000  
E31  23884593.327   125514397.788        2638.298          40.000  
G16  21909111.939   115133186.345        3676.093          32.000  
> 2024 02 13 14 01 51.9900000  0 20                     
G11  21877953.188   114969422.710       -2811.813          38.000  
G18  20326094.575   106814359.706        3658.599          43.000  
G04  21610649.749   113564710.817        1163.458          37.000  
G28  17898557.284    94057565.025        -923.364          44.000  
G26  19186426.264   100825357.561        2916.349          43.000  
G31  18162154.314    95442729.594         899.308          47.000  
G29  17511993.831    92026164.046        -461.822          47.000  
G12  21785883.736   114485573.976       -3227.303          43.000  
E15  25019938.774   131480687.633       -2503.955          36.000  
G20  21487505.813   112917618.091         919.299          41.000  
G25  18677847.861    98152754.543       -2486.705          44.000  
G05  22095653.458   116113449.324        2837.366          34.000  
E04  24255131.294   127461553.937       -2214.261          36.000  
E13  21719561.067   114137082.984        -243.420          43.000  
E18  25808538.038   135624791.528        4124.932          36.000  
E09  24197146.079   127156857.632        -234.144          39.000  
E21  21621769.741   113623186.990       -1410.583          42.000  
E26  21905417.551   115113754.597        2615.018          42.000  
E31  23884091.284   125511759.341        2638.791          40.000  
G16  21908412.368   115129510.849        3675.954          31.000  
> 2024 02 13 14 01 52.9900000  0 20                     
G11  21878488.072   114972234.778       -2812.506          39.000  
G18  20325398.390   106810701.581        3657.854          43.000  
G04  21610428.428   113563548.288        1161.940          37.000  
G28  17898733.270    94058489.052        -924.341          44.000  
G26  19185871.452   100822441.571        2915.915          43.000  
G31  18161983.381    95441830.978         898.295          47.000  
G29  17512081.763    92026626.546        -462.712          47.000  
G12  21786497.783   114488801.513       -3227.585          43.000  
E15  25020415.444   131483192.176       -2504.901          36.000  
G20  21487330.919   112916699.524         918.336          41.000  
G25  18678321.172    98155241.702       -2487.340          44.000  
G05  22095113.591   116110612.440        2836.371          35.000  
E04  24255552.446   127463768.807       -2214.945          36.000  
E13  21719607.825   114137327.167        -244.339          43.000  
E18  25807752.909   135620666.823        4124.943          36.000  
E09  24197190.568   127157092.299        -235.096          39.000  
E21  21622038.457   113624598.103       -1411.400          42.000  
E26  21904920.089   115111140.120        2614.197          42.000  
E31  23883589.145   125509121.058        2638.174          40.000  
G16  21907713.042   115125835.505        3675.751          31.000  
> 2024 02 13 14 01 53.9900000  0 20                     
G11  21879023.156   114975047.139       -2812.856          39.000  
G18  20324702.117   106807043.638        3657.924          44.000  
G04  21610207.194   113562386.293        1161.564          37.000  
G28  17898909.098    94059413.672        -924.921          44.000  
G26  19185316.639   100819525.775        2915.618          43.000  
G31  18161812.281    95440932.964         897.633          46.000  
G29  17512169.913    92027089.513        -463.221          47.000  
G12  21787111.813   114492029.090       -3227.472          43.000  
E15  25020892.367   131485696.876       -2504.741          36.000  
G20  21487155.884   112915781.469         917.876          41.000  
G25  18678794.456    98157729.112       -2487.600          44.000  
G05  22094573.664   116107775.749        2836.900          36.000  
E04  24255974.009   127465983.844       -2214.915          36.000  
E13  21719654.347   114137571.813        -244.963          43.000  
E18  25806967.771   135616541.827        4124.970          36.000  
E09  24197235.468   127157327.400        -235.522          39.000  
E21  21622307.339   113626009.378       -1411.350          42.000  
E26  21904422.234   115108525.915        2614.073          42.000  
E31  23883087.033   125506482.741        2638.260          40.000  
G16  21907010.051   115122160.207        3674.978          31.000  
> 2024 02 13 14 01 54.9900000  0 20                     
G11  21879558.416   114977859.690       -2812.570          39.000  
G18  20324006.246   106803385.800        3657.909          44.000  
G04  21609986.100   113561224.774        1161.333          37.000  
G28  17899085.284    94060338.799        -925.238          44.000  
G26  19184761.932   100816610.085        2915.695          44.000  
G31  18161641.444    95440035.456         897.447          46.000  
G29  17512258.141    92027552.830        -463.319          47.000  
G12  21787725.868   114495256.609       -3227.175          43.000  
E15  25021368.863   131488201.647       -2504.169          36.000  
G20  21486981.007   112914863.813         918.090          41.000  
G25  18679267.540    98160216.669       -2487.435          44.000  
G05  22094033.755   116104939.212        2836.751          35.000  
E04  24256395.650   127468198.979       -2215.049          37.000  
E13  21719701.140   114137816.790        -245.006          43.000  
E18  25806182.398   135612416.376        4125.908          37.000  
E09  24197280.227   127157562.820        -235.306          39.000  
E21  21622575.915   113627420.696       -1411.005          42.000  
E26  21903924.999   115105911.899        2614.167          43.000  
E31  23882584.859   125503844.328        2638.714          40.000  
G16  21906309.608   115118484.748        3674.938          31.000  
> 2024 02 13 14 01 55.9900000  0 20                     
G11  21880093.387   114980672.494       -2812.601          39.000  
G18  20323310.009   106799728.094        3657.637          44.000  
G04  21609765.276   113560063.744        1161.015          37.000  
G28  17899261.322    94061264.465        -925.623          44.000  
G26  19184207.093   100813694.518        2915.624          44.000  
G31  18161470.536    95439138.496         896.752          46.000  
G29  17512346.273    92028016.565        -463.855          47.000  
G12  21788339.968   114498484.105       -3227.321          43.000  
E15  25021845.725   131490706.593       -2504.937          36.000  
G20  21486806.383   112913946.651         917.176          41.000  
G25  18679740.817    98162704.428       -2487.607          44.000  
G05  22093494.360   116102102.881        2836.302          36.000  
E04  24256817.247   127470414.214       -2215.177          37.000  
E13  21719747.758   114138062.160        -245.282          43.000  
E18  25805397.740   135608290.584        4125.536          37.000  
E09  24197324.952   127157798.629        -235.994          39.000  
E21  21622844.683   113628832.160       -1411.565          41.000  
E26  21903427.415   115103298.117        2613.763          43.000  
E31  23882082.808   125501205.875        2638.364          40.000  
G16  21905610.142   115114809.232        3675.015          32.000  
> 2024 02 13 14 01 56.9900000  0 20                     
G11  21880628.638   114983485.502       -2812.977          38.000  
G18  20322614.181   106796070.445        3657.857          44.000  
G04  21609544.435   113558903.162        1160.131          38.000  
G28  17899437.979    94062190.604        -926.270          45.000  
G26  19183652.604   100810779.020        2915.681          44.000  
G31  18161299.908    95438242.008         896.304          46.000  
G29  17512434.266    92028480.617        -464.082          47.000  
G12  21788954.119   114501711.518       -3227.196          43.000  
E15  25022322.456   131493211.550       -2504.885          36.000  
G20  21486631.767   112913029.887         916.630          41.000  
G25  18680214.189    98165192.317       -2487.798          44.000  
G05  22092954.685   116099266.591        2836.730          36.000  
E04  24257239.062   127472629.501       -2215.187          37.000  
E13  21719794.298   114138307.862        -245.575          43.000  
E18  25804612.795   135604164.293        4126.723          37.000  
E09  24197369.869   127158034.737        -236.504          39.000  
E21  21623113.609   113630243.626       -1411.317          42.000  
E26  21902930.119   115100684.486        2613.861          43.000  
E31  23881580.835   125498567.281        2638.578          39.000  
G16  21904910.930   115111133.528        3676.099          31.000  
> 2024 02 13 14 01 57.9900000  0 20                     
G11  21881164.019   114986298.592       -2813.438          38.000  
G18  20321918.284   106792412.811        3657.217          43.000  
G04  21609323.899   113557742.899        1159.512          38.000  
G28  17899614.593    94063117.131        -927.014          45.000  
G26  19183097.879   100807863.537        2915.110          44.000  
G31  18161129.315    95437345.926         895.484          46.000  
G29  17512522.512    92028944.938        -464.858          47.000  
G12  21789568.367   114504938.763       -3227.553          43.000  
E15  25022798.926   131495716.499       -2505.515          36.000  
G20  21486457.387   112912113.397         916.235          41.000  
G25  18680687.630    98167680.243       -2488.445          44.000  
G05  22092415.090   116096430.383        2835.452          36.000  
E04  24257660.537   127474844.786       -2215.756          37.000  
E13  21719841.247   114138553.826        -246.489          42.000  
E18  25803827.343   135600037.521        4126.598          37.000  
E09  24197414.838   127158271.054        -236.889          39.000  
E21  21623381.801   113631655.058       -1411.805          42.000  
E26  21902432.613   115098070.938        2612.994          44.000  
E31  23881078.521   125495928.443        2638.503          39.000  
G16  21904214.771   115107457.673        3675.289          31.000  
> 2024 02 13 14 01 58.9900000  0 20                     
G11  21881699.531   114989112.143       -2814.000          39.000  
G18  20321222.369   106788755.520        3657.087          44.000  
G04  21609103.215   113556583.366        1159.618          38.000  
G28  17899791.207    94064044.419        -927.856          45.000  
G26  19182543.363   100804948.379        2914.935          44.000  
G31  18160958.931    95436450.607         894.907          46.000  
G29  17512610.705    92029409.877        -465.339          47.000  
G12  21790182.397   114508166.196       -3227.467          43.000  
E15  25023275.378   131498221.782       -2505.503          36.000  
G20  21486282.920   112911197.600         915.393          41.000  
G25  18681161.535    98170168.583       -2488.879          44.000  
G05  22091875.826   116093594.534        2835.447          36.000  
E04  24258081.611   127477060.428       -2215.781          37.000  
E13  21719888.093   114138800.394        -246.849          43.000  
E18  25803042.275   135595910.578        4127.260          36.000  
E09  24197459.947   127158507.966        -237.089          39.000  
E21  21623650.308   113633066.813       -1412.083          42.000  
E26  21901935.369   115095457.830        2612.972          44.000  
E31  23880576.095   125493289.758        2638.594          39.000  
G16  21903513.787   115103781.988        3675.123          31.000  
> 2024 02 13 14 01 59.9900000  0 20                     
G11  21882235.183   114991926.116       -2814.037          39.000  
G18  20320526.551   106785098.523        3656.712          43.000  
G04  21608882.784   113555424.551        1158.544          38.000  
G28  17899968.283    94064972.423        -928.424          45.000  
G26  19181988.822   100802033.532        2914.742          44.000  
G31  18160788.547    95435555.997         894.352          46.000  
G29  17512699.239    92029875.374        -465.674          47.000  
G12  21790796.278   114511393.791       -3227.740          43.000  
E15  25023752.013   131500727.320       -2505.365          36.000  
G20  21486108.723   112910282.426         914.966          41.000  
G25  18681635.142    98172657.267       -2488.836          44.000  
G05  22091336.535   116090758.994        2835.368          36.000  
E04  24258503.104   127479276.331       -2216.154          36.000  
E13  21719934.720   114139047.526        -247.441          43.000  
E18  25802257.312   135591783.442        4127.047          36.000  
E09  24197505.056   127158745.448        -237.526          39.000  
E21  21623918.831   113634478.850       -1412.165          42.000  
E26  21901437.950   115092845.107        2612.619          44.000  
E31  23880073.668   125490651.189        2638.429          39.000  
G16  21902812.271   115100106.319        3675.640          30.000  
> 2024 02 13 14 02 00.9900000  0 20                     
G11  21882770.861   114994740.782       -2815.077          38.000  
G18  20319830.479   106781442.110        3656.049          43.000  
G04  21608662.623   113554266.654        1157.676          38.000  
G28  17900145.062    94065901.431        -929.468          45.000  
G26  19181434.454   100799119.279        2914.150          44.000  
G31  18160618.364    95434662.394         893.288          46.000  
G29  17512788.017    92030341.759        -466.694          47.000  
G12  21791410.264   114514621.814       -3228.039          43.000  
E15  25024228.858   131503233.503       -2506.332          35.000  
G20  21485935.172   112909368.171         913.717          40.000  
G25  18682109.038    98175146.602       -2489.452          45.000  
G05  22090797.228   116087924.062        2834.773          36.000  
E04  24258924.561   127481492.862       -2217.035          36.000  
E13  21719981.922   114139295.529        -248.369          43.000  
E18  25801471.799   135587656.359        4127.217          36.000  
E09  24197550.453   127158983.734        -238.388          38.000  
E21  21624187.678   113635891.456       -1412.827          42.000  
E26  21900940.715   115090233.066        2611.744          44.000  
E31  23879571.678   125488013.023        2637.980          38.000  
G16  21902112.351   115096431.141        3675.170          31.000  
> 2024 02 13 14 02 01.9900000  0 20                     
G11  21883306.365   114997555.943       -2815.230          38.000  
G18  20319134.529   106777786.074        3656.264          43.000  
G04  21608442.523   113553109.515        1157.405          39.000  
G28  17900322.322    94066831.210        -929.895          45.000  
G26  19180879.974   100796205.400        2913.956          44.000  
G31  18160448.529    95433769.570         892.623          46.000  
G29  17512876.542    92030808.759        -467.120          47.000  
G12  21792024.485   114517850.056       -3228.170          43.000  
E15  25024705.947   131505740.035       -2506.886          35.000  
G20  21485761.533   112908454.594         913.186          40.000  
G25  18682582.637    98177636.369       -2489.925          45.000  
G05  22090257.938   116085089.579        2834.524          37.000  
E04  24259346.708   127483709.730       -2217.004          36.000  
E13  21720029.457   114139544.146        -248.926          43.000  
E18  25800686.574   135583529.164        4127.632          36.000  
E09  24197596.033   127159222.651        -239.145          38.000  
E21  21624456.769   113637304.404       -1413.011          42.000  
E26  21900443.977   115087621.499        2611.585          44.000  
E31  23879069.556   125485375.007        2638.171          38.000  
G16  21901415.520   115092756.109        3674.625          31.000  
> 2024 02 13 14 02 02.9900000  0 20                     
G11  21883841.938   115000371.283       -2815.127          39.000  
G18  20318438.920   106774130.132        3655.631          43.000  
G04  21608222.328   113551952.836        1156.259          39.000  
G28  17900499.581    94067761.469        -930.402          45.000  
G26  19180325.755   100793291.595        2913.738          44.000  
G31  18160278.861    95432877.232         892.070          46.000  
G29  17512965.590    92031276.115        -467.578          47.000  
G12  21792638.864   114521078.206       -3228.104          43.000  
E15  25025182.887   131508246.603       -2507.137          35.000  
G20  21485588.226   112907541.450         912.574          40.000  
G25  18683056.332    98180126.258       -2489.958          45.000  
G05  22089718.700   116082255.207        2834.360          37.000  
E04  24259768.419   127485926.644       -2217.094          36.000  
E13  21720076.721   114139793.105        -249.356          43.000  
E18  25799901.358   135579401.533        4127.425          36.000  
E09  24197641.211   127159461.865        -239.546          38.000  
E21  21624725.084   113638717.369       -1413.024          42.000  
E26  21899947.082   115085010.101        2611.386          44.000  
E31  23878567.470   125482736.873        2638.227          38.000  
G16  21900715.173   115089080.874        3675.440          31.000  
> 2024 02 13 14 02 03.9900000  0 20                     
G11  21884377.834   115003186.896       -2815.467          39.000  
G18  20317742.874   106770474.345        3655.961          42.000  
G04  21608002.307   113550796.674        1155.922          39.000  
G28  17900677.015    94068692.316        -930.872          45.000  
G26  19179771.353   100790377.961        2913.863          44.000  
G31  18160109.149    95431985.463         891.932          46.000  
G29  17513054.735    92031743.891        -467.795          47.000  
G12  21793253.129   114524306.370       -3227.863          43.000  
E15  25025659.906   131510753.302       -2506.526          34.000  
G20  21485414.501   112906628.760         912.523          40.000  
G25  18683530.349    98182616.379       -2489.856          44.000  
G05  22089179.296   116079420.986        2834.498          37.000  
E04  24260190.444   127488143.708       -2216.565          36.000  
E13  21720124.028   114140042.465        -249.248          43.000  
E18  25799115.514   135575273.540        4128.401          36.000  
E09  24197686.844   127159701.491        -239.644          38.000  
E21  21624993.730   113640130.475       -1412.851          42.000  
E26  21899450.379   115082398.960        2611.421          44.000  
E31  23878065.811   125480098.697        2638.799          37.000  
G16  21900018.438   115085405.682        3675.151          31.000  
> 2024 02 13 14 02 04.9900000  0 20                     
G11  21884913.643   115006002.793       -2816.153          39.000  
G18  20317047.344   106766818.658        3655.886          42.000  
G04  21607782.565   113549641.003        1155.215          39.000  
G28  17900854.396    94069623.673        -931.683          45.000  
G26  19179217.361   100787464.443        2913.431          44.000  
G31  18159939.489    95431094.240         890.970          46.000  
G29  17513143.670    92032212.075        -468.287          47.000  
G12  21793867.281   114527534.491       -3228.014          43.000  
E15  25026136.777   131513260.130       -2506.852          34.000  
G20  21485240.609   112905716.498         912.240          40.000  
G25  18684003.783    98185106.714       -2490.646          44.000  
G05  22088639.805   116076586.976        2833.842          37.000  
E04  24260612.503   127490360.885       -2217.140          36.000  
E13  21720172.016   114140292.248        -250.052          43.000  
E18  25798329.713   135571145.163        4128.773          36.000  
E09  24197732.764   127159941.450        -240.067          38.000  
E21  21625262.664   113641543.695       -1413.228          42.000  
E26  21898953.511   115079788.029        2610.703          44.000  
E31  23877563.603   125477460.437        2638.380          37.000  
G16  21899312.560   115081730.385        3674.696          31.000  
> 2024 02 13 14 02 05.9900000  0 20                     
G11  21885449.688   115008818.757       -2816.470          39.000  
G18  20316351.481   106763163.025        3655.217          42.000  
G04  21607562.744   113548485.720        1154.757          39.000  
G28  17901031.769    94070555.455        -932.336          45.000  
G26  19178663.238   100784550.941        2913.225          44.000  
G31  18159770.161    95430203.441         890.309          46.000  
G29  17513232.902    92032680.559        -468.943          47.000  
G12  21794481.799   114530762.488       -3228.375          43.000  
E15  25026614.049   131515766.959       -2506.824          34.000  
G20  21485066.919   112904804.611         911.173          40.000  
G25  18684477.521    98187597.078       -2490.848          44.000  
G05  22088100.166   116073753.021        2833.444          37.000  
E04  24261034.458   127492578.083       -2217.732          36.000  
E13  21720219.708   114140542.277        -250.533          43.000  
E18  25797543.886   135567016.296        4128.857          37.000  
E09  24197778.222   127160181.679        -240.517          38.000  
E21  21625531.493   113642956.878       -1413.510          42.000  
E26  21898456.790   115077177.194        2610.423          44.000  
E31  23877061.211   125474822.010        2638.313          37.000  
G16  21898616.470   115078054.865        3675.794          30.000  
> 2024 02 13 14 02 06.9900000  0 20                     
G11  21885985.532   115011635.153       -2816.698          39.000  
G18  20315655.654   106759507.676        3655.069          42.000  
G04  21607342.959   113547331.091        1154.266          39.000  
G28  17901208.889    94071487.941        -932.703          46.000  
G26  19178109.019   100781637.756        2913.151          44.000  
G31  18159600.798    95429313.350         889.994          46.000  
G29  17513322.151    92033149.603        -469.245          47.000  
G12  21795096.081   114533990.617       -3228.112          43.000  
E15  25027091.653   131518274.104       -2507.480          34.000  
G20  21484893.664   112903893.312         911.416          40.000  
G25  18684951.644    98190087.808       -2491.004          44.000  
G05  22087560.841   116070919.390        2833.299          36.000  
E04  24261456.623   127494795.562       -2217.372          36.000  
E13  21720267.966   114140792.869        -250.847          43.000  
E18  25796758.356   135562887.216        4129.311          37.000  
E09  24197823.933   127160422.439        -241.136          38.000  
E21  21625800.611   113644370.337       -1413.622          42.000  
E26  21897959.808   115074566.761        2610.266          44.000  
E31  23876559.316   125472183.667        2638.312          38.000  
G16  21897913.523   115074379.484        3675.828          30.000  
> 2024 02 13 14 02 07.9900000  0 20                     
G11  21886521.463   115014451.639       -2817.190          39.000  
G18  20314960.001   106755852.299        3654.951          42.000  
G04  21607123.365   113546176.841        1153.670          39.000  
G28  17901386.497    94072420.821        -933.472          46.000  
G26  19177554.870   100778724.551        2912.626          44.000  
G31  18159431.836    95428423.655         889.122          46.000  
G29  17513411.539    92033618.903        -469.925          47.000  
G12  21795710.259   114537218.569       -3228.148          43.000  
E15  25027569.030   131520781.175       -2507.528          34.000  
G20  21484720.506   112902982.354         910.492          40.000  
G25  18685426.002    98192578.570       -2491.114          44.000  
G05  22087021.498   116068085.746        2833.034          35.000  
E04  24261878.586   127497013.015       -2217.701          36.000  
E13  21720316.007   114141043.707        -251.515          43.000  
E18  25795972.555   135558757.616        4129.185          37.000  
E09  24197869.931   127160663.423        -241.447          38.000  
E21  21626069.457   113645783.748       -1414.006          42.000  
E26  21897463.341   115071956.401        2609.861          44.000  
E31  23876057.361   125469545.126        2637.863          37.000  
G16  21897217.574   115070703.908        3675.319          31.000  
> 2024 02 13 14 02 08.9900000  0 20                     
G11  21887057.533   115017268.402       -2817.152          39.000  
G18  20314264.400   106752197.100        3655.129          42.000  
G04  21606903.510   113545023.083        1153.876          39.000  
G28  17901564.018    94073354.267        -933.820          46.000  
G26  19177000.450   100775811.488        2913.164          44.000  
G31  18159262.438    95427534.534         888.786          46.000  
G29  17513501.024    92034088.625        -469.999          47.000  
G12  21796324.655   114540446.539       -3228.000          42.000  
E15  25028046.241   131523288.427       -2507.375          34.000  
G20  21484547.234   112902071.887         910.122          39.000  
G25  18685900.490    98195069.553       -2490.752          44.000  
G05  22086482.452   116065252.327        2833.007          35.000  
E04  24262300.271   127499230.629       -2217.860          35.000  
E13  21720364.265   114141294.968        -251.495          43.000  
E18  25795186.728   135554627.638        4130.144          37.000  
E09  24197916.017   127160904.795        -241.325          38.000  
E21  21626338.706   113647197.279       -1413.332          42.000  
E26  21896966.664   115069346.296        2609.847          44.000  
E31  23875554.969   125466906.509        2638.743          38.000  
G16  21896513.449   115067028.316        3674.740          31.000  
> 2024 02 13 14 02 09.9900000  0 20                     
G11  21887593.526   115020085.334       -2817.161          39.000  
G18  20313568.739   106748541.982        3654.791          42.000  
G04  21606683.969   113543869.798        1153.025          39.000  
G28  17901741.818    94074288.188        -934.393          46.000  
G26  19176446.284   100772898.519        2912.724          44.000  
G31  18159093.363    95426645.899         888.014          46.000  
G29  17513590.544    92034558.690        -470.480          47.000  
G12  21796939.060   114543674.419       -3227.934          42.000  
E15  25028523.670   131525795.728       -2507.559          34.000  
G20  21484374.224   112901161.813         909.330          39.000  
G25  18686375.058    98197560.686       -2491.500          44.000  
G05  22085943.109   116062418.978        2833.088          35.000  
E04  24262722.174   127501448.299       -2218.285          35.000  
E13  21720412.175   114141546.557        -251.920          43.000  
E18  25794400.910   135550497.256        4130.118          37.000  
E09  24197962.069   127161146.505        -242.173          38.000  
E21  21626607.770   113648610.884       -1413.958          42.000  
E26  21896470.144   115066736.342        2609.591          44.000  
E31  23875052.473   125464267.796        2638.469          37.000  
G16  21895817.176   115063352.539        3675.011          30.000  
> 2024 02 13 14 02 10.9900000  0 20                     
G11  21888129.910   115022902.555       -2817.045          39.000  
G18  20312873.164   106744887.025        3655.047          42.000  
G04  21606464.777   113542717.044        1152.451          39.000  
G28  17901919.322    94075222.697        -934.772          45.000  
G26  19175891.689   100769985.713        2912.827          44.000  
G31  18158924.270    95425757.840         887.763          46.000  
G29  17513680.028    92035029.189        -470.755          47.000  
G12  21797553.395   114546902.323       -3227.858          42.000  
E15  25029001.230   131528303.187       -2507.519          34.000  
G20  21484201.196   112900252.199         909.476          39.000  
G25  18686849.311    98200052.022       -2491.465          44.000  
G05  22085403.915   116059585.836        2833.380          35.000  
E04  24263144.102   127503666.109       -2217.619          35.000  
E13  21720460.294   114141798.569        -251.926          43.000  
E18  25793614.943   135546366.504        4131.002          37.000  
E09  24198007.736   127161388.601        -242.382          38.000  
E21  21626877.254   113650024.609       -1413.708          42.000  
E26  21895973.406   115064126.657        2609.637          44.000  
E31  23874550.474   125461629.038        2638.700          38.000  
G16  21895120.878   115059676.692        3676.389          31.000  
> 2024 02 13 14 02 11.9900000  0 20                     
G11  21888666.347   115025720.338       -2818.072          39.000  
G18  20312177.930   106741232.512        3654.210          42.000  
G04  21606245.742   113541565.091        1151.251          39.000  
G28  17902097.157    94076158.041        -935.876          45.000  
G26  19175337.235   100767073.333        2912.358          44.000  
G31  18158755.631    95424870.635         886.857          46.000  
G29  17513769.618    92035500.376        -471.516          47.000  
G12  21798167.730   114550130.493       -3228.199          42.000  
E15  25029478.677   131530811.064       -2507.812          34.000  
G20  21484028.020   112899343.366         908.500          39.000  
G25  18687323.355    98202543.855       -2492.119          44.000  
G05  22084864.843   116056753.180        2832.538          35.000  
E04  24263566.153   127505884.361       -2218.203          35.000  
E13  21720508.265   114142051.298        -253.005          43.000  
E18  25792829.046   135542235.677        4130.969          37.000  
E09  24198054.145   127161631.370        -242.980          38.000  
E21  21627146.031   113651438.734       -1414.209          42.000  
E26  21895476.764   115061517.493        2608.982          44.000  
E31  23874048.693   125458990.495        2638.389          37.000  
G16  21894414.938   115056001.170        3674.242          30.000  
> 2024 02 13 14 02 12.9900000  0 20                     
G11  21889202.933   115028538.667       -2818.841          39.000  
G18  20311482.818   106737578.409        3654.033          43.000  
G04  21606026.968   113540413.927        1150.598          39.000  
G28  17902274.809    94077094.215        -936.658          45.000  
G26  19174782.842   100764161.396        2911.791          44.000  
G31  18158586.931    95423984.265         885.709          46.000  
G29  17513859.582    92035972.262        -472.405          47.000  
G12  21798782.265   114553358.932       -3228.451          42.000  
E15  25029955.740   131533319.330       -2508.189          34.000  
G20  21483854.713   112898435.291         907.709          39.000  
G25  18687797.739    98205036.180       -2492.724          45.000  
G05  22084325.605   116053920.967        2832.374          35.000  
E04  24263988.065   127508103.032       -2219.030          35.000  
E13  21720556.549   114142304.707        -253.861          43.000  
E18  25792042.871   135538104.787        4130.621          37.000  
E09  24198100.606   127161874.808        -243.826          38.000  
E21  21627415.061   113652853.264       -1414.962          42.000  
E26  21894980.532   115058908.856        2608.395          44.000  
E31  23873546.440   125456352.203        2638.161          37.000  
G16  21893715.620   115052325.813        3674.369          30.000  
> 2024 02 13 14 02 13.9900000  0 20                     
G11  21889739.702   115031357.376       -2818.865          39.000  
G18  20310787.654   106733924.637        3654.035          43.000  
G04  21605808.160   113539263.446        1150.414          40.000  
G28  17902453.028    94078031.134        -937.103          45.000  
G26  19174228.474   100761249.787        2911.641          44.000  
G31  18158418.389    95423098.636         885.377          46.000  
G29  17513949.687    92036444.737        -472.656          47.000  
G12  21799396.461   114556587.557       -3228.530          42.000  
E15  25030432.995   131535827.947       -2508.372          34.000  
G20  21483681.965   112897527.848         907.324          39.000  
G25  18688271.853    98207528.884       -2492.916          44.000  
G05  22083786.690   116051089.122        2832.182          35.000  
E04  24264410.037   127510322.001       -2219.223          35.000  
E13  21720604.982   114142558.687        -254.312          43.000  
E18  25791256.930   135533973.701        4131.178          37.000  
E09  24198146.735   127162118.810        -244.235          38.000  
E21  21627683.925   113654268.064       -1414.757          42.000  
E26  21894483.925   115056300.636        2608.144          43.000  
E31  23873044.197   125453714.023        2638.365          37.000  
G16  21893018.266   115048650.536        3676.146          30.000  
> 2024 02 13 14 02 14.9900000  0 20                     
G11  21890276.331   115034176.472       -2819.170          39.000  
G18  20310092.585   106730271.130        3653.624          43.000  
G04  21605589.482   113538113.615        1149.318          39.000  
G28  17902631.666    94078968.684        -937.811          45.000  
G26  19173674.282   100758338.424        2911.187          44.000  
G31  18158249.950    95422213.652         884.545          46.000  
G29  17514039.887    92036917.715        -473.198          47.000  
G12  21800010.621   114559816.243       -3228.837          42.000  
E15  25030910.651   131538336.800       -2509.090          34.000  
G20  21483509.478   112896620.983         906.672          40.000  
G25  18688746.350    98210021.883       -2493.213          45.000  
G05  22083247.880   116048257.527        2831.689          35.000  
E04  24264832.158   127512541.174       -2219.201          35.000  
E13  21720653.520   114142813.183        -254.958          43.000  
E18  25790470.754   135529842.335        4131.363          37.000  
E09  24198193.293   127162363.279        -244.657          38.000  
E21  21627953.043   113655683.108       -1415.046          42.000  
E26  21893987.781   115053692.747        2607.564          43.000  
E31  23872541.945   125451075.901        2638.120          37.000  
G16  21892319.219   115044975.334        3675.936          30.000  
> 2024 02 13 14 02 15.9900000  0 20                     
G11  21890813.230   115036996.011       -2820.006          39.000  
G18  20309397.500   106726617.921        3653.260          43.000  
G04  21605370.953   113536964.432        1149.070          39.000  
G28  17902810.513    94079906.948        -938.379          45.000  
G26  19173120.002   100755427.352        2911.033          44.000  
G31  18158081.521    95421329.373         884.228          46.000  
G29  17514130.043    92037391.270        -473.626          47.000  
G12  21800624.895   114563045.097       -3228.802          42.000  
E15  25031388.298   131540845.889       -2508.464          34.000  
G20  21483337.393   112895714.750         905.933          40.000  
G25  18689220.831    98212515.240       -2493.381          45.000  
G05  22082708.790   116045426.305        2831.461          35.000  
E04  24265254.444   127514760.668       -2219.208          35.000  
E13  21720702.049   114143068.231        -255.242          43.000  
E18  25789684.779   135525710.768        4131.716          37.000  
E09  24198240.216   127162608.307        -245.193          37.000  
E21  21628222.326   113657098.412       -1415.541          42.000  
E26  21893491.331   115051085.243        2607.456          43.000  
E31  23872039.998   125448437.853        2638.316          37.000  
G16  21891621.882   115041300.377        3673.940          30.000  
