     2.11           OBSERVATION DATA    M: Mixed            RINEX VERSION / TYPE
RTKCONV demo5 b34f.1                    20231105 175405 UTC PGM / RUN BY / DATE 
format: u-blox UBX                                          COMMENT             
log: C:\Users\oo\Desktop\divers\verniquet\Reseau\verniquet\mCOMMENT             
                                                            MARKER NAME         
                                                            MARKER NUMBER       
                                                            OBSERVER / AGENCY   
                                                            REC # / TYPE / VERS 
                                                            ANT # / TYPE        
  4206488.5991   177816.7053  4775127.5325                  APPROX POSITION XYZ 
        0.0000        0.0000        0.0000                  ANTENNA: DELTA H/E/N
     1     1                                                WAVELENGTH FACT L1/2
     4    C1    L1    D1    S1                              # / TYPES OF OBSERV 
  2023    11    05    14    50   46.9960000     GPS         TIME OF FIRST OBS   
  2023    11    05    15    36   54.9960000     GPS         TIME OF LAST OBS    
                                                            END OF HEADER       
 23 11 05 14 50 46.9960000  0 12G05G12G13G14G17G22G30G15G23G19G24G10
  23553496.564                       -3937.247          21.000  
  23223511.045   122040412.6631       3840.635          42.000  
  19669698.145   103364999.0301      -2378.284          44.000  
  21363788.662   112267479.5491      -2881.135          40.000  
  21833182.525   114734149.7631       1257.439          43.000  
  20471102.080   107576373.9001      -2067.932          43.000  
  23889187.339   125538540.5551      -3298.690          39.000  
  18772118.131    98648093.7421       -452.548          45.000  
  21140298.332   111093029.3391        430.546          41.000  
  22642615.344   118987763.4913       2881.384          40.000  
  19658045.647   103303714.8271       1870.691          46.000  
  23301673.728   122451070.7631       2515.892          37.000  
 23 11 05 14 50 47.9960000  0 12G05G12G13G14G17G22G30G15G23G19G24G10
  23554248.416                       -3937.247          19.000  
  23222780.142   122036571.753        3840.752          42.000  
  19670150.655   103367377.118       -2378.204          44.000  
  21364336.693   112270360.190       -2881.018          40.000  
  21832943.322   114732891.903        1258.037          43.000  
  20471495.476   107578441.532       -2067.922          44.000  
  23889814.617   125541838.345       -3297.696          41.000  
  18772204.224    98648546.151        -452.850          45.000  
  21140216.350   111092598.531         430.634          41.000  
  22642067.021   118984881.7622       2881.732          40.000  
  19657689.736   103301843.765        1870.849          46.000  
  23301195.409   122448554.666        2516.681          37.000  
 23 11 05 14 50 48.9960000  0 12G05G12G13G14G17G22G30G15G23G19G24G10
  23554994.480                       -3925.527          18.000  
  23222048.982   122032729.783        3843.271          42.000  
  19670603.399   103369754.496       -2376.392          44.000  
  21364884.697   112273240.059       -2878.836          40.000  
  21832704.007   114731633.480        1259.574          44.000  
  20471888.860   107580508.502       -2065.740          43.000  
  23890441.464   125545135.151       -3295.537          39.000  
  18772290.662    98648998.079        -450.959          45.000  
  21140134.310   111092167.257         432.662          41.000  
  22641518.302   118981998.6331       2883.850          40.000  
  19657333.654   103299971.942        1873.016          46.000  
  23300716.785   122446038.023        2517.616          36.000  
 23 11 05 14 50 49.9960000  0 12G05G12G13G14G17G22G30G15G23G19G24G10
  23555739.768                       -3923.159          17.000  
  23221317.384   122028885.470        3845.713          42.000  
  19671055.844   103372129.852       -2374.146          44.000  
  21365432.117   112276117.827       -2876.481          40.000  
  21832464.342   114730373.102        1261.677          43.000  
  20472281.881   107582573.489       -2063.853          44.000  
  23891068.164   125548429.449       -3292.542          39.000  
  18772376.737    98649448.207        -448.881          45.000  
  21140052.438   111091734.274         434.140          41.000  
  22640969.658   118979113.827        2886.145          40.000  
  19656977.261   103298098.050        1875.293          46.000  
  23300237.536   122443519.288        2519.301          36.000  
 23 11 05 14 50 50.9960000  0 12G05G12G13G14G17G22G30G15G23G19G24G10
  23556481.723                       -3933.927          18.000  
  23220585.417   122025039.765        3845.219          42.000  
  19671507.833   103374504.164       -2375.214          44.000  
  21365979.792   112278994.485       -2877.489          40.000  
  21832224.312   114729111.772        1260.326          43.000  
  20472674.722   107584637.450       -2064.796          44.000  
  23891694.359   125551722.356       -3293.635          38.000  
  18772462.511    98649897.520        -450.241          45.000  
  21139970.215   111091300.472         432.710          42.000  
  22640420.388   118976227.785        2885.126          41.000  
  19656620.487   103296223.083        1874.054          46.000  
  23299757.884   122440999.454        2519.230          35.000  
 23 11 05 14 50 51.9960000  0 12G05G12G13G14G17G22G30G15G23G19G24G10
  23557225.039                       -3935.132          18.000  
  23219853.867   122021195.621        3843.586          42.000  
  19671959.665   103376880.321       -2376.935          44.000  
  21366527.454   112281872.935       -2878.887          40.000  
  21831984.799   114727852.401        1258.507          43.000  
  20473067.926   107586703.315       -2066.719          44.000  
  23892321.184   125555016.715       -3295.344          38.000  
  18772548.604    98650348.929        -452.428          46.000  
  21139888.430   111090868.809         430.722          41.000  
  22639871.483   118973343.404        2883.820          40.000  
  19656264.080   103294349.911        1872.540          46.000  
  23299279.076   122438481.588        2517.227          36.000  
 23 11 05 14 50 52.9960000  0 12G05G12G13G14G17G22G30G15G23G19G24G10
  23557970.133                       -3935.132          15.000  
  23219122.917   122017353.518        3841.299          42.000  
  19672412.339   103379258.833       -2379.285          44.000  
  21367075.725   112284753.669       -2881.334          40.000  
  21831745.258   114726595.487        1255.866          43.000  
  20473461.616   107588771.548       -2069.094          44.000  
  23892948.074   125558313.037       -3297.280          38.000  
  18772635.428    98650802.892        -455.021          45.000  
  21139806.855   111090439.751         427.866          41.000  
  22639323.197   118970461.224        2881.610          41.000  
  19655907.995   103292479.073        1869.934          46.000  
  23298800.434   122435966.031        2514.631          35.000  
 23 11 05 14 50 53.9960000  0 12G05G12G13G14G17G22G30G15G23G19G24G10
  23558716.057                       -3935.132          14.000  
  23218392.745   122013513.581        3836.803          43.000  
  19672865.397   103381639.863       -2384.174          44.000  
  21367623.856   112287636.824       -2886.131          40.000  
  21831506.275   114725341.179        1251.197          42.000  
  20473855.779   107590842.366       -2074.182          44.000  
  23893575.263   125561611.535       -3301.816          36.000  
  18772722.247    98651259.618        -460.146          45.000  
  21139725.866   111090013.455         423.053          41.000  
  22638774.815   118967581.372        2876.782          41.000  
  19655552.739   103290610.693        1865.277          46.000  
  23298322.298   122433453.033        2510.001          33.000  
 23 11 05 14 50 54.9960000  0 12G05G12G13G14G17G22G30G15G23G19G24G10
  23559460.108                       -3935.132          14.000  
  23217663.359   122009679.116        3833.273          43.000  
  19673319.087   103384026.678       -2387.897          44.000  
  21368173.664   112290525.752       -2890.177          40.000  
  21831268.640   114724092.755        1247.133          41.000  
  20474251.029   107592918.997       -2077.955          44.000  
  23894203.521   125564915.377       -3305.383          36.000  
  18772810.377    98651722.360        -463.978          45.000  
  21139646.036   111089593.246         418.958          41.000  
  22638227.795   118964707.118        2873.077          41.000  
  19655198.497   103288748.074        1861.450          46.000  
  23297844.943   122430945.857        2505.991          33.000  
 23 11 05 14 50 55.9960000  0 12G05G12G13G14G17G22G30G15G23G19G24G10
  23560211.617                       -3940.820          15.000  
  23216933.266   122005841.237        3840.958          43.000  
  19673772.686   103386410.434       -2380.920          44.000  
  21368722.805   112293411.520       -2882.887          40.000  
  21831030.577   114722841.358        1254.035          42.000  
  20474645.676   107594992.592       -2070.740          44.000  
  23894831.049   125568215.767       -3297.725          36.000  
  18772898.010    98652182.256        -457.074          45.000  
  21139565.442   111089170.213         425.858          41.000  
  22637680.035   118961829.635        2880.280          41.000  
  19654843.412   103286882.346        1868.396          46.000  
  23297367.167   122428435.531        2512.971          34.000  
 23 11 05 14 50 56.9960000  0 12G05G12G13G14G17G22G30G15G23G19G24G10
  23560972.973                       -3932.154          17.000  
  23216202.520   122002000.648        3839.584          43.000  
  19674225.578   103388791.779       -2382.550          44.000  
  21369271.353   112296294.793       -2884.243          40.000  
  21830792.480   114721587.615        1252.770          41.000  
  20475039.988   107597063.828       -2072.275          45.000  
  23895458.107   125571513.353       -3298.973          35.000  
  18772985.010    98652639.966        -458.916          45.000  
  21139484.432   111088745.045         424.288          41.000  
  22637131.716   118958949.519        2878.808          40.000  
  19654487.704   103285014.153        1867.072          46.000  
  23296889.315   122425922.999        2510.646          34.000  
 23 11 05 14 50 57.9960000  0 12G05G12G13G14G17G22G30G15G23G19G24G10
  23561717.844                       -3932.176          17.000  
  23215471.110   121998157.104        3847.660          43.000  
  19674678.315   103391170.531       -2374.872          44.000  
  21369819.307   112299175.429       -2876.353          40.000  
  21830553.772   114720331.417        1260.029          43.000  
  20475433.676   107599132.512       -2064.662          43.000  
  23896085.015   125574807.898       -3290.714          37.000  
  18773071.387    98653095.314        -451.509          45.000  
  21139403.072   111088317.558         431.000          41.000  
  22636583.088   118956066.668        2886.725          42.000  
  19654131.659   103283143.335        1874.738          46.000  
  23296410.237   122423407.752        2518.248          33.000  
 23 11 05 14 50 58.9960000  0 12G05G12G13G14G17G22G30G15G23G19G24G10
  23562461.118                       -3932.176          15.000  
  23214738.589   121994307.820        3850.594          42.000  
  19675129.840   103393543.868       -2372.791          43.000  
  21370366.555   112302050.594       -2874.950          40.000  
  21830314.122   114719069.885        1262.148          43.000  
  20475826.532   107601195.806       -2062.609          44.000  
  23896710.657   125578096.695       -3287.924          36.000  
  18773156.967    98653545.481        -449.580          45.000  
  21139320.849   111087884.899         433.192          42.000  
  22636032.970   118953178.215        2888.892          42.000  
  19653774.313   103281267.066        1876.544          46.000  
  23295930.199   122420887.051        2521.504          33.000  
 23 11 05 14 50 59.9960000  0 12G05G12G13G14G17G22G30G15G23G19G24G10
  23563208.629                       -3929.484          16.000  
  23214005.261   121990452.731        3857.428          43.000  
  19675580.524   103395911.650       -2365.472          44.000  
  21370912.454   112304920.077       -2867.052          40.000  
  21830073.186   114717802.885        1269.248          42.000  
  20476217.984   107603253.612       -2055.705          44.000  
  23897335.122   125581379.568       -3280.257          35.000  
  18773241.461    98653990.322        -442.616          45.000  
  21139237.339   111087446.948         440.191          41.000  
  22635482.212   118950284.012        2896.820          40.000  
  19653416.272   103279385.166        1884.180          46.000  
  23295449.292   122418360.916        2527.502          32.000  
 23 11 05 14 51 00.9960000  0 11G12G13G14G17G22G30G15G23G19G24G10
  23213271.305   121986594.803        3855.056          43.000  
  19676030.423   103398276.956       -2368.530          43.000  
  21371458.011   112307787.086       -2870.398          40.000  
  21829831.789   114716533.543        1265.681          42.000  
  20476609.338   107605308.976       -2058.842          44.000  
  23897959.260   125584659.565       -3283.019          35.000  
  18773325.595    98654432.933        -446.111          45.000  
  21139153.617   111087006.824         436.514          41.000  
  22634930.722   118947387.212        2893.713          40.000  
  19653057.759   103277500.800        1881.085          46.000  
  23294968.183   122415832.172        2525.514          34.000  
 23 11 05 14 51 01.9960000  0 11G12G13G14G17G22G30G15G23G19G24G10
  23212537.617   121982739.140        3853.332          43.000  
  19676481.204   103400644.892       -2370.892          43.000  
  21372004.070   112310656.583       -2872.137          39.000  
  21829590.965   114715266.870        1263.623          43.000  
  20477001.146   107607366.963       -2061.044          44.000  
  23898583.919   125587941.755       -3284.971          35.000  
  18773410.412    98654878.352        -448.572          45.000  
  21139070.408   111086569.526         434.170          41.000  
  22634379.607   118944492.775        2891.608          41.000  
  19652699.354   103275618.972        1879.169          46.000  
  23294487.628   122413306.105        2523.361          35.000  
 23 11 05 14 51 02.9960000  0 11G12G13G14G17G22G30G15G23G19G24G10
  23211803.704   121978881.517        3861.301          43.000  
  19676931.529   103403011.153       -2362.872          44.000  
  21372549.448   112313524.384       -2864.396          39.000  
  21829349.500   114713998.618        1271.517          43.000  
  20477392.722   107609423.334       -2053.074          44.000  
  23899208.490   125591221.857       -3276.326          36.000  
  18773494.779    98655322.334        -440.686          45.000  
  21138986.991   111086130.858         441.928          41.000  
  22633828.224   118941596.499        2899.988          41.000  
  19652341.127   103273735.434        1887.109          45.000  
  23294006.916   122410778.377        2530.930          36.000  
 23 11 05 14 51 03.9960000  0 11G12G13G14G17G22G30G15G23G19G24G10
  23211068.614   121975018.202        3866.025          43.000  
  19677380.898   103405372.072       -2358.636          44.000  
  21373094.161   112316386.746       -2859.874          39.000  
  21829107.031   114712725.130        1276.064          44.000  
  20477782.763   107611474.382       -2048.490          44.000  
  23899832.168   125594496.253       -3271.352          36.000  
  18773578.104    98655761.203        -436.661          45.000  
  21138902.615   111085687.073         446.277          41.000  
  22633276.258   118938694.732        2904.315          41.000  
  19651981.578   103271846.523        1891.412          46.000  
  23293525.170   122408245.293        2535.594          35.000  
 23 11 05 14 51 04.9960000  0 11G12G13G14G17G22G30G15G23G19G24G10
  23210332.741   121971150.177        3870.450          42.000  
  19677829.606   103407728.603       -2354.431          43.000  
  21373638.158   112319244.652       -2855.814          38.000  
  21828863.679   114711447.349        1280.134          43.000  
  20478172.376   107613521.076       -2044.470          43.000  
  23900454.754   125597765.888       -3267.202          36.000  
  18773661.021    98656195.911        -432.632          45.000  
  21138817.360   111085239.188         449.981          41.000  
  22632723.176   118935788.376        2908.691          41.000  
  19651621.312   103269953.182        1895.398          45.000  
  23293042.438   122405707.855        2540.039          34.000  
 23 11 05 14 51 05.9960000  0 11G12G13G14G17G22G30G15G23G19G24G10
  23209596.165   121967279.979        3870.931          42.000  
  19678277.883   103410083.258       -2353.876          43.000  
  21374181.364   112322100.606       -2855.285          38.000  
  21828620.325   114710167.831        1280.235          41.000  
  20478561.540   107615565.957       -2044.249          43.000  
  23901076.748   125601033.291       -3266.390          35.000  
  18773743.543    98656628.974        -432.382          45.000  
  21138732.017   111084789.665         450.177          41.000  
  22632169.653   118932880.053        2909.094          39.000  
  19651260.655   103268057.922        1896.155          45.000  
  23292559.118   122403168.615        2540.225          34.000  
 23 11 05 14 51 06.9960000  0 11G12G13G14G17G22G30G15G23G19G24G10
  23208860.082   121963413.628        3861.027          41.000  
  19678726.753   103412442.134       -2364.410          43.000  
  21374725.861   112324960.703       -2865.278          39.000  
  21828377.459   114708892.556        1269.490          41.000  
  20478951.674   107617615.068       -2054.567          45.000  
  23901699.939   125604304.403       -3275.967          34.000  
  18773826.990    98657066.485        -442.943          45.000  
  21138647.273   111084344.649         439.583          41.000  
  22631616.974   118929975.635        2898.853          40.000  
  19650900.463   103266166.845        1885.571          45.000  
  23292075.982   122400633.477        2529.590          31.000  
 23 11 05 14 51 07.9960000  0 11G12G13G14G17G22G30G15G23G19G24G10
  23208123.999   121959546.748        3867.813          41.000  
  19679175.491   103414800.790       -2357.813          43.000  
  21375270.040   112327820.516       -2859.351          37.000  
  21828134.701   114707617.203        1276.148          40.000  
  20479341.813   107619664.023       -2048.113          44.000  
  23902322.517   125607575.000       -3269.195          34.000  
  18773910.360    98657504.002        -436.785          45.000  
  21138562.661   111083899.678         445.879          40.000  
  22631064.677   118927070.890        2905.896          40.000  
  19650540.629   103264275.464        1892.603          45.000  
  23291593.063   122398098.125        2536.493          32.000  
 23 11 05 14 51 08.9960000  0 11G12G13G14G17G22G30G15G23G19G24G10
  23207387.888   121955679.473        3866.859          42.000  
  19679624.468   103417159.380       -2359.229          44.000  
  21375814.473   112330680.411       -2860.323          36.000  
  21827891.776   114706341.816        1274.619          41.000  
  20479731.850   107621712.913       -2049.696          43.000  
  23902945.232   125610845.189       -3271.924          35.000  
  18773993.805    98657941.692        -438.720          45.000  
  21138478.182   111083454.940         442.808          41.000  
  22630511.882   118924165.893        2904.242          41.000  
  19650180.314   103262384.019        1890.710          45.000  
  23291110.230   122395562.734        2534.651          31.000  
 23 11 05 14 51 09.9960000  0 11G12G13G14G17G22G30G15G23G19G24G10
  23206651.949   121951813.536        3865.522          42.000  
  19680073.750   103419519.661       -2360.834          45.000  
  21376358.536   112333541.478       -2861.411          41.000  
  21827649.476   114705068.360        1272.155          35.000  
  20480121.980   107623763.499       -2050.904          45.000  
  23903568.434   125614116.349       -3270.248          31.000  
  18774077.632    98658381.242        -440.181          45.000  
  21138393.819   111083012.032         442.477          41.000  
  22629959.290   118921262.392        2902.838          40.000  
  19649820.569   103260494.180        1889.624          45.000  
  23290627.771   122393029.080        2532.686          34.000  
 23 11 05 14 51 10.9960000  0 11G12G13G14G17G22G30G15G23G19G24G10
  23205916.348   121947947.593        3866.393          42.000  
  19680523.021   103421880.180       -2360.248          43.000  
  21376903.249   112336402.964       -2861.346          43.000  
  21827407.051   114703795.049        1273.362          37.000  
  20480512.088   107625814.463       -2050.792          45.000  
  23904201.888                       -3273.785          23.000  
  18774161.517    98658821.330        -439.985          45.000  
  21138309.709   111082569.757         441.933          41.000  
  22629407.174   118918358.942        2903.723          40.000  
  19649460.857   103258604.591        1889.697          45.000  
  23290145.218   122390495.684        2532.939          34.000  
 23 11 05 14 51 11.9960000  0 11G12G13G14G17G22G30G15G23G19G24G10
  23205180.160   121944081.436        3865.590          42.000  
  19680972.251   103424240.847       -2361.108          44.000  
  21377448.014   112339264.526       -2862.059          43.000  
  21827164.602   114702522.072        1272.372          38.000  
  20480902.354   107627865.563       -2051.479          45.000  
  23904827.327                       -3273.785          20.000  
  18774245.204    98659261.762        -441.109          45.000  
  21138225.579   111082127.824         441.307          41.000  
  22628854.580   118915455.503        2902.899          41.000  
  19649101.363   103256715.074        1889.203          44.000  
  23289662.634   122387962.385        2532.905          34.000  
 23 11 05 14 51 12.9960000  0 11G12G13G14G17G22G30G15G23G19G24G10
  23204444.359   121940215.627        3865.948          42.000  
  19681421.513   103426602.202       -2361.353          44.000  
  21377992.904   112342126.680       -2862.093          43.000  
  21826922.216   114701249.894        1272.094          38.000  
  20481292.715   107629917.384       -2052.076          45.000  
  23905452.191                       -3273.785          16.000  
  18774329.270    98659703.113        -441.491          45.000  
  21138141.319   111081686.862         440.771          41.000  
  22628302.270   118912552.538        2903.094          41.000  
  19648741.694   103254826.220        1888.794          44.000  
  23289180.644   122385429.775        2532.426          34.000  
 23 11 05 14 51 13.9960000  0 11G12G13G14G17G22G30G15G23G19G24G10
  23203708.708   121936349.956        3865.833          42.000  
  19681870.887   103428964.009       -2361.975          43.000  
  21378537.824   112344989.230       -2862.593          42.000  
  21826679.830   114699978.248        1271.361          38.000  
  20481682.985   107631969.686       -2052.393          44.000  
  23906081.490                       -3271.331          18.000  
  18774413.485    98660145.142        -442.323          45.000  
  21138057.617   111081246.624         439.421          41.000  
  22627749.574   118909649.887        2902.441          40.000  
  19648382.290   103252937.774        1888.171          44.000  
  23288698.087   122382897.730        2531.377          34.000  
 23 11 05 14 51 14.9960000  0 11G12G13G14G17G22G30G15G23G19G24G10
  23202972.900   121932484.731        3865.101          42.000  
  19682320.832   103431326.572       -2362.738          43.000  
  21379082.485   112347852.459       -2863.615          42.000  
  21826437.615   114698707.460        1270.445          38.000  
  20482073.664   107634022.790       -2053.377          44.000  
  23906706.825                       -3268.052          20.000  
  18774497.717    98660588.171        -443.482          45.000  
  21137973.856   111080807.403         438.805          41.000  
  22627196.897   118906747.801        2901.282          40.000  
  19648022.706   103251050.039        1887.299          45.000  
  23288216.559   122380366.236        2531.615          35.000  
 23 11 05 14 51 15.9960000  0 11G12G13G14G17G22G30G15G23G19G24G10
  23202237.166   121928619.942        3864.438          40.000  
  19682770.692   103433689.924       -2363.586          43.000  
  21379627.400   112350716.405       -2864.422          42.000  
  21826195.957   114697437.544        1269.462          37.000  
  20482464.471   107636076.697       -2054.242          44.000  
  23907329.440                       -3268.897          21.000  
  18774582.163    98661032.189        -444.386          45.000  
  21137890.363   111080369.200         437.660          41.000  
  22626644.722   118903846.293        2901.538          40.000  
  19647663.299   103249163.038        1886.633          44.000  
  23287735.413   122377835.620        2530.314          36.000  
 23 11 05 14 51 16.9960000  0 11G12G13G14G17G22G30G15G23G19G24G10
  23201501.358   121924755.383        3864.335          42.000  
  19683220.683   103436053.813       -2364.368          44.000  
  21380172.687   112353580.791       -2864.902          43.000  
  21825954.492   114696168.305        1269.021          37.000  
  20482855.567   107638131.195       -2055.010          45.000  
  23907940.898                       -3274.986          21.000  
  18774666.489    98661476.986        -445.353          45.000  
  21137807.361   111079931.824         436.726          41.000  
  22626092.745   118900945.161        2900.799          40.000  
  19647304.239   103247276.523        1885.944          44.000  
  23287253.948   122375305.636        2529.537          36.000  
 23 11 05 14 51 17.9960000  0 11G12G13G14G17G22G30G15G23G19G24G10
  23200765.864   121920891.232        3863.811          42.000  
  19683670.388   103438418.432       -2364.844          44.000  
  21380717.987   112356445.854       -2865.295          43.000  
  21825712.800   114694899.818        1268.232          37.000  
  20483246.679   107640186.440       -2055.485          45.000  
  23908548.767                       -3265.425          22.000  
  18774751.328    98661922.731        -446.217          45.000  
  21137724.566   111079495.418         436.083          42.000  
  22625540.756   118898044.573        2900.287          41.000  
  19646945.731   103245390.701        1885.590          44.000  
  23286772.582   122372776.299        2528.873          36.000  
 23 11 05 14 51 18.9960000  0 11G12G13G14G17G22G30G15G23G19G24G10
  23200030.618   121917027.324        3864.120          42.000  
  19684120.632   103440783.638       -2365.314          44.000  
  21381263.435   112359311.414       -2865.543          43.000  
  21825471.099   114693632.059        1267.687          37.000  
  20483637.865   107642242.313       -2056.142          45.000  
  23909166.791                       -3271.237          23.000  
  18774835.996    98662369.291        -446.875          44.000  
  21137641.606   111079059.877         435.038          42.000  
  22624989.061   118895144.425        2899.915          41.000  
  19646586.710   103243505.426        1885.223          44.000  
  23286291.503   122370247.619        2528.464          36.000  
 23 11 05 14 51 19.9960000  0 11G12G13G14G17G22G30G15G23G19G24G10
  23199295.502   121913163.677        3862.961          42.000  
  19684570.946   103443149.387       -2366.101          44.000  
  21381808.782   112362177.481       -2866.595          43.000  
  21825229.785   114692364.931        1266.353          37.000  
  20484029.299   107644298.782       -2057.123          45.000  
  23909786.692   125646777.0693      -3273.054          26.000  
  18774920.844    98662816.617        -448.129          44.000  
  21137558.922   111078625.141         434.158          41.000  
  22624437.564   118892244.590        2899.286          41.000  
  19646227.858   103241620.649        1884.436          44.000  
  23285810.202   122367719.458        2527.537          36.000  
 23 11 05 14 51 20.9960000  0 11G12G13G14G17G22G30G15G23G19G24G10
  23198560.178   121909300.135        3863.588          42.000  
  19685021.428   103445515.599       -2366.455          44.000  
  21382354.300   112365043.914       -2866.729          43.000  
  21824988.343   114691098.391        1266.254          36.000  
  20484420.296   107646355.733       -2057.238          44.000  
  23910408.854                       -3273.638          24.000  
  18775006.086    98663264.641        -448.401          44.000  
  21137476.171   111078191.130         433.725          41.000  
  22623885.631   118889345.083        2899.335          40.000  
  19645869.245   103239736.317        1884.375          45.000  
  23285329.370   122365191.702        2527.419          37.000  
 23 11 05 14 51 21.9960000  0 11G12G13G14G17G22G30G15G23G19G24G10
  23197825.118   121905436.762        3863.141          42.000  
  19685472.034   103447882.335       -2367.596          44.000  
  21382900.152   112367910.800       -2867.671          43.000  
  21824747.387   114689832.419        1265.232          36.000  
  20484811.601   107648413.237       -2058.269          44.000  
  23911028.114                       -3276.280          22.000  
  18775091.334    98663713.384        -449.535          44.000  
  21137393.398   111077757.892         432.365          41.000  
  22623334.036   118886445.882        2898.535          40.000  
  19645510.551   103237852.429        1883.118          45.000  
  23284848.580   122362664.506        2526.472          36.000  
 23 11 05 14 51 22.9960000  0 11G12G13G14G17G22G30G15G23G19G24G10
  23197090.374   121901573.871        3863.025          42.000  
  19685922.668   103450249.819       -2367.334          44.000  
  21383446.138   112370778.373       -2867.523          43.000  
  21824506.746   114688567.338        1264.888          36.000  
  20485203.139   107650471.552       -2058.257          44.000  
  23911650.278                       -3274.579          22.000  
  18775176.910    98664163.155        -449.869          44.000  
  21137311.166   111077325.696         432.235          42.000  
  22622782.326   118883547.293        2898.688          40.000  
  19645152.045   103235969.301        1883.398          45.000  
  23284367.981   122360138.134        2526.371          37.000  
 23 11 05 14 51 23.9960000  0 11G12G13G14G17G22G30G15G23G19G24G10
  23196355.280   121897711.222        3862.236          42.000  
  19686373.144   103452617.883       -2368.481          44.000  
  21383992.086   112373646.444       -2868.521          43.000  
  21824265.802   114687302.902        1263.877          36.000  
  20485594.909   107652530.459       -2059.498          44.000  
  23912270.886                       -3268.752          22.000  
  18775262.667    98664613.715        -451.423          44.000  
  21137228.790   111076894.323         430.948          41.000  
  22622230.700   118880649.097        2897.406          40.000  
  19644793.709   103234086.676        1882.281          45.000  
  23283887.321   122357612.328        2525.347          37.000  
 23 11 05 14 51 24.9960000  0 11G12G13G14G17G22G30G15G23G19G24G10
  23195620.126   121893848.610        3862.444          42.000  
  19686823.767   103454986.323       -2368.762          44.000  
  21384537.730   112376514.832       -2868.570          43.000  
  21824024.993   114686038.956        1263.427          36.000  
  20485986.880   107654589.796       -2059.881          44.000  
  23912896.027                       -3277.591          21.000  
  18775348.038    98665064.859        -451.659          44.000  
  21137146.582   111076463.612         430.170          41.000  
  22621679.356   118877751.060        2897.980          41.000  
  19644435.519   103232204.404        1882.001          45.000  
  23283406.792   122355086.906        2525.381          37.000  
 23 11 05 14 51 25.9960000  0 11G12G13G14G17G22G30G15G23G19G24G10
  23194885.164   121889986.087        3862.477          42.000  
  19687274.707   103457355.162       -2369.153          43.000  
  21385083.202   112379383.554       -2869.053          43.000  
  21823784.525   114684775.483        1263.490          36.000  
  20486378.720   107656649.558       -2060.244          44.000  
  23913518.740                       -3269.052          23.000  
  18775434.068    98665516.653        -452.249          44.000  
  21137064.640   111076033.554         429.540          41.000  
  22621127.923   118874853.312        2897.577          41.000  
  19644077.450   103230322.508        1881.561          45.000  
  23282926.231   122352561.940        2524.569          37.000  
 23 11 05 14 51 26.9960000  0 11G12G13G14G17G22G30G15G23G19G24G10
  23194150.192   121886124.000        3862.252          42.000  
  19687726.059   103459724.771       -2369.501          44.000  
  21385629.113   112382252.928       -2869.326          43.000  
  21823544.222   114683512.889        1262.622          36.000  
  20486770.655   107658710.105       -2060.396          44.000  
  23914146.394                       -3275.448          24.000  
  18775520.108    98665969.429        -452.715          44.000  
  21136982.814   111075604.540         428.678          41.000  
  22620576.646   118871956.116        2897.174          40.000  
  19643719.624   103228441.301        1881.158          45.000  
  23282445.615   122350037.693        2524.316          37.000  
 23 11 05 14 51 27.9960000  0 11G12G13G14G17G22G30G15G23G19G24G10
  23193414.977   121882262.146        3861.807          42.000  
  19688177.132   103462094.928       -2370.508          43.000  
  21386175.298   112385122.804       -2870.209          43.000  
  21823304.214   114682250.952        1261.752          36.000  
  20487162.512   107660771.246       -2061.549          44.000  
  23914772.953                       -3273.733          24.000  
  18775606.168    98666422.985        -454.035          44.000  
  21136901.171   111075176.304         427.708          40.000  
  22620025.562   118869059.298        2896.320          40.000  
  19643361.978   103226560.604        1880.304          45.000  
  23281965.287   122347514.019        2523.273          37.000  
 23 11 05 14 51 28.9960000  0 11G12G13G14G17G22G30G15G23G19G24G10
  23192680.022   121878400.497        3861.593          42.000  
  19688627.952   103464465.608       -2370.990          43.000  
  21386721.632   112387993.143       -2870.518          43.000  
  21823064.184   114680989.641        1261.085          36.000  
  20487554.634   107662832.957       -2062.113          44.000  
  23915401.793   125676283.6683      -3274.317          26.000  
  18775692.573    98666877.296        -454.615          44.000  
  21136819.766   111074748.877         426.950          41.000  
  22619474.277   118866162.809        2896.490          40.000  
  19643004.510   103224680.391        1880.078          45.000  
  23281485.113   122344990.897        2522.760          37.000  
 23 11 05 14 51 29.9960000  0 11G12G13G14G17G22G30G15G23G19G24G10
  23191945.472   121874539.193        3861.163          42.000  
  19689079.271   103466836.959       -2371.747          43.000  
  21387268.072   112390864.081       -2871.204          43.000  
  21822824.100   114679729.062        1260.374          36.000  
  20487947.238   107664895.360       -2062.660          44.000  
  23916031.231   125679558.3852      -3275.263          27.000  
  18775779.462    98667332.507        -455.576          44.000  
  21136738.474   111074322.388         426.126          40.000  
  22618923.064   118863266.858        2895.966          40.000  
  19642646.643   103222800.828        1879.285          45.000  
  23281005.195   122342468.431        2522.045          37.000  
 23 11 05 14 51 30.9960000  0 11G12G13G14G17G22G30G15G23G19G24G10
  23191210.696   121870678.184        3861.136          42.000  
  19689530.682   103469208.923       -2372.302          43.000  
  21387814.205   112393735.556       -2871.644          43.000  
  21822584.545   114678469.253        1259.439          36.000  
  20488339.822   107666958.425       -2063.218          44.000  
  23916656.948   125682833.2782      -3275.917          27.000  
  18775866.392    98667788.570        -456.408          44.000  
  21136657.099   111073896.764         425.400          40.000  
  22618372.010   118860371.344        2895.258          40.000  
  19642289.079   103220921.807        1878.809          45.000  
  23280525.188   122339946.619        2521.802          38.000  
 23 11 05 14 51 31.9960000  0 11G12G13G14G17G22G30G15G23G19G24G10
  23190475.961   121866817.463        3860.785          42.000  
  19689981.942   103471581.498       -2372.858          43.000  
  21388360.434   112396607.583       -2872.032          43.000  
  21822344.847   114677210.079        1259.256          36.000  
  20488732.456   107669022.123       -2063.900          44.000  
  23917281.829   125686108.2822      -3275.496          26.000  
  18775953.408    98668245.452        -457.377          44.000  
  21136576.137   111073472.019         424.518          41.000  
  22617820.910   118857476.244        2894.910          40.000  
  19641931.810   103219043.378        1878.156          45.000  
  23280045.379   122337425.442        2520.898          37.000  
 23 11 05 14 51 32.9960000  0 11G12G13G14G17G22G30G15G23G19G24G10
  23189741.399   121862956.844        3860.626          42.000  
  19690433.493   103473954.511       -2373.267          43.000  
  21388907.339   112399479.970       -2872.587          43.000  
  21822105.140   114675951.503        1258.243          36.000  
  20489125.293   107671086.318       -2064.290          44.000  
  23917908.124                       -3271.752          23.000  
  18776040.611    98668703.015        -458.081          44.000  
  21136495.591   111073047.984         423.662          41.000  
  22617270.216   118854581.425        2894.611          40.000  
  19641574.236   103217165.338        1877.740          45.000  
  23279565.572   122334904.666        2520.682          37.000  
 23 11 05 14 51 33.9960000  0 11G12G13G14G17G22G30G15G23G19G24G10
  23189006.781   121859096.570        3860.172          42.000  
  19690885.185   103476328.185       -2374.084          44.000  
  21389453.904   112402352.922       -2873.247          43.000  
  21821865.692   114674693.650        1257.794          36.000  
  20489518.008   107673151.174       -2065.167          44.000  
  23918529.306                       -3274.553          22.000  
  18776127.592    98669161.424        -458.818          44.000  
  21136415.244   111072624.869         422.471          41.000  
  22616719.605   118851687.072        2893.799          41.000  
  19641216.910   103215287.930        1876.917          45.000  
  23279085.517   122332384.574        2519.818          37.000  
 23 11 05 14 51 34.9960000  0 11G12G13G14G17G22G30G15G23G19G24G10
  23188272.339   121855236.709        3859.830          42.000  
  19691336.664   103478702.590       -2374.481          43.000  
  21390000.599   112405226.573       -2873.773          42.000  
  21821626.701   114673436.659        1257.043          36.000  
  20489911.726   107675216.804       -2065.664          44.000  
  23919155.306                       -3271.918          22.000  
  18776214.893    98669620.835        -459.766          44.000  
  21136335.056   111072202.758         421.544          41.000  
  22616168.885   118848793.272        2893.738          41.000  
  19640859.972   103213411.202        1876.556          45.000  
  23278605.812   122329865.267        2519.327          37.000  
 23 11 05 14 51 35.9960000  0 11G12G13G14G17G22G30G15G23G19G24G10
  23187537.794   121851377.108        3859.340          42.000  
  19691788.424   103481077.572       -2375.226          44.000  
  21390547.718   112408100.688       -2874.283          43.000  
  21821387.463   114672180.321        1256.307          36.000  
  20490305.109   107677283.045       -2066.609          44.000  
  23919784.659                       -3277.016          23.000  
  18776302.497    98670081.026        -460.550          44.000  
  21136255.048   111071781.454         421.152          41.000  
  22615618.540   118845899.851        2893.323          41.000  
  19640502.986   103211535.014        1875.909          45.000  
  23278126.620   122327346.518        2518.367          37.000  
 23 11 05 14 51 36.9960000  0 11G12G13G14G17G22G30G15G23G19G24G10
  23186803.253   121847517.625        3859.449          42.000  
  19692240.469   103483453.023       -2375.775          44.000  
  21391094.815   112410975.203       -2874.750          43.000  
  21821148.460   114670924.564        1255.427          36.000  
  20490698.448   107679349.775       -2067.044          44.000  
  23920417.145                       -3273.810          23.000  
  18776389.912    98670541.918        -461.254          44.000  
  21136175.122   111071360.907         420.280          40.000  
  22615068.127   118843006.752        2892.798          41.000  
  19640145.924   103209659.241        1875.397          45.000  
  23277647.263   122324828.218        2518.381          36.000  
 23 11 05 14 51 37.9960000  0 11G12G13G14G17G22G30G15G23G19G24G10
  23186068.738   121843658.597        3858.945          42.000  
  19692692.369   103485829.228       -2376.385          44.000  
  21391642.052   112413850.373       -2875.164          43.000  
  21820909.595   114669669.658        1254.547          36.000  
  20491092.029   107681417.298       -2067.711          44.000  
  23921042.301                       -3282.417          25.000  
  18776478.040    98671003.787        -462.152          44.000  
  21136095.392   111070941.380         419.097          40.000  
  22614517.560   118840114.219        2892.468          41.000  
  19639789.011   103207784.190        1874.976          45.000  
  23277168.211   122322310.728        2517.402          36.000  
 23 11 05 14 51 38.9960000  0 11G12G13G14G17G22G30G15G23G19G24G10
  23185334.531   121839799.785        3858.519          42.000  
  19693144.759   103488205.971       -2376.947          44.000  
  21392189.372   112416726.035       -2875.963          43.000  
  21820671.362   114668415.370        1253.702          36.000  
  20491485.182   107683485.382       -2068.355          44.000  
  23921670.027   125709223.9843      -3276.240          27.000  
  18776565.841    98671466.420        -463.169          44.000  
  21136015.682   111070522.653         418.388          40.000  
  22613967.158   118837222.052        2891.693          40.000  
  19639431.914   103205909.635        1874.182          45.000  
  23276689.209   122319793.778        2516.731          36.000  
 23 11 05 14 51 39.9960000  0 11G12G13G14G17G22G30G15G23G19G24G10
  23184600.425   121835941.269        3858.182          42.000  
  19693596.755   103490583.340       -2377.942          43.000  
  21392736.630   112419602.258       -2876.670          43.000  
  21820432.942   114667161.810        1252.977          37.000  
  20491878.562   107685554.153       -2069.221          44.000  
  23922294.886   125712500.7832      -3277.286          26.000  
  18776653.964    98671929.892        -464.006          44.000  
  21135936.196   111070104.807         416.943          40.000  
  22613416.630   118834330.316        2891.602          40.000  
  19639074.961   103204035.671        1873.297          45.000  
  23276210.203   122317277.460        2515.986          36.000  
 23 11 05 14 51 40.9960000  0 11G12G13G14G17G22G30G15G23G19G24G10
  23183866.333   121832083.246        3858.032          42.000  
  19694049.276   103492961.517       -2378.436          43.000  
  21393283.712   112422479.188       -2877.314          42.000  
  21820194.657   114665909.141        1252.817          37.000  
  20492272.364   107687623.736       -2069.845          44.000  
  23922918.361   125715777.8442      -3277.095          26.000  
  18776742.699    98672394.404        -464.844          44.000  
  21135856.972   111069688.020         416.441          40.000  
  22612865.899   118831439.215        2890.967          40.000  
  19638718.379   103202162.441        1873.120          44.000  
  23275731.144   122314761.998        2514.742          35.000  
 23 11 05 14 51 41.9960000  0 12G05G12G13G14G17G22G30G15G23G19G24G10
  23594449.797                       -3915.551          23.000  
  23183132.229   121828225.281        3857.954          42.000  
  19694501.998   103495340.060       -2378.790          43.000  
  21393831.430   112425356.441       -2877.333          42.000  
  21819956.067   114664656.965        1251.986          36.000  
  20492666.420   107689693.733       -2070.152          44.000  
  23923533.300   125719055.1242      -3278.409          25.000  
  18776831.429    98672859.530        -465.498          44.000  
  21135777.665   111069271.889         415.524          40.000  
  22612315.563   118828548.323        2890.814          40.000  
  19638361.919   103200289.573        1872.748          44.000  
  23275252.173   122312246.884        2514.658          35.000  
 23 11 05 14 51 42.9960000  0 11G12G13G14G17G22G30G15G23G19G24G10
  23182398.164   121824367.561        3857.686          42.000  
  19694954.973   103497719.178       -2379.187          43.000  
  21394379.068   112428234.207       -2877.826          43.000  
  21819717.490   114663405.463        1251.604          37.000  
  20493060.042   107691764.342       -2070.712          44.000  
  23924155.429   125722332.2622      -3277.554          24.000  
  18776920.130    98673325.437        -465.981          44.000  
  21135698.144   111068856.568         415.355          40.000  
  22611765.142   118825657.832        2890.436          40.000  
  19638005.605   103198417.205        1872.418          44.000  
  23274773.225   122309732.319        2513.969          35.000  
 23 11 05 14 51 43.9960000  0 11G12G13G14G17G22G30G15G23G19G24G10
  23181663.974   121820510.078        3857.773          42.000  
  19695407.444   103500098.855       -2379.651          43.000  
  21394926.805   112431112.474       -2878.175          43.000  
  21819479.691   114662154.614        1251.130          37.000  
  20493454.086   107693835.557       -2071.098          44.000  
  23924784.430                       -3271.584          23.000  
  18777008.930    98673792.152        -466.756          44.000  
  21135619.354   111068442.115         414.165          40.000  
  22611215.141   118822767.732        2890.186          40.000  
  19637649.210   103196545.401        1871.942          44.000  
  23274294.319   122307218.330        2514.247          34.000  
 23 11 05 14 51 44.9960000  0 12G05G12G13G14G17G22G30G15G23G19G24G10
  23596685.905                       -3910.671          25.000  
  23180930.014   121816652.785        3857.091          42.000  
  19695860.550   103502479.029       -2380.499          43.000  
  21395474.805   112433991.144       -2879.041          43.000  
  21819241.869   114660904.368        1249.977          37.000  
  20493848.275   107695907.306       -2072.024          44.000  
  23925413.290                       -3269.183          20.000  
  18777097.928    98674259.587        -467.872          45.000  
  21135540.850   111068028.395         412.999          41.000  
  22610665.041   118819877.958        2889.190          40.000  
  19637292.807   103194674.042        1870.990          44.000  
  23273815.819   122304704.895        2513.286          34.000  
 23 11 05 14 51 45.9960000  0 12G05G12G13G14G17G22G30G15G23G19G24G10
  23597438.217                       -3912.677          24.000  
  23180196.210   121812796.037        3856.458          42.000  
  19696313.496   103504860.087       -2381.519          44.000  
  21396022.659   112436870.597       -2879.749          43.000  
  21819004.404   114659655.111        1248.770          37.000  
  20494242.720   107697979.948       -2073.201          44.000  
  23926031.787                       -3283.853          18.000  
  18777187.060    98674728.125        -469.282          45.000  
  21135462.547   111067615.820         411.935          40.000  
  22610115.141   118816988.899        2888.409          40.000  
  19636937.080   103192803.511        1870.160          44.000  
  23273337.338   122302192.312        2512.130          34.000  
 23 11 05 14 51 46.9960000  0 11G12G13G14G17G22G30G15G23G19G24G10
  23179462.322   121808939.575        3857.093          42.000  
  19696766.273   103507241.751       -2381.610          43.000  
  21396570.753   112439750.595       -2879.722          43.000  
  21818766.896   114658406.528        1249.016          37.000  
  20494637.119   107700053.220       -2073.025          43.000  
  23926651.850                       -3283.853          16.000  
  18777276.549    98675197.494        -469.098          45.000  
  21135384.472   111067204.122         411.646          41.000  
  22609565.664   118814100.235        2889.087          41.000  
  19636581.288   103190933.552        1870.172          44.000  
  23272858.528   122299680.355        2511.720          34.000  
 23 11 05 14 51 47.9960000  0 11G12G13G14G17G22G30G15G23G19G24G10
  23178728.147   121805082.996        3856.426          42.000  
  19697219.361   103509623.626       -2382.397          43.000  
  21397118.600   112442630.739       -2880.765          43.000  
  21818529.416   114657158.290        1247.637          37.000  
  20495031.622   107702126.792       -2074.339          43.000  
  23927268.656                       -3283.853          14.000  
  18777365.866    98675667.316        -470.506          45.000  
  21135306.448   111066792.894         410.640          41.000  
  22609016.043   118811211.646        2887.860          41.000  
  19636225.338   103189063.775        1869.079          44.000  
  23272380.430   122297168.627        2511.665          34.000  
 23 11 05 14 51 48.9960000  0 12G05G12G13G14G17G22G30G15G23G19G24G10
  23599662.995   124017065.6343      -3912.377          26.000  
  23177994.259   121801226.878        3855.945          42.000  
  19697673.100   103512006.268       -2382.977          43.000  
  21397666.766   112445511.553       -2881.280          43.000  
  21818292.204   114655910.868        1247.258          37.000  
  20495425.971   107704201.099       -2074.781          44.000  
  23927887.288                       -3283.853          14.000  
  18777455.490    98676138.112        -471.289          45.000  
  21135228.531   111066382.719         409.566          41.000  
  22608466.619   118808323.615        2887.707          41.000  
  19635869.663   103187194.698        1868.536          44.000  
  23271901.929   122294657.706        2510.800          34.000  
 23 11 05 14 51 49.9960000  0 12G05G12G13G14G17G22G30G15G23G19G24G10
  23600408.185   124020978.0342      -3912.568          25.000  
  23177260.298   121797370.887        3856.152          42.000  
  19698126.653   103514389.354       -2383.124          43.000  
  21398215.187   112448392.762       -2881.312          43.000  
  21818054.881   114654664.085        1246.938          36.000  
  20495820.924   107706275.950       -2075.105          44.000  
  23928497.167                       -3273.708          19.000  
  18777545.295    98676609.622        -471.777          45.000  
  21135151.098   111065973.234         409.276          41.000  
  22607916.915   118805435.869        2887.927          40.000  
  19635514.224   103185326.061        1868.597          44.000  
  23271423.495   122292147.252        2510.690          34.000  
 23 11 05 14 51 50.9960000  0 12G05G12G13G14G17G22G30G15G23G19G24G10
  23601153.257   124024890.1712      -3912.728          26.000  
  23176526.815   121793514.860        3856.328          42.000  
  19698579.933   103516772.731       -2383.295          43.000  
  21398763.778   112451274.191       -2881.659          43.000  
  21817817.617   114653417.595        1246.430          36.000  
  20496216.082   107708351.082       -2075.355          44.000  
  23929112.702                       -3284.618          22.000  
  18777635.295    98677081.623        -472.030          45.000  
  21135073.313   111065564.312         408.619          41.000  
  22607367.525   118802548.253        2887.518          40.000  
  19635158.661   103183457.663        1868.188          45.000  
  23270945.319   122289637.104        2509.708          33.000  
 23 11 05 14 51 51.9960000  0 12G05G12G13G14G17G22G30G15G23G19G24G10
  23601895.072   124028802.4962      -3912.292          26.000  
  23175792.901   121789659.219        3855.343          42.000  
  19699033.532   103519156.806       -2384.204          43.000  
  21399312.459   112454156.216       -2882.106          42.000  
  21817580.525   114652171.941        1245.109          37.000  
  20496610.974   107710426.943       -2076.135          43.000  
  23929733.197                       -3284.001          21.000  
  18777725.248    98677554.547        -473.223          45.000  
  21134995.588   111065156.341         407.635          41.000  
  22606818.086   118799661.152        2886.926          40.000  
  19634803.340   103181589.885        1867.566          44.000  
  23270467.251   122287127.641        2508.712          32.000  
 23 11 05 14 51 52.9960000  0 12G05G12G13G14G17G22G30G15G23G19G24G10
  23602637.119   124032714.8402      -3911.853          27.000  
  23175059.272   121785803.623        3855.858          42.000  
  19699487.074   103521541.266       -2384.326          43.000  
  21399861.259   112457038.547       -2881.936          41.000  
  21817343.602   114650926.757        1245.217          37.000  
  20497005.853   107712503.224       -2076.003          43.000  
  23930355.244                       -3284.001          18.000  
  18777815.540    98678028.087        -473.569          45.000  
  21134918.294   111064749.007         407.426          41.000  
  22606268.633   118796774.261        2887.128          40.000  
  19634448.435   103179722.472        1867.694          45.000  
  23269989.460   122284618.544        2509.553          32.000  
 23 11 05 14 51 53.9960000  0 12G05G12G13G14G17G22G30G15G23G19G24G10
  23603380.751   124036627.3402      -3913.043          27.000  
  23174325.302   121781948.297        3854.913          42.000  
  19699940.625   103523926.318       -2385.718          43.000  
  21400409.814   112459921.438       -2883.470          42.000  
  21817106.601   114649682.263        1243.966          37.000  
  20497400.841   107714580.135       -2077.464          43.000  
  23930978.200                       -3284.001          12.000  
  18777905.972    98678502.448        -475.055          45.000  
  21134840.802   111064342.550         405.826          41.000  
  22605719.494   118793887.787        2885.724          40.000  
  19634093.216   103177855.617        1866.382          45.000  
  23269511.843   122282110.085        2508.329          32.000  
 23 11 05 14 51 54.9960000  0 12G05G12G13G14G17G22G30G15G23G19G24G10
  23604123.164   124040539.9652      -3912.557          27.000  
  23173591.791   121778093.325        3855.065          42.000  
  19700393.933   103526312.009       -2385.681          43.000  
  21400958.551   112462804.873       -2883.293          42.000  
  21816870.120   114648438.530        1243.529          37.000  
  20497796.507   107716657.744       -2077.797          43.000  
  23931601.441                       -3284.001          13.000  
  18777996.490    98678977.680        -475.391          45.000  
  21134763.441   111063937.015         405.390          41.000  
  22605170.661   118791001.796        2885.828          41.000  
  19633738.100   103175989.371        1866.284          45.000  
  23269034.294   122279602.340        2507.921          32.000  
 23 11 05 14 51 55.9960000  0 12G05G12G13G14G17G22G30G15G23G19G24G10
  23604862.907   124044452.5912      -3913.187          27.000  
  23172858.230   121774238.421        3854.420          42.000  
  19700848.143   103528698.109       -2386.829          43.000  
  21401507.249   112465688.650       -2884.311          42.000  
  21816633.618   114647195.286        1242.729          38.000  
  20498191.822   107718735.756       -2078.492          43.000  
  23932225.491                       -3280.392          13.000  
  18778087.212    98679453.553        -476.553          45.000  
  21134686.470   111063532.132         404.220          41.000  
  22604621.779   118788116.032        2885.229          41.000  
  19633383.016   103174123.488        1865.619          45.000  
  23268556.821   122277094.973        2506.333          31.000  
 23 11 05 14 51 56.9960000  0 12G05G12G13G14G17G22G30G15G23G19G24G10
  23605604.341   124048365.3422      -3912.647          27.000  
  23172124.791   121770383.792        3854.563          42.000  
  19701302.344   103531084.809       -2387.000          43.000  
  21402056.006   112468572.952       -2884.524          42.000  
  21816397.551   114645952.759        1242.582          38.000  
  20498587.203   107720814.436       -2078.818          43.000  
  23932848.148                       -3280.392          14.000  
  18778177.857    98679930.235        -476.891          45.000  
  21134609.787   111063128.121         403.472          41.000  
  22604073.001   118785230.694        2885.193          41.000  
  19633028.090   103172258.187        1865.125          45.000  
  23268078.877   122274588.192        2506.316          30.000  
 23 11 05 14 51 57.9960000  0 12G05G12G13G14G17G22G30G15G23G19G24G10
  23606350.181   124052278.5122      -3913.474          28.000  
  23171391.522   121766529.631        3853.930          42.000  
  19701756.749   103533472.277       -2387.921          43.000  
  21402604.955   112471457.948       -2885.217          41.000  
  21816161.118   114644711.110        1241.119          38.000  
  20498983.002   107722893.904       -2079.851          43.000  
  23933472.719                       -3278.183          14.000  
  18778268.890    98680407.950        -478.288          45.000  
  21134533.124   111062725.144         402.573          41.000  
  22603524.139   118782345.967        2884.375          41.000  
  19632673.281   103170393.605        1864.020          45.000  
  23267601.325   122272082.184        2505.205          30.000  
 23 11 05 14 51 58.9960000  0 12G05G12G13G14G17G22G30G15G23G19G24G10
  23607096.742   124056191.6642      -3913.009          28.000  
  23170658.266   121762675.676        3854.266          42.000  
  19702211.493   103535860.284       -2387.927          43.000  
  21403153.795   112474343.415       -2885.344          42.000  
  21815925.006   114643470.095        1240.974          38.000  
  20499379.013   107724973.937       -2080.101          43.000  
  23934095.018                       -3285.532          19.000  
  18778360.338    98680886.400        -478.560          45.000  
  21134456.531   111062322.959         401.982          41.000  
  22602975.209   118779461.605        2884.399          41.000  
  19632318.352   103168529.517        1864.081          44.000  
  23267123.938   122269576.667        2505.636          30.000  
 23 11 05 14 51 59.9960000  0 12G05G12G13G14G17G22G30G15G23G19G24G10
  23607842.975   124060104.9702      -3912.543          27.000  
  23169924.792   121758821.936        3853.854          42.000  
  19702666.159   103538248.817       -2388.593          43.000  
  21403702.984   112477229.311       -2885.778          43.000  
  21815689.018   114642229.687        1240.137          37.000  
  20499774.995   107727054.539       -2080.629          44.000  
  23934718.381                       -3276.415          22.000  
  18778451.468    98681365.617        -479.267          45.000  
  21134380.430   111061921.585         401.082          41.000  
  22602425.977   118776577.600        2883.942          41.000  
  19631964.015   103166665.922        1863.531          45.000  
  23266639.432   122267071.775        2504.199          30.000  
 23 11 05 14 52 00.9960000  0 12G05G12G13G14G17G22G30G15G23G19G24G10
  23608586.943   124064018.1342      -3912.884          28.000  
  23169191.682   121754968.267        3853.424          42.000  
  19703120.883   103540637.721       -2389.087          43.000  
  21404252.168   112480115.533       -2886.488          42.000  
  21815453.220   114640989.791        1239.479          37.000  
  20500171.255   107729135.551       -2081.006          43.000  
  23935349.582                       -3279.720          25.000  
  18778542.763    98681845.449        -480.128          46.000  
  21134304.376   111061520.844         400.455          41.000  
  22601876.960   118773693.800        2883.698          40.000  
  19631609.369   103164802.663        1862.982          45.000  
  23266166.915   122264567.237        2505.535          30.000  
 23 11 05 14 52 01.9960000  0 12G05G12G13G14G17G22G30G15G23G19G24G10
  23609329.565   124067931.5602      -3913.741          28.000  
  23168458.502   121751114.893        3852.856          42.000  
  19703575.786   103543027.284       -2389.929          43.000  
  21404801.979   112483002.315       -2887.181          42.000  
  21815217.618   114639750.595        1238.745          37.000  
  20500567.357   107731217.248       -2082.170          43.000  
  23935972.094                       -3280.116          25.000  
  18778634.228    98682326.146        -481.245          45.000  
  21134228.483   111061121.036         399.113          41.000  
  22601327.606   118770810.491        2882.428          40.000  
  19631255.265   103162940.009        1862.061          45.000  
  23265694.459   122262063.424        2503.102          30.000  
 23 11 05 14 52 02.9960000  0 12G05G12G13G14G17G22G30G15G23G19G24G10
  23610069.690   124071845.2502      -3913.479          28.000  
  23167725.179   121747261.945        3852.988          42.000  
  19704030.901   103545417.562       -2390.295          43.000  
  21405351.377   112485889.770       -2887.640          42.000  
  21814981.691   114638512.285        1238.373          37.000  
  20500963.569   107733299.708       -2082.616          43.000  
  23936601.958                       -3278.343          24.000  
  18778725.925    98682807.798        -481.760          45.000  
  21134152.733   111060722.206         398.572          41.000  
  22600778.768   118767927.688        2882.996          40.000  
  19630901.152   103161078.040        1861.963          45.000  
  23265216.193   122259560.290        2502.932          30.000  
 23 11 05 14 52 03.9960000  0 12G05G12G13G14G17G22G30G15G23G19G24G10
  23610811.030   124075759.1212      -3913.872          27.000  
  23166991.822   121743409.323        3852.180          42.000  
  19704485.839   103547808.496       -2391.498          43.000  
  21405900.904   112488777.773       -2888.525          42.000  
  21814746.176   114637274.677        1236.999          40.000  
  20501360.068   107735382.852       -2083.965          43.000  
  23937235.436   125791020.7683      -3281.595          26.000  
  18778817.523    98683290.317        -483.197          45.000  
  21134077.078   111060324.285         397.113          41.000  
  22600230.343   118765045.385        2882.031          41.000  
  19630546.714   103159216.679        1860.785          45.000  
  23264741.466   122257057.822        2501.909          31.000  
 23 11 05 14 52 04.9960000  0 12G05G12G13G14G17G22G30G15G23G19G24G10
  23611555.070   124079672.9982      -3913.961          27.000  
  23166258.499   121739556.800        3851.749          42.000  
  19704940.679   103550199.825       -2391.907          43.000  
  21406450.540   112491666.132       -2888.974          42.000  
  21814511.289   114636037.604        1236.911          40.000  
  20501756.801   107737466.426       -2084.020          43.000  
  23937866.233   125794301.6702      -3280.430          29.000  
  18778909.562    98683773.485        -483.663          45.000  
  21134001.547   111059927.035         396.680          40.000  
  22599682.055   118762163.343        2881.695          40.000  
  19630192.272   103157355.697        1860.504          45.000  
  23264266.124   122254555.747        2502.052          31.000  
 23 11 05 14 52 05.9960000  0 12G05G12G13G14G17G22G30G15G23G19G24G10
  23612299.228   124083586.7932      -3913.907          27.000  
  23165525.315   121735704.321        3852.247          42.000  
  19705395.554   103552591.565       -2391.986          43.000  
  21407000.259   112494554.782       -2888.716          41.000  
  21814276.231   114634801.010        1236.061          38.000  
  20502153.578   107739550.401       -2083.920          44.000  
  23938503.248   125797582.6862      -3280.736          28.000  
  18779001.642    98684257.256        -483.800          45.000  
  21133926.101   111059530.462         396.239          42.000  
  22599133.705   118759281.508        2881.885          41.000  
  19629838.332   103155495.059        1860.327          45.000  
  23263786.324   122252054.176        2500.942          31.000  
 23 11 05 14 52 06.9960000  0 12G05G12G13G14G17G22G30G15G23G19G24G10
  23613041.774   124087371.4583      -3913.061          27.000  
  23164791.963   121731851.889        3852.533          42.000  
  19705850.815   103554983.652       -2392.438          43.000  
  21407550.214   112497443.745       -2889.268          42.000  
  21814041.447   114633564.892        1235.686          37.000  
  20502550.306   107741634.795       -2084.543          44.000  
  23939133.620   125800996.1293      -3281.814          28.000  
  18779093.902    98684741.645        -484.706          45.000  
  21133850.869   111059134.480         395.691          41.000  
  22598585.607   118756399.861        2881.244          41.000  
  19629484.131   103153634.763        1860.028          44.000  
  23263311.331   122249552.887        2500.940          31.000  
 23 11 05 14 52 07.9960000  0 12G05G12G13G14G17G22G30G15G23G19G24G10
  23613782.104   124091285.2332      -3913.992          27.000  
  23164058.979   121727999.631        3852.356          42.000  
  19706305.916   103557376.207       -2392.578          43.000  
  21408100.000   112500333.087       -2889.394          42.000  
  21813806.547   114632329.335        1235.488          36.000  
  20502947.033   107743719.702       -2085.048          44.000  
  23939769.630   125804277.0482      -3280.836          27.000  
  18779186.185    98685226.713        -485.094          45.000  
  21133775.639   111058739.250         394.971          41.000  
  22598037.020   118753518.515        2881.543          40.000  
  19629130.195   103151774.882        1859.698          44.000  
  23262839.109   122247052.144        2500.857          31.000  
 23 11 05 14 52 08.9960000  0 12G05G12G13G14G17G22G30G15G23G19G24G10
  23614524.401   124095198.7612      -3913.043          27.000  
  23163325.863   121724147.324        3852.357          42.000  
  19706761.402   103559769.056       -2392.798          43.000  
  21408649.867   112503222.644       -2889.791          42.000  
  21813571.774   114631094.156        1235.042          36.000  
  20503343.665   107745804.918       -2085.340          44.000  
  23940410.601   125807557.8972      -3280.523          28.000  
  18779278.562    98685712.313        -485.876          45.000  
  21133700.494   111058344.580         394.368          41.000  
  22597488.508   118750637.292        2881.201          40.000  
  19628776.091   103149915.247        1859.595          44.000  
  23262364.888   122244551.746        2499.065          32.000  
 23 11 05 14 52 09.9960000  0 12G05G12G13G14G17G22G30G15G23G19G24G10
  23615270.758   124099085.3513      -3913.926          28.000  
  23162592.906   121720295.209        3851.510          42.000  
  19707216.962   103562162.445       -2394.391          43.000  
  21409199.689   112506112.655       -2890.959          42.000  
  21813336.454   114629859.636        1233.744          36.000  
  20503740.459   107747890.669       -2086.665          44.000  
  23941031.200   125810838.9232      -3281.750          28.000  
  18779371.125    98686198.645        -487.463          45.000  
  21133625.370   111057950.659         392.793          41.000  
  22596940.789   118747756.405        2880.023          41.000  
  19628422.497   103148056.077        1858.368          45.000  
  23261887.976   122242051.723        2499.131          32.000  
 23 11 05 14 52 10.9960000  0 12G05G12G13G14G17G22G30G15G23G19G24G10
  23616014.927   124102999.3272      -3913.454          27.000  
  23161859.905   121716443.697        3851.216          42.000  
  19707672.620   103564556.721       -2394.623          43.000  
  21409749.576   112509003.468       -2890.919          41.000  
  21813101.386   114628626.045        1233.326          37.000  
  20504137.678   107749977.351       -2086.976          44.000  
  23941654.180   125814120.3812      -3281.417          28.000  
  18779464.084    98686686.113        -487.967          45.000  
  21133550.718   111057557.925         392.130          41.000  
  22596392.861   118744876.224        2879.962          41.000  
  19628068.827   103146197.797        1857.886          44.000  
  23261413.483   122239552.698        2498.539          33.000  
 23 11 05 14 52 11.9960000  0 12G05G12G13G14G17G22G30G15G23G19G24G10
  23616763.572   124106913.6762      -3914.429          27.000  
  23161127.168   121712592.466        3850.686          42.000  
  19708128.441   103566951.589       -2395.422          43.000  
  21410299.779   112511894.848       -2891.876          41.000  
  21812866.694   114627393.215        1232.432          41.000  
  20504534.882   107752064.669       -2087.684          44.000  
  23942256.097   125817402.0842      -3281.863          29.000  
  18779557.076    98687174.416        -488.922          45.000  
  21133476.167   111057166.088         391.179          41.000  
  22595845.236   118741996.513        2879.260          41.000  
  19627715.552   103144340.060        1857.422          44.000  
  23260940.455   122237054.271        2498.037          34.000  
 23 11 05 14 52 12.9960000  0 12G05G12G13G14G17G22G30G15G23G19G24G10
  23617508.299   124110828.6122      -3914.958          27.000  
  23160394.384   121708742.152        3849.625          42.000  
  19708584.514   103569347.698       -2396.790          43.000  
  21410850.176   112514787.367       -2893.041          41.000  
  21812632.014   114626161.733        1230.903          41.000  
  20504932.414   107754153.270       -2089.454          44.000  
  23942856.249   125820684.6342      -3283.128          30.000  
  18779650.095    98687664.178        -490.373          45.000  
  21133401.766   111056775.718         389.864          41.000  
  22595297.690   118739117.874        2878.052          42.000  
  19627362.170   103142483.512        1856.305          44.000  
  23260466.560   122234557.117        2496.428          34.000  
 23 11 05 14 52 13.9960000  0 12G05G12G13G14G17G22G30G15G23G19G24G10
  23618254.492   124114743.3892      -3913.965          26.000  
  23159661.483   121704891.702        3850.826          42.000  
  19709040.625   103571743.986       -2395.868          44.000  
  21411400.249   112517680.000       -2892.083          41.000  
  21812397.324   114624930.535        1231.750          42.000  
  20505330.191   107756242.079       -2088.472          44.000  
  23943476.495   125823966.9902      -3281.950          31.000  
  18779743.475    98688154.356        -489.880          45.000  
  21133327.862   111056385.815         390.265          41.000  
  22594750.078   118736239.250        2879.187          42.000  
  19627008.940   103140627.148        1856.836          45.000  
  23259991.493   122232060.145        2497.344          34.000  
 23 11 05 14 52 14.9960000  0 12G05G12G13G14G17G22G30G15G23G19G24G10
  23618999.337   124118657.3932      -3913.892          26.000  
  23158928.421   121701040.586        3851.501          42.000  
  19709496.658   103574139.941       -2396.136          44.000  
  21411950.661   112520572.189       -2892.280          41.000  
  21812163.005   114623699.041        1231.211          38.000  
  20505727.315   107758330.579       -2088.800          44.000  
  23944112.108   125827248.6042      -3281.725          29.000  
  18779836.716    98688644.408        -490.233          45.000  
  21133253.720   111055995.817         389.966          41.000  
  22594202.283   118733360.078        2879.089          41.000  
  19626655.678   103138770.377        1856.793          45.000  
  23259516.216   122229562.875        2496.862          33.000  
 23 11 05 14 52 15.9960000  0 12G05G12G13G14G17G22G30G15G23G19G24G10
  23619747.404   124122571.0582      -3914.354          26.000  
  23158195.237   121697189.305        3850.928          41.000  
  19709952.785   103576536.041       -2396.686          44.000  
  21412501.329   112523464.478       -2892.935          42.000  
  21811928.821   114622467.844        1230.604          37.000  
  20506124.890   107760419.255       -2089.387          44.000  
  23944738.894                       -3279.679          21.000  
  18779930.321    98689134.856        -491.167          45.000  
  21133179.432   111055606.248         388.662          41.000  
  22593654.656   118730480.903        2878.632          41.000  
  19626302.257   103136913.736        1855.933          45.000  
  23259040.857   122227065.767        2496.455          33.000  
 23 11 05 14 52 16.9960000  0 12G05G12G13G14G17G22G30G15G23G19G24G10
  23620494.435   124126484.6742      -3913.261          26.000  
  23157461.957   121693338.240        3851.256          41.000  
  19710409.093   103578932.693       -2396.674          44.000  
  21413051.848   112526357.228       -2892.561          41.000  
  21811694.726   114621237.315        1230.310          38.000  
  20506522.456   107762508.503       -2089.332          44.000  
  23945358.634   125833708.4573      -3281.055          28.000  
  18780023.665    98689626.054        -491.131          45.000  
  21133105.494   111055217.466         388.525          41.000  
  22593106.754   118727602.101        2878.754          41.000  
  19625949.154   103135057.576        1856.195          45.000  
  23258565.736   122224569.142        2496.666          33.000  
 23 11 05 14 52 17.9960000  0 12G05G12G13G14G17G22G30G15G23G19G24G10
  23621239.223                       -3915.309          26.000  
  23156729.303   121689487.286        3850.575          41.000  
  19710865.015   103581329.742       -2397.644          44.000  
  21413602.414   112529250.324       -2893.574          42.000  
  21811460.309   114620007.349        1229.095          38.000  
  20506920.229   107764598.209       -2090.201          44.000  
  23945993.418                       -3281.207          26.000  
  18780117.141    98690117.919        -492.552          45.000  
  21133031.206   111054829.387         387.217          41.000  
  22592559.048   118724723.569        2878.137          41.000  
  19625595.839   103133201.818        1855.060          45.000  
  23258090.265   122222073.023        2495.581          33.000  
 23 11 05 14 52 18.9960000  0 12G05G12G13G14G17G22G30G15G23G19G24G10
  23621983.894                       -3912.387          25.000  
  23155996.935   121685636.523        3850.758          42.000  
  19711321.578   103583727.285       -2397.906          44.000  
  21414153.051   112532143.861       -2893.914          42.000  
  21811226.541   114618777.920        1228.792          38.000  
  20507318.114   107766688.469       -2091.010          45.000  
  23946618.983                       -3279.935          23.000  
  18780210.709    98690610.521        -493.029          45.000  
  21132957.562   111054442.074         386.753          41.000  
  22592011.554   118721845.319        2877.899          41.000  
  19625243.024   103131346.514        1854.694          45.000  
  23257615.268   122219577.368        2495.885          33.000  
 23 11 05 14 52 19.9960000  0 12G05G12G13G14G17G22G30G15G23G19G24G10
  23622726.250                       -3914.599          25.000  
  23155264.355   121681786.147        3850.177          42.000  
  19711778.198   103586125.545       -2398.730          44.000  
  21414703.608   112535038.007       -2894.634          42.000  
  21810993.066   114617549.275        1228.027          39.000  
  20507716.349   107768779.442       -2091.493          45.000  
  23947235.752                       -3280.902          23.000  
  18780304.635    98691104.050        -494.290          45.000  
  21132883.865   111054055.735         385.751          41.000  
  22591463.774   118718967.654        2877.179          41.000  
  19624890.464   103129491.847        1854.388          45.000  
  23257140.269   122217082.477        2494.521          34.000  
 23 11 05 14 52 20.9960000  0 12G05G12G13G14G17G22G30G15G23G19G24G10
  23623471.246                       -3914.760          25.000  
  23154531.750   121677936.012        3849.470          42.000  
  19712234.735   103588524.341       -2399.585          44.000  
  21415254.541   112537932.613       -2895.050          42.000  
  21810759.460   114616321.286        1227.418          39.000  
  20508114.476   107770870.986       -2092.223          44.000  
  23947852.689                       -3282.680          23.000  
  18780398.591    98691598.344        -495.179          45.000  
  21132810.415   111053670.211         384.671          40.000  
  22590915.877   118716090.357        2876.532          41.000  
  19624537.913   103127637.722        1853.613          45.000  
  23256665.817   122214588.155        2493.467          34.000  
 23 11 05 14 52 21.9960000  0 11G12G13G14G17G22G30G15G23G19G24G10
  23153799.196   121674086.588        3849.209          42.000  
  19712691.411   103590924.194       -2400.385          44.000  
  21415805.190   112540828.230       -2895.936          42.000  
  21810525.642   114615094.501        1226.392          38.000  
  20508512.620   107772963.631       -2093.009          44.000  
  23948472.481                       -3282.319          22.000  
  18780493.158    98692093.925        -496.111          45.000  
  21132737.540   111053286.008         383.678          41.000  
  22590368.337   118713213.949        2875.946          41.000  
  19624185.355   103125784.600        1852.838          45.000  
  23256191.018   122212094.846        2493.000          34.000  
 23 11 05 14 52 22.9960000  0 12G05G12G13G14G17G22G30G15G23G19G24G10
  23624963.554                       -3912.433          24.000  
  23153066.688   121670237.209        3849.760          42.000  
  19713148.151   103593324.401       -2399.994          44.000  
  21416355.990   112543724.129       -2895.827          42.000  
  21810292.185   114613868.172        1226.474          38.000  
  20508911.000   107775056.702       -2093.230          44.000  
  23949092.728                       -3281.718          20.000  
  18780587.420    98692590.112        -496.309          45.000  
  21132664.516   111052902.433         383.578          41.000  
  22589820.793   118710337.738        2876.239          41.000  
  19623833.127   103123931.812        1853.015          45.000  
  23255716.732   122209601.927        2493.439          35.000  
 23 11 05 14 52 23.9960000  0 12G05G12G13G14G17G22G30G15G23G19G24G10
  23625709.446                       -3913.594          25.000  
  23152334.213   121666387.536        3849.869          42.000  
  19713604.655   103595724.624       -2400.232          44.000  
  21416906.658   112546619.943       -2895.847          41.000  
  21810058.770   114612641.919        1226.293          38.000  
  20509309.127   107777149.744       -2092.914          44.000  
  23949716.241                       -3282.324          18.000  
  18780681.817    98693086.519        -496.667          45.000  
  21132591.214   111052519.113         383.402          40.000  
  22589273.556   118707461.343        2876.788          41.000  
  19623480.689   103122078.995        1852.753          45.000  
  23255242.185   122207109.059        2492.577          35.000  
 23 11 05 14 52 24.9960000  0 12G05G12G13G14G17G22G30G15G23G19G24G10
  23626453.436                       -3914.601          25.000  
  23151601.577   121662537.852        3849.797          41.000  
  19714061.886   103598125.154       -2400.781          44.000  
  21417457.690   112549516.011       -2896.404          42.000  
  21809825.430   114611416.111        1225.275          37.000  
  20509707.535   107779243.187       -2093.655          44.000  
  23950339.330                       -3282.342          19.000  
  18780776.129    98693583.486        -497.318          45.000  
  21132518.165   111052136.416         382.370          40.000  
  22588726.478   118704585.128        2876.056          40.000  
  19623128.110   103120226.468        1852.203          45.000  
  23254768.071   122204616.566        2492.346          35.000  
 23 11 05 14 52 25.9960000  0 11G12G13G14G17G22G30G15G23G19G24G10
  23150868.777   121658688.196        3849.808          41.000  
  19714518.611   103600526.013       -2401.019          44.000  
  21418009.037   112552412.324       -2896.515          42.000  
  21809592.130   114610190.690        1225.274          37.000  
  20510105.849   107781336.981       -2093.972          44.000  
  23950964.660                       -3276.105          21.000  
  18780870.984    98694081.011        -497.784          45.000  
  21132445.522   111051754.288         381.888          41.000  
  22588179.085   118701709.052        2876.178          40.000  
  19622775.762   103118374.217        1851.874          45.000  
  23254293.767   122202124.390        2491.635          35.000  
 23 11 05 14 52 26.9960000  0 11G12G13G14G17G22G30G15G23G19G24G10
  23150136.382   121654838.765        3849.664          42.000  
  19714975.767   103602927.450       -2401.849          44.000  
  21418560.511   112555309.113       -2896.943          41.000  
  21809358.740   114608965.993        1224.266          37.000  
  20510504.323   107783431.366       -2094.896          44.000  
  23951594.354                       -3277.889          21.000  
  18780965.468    98694579.331        -498.770          45.000  
  21132372.936   111051373.012         380.691          41.000  
  22587632.044   118698833.411        2875.134          41.000  
  19622423.274   103116522.499        1851.227          45.000  
  23253819.878   122199632.749        2491.073          35.000  
 23 11 05 14 52 27.9960000  0 12G05G12G13G14G17G22G30G15G23G19G24G10
  23628685.353                       -3911.448          23.000  
  23149404.160   121650989.609        3848.997          42.000  
  19715432.836   103605329.422       -2402.179          44.000  
  21419112.010   112558206.395       -2897.477          42.000  
  21809125.369   114607741.957        1223.531          37.000  
  20510902.705   107785526.326       -2095.280          44.000  
  23952222.095                       -3280.150          22.000  
  18781060.487    98695078.427        -499.488          45.000  
  21132300.807   111050992.530         380.073          41.000  
  22587084.771   118695958.125        2875.323          40.000  
  19622070.810   103114671.282        1850.915          45.000  
  23253345.948   122197141.727        2490.233          36.000  
 23 11 05 14 52 28.9960000  0 12G05G12G13G14G17G22G30G15G23G19G24G10
  23629431.488                       -3915.273          25.000  
  23148672.038   121647140.610        3848.961          42.000  
  19715890.010   103607731.916       -2402.899          44.000  
  21419663.747   112561104.112       -2898.035          42.000  
  21808892.005   114606518.499        1223.073          36.000  
  20511301.492   107787621.842       -2096.027          44.000  
  23952851.149                       -3281.528          23.000  
  18781155.418    98695578.247        -500.266          45.000  
  21132228.585   111050612.839         379.143          41.000  
  22586537.370   118693083.165        2874.524          40.000  
  19621718.669   103112820.547        1850.421          45.000  
  23252872.216   122194651.271        2489.984          36.000  
 23 11 05 14 52 29.9960000  0 12G05G12G13G14G17G22G30G15G23G19G24G10
  23630178.368                       -3913.805          26.000  
  23147939.360   121643291.804        3848.264          41.000  
  19716347.282   103610134.881       -2403.522          45.000  
  21420214.947   112564002.222       -2898.548          42.000  
  21808659.038   114605295.614        1222.545          36.000  
  20511700.439   107789717.833       -2096.408          44.000  
  23953476.995                       -3287.229          23.000  
  18781250.483    98696078.793        -501.129          45.000  
  21132156.387   111050233.890         378.363          41.000  
  22585990.197   118690208.541        2874.432          40.000  
  19621366.733   103110970.247        1849.921          45.000  
  23252398.478   122192161.275        2489.590          36.000  
 23 11 05 14 52 30.9960000  0 12G05G12G13G14G17G22G30G15G23G19G24G10
  23630925.259   124181349.8333      -3913.910          27.000  
  23147206.864   121639443.056        3849.163          41.000  
  19716804.716   103612538.256       -2403.455          44.000  
  21420766.406   112566900.683       -2898.482          42.000  
  21808425.818   114604073.272        1222.733          36.000  
  20512099.325   107791814.305       -2096.347          44.000  
  23954107.691                       -3282.173          24.000  
  18781345.839    98696579.988        -501.328          45.000  
  21132084.451   111049855.629         378.102          41.000  
  22585442.862   118687334.150        2874.664          41.000  
  19621014.830   103109120.328        1849.921          45.000  
  23251924.833   122189671.678        2489.945          36.000  
 23 11 05 14 52 31.9960000  0 12G05G12G13G14G17G22G30G15G23G19G24G10
  23631677.363   124185264.0922      -3914.786          28.000  
  23146474.600   121635594.473        3848.530          41.000  
  19717262.162   103614942.101       -2404.211          44.000  
  21421318.418   112569799.522       -2899.257          42.000  
  21808193.115   114602851.480        1221.284          35.000  
  20512498.490   107793911.247       -2097.207          44.000  
  23954740.157                       -3281.869          25.000  
  18781441.061    98697081.852        -502.135          45.000  
  21132012.469   111049478.066         377.262          41.000  
  22584895.458   118684460.053        2873.914          40.000  
  19620663.417   103107270.816        1849.335          45.000  
  23251451.378   122187182.561        2489.104          36.000  
 23 11 05 14 52 32.9960000  0 12G05G12G13G14G17G22G30G15G23G19G24G10
  23632423.040   124189178.5122      -3914.567          28.000  
  23145742.199   121631746.309        3847.676          41.000  
  19717719.565   103617346.650       -2405.066          44.000  
  21421870.207   112572698.984       -2899.802          42.000  
  21807960.849   114601630.506        1219.815          36.000  
  20512897.692   107796008.946       -2098.343          44.000  
  23955366.572   125886300.7693      -3282.632          25.000  
  18781536.865    98697584.684        -503.528          44.000  
  21131940.672   111049101.504         375.841          41.000  
  22584348.707   118681586.526        2873.193          40.000  
  19620311.723   103105422.009        1848.340          46.000  
  23250978.089   122184694.179        2487.726          36.000  
 23 11 05 14 52 33.9960000  0 12G05G12G13G14G17G22G30G15G23G19G24G10
  23633173.111   124193092.9872      -3914.137          28.000  
  23145009.659   121627898.221        3847.870          41.000  
  19718177.422   103619751.627       -2405.328          44.000  
  21422421.867   112575598.796       -2899.993          42.000  
  21807728.246   114600410.012        1220.394          39.000  
  20513296.820   107798107.091       -2098.450          45.000  
  23955992.293   125889584.0492      -3282.603          27.000  
  18781632.555    98698088.117        -503.754          45.000  
  21131869.429   111048725.642         375.269          41.000  
  22583802.001   118678713.208        2873.163          41.000  
  19619959.820   103103573.558        1848.273          46.000  
  23250504.919   122182206.263        2487.499          36.000  
 23 11 05 14 52 34.9960000  0 12G05G12G13G14G17G22G30G15G23G19G24G10
  23633919.884   124197007.4342      -3914.582          28.000  
  23144277.293   121624050.236        3848.246          41.000  
  19718635.318   103622157.008       -2405.566          45.000  
  21422973.442   112578498.959       -2900.314          42.000  
  21807495.829   114599190.123        1219.463          37.000  
  20513696.216   107800205.702       -2098.854          44.000  
  23956618.391   125892867.2872      -3284.187          27.000  
  18781728.394    98698592.231        -504.311          45.000  
  21131798.376   111048350.440         374.750          41.000  
  22583254.958   118675840.192        2872.803          41.000  
  19619608.163   103101725.511        1847.833          45.000  
  23250031.731   122179718.789        2487.939          36.000  
 23 11 05 14 52 35.9960000  0 12G05G12G13G14G17G22G30G15G23G19G24G10
  23634665.185   124200922.1682      -3914.680          28.000  
  23143544.962   121620202.747        3847.274          41.000  
  19719092.993   103624563.200       -2406.744          45.000  
  21423525.094   112581399.846       -2901.569          42.000  
  21807263.981   114597971.098        1218.225          38.000  
  20514095.499   107802305.141       -2099.985          44.000  
  23957246.639   125896150.8872      -3283.895          26.000  
  18781824.451    98699097.369        -505.673          45.000  
  21131727.005   111047976.292         373.717          41.000  
  22582708.522   118672967.767        2872.168          41.000  
  19619256.535   103099878.199        1846.973          45.000  
  23249558.503   122177232.097        2486.127          36.000  
 23 11 05 14 52 36.9960000  0 12G05G12G13G14G17G22G30G15G23G19G24G10
  23635411.267   124204836.9602      -3914.765          28.000  
  23142812.630   121616355.373        3846.892          41.000  
  19719551.236   103626969.822       -2407.190          44.000  
  21424077.169   112584301.091       -2901.876          42.000  
  21807031.910   114596752.637        1217.948          37.000  
  20514494.873   107804405.041       -2100.558          44.000  
  23957875.885   125899434.6352      -3284.003          25.000  
  18781920.645    98699603.180        -506.219          45.000  
  21131655.836   111047602.875         373.001          41.000  
  22582162.064   118670095.631        2871.704          41.000  
  19618904.941   103098031.315        1846.460          45.000  
  23249085.722   122174745.882        2485.714          36.000  
 23 11 05 14 52 37.9960000  0 12G05G12G13G14G17G22G30G15G23G19G24G10
  23636154.799   124208752.1332      -3916.443          29.000  
  23142080.533   121612508.545        3846.060          41.000  
  19720009.370   103629377.287       -2408.423          44.000  
  21424629.479   112587203.103       -2902.867          42.000  
  21806800.359   114595535.109        1216.369          37.000  
  20514894.390   107806505.825       -2101.592          44.000  
  23958506.278                       -3285.777          24.000  
  18782017.064    98700110.081        -507.949          45.000  
  21131585.060   111047230.584         371.261          41.000  
  22581615.927   118667224.173        2870.941          41.000  
  19618553.895   103096185.242        1845.056          45.000  
  23248612.642   122172260.492        2484.535          35.000  
 23 11 05 14 52 38.9960000  0 12G05G12G13G14G17G22G30G15G23G19G24G10
  23636893.873   124212667.8512      -3916.216          29.000  
  23141348.544   121608662.377        3845.616          41.000  
  19720467.558   103631785.721       -2408.624          44.000  
  21425181.794   112590106.023       -2903.019          42.000  
  21806568.725   114594318.635        1216.202          37.000  
  20515294.423   107808607.607       -2101.930          44.000  
  23959137.712                       -3285.436          23.000  
  18782113.762    98700618.174        -508.396          45.000  
  21131514.324   111046859.514         370.675          41.000  
  22581069.460   118664353.528        2870.380          41.000  
  19618203.046   103094340.091        1844.836          45.000  
  23248139.669   122169776.113        2484.614          36.000  
 23 11 05 14 52 39.9960000  0 12G05G12G13G14G17G22G30G15G23G19G24G10
  23637629.781   124216582.9182      -3915.175          29.000  
  23140616.564   121604815.745        3846.629          41.000  
  19720925.886   103634194.048       -2408.600          44.000  
  21425734.115   112593008.742       -2902.725          42.000  
  21806337.158   114593102.168        1216.269          37.000  
  20515694.482   107810709.319       -2101.898          44.000  
  23959770.330                       -3281.752          23.000  
  18782210.618    98701126.382        -508.475          45.000  
  21131443.949   111046488.605         370.564          40.000  
  22580523.279   118661482.612        2870.825          41.000  
  19617851.832   103092494.785        1845.349          45.000  
  23247666.652   122167291.609        2485.020          36.000  
 23 11 05 14 52 40.9960000  0 12G05G12G13G14G17G22G30G15G23G19G24G10
  23638370.209   124220497.7852      -3914.944          28.000  
  23139884.593   121600968.990        3846.491          41.000  
  19721384.390   103636602.542       -2408.881          45.000  
  21426286.275   112595911.560       -2902.947          42.000  
  21806105.539   114591885.998        1215.666          37.000  
  20516094.408   107812811.222       -2102.165          44.000  
  23960399.666                       -3285.229          24.000  
  18782307.466    98701634.987        -508.995          45.000  
  21131373.511   111046118.128         369.932          41.000  
  22579976.750   118658611.674        2870.764          41.000  
  19617500.921   103090649.643        1844.702          46.000  
  23247193.911   122164807.344        2483.977          36.000  
 23 11 05 14 52 41.9960000  0 12G05G12G13G14G17G22G30G15G23G19G24G10
  23639116.832   124224412.5022      -3914.596          27.000  
  23139152.473   121597122.314        3846.465          41.000  
  19721842.733   103639011.413       -2409.259          45.000  
  21426838.849   112598814.682       -2903.347          42.000  
  21805873.925   114590670.274        1215.211          37.000  
  20516494.751   107814913.558       -2102.799          44.000  
  23961027.453                       -3282.633          25.000  
  18782404.393    98702144.214        -509.735          45.000  
  21131303.303   111045748.303         369.192          41.000  
  22579430.414   118655740.966        2870.764          41.000  
  19617149.905   103088804.824        1844.641          45.000  
  23246721.104   122162323.439        2483.573          36.000  
 23 11 05 14 52 42.9960000  0 12G05G12G13G14G17G22G30G15G23G19G24G10
  23639861.880   124228327.201       -3914.865          27.000  
  23138420.332   121593275.657        3846.306          41.000  
  19722301.279   103641420.611       -2409.399          45.000  
  21427391.092   112601718.072       -2903.786          42.000  
  21805642.559   114589455.019        1214.814          37.000  
  20516894.634   107817016.239       -2103.097          44.000  
  23961656.706   125919355.7713      -3283.985          26.000  
  18782501.443    98702654.000        -510.247          45.000  
  21131233.268   111045379.061         369.085          41.000  
  22578884.041   118652870.433        2870.245          41.000  
  19616798.792   103086960.314        1844.256          46.000  
  23246248.358   122159839.925        2483.505          36.000  
 23 11 05 14 52 43.9960000  0 12G05G12G13G14G17G22G30G15G23G19G24G10
  23640606.614   124232242.193       -3915.171          27.000  
  23137688.431   121589429.481        3845.982          41.000  
  19722759.923   103643830.650       -2410.413          45.000  
  21427943.751   112604622.187       -2904.364          42.000  
  21805411.337   114588240.666        1213.682          37.000  
  20517294.807   107819119.786       -2104.035          44.000  
  23962281.796   125922640.2022      -3284.973          27.000  
  18782598.795    98703164.838        -511.406          45.000  
  21131162.883   111045010.938         367.645          41.000  
  22578337.984   118650000.546        2869.647          41.000  
  19616447.927   103085116.587        1843.426          46.000  
  23245775.581   122157357.248        2481.852          36.000  
 23 11 05 14 52 44.9960000  0 12G05G12G13G14G17G22G30G15G23G19G24G10
  23641343.499   124236157.188       -3915.894          27.000  
  23136956.569   121585583.372        3846.313          41.000  
  19723218.399   103646241.057       -2410.602          45.000  
  21428496.624   112607526.615       -2904.341          42.000  
  21805180.381   114587026.806        1213.562          37.000  
  20517695.195   107821223.716       -2103.914          44.000  
  23962908.048   125925924.4642      -3283.125          26.000  
  18782696.259    98703676.275        -511.588          45.000  
  21131092.635   111044643.424         367.656          41.000  
  22577792.043   118647130.894        2869.318          41.000  
  19616097.561   103083273.179        1843.268          46.000  
  23245303.175   122154874.925        2482.363          36.000  
 23 11 05 14 52 45.9960000  0 12G05G12G13G14G17G22G30G15G23G19G24G10
  23642093.826   124240072.285       -3915.688          27.000  
  23136224.970   121581737.604        3845.641          41.000  
  19723677.183   103648652.082       -2411.407          44.000  
  21429049.218   112610431.601       -2905.491          41.000  
  21804949.340   114585813.683        1212.831          37.000  
  20518095.580   107823328.324       -2104.967          44.000  
  23963536.672   125929209.1552      -3285.751          25.000  
  18782793.697    98704188.585        -513.007          45.000  
  21131022.952   111044276.815         366.256          41.000  
  22577245.721   118644261.685        2868.597          41.000  
  19615746.679   103081430.374        1842.456          46.000  
  23244831.055   122152393.271        2481.107          36.000  
 23 11 05 14 52 46.9960000  0 12G05G12G13G14G17G22G30G15G23G19G24G10
  23642834.904   124243988.077       -3915.185          26.000  
  23135493.403   121577892.684        3844.666          41.000  
  19724135.890   103651064.330       -2412.573          44.000  
  21429602.523   112613337.698       -2906.389          42.000  
  21804718.552   114584601.842        1211.637          36.000  
  20518496.261   107825434.163       -2106.336          44.000  
  23964157.053                       -3289.433          25.000  
  18782891.078    98704702.305        -514.243          44.000  
  21130953.306   111043911.693         364.567          41.000  
  22576699.937   118641393.501        2867.719          41.000  
  19615396.346   103079588.728        1841.302          46.000  
  23244359.116   122149912.805        2480.253          37.000  
 23 11 05 14 52 47.9960000  0 12G05G12G13G14G17G22G30G15G23G19G24G10
  23643581.751   124247903.806       -3915.217          27.000  
  23134761.855   121574047.696        3845.925          40.000  
  19724594.630   103653476.841       -2412.231          44.000  
  21430155.518   112616243.988       -2905.914          41.000  
  21804488.137   114583390.413        1211.638          37.000  
  20518897.164   107827540.297       -2105.860          44.000  
  23964780.046                       -3286.144          25.000  
  18782988.797    98705216.539        -514.032          44.000  
  21130883.911   111043547.095         364.348          40.000  
  22576154.074   118638525.450        2868.329          41.000  
  19615046.340   103077747.326        1841.705          46.000  
  23243887.249   122147432.692        2480.604          36.000  
 23 11 05 14 52 48.9960000  0 12G05G12G13G14G17G22G30G15G23G19G24G10
  23644325.039   124251818.916       -3915.134          27.000  
  23134030.012   121570202.355        3845.569          41.000  
  19725053.981   103655889.208       -2412.372          44.000  
  21430708.607   112619150.085       -2905.878          41.000  
  21804257.736   114582178.937        1211.600          37.000  
  20519298.174   107829646.336       -2106.166          45.000  
  23965398.767                       -3284.918          25.000  
  18783086.634    98705730.884        -514.637          44.000  
  21130814.361   111043182.642         364.159          41.000  
  22575608.042   118635657.095        2868.250          41.000  
  19614695.962   103075905.761        1841.449          46.000  
  23243415.509   122144952.492        2480.255          36.000  
 23 11 05 14 52 49.9960000  0 12G05G12G13G14G17G22G30G15G23G19G24G10
  23645069.339   124255734.289       -3915.123          27.000  
  23133298.264   121566357.357        3845.029          41.000  
  19725513.072   103658302.269       -2412.823          44.000  
  21431261.465   112622056.788       -2906.535          41.000  
  21804027.295   114580968.252        1211.013          37.000  
  20519699.004   107831753.100       -2106.825          45.000  
  23966028.764                       -3287.743          24.000  
  18783184.250    98706246.122        -515.220          44.000  
  21130744.835   111042819.145         363.346          41.000  
  22575062.090   118632789.241        2868.085          41.000  
  19614345.721   103074064.848        1840.857          46.000  
  23242943.814   122142472.992        2479.480          37.000  
 23 11 05 14 52 50.9960000  0 12G05G12G13G14G17G22G30G15G23G19G24G10
  23645814.317                       -3915.422          26.000  
  23132566.290   121562512.277        3844.762          41.000  
  19725972.469   103660715.596       -2413.452          44.000  
  21431814.506   112624963.660       -2907.103          41.000  
  21803797.148   114579757.935        1210.092          37.000  
  20520100.075   107833860.131       -2107.252          45.000  
  23966660.316                       -3290.365          23.000  
  18783282.183    98706761.843        -515.921          44.000  
  21130676.057   111042456.170         362.427          41.000  
  22574516.400   118629921.502        2867.310          41.000  
  19613995.423   103072224.140        1840.454          46.000  
  23242472.227   122139993.724        2479.365          37.000  
 23 11 05 14 52 51.9960000  0 12G05G12G13G14G17G22G30G15G23G19G24G10
  23646560.669                       -3915.938          26.000  
  23131834.705   121558667.228        3845.050          41.000  
  19726431.778   103663129.262       -2414.166          44.000  
  21432367.898   112627870.801       -2907.151          41.000  
  21803566.727   114578548.076        1209.610          37.000  
  20520501.446   107835967.556       -2107.812          45.000  
  23967289.477                       -3287.050          21.000  
  18783380.498    98707278.162        -516.791          44.000  
  21130607.137   111042093.805         361.860          41.000  
  22573970.487   118627053.939        2867.188          41.000  
  19613645.066   103070383.749        1840.240          46.000  
  23242000.748   122137514.841        2478.933          37.000  
 23 11 05 14 52 52.9960000  0 12G05G12G13G14G17G22G30G15G23G19G24G10
  23647304.832   124267425.2783      -3915.309          27.000  
  23131103.155   121554822.161        3845.082          41.000  
  19726891.458   103665543.193       -2414.227          44.000  
  21432921.419   112630778.155       -2907.470          41.000  
  21803336.635   114577338.562        1209.627          37.000  
  20520902.598   107838075.278       -2108.153          45.000  
  23967916.801                       -3283.224          19.000  
  18783478.740    98707794.991        -517.191          44.000  
  21130538.187   111041731.974         361.483          41.000  
  22573424.976   118624186.500        2867.065          41.000  
  19613294.925   103068543.608        1839.954          46.000  
  23241529.387   122135036.292        2478.149          37.000  
 23 11 05 14 52 53.9960000  0 12G05G12G13G14G17G22G30G15G23G19G24G10
  23648046.468   124271340.1612      -3915.033          27.000  
  23130371.650   121550977.220        3844.731          41.000  
  19727350.683   103667957.570       -2414.685          44.000  
  21433474.890   112633685.851       -2907.864          41.000  
  21803106.846   114576129.685        1208.149          37.000  
  20521304.247   107840183.468       -2108.538          45.000  
  23968554.295                       -3285.236          19.000  
  18783577.192    98708312.466        -517.933          44.000  
  21130469.619   111041370.865         360.541          41.000  
  22572879.244   118621319.319        2867.023          41.000  
  19612944.723   103066703.864        1839.539          46.000  
  23241057.849   122132558.165        2477.401          37.000  
 23 11 05 14 52 54.9960000  0 12G05G12G13G14G17G22G30G15G23G19G24G10
  23648786.056   124275255.1492      -3914.777          27.000  
  23129639.832   121547132.606        3844.510          41.000  
  19727810.326   103670372.594       -2415.460          44.000  
  21434028.245   112636594.151       -2908.496          41.000  
  21802877.116   114574921.504        1208.089          37.000  
  20521705.700   107842292.335       -2109.104          45.000  
  23969187.816                       -3284.165          19.000  
  18783675.637    98708830.847        -518.869          44.000  
  21130400.961   111041010.670         359.708          41.000  
  22572333.864   118618452.645        2866.522          41.000  
  19612594.696   103064864.745        1838.751          46.000  
  23240586.789   122130080.715        2477.126          37.000  
 23 11 05 14 52 55.9960000  0 12G05G12G13G14G17G22G30G15G23G19G24G10
  23649524.958   124279092.2313      -3914.890          27.000  
  23128908.112   121543288.073        3844.381          41.000  
  19728270.013   103672788.004       -2415.521          44.000  
  21434581.759   112639502.763       -2908.912          41.000  
  21802647.698   114573713.837        1207.395          38.000  
  20522107.424   107844401.640       -2109.524          45.000  
  23969812.623                       -3284.165          17.000  
  18783774.892    98709349.845        -519.396          45.000  
  21130332.523   111040651.143         359.189          41.000  
  22571788.584   118615586.186        2866.138          41.000  
  19612244.459   103063025.984        1838.586          45.000  
  23240115.134   122127603.682        2476.466          37.000  
 23 11 05 14 52 56.9960000  0 12G05G12G13G14G17G22G30G15G23G19G24G10
  23650265.481   124283007.2472      -3915.098          26.000  
  23128176.629   121539443.717        3843.689          41.000  
  19728729.802   103675203.888       -2416.364          44.000  
  21435135.455   112642411.739       -2909.355          42.000  
  21802417.924   114572506.744        1206.294          38.000  
  20522509.043   107846511.427       -2110.183          45.000  
  23970435.120                       -3284.165          14.000  
  18783873.872    98709869.519        -520.385          45.000  
  21130264.016   111040292.342         358.295          41.000  
  22571243.169   118612720.034        2865.857          41.000  
  19611894.310   103061187.634        1838.013          45.000  
  23239643.782   122125127.053        2476.628          37.000  
 23 11 05 14 52 57.9960000  0 12G05G12G13G14G17G22G30G15G23G19G24G10
  23651007.565   124286922.3512      -3914.278          25.000  
  23127444.957   121535599.602        3843.971          41.000  
  19729189.469   103677620.387       -2416.803          44.000  
  21435689.019   112645321.262       -2909.697          41.000  
  21802188.543   114571300.338        1205.682          38.000  
  20522910.498   107848621.869       -2110.953          45.000  
  23971046.231                       -3284.165          13.000  
  18783972.693    98710390.050        -520.919          44.000  
  21130195.559   111039934.416         357.394          41.000  
  22570697.777   118609854.321        2865.540          41.000  
  19611544.258   103059349.865        1837.488          45.000  
  23239172.794   122122651.157        2475.625          37.000  
 23 11 05 14 52 58.9960000  0 12G05G12G13G14G17G22G30G15G23G19G24G10
  23651747.254                       -3915.353          25.000  
  23126713.252   121531755.630        3843.712          41.000  
  19729649.230   103680037.319       -2417.480          44.000  
  21436242.928   112648231.138       -2910.123          42.000  
  21801959.232   114570094.486        1205.427          38.000  
  20523312.187   107850732.744       -2111.368          45.000  
  23971650.836                       -3284.050          18.000  
  18784071.559    98710911.243        -521.731          44.000  
  21130127.636   111039577.191         356.748          41.000  
  22570152.212   118606988.892        2865.161          41.000  
  19611194.523   103057512.508        1836.774          45.000  
  23238701.806   122120175.638        2475.417          37.000  
 23 11 05 14 52 59.9960000  0 12G05G12G13G14G17G22G30G15G23G19G24G10
  23652492.705                       -3912.921          26.000  
  23125981.599   121527912.029        3844.038          41.000  
  19730108.901   103682454.912       -2417.657          44.000  
  21436796.837   112651141.602       -2910.670          41.000  
  21801729.941   114568889.407        1204.841          38.000  
  20523714.133   107852844.351       -2111.693          45.000  
  23972253.797                       -3289.208          21.000  
  18784170.973    98711433.333        -522.153          45.000  
  21130060.079   111039220.899         356.409          41.000  
  22569607.030   118604123.964        2864.923          41.000  
  19610845.129   103055675.766        1836.890          45.000  
  23238230.801   122117700.875        2474.938          37.000  
 23 11 05 14 53 00.9960000  0 12G05G12G13G14G17G22G30G15G23G19G24G10
  23653233.199                       -3915.411          25.000  
  23125250.395   121524068.690        3843.008          41.000  
  19730568.741   103684873.065       -2418.774          44.000  
  21437350.882   112654052.542       -2911.049          41.000  
  21801500.811   114567684.965        1204.193          38.000  
  20524115.961   107854956.536       -2112.772          45.000  
  23972862.899                       -3289.244          24.000  
  18784270.583    98711956.229        -523.517          44.000  
  21129992.715   111038865.441         355.236          41.000  
  22569061.765   118601259.413        2864.245          40.000  
  19610495.352   103053839.556        1835.876          45.000  
  23237760.044   122115226.648        2473.824          37.000  
 23 11 05 14 53 01.9960000  0 12G05G12G13G14G17G22G30G15G23G19G24G10
  23653976.207                       -3916.396          24.000  
  23124519.076   121520225.493        3842.958          41.000  
  19731029.082   103687291.711       -2418.958          44.000  
  21437904.562   112656963.926       -2911.735          40.000  
  21801271.377   114566481.184        1203.140          37.000  
  20524518.226   107857069.231       -2112.886          45.000  
  23973478.454                       -3285.875          25.000  
  18784370.339    98712479.813        -524.038          45.000  
  21129925.322   111038510.743         354.518          41.000  
  22568516.777   118598395.196        2864.117          40.000  
  19610146.005   103052003.802        1835.406          45.000  
  23237289.209   122112752.905        2473.466          37.000  
 23 11 05 14 53 02.9960000  0 12G05G12G13G14G17G22G30G15G23G19G24G10
  23654718.398                       -3916.061          24.000  
  23123788.120   121516382.742        3842.723          42.000  
  19731489.571   103689711.085       -2419.672          44.000  
  21438458.646   112659875.940       -2912.477          40.000  
  21801042.350   114565278.187        1202.722          38.000  
  20524920.329   107859182.691       -2113.853          45.000  
  23974102.308   125984764.8803      -3286.542          26.000  
  18784470.403    98713004.374        -525.044          45.000  
  21129858.010   111038157.056         353.448          41.000  
  22567972.042   118595531.567        2863.391          40.000  
  19609796.654   103050168.751        1834.601          45.000  
  23236818.757   122110279.976        2472.644          37.000  
 23 11 05 14 53 03.9960000  0 12G05G12G13G14G17G22G30G15G23G19G24G10
  23655465.926                       -3916.199          24.000  
  23123057.093   121512540.171        3842.744          41.000  
  19731950.128   103692130.965       -2419.952          44.000  
  21439012.694   112662788.373       -2912.409          41.000  
  21800813.643   114564075.814        1202.418          38.000  
  20525322.291   107861296.703       -2114.043          45.000  
  23974723.826                       -3286.929          26.000  
  18784570.858    98713529.654        -525.206          45.000  
  21129790.890   111037804.126         352.929          41.000  
  22567427.519   118592668.293        2863.464          40.000  
  19609447.261   103048334.159        1834.760          45.000  
  23236348.539   122107807.569        2472.494          37.000  
 23 11 05 14 53 04.9960000  0 12G05G12G13G14G17G22G30G15G23G19G24G10
  23656215.513                       -3916.232          26.000  
  23122325.868   121508697.701        3842.169          41.000  
  19732410.408   103694551.267       -2420.862          44.000  
  21439567.334   112665701.154       -2913.349          41.000  
  21800585.490   114562874.011        1201.103          38.000  
  20525724.490   107863411.148       -2114.942          45.000  
  23975348.022   125991303.7863      -3287.401          27.000  
  18784670.690    98714055.605        -526.583          45.000  
  21129724.102   111037451.914         351.375          41.000  
  22566882.699   118589805.250        2862.842          40.000  
  19609098.113   103046499.942        1833.899          45.000  
  23235878.003   122105335.599        2470.994          36.000  
 23 11 05 14 53 05.9960000  0 12G05G12G13G14G17G22G30G15G23G19G24G10
  23656964.131   124318185.4423      -3916.793          27.000  
  23121594.627   121504855.613        3841.218          41.000  
  19732871.286   103696972.235       -2421.863          44.000  
  21440121.669   112668614.538       -2914.202          42.000  
  21800357.045   114561672.948        1200.314          38.000  
  20526126.944   107865526.306       -2116.123          45.000  
  23975973.505   125994590.4022      -3287.273          30.000  
  18784771.077    98714582.454        -528.001          45.000  
  21129657.099   111037100.604         350.083          41.000  
  22566337.899   118586942.728        2861.816          40.000  
  19608749.008   103044666.382        1832.672          45.000  
  23235407.728   122102864.333        2470.602          37.000  
 23 11 05 14 53 06.9960000  0 12G05G12G13G14G17G22G30G15G23G19G24G10
  23657714.578   124322102.4792      -3917.407          27.000  
  23120863.614   121501014.634        3840.995          41.000  
  19733332.122   103699394.639       -2422.766          44.000  
  21440676.326   112671529.261       -2914.946          41.000  
  21800129.099   114560473.440        1198.965          38.000  
  20526529.743   107867642.928       -2116.922          45.000  
  23976597.187   125997878.2102      -3288.340          30.000  
  18784871.774    98715110.964        -528.922          45.000  
  21129590.219   111036751.011         349.220          41.000  
  22565793.245   118584081.470        2861.224          40.000  
  19608400.172   103042834.204        1831.860          45.000  
  23234938.150   122100394.529        2469.319          37.000  
 23 11 05 14 53 07.9960000  0 12G05G12G13G14G17G22G30G15G23G19G24G10
  23658464.327   124326018.9782      -3915.587          28.000  
  23120132.654   121497173.304        3841.535          41.000  
  19733793.218   103701816.986       -2422.205          44.000  
  21441230.848   112674443.873       -2914.166          41.000  
  21799900.916   114559273.956        1199.701          38.000  
  20526932.372   107869759.528       -2116.486          45.000  
  23977215.944   126001165.5142      -3287.875          30.000  
  18784972.756    98715639.655        -528.514          45.000  
  21129523.544   111036401.628         349.500          41.000  
  22565248.892   118581220.020        2861.749          40.000  
  19608051.536   103041001.942        1832.635          45.000  
  23234468.300   122097924.673        2469.816          36.000  
 23 11 05 14 53 08.9960000  0 12G05G12G13G14G17G22G30G15G23G19G24G10
  23659214.941   124329934.4862      -3915.239          28.000  
  23119401.102   121493331.114        3842.466          41.000  
  19734254.222   103704238.789       -2421.625          44.000  
  21441784.936   112677357.855       -2913.873          41.000  
  21799672.414   114558074.058        1200.252          38.000  
  20527334.960   107871875.625       -2115.934          45.000  
  23977847.312   126004451.8252      -3285.224          30.000  
  18785073.450    98716168.035        -528.436          45.000  
  21129457.022   111036051.977         349.731          41.000  
  22564703.889   118578357.855        2862.469          40.000  
  19607702.541   103039169.135        1832.892          45.000  
  23233998.111   122095454.299        2470.294          36.000  
 23 11 05 14 53 09.9960000  0 12G05G12G13G14G17G22G30G15G23G19G24G10
  23659965.890   124333849.9222      -3915.927          29.000  
  23118669.984   121489488.912        3841.994          41.000  
  19734715.174   103706660.901       -2422.461          44.000  
  21442339.790   112680272.074       -2914.410          41.000  
  21799444.211   114556874.601        1199.222          39.000  
  20527737.573   107873992.036       -2116.623          45.000  
  23978477.620   126007738.1832      -3286.937          29.000  
  18785173.898    98716696.956        -529.148          45.000  
  21129390.573   111035702.894         348.636          41.000  
  22564159.224   118575495.834        2861.835          41.000  
  19607353.375   103037336.572        1832.214          45.000  
  23233528.257   122092984.253        2469.326          36.000  
 23 11 05 14 53 10.9960000  0 12G05G12G13G14G17G22G30G15G23G19G24G10
  23660716.663   124337765.3502      -3915.882          29.000  
  23117938.920   121485646.978        3841.768          41.000  
  19735176.043   103709083.572       -2423.163          44.000  
  21442894.345   112683186.772       -2915.131          41.000  
  21799216.093   114555675.785        1198.433          38.000  
  20528140.518   107876109.067       -2117.465          45.000  
  23979097.430   126011024.5672      -3286.158          30.000  
  18785274.699    98717226.662        -530.082          45.000  
  21129324.487   111035354.654         347.698          41.000  
  22563614.937   118572634.209        2861.444          40.000  
  19607004.222   103035504.534        1831.494          45.000  
  23233058.536   122090514.799        2468.792          36.000  
 23 11 05 14 53 11.9960000  0 12G05G12G13G14G17G22G30G15G23G19G24G10
  23661466.011   124341680.7472      -3914.353          29.000  
  23117207.522   121481805.037        3842.427          41.000  
  19735637.231   103711506.564       -2422.797          44.000  
  21443448.952   112686101.714       -2914.512          41.000  
  21798988.036   114554477.437        1198.299          38.000  
  20528543.383   107878226.450       -2117.404          45.000  
  23979720.866   126014311.0072      -3284.654          30.000  
  18785375.411    98717756.949        -530.245          45.000  
  21129258.696   111035007.004         347.543          42.000  
  22563070.577   118569772.743        2861.957          40.000  
  19606655.650   103033672.795        1832.062          45.000  
  23232588.918   122088045.693        2468.932          37.000  
 23 11 05 14 53 12.9960000  0 12G05G12G13G14G17G22G30G15G23G19G24G10
  23662216.185   124345595.632       -3914.906          29.000  
  23116476.365   121477962.716        3842.539          41.000  
  19736098.139   103713929.468       -2422.955          44.000  
  21444003.361   112689016.489       -2914.703          41.000  
  21798759.763   114553279.047        1198.435          37.000  
  20528946.225   107880343.744       -2117.357          45.000  
  23980347.226   126017596.984       -3285.295          30.000  
  18785476.511    98718287.352        -530.510          45.000  
  21129192.457   111034659.516         347.842          42.000  
  22562525.764   118566911.057        2861.908          40.000  
  19606307.162   103031840.937        1832.385          45.000  
  23232119.486   122085576.532        2469.069          36.000  
 23 11 05 14 53 13.9960000  0 12G05G12G13G14G17G22G30G15G23G19G24G10
  23662951.292   124349510.348       -3914.708          29.000  
  23115745.227   121474120.428        3842.207          41.000  
  19736559.191   103716352.712       -2423.676          44.000  
  21444557.695   112691931.540       -2915.431          41.000  
  21798532.363   114552081.150        1197.721          38.000  
  20529349.727   107882461.445       -2118.130          45.000  
  23980969.799   126020882.830       -3286.257          30.000  
  18785577.890    98718818.347        -531.359          45.000  
  21129126.231   111034312.682         346.052          41.000  
  22561981.086   118564049.563        2860.767          40.000  
  19605958.666   103030009.410        1831.036          45.000  
  23231649.715   122083107.713        2468.580          36.000  
 23 11 05 14 53 14.9960000  0 12G05G12G13G14G17G22G30G15G23G19G24G10
  23663697.233   124353425.108       -3914.758          29.000  
  23115013.622   121470278.313        3842.120          41.000  
  19737020.219   103718776.446       -2424.072          44.000  
  21445112.671   112694846.999       -2915.706          41.000  
  21798304.404   114550883.838        1197.142          38.000  
  20529752.748   107884579.640       -2118.379          45.000  
  23981595.353   126024168.749       -3285.294          30.000  
  18785679.577    98719350.055        -531.985          45.000  
  21129060.409   111033966.580         345.876          41.000  
  22561436.458   118561188.353        2861.029          41.000  
  19605610.308   103028178.306        1830.933          45.000  
  23231180.071   122080639.396        2468.115          36.000  
 23 11 05 14 53 15.9960000  0 12G05G12G13G14G17G22G30G15G23G19G24G10
  23664446.283   124357339.799       -3914.944          30.000  
  23114282.545   121466436.230        3841.727          40.000  
  19737481.727   103721200.517       -2424.506          44.000  
  21445667.490   112697762.713       -2916.240          41.000  
  21798076.620   114549687.007        1196.137          38.000  
  20530156.042   107886698.215       -2119.044          45.000  
  23982218.692   126027454.669       -3285.799          29.000  
  18785780.771    98719882.332        -532.652          45.000  
  21128994.953   111033621.088         344.741          41.000  
  22560892.096   118558327.360        2860.022          41.000  
  19605261.923   103026347.527        1830.212          45.000  
  23230710.610   122078171.464        2467.141          36.000  
 23 11 05 14 53 16.9960000  0 12G05G12G13G14G17G22G30G15G23G19G24G10
  23665186.853   124361254.796       -3915.356          30.000  
  23113551.270   121462594.696        3840.458          40.000  
  19737943.190   103723625.435       -2425.745          44.000  
  21446222.564   112700679.196       -2917.272          41.000  
  21797849.353   114548491.079        1194.944          38.000  
  20530559.195   107888817.664       -2120.372          45.000  
  23982849.696   126030741.012       -3286.148          30.000  
  18785882.394    98720415.692        -534.318          45.000  
  21128929.484   111033276.705         343.221          42.000  
  22560347.829   118555467.005        2859.717          40.000  
  19604913.566   103024517.539        1829.309          45.000  
  23230241.227   122075704.365        2466.685          36.000  
 23 11 05 14 53 17.9960000  0 12G05G12G13G14G17G22G30G15G23G19G24G10
  23665937.005   124365170.324       -3915.547          31.000  
  23112820.389   121458753.779        3840.172          40.000  
  19738404.525   103726051.331       -2426.501          43.000  
  21446777.699   112703596.567       -2917.966          41.000  
  21797622.142   114547296.222        1194.442          38.000  
  20530962.635   107890938.115       -2121.240          45.000  
  23983471.953   126034027.984       -3287.327          30.000  
  18785983.756    98720950.251        -535.433          45.000  
  21128864.476   111032933.562         342.337          42.000  
  22559803.626   118552607.498        2859.149          40.000  
  19604565.674   103022688.507        1828.613          45.000  
  23229772.032   122073238.313        2465.211          36.000  
 23 11 05 14 53 18.9960000  0 12G05G12G13G14G17G22G30G15G23G19G24G10
  23666682.027   124369086.271       -3915.687          31.000  
  23112089.459   121454913.387        3840.428          40.000  
  19738865.996   103728478.054       -2426.935          43.000  
  21447333.022   112706514.704       -2918.283          42.000  
  21797394.995   114546102.365        1193.616          38.000  
  20531366.219   107893059.436       -2121.708          45.000  
  23984092.978   126037315.328       -3286.749          29.000  
  18786085.881    98721485.857        -535.775          45.000  
  21128799.155   111032591.530         341.617          42.000  
  22559259.602   118549748.657        2858.380          40.000  
  19604217.662   103020860.271        1827.979          45.000  
  23229303.145   122070773.143        2465.100          36.000  
 23 11 05 14 53 19.9960000  0 12G05G12G13G14G17G22G30G15G23G19G24G10
  23667423.120   124373002.103       -3915.705          31.000  
  23111358.574   121451073.049        3840.344          40.000  
  19739327.664   103730905.110       -2427.026          43.000  
  21447888.368   112709433.076       -2918.375          42.000  
  21797168.026   114544908.894        1193.612          38.000  
  20531770.041   107895181.100       -2121.783          45.000  
  23984718.900   126040602.693       -3287.176          29.000  
  18786187.786    98722022.059        -536.370          45.000  
  21128734.275   111032250.085         341.202          42.000  
  22558715.627   118546889.981        2858.844          41.000  
  19603869.709   103019032.324        1827.802          45.000  
  23228834.050   122068308.258        2464.963          35.000  
 23 11 05 14 53 20.9960000  0 12G05G12G13G14G17G22G30G15G23G19G24G10
  23668170.120   124376917.692       -3914.806          32.000  
  23110627.778   121447232.700        3840.851          40.000  
  19739789.527   103733332.476       -2427.161          43.000  
  21448443.743   112712351.695       -2918.320          41.000  
  21796941.139   114543715.899        1193.322          38.000  
  20532174.005   107897303.106       -2121.674          45.000  
  23985338.926   126043889.964       -3286.710          29.000  
  18786289.711    98722558.776        -536.494          45.000  
  21128669.764   111031909.234         340.916          42.000  
  22558171.913   118544031.462        2859.174          41.000  
  19603522.158   103017204.649        1828.033          45.000  
  23228365.093   122065843.713        2465.322          35.000  
 23 11 05 14 53 21.9960000  0 12G05G12G13G14G17G22G30G15G23G19G24G10
  23668913.288   124380832.767       -3915.596          31.000  
  23109896.612   121443391.860        3841.287          40.000  
  19740251.354   103735759.690       -2427.319          43.000  
  21448999.040   112715270.089       -2918.477          41.000  
  21796714.478   114542522.811        1192.862          38.000  
  20532577.891   107899424.990       -2121.874          45.000  
  23985955.859   126047176.693       -3286.574          29.000  
  18786391.716    98723095.581        -537.090          45.000  
  21128604.921   111031568.488         340.557          42.000  
  22557628.365   118541172.624        2858.661          41.000  
  19603174.547   103015376.795        1827.802          45.000  
  23227896.439   122063379.079        2464.897          35.000  
 23 11 05 14 53 22.9960000  0 12G05G12G13G14G17G22G30G15G23G19G24G10
  23669656.349   124384747.561       -3913.923          31.000  
  23109165.380   121439550.920        3841.488          40.000  
  19740713.423   103738187.062       -2426.898          43.000  
  21449554.201   112718188.554       -2918.207          41.000  
  21796487.677   114541330.011        1193.048          38.000  
  20532981.717   107901547.087       -2121.832          45.000  
  23986590.248   126050463.182       -3286.296          29.000  
  18786493.667    98723632.791        -537.358          45.000  
  21128540.104   111031228.182         340.397          41.000  
  22557084.134   118538313.804        2858.966          41.000  
  19602826.562   103013549.078        1827.838          45.000  
  23227427.709   122060914.598        2464.509          35.000  
 23 11 05 14 53 23.9960000  0 12G05G12G13G14G17G22G30G15G23G19G24G10
  23670401.401   124388661.687       -3913.928          31.000  
  23108434.591   121435709.468        3841.756          40.000  
  19741175.382   103740614.268       -2427.332          43.000  
  21450109.227   112721106.779       -2918.242          41.000  
  21796260.720   114540137.175        1192.593          38.000  
  20533385.716   107903669.030       -2122.151          45.000  
  23987215.352   126053749.074       -3285.684          29.000  
  18786596.027    98724170.057        -537.522          45.000  
  21128475.142   111030887.980         339.912          42.000  
  22556539.901   118535454.641        2858.875          40.000  
  19602478.648   103011721.146        1827.850          45.000  
  23226959.038   122058449.950        2464.799          35.000  
 23 11 05 14 53 24.9960000  0 12G05G12G13G14G17G22G30G15G23G19G24G10
  23671145.319   124392575.702       -3913.862          31.000  
  23107703.410   121431868.014        3841.561          39.000  
  19741637.019   103743041.762       -2427.716          43.000  
  21450664.683   112724025.199       -2918.412          41.000  
  21796033.601   114538944.683        1192.404          38.000  
  20533789.372   107905791.275       -2122.314          45.000  
  23987838.956   126057034.872       -3285.696          29.000  
  18786698.517    98724707.825        -537.889          45.000  
  21128410.011   111030548.328         339.378          41.000  
  22555995.993   118532595.582        2859.216          41.000  
  19602130.821   103009893.464        1827.618          45.000  
  23226490.128   122055985.635        2464.388          34.000  
 23 11 05 14 53 25.9960000  0 12G05G12G13G14G17G22G30G15G23G19G24G10
  23671890.095   124396489.595       -3913.918          31.000  
  23106972.289   121428026.599        3841.237          39.000  
  19742098.865   103745469.605       -2428.094          43.000  
  21451220.136   112726943.904       -2918.664          41.000  
  21795806.693   114537752.681        1191.704          38.000  
  20534193.238   107907913.916       -2122.814          45.000  
  23988463.143   126060320.595       -3286.154          30.000  
  18786801.004    98725246.197        -538.626          45.000  
  21128345.288   111030209.286         338.842          41.000  
  22555452.172   118529736.756        2858.533          41.000  
  19601782.988   103008066.117        1827.081          45.000  
  23226021.498   122053521.757        2462.946          34.000  
 23 11 05 14 53 26.9960000  0 12G05G12G13G14G17G22G30G15G23G19G24G10
  23672635.201   124400403.697       -3914.895          31.000  
  23106241.190   121424185.537        3840.788          40.000  
  19742560.626   103747898.106       -2428.552          43.000  
  21451775.921   112729863.197       -2919.305          41.000  
  21795579.969   114536561.469        1190.730          38.000  
  20534597.042   107910037.247       -2123.625          45.000  
  23989089.379   126063606.581       -3284.473          30.000  
  18786903.910    98725785.469        -539.598          45.000  
  21128280.877   111029871.210         337.620          41.000  
  22554908.057   118526878.420        2858.142          41.000  
  19601435.275   103006239.389        1826.294          45.000  
  23225552.604   122051058.487        2462.639          34.000  
 23 11 05 14 53 27.9960000  0 12G05G12G13G14G17G22G30G15G23G19G24G10
  23673382.370   124404317.881       -3914.174          31.000  
  23105510.247   121420344.733        3840.223          40.000  
  19743022.704   103750327.168       -2429.541          43.000  
  21452331.458   112732782.980       -2920.365          41.000  
  21795352.988   114535370.905        1190.164          38.000  
  20535001.143   107912161.156       -2124.382          45.000  
  23989712.734   126066892.770       -3285.317          30.000  
  18787006.526    98726325.514        -540.555          45.000  
  21128216.632   111029533.928         336.585          41.000  
  22554364.018   118524020.479        2857.629          41.000  
  19601087.896   103004413.172        1825.977          45.000  
  23225084.404   122048595.812        2462.158          34.000  
 23 11 05 14 53 28.9960000  0 12G05G12G13G14G17G22G30G15G23G19G24G10
  23674127.031   124408232.596       -3914.773          31.000  
  23104779.700   121416504.591        3839.376          40.000  
  19743484.962   103752757.232       -2430.743          43.000  
  21452887.253   112735703.648       -2921.282          41.000  
  21795126.674   114534181.447        1188.433          38.000  
  20535405.849   107914286.093       -2125.541          45.000  
  23990340.824   126070179.579       -3287.135          29.000  
  18787109.450    98726866.793        -541.929          45.000  
  21128152.648   111029197.929         335.053          41.000  
  22553820.743   118521163.388        2856.696          41.000  
  19600740.571   103002587.929        1824.670          45.000  
  23224616.638   122046134.143        2461.597          34.000  
 23 11 05 14 53 29.9960000  0 12G05G12G13G14G17G22G30G15G23G19G24G10
  23674877.578   124412147.716       -3914.726          31.000  
  23104049.107   121412665.031        3839.326          40.000  
  19743947.772   103755188.171       -2431.482          43.000  
  21453443.422   112738625.144       -2921.813          42.000  
  21794900.290   114532993.003        1187.921          38.000  
  20535809.998   107916411.934       -2126.069          45.000  
  23990969.952   126073466.870       -3287.053          31.000  
  18787212.709    98727409.184        -542.858          45.000  
  21128088.545   111028863.070         334.082          41.000  
  22553277.229   118518307.018        2855.908          41.000  
  19600393.410   103000763.533        1824.219          45.000  
  23224148.503   122043673.386        2461.119          34.000  
 23 11 05 14 53 30.9960000  0 12G05G12G13G14G17G22G30G15G23G19G24G10
  23675616.342   124416062.807       -3914.480          30.000  
  23103318.401   121408825.516        3840.399          39.000  
  19744410.151   103757619.460       -2431.293          43.000  
  21453999.509   112741546.912       -2921.703          42.000  
  21794674.809   114531805.021        1187.587          38.000  
  20536214.675   107918538.189       -2126.284          45.000  
  23991593.400   126076754.101       -3286.470          30.000  
  18787316.045    98727952.169        -543.030          45.000  
  21128024.599   111028528.851         334.040          41.000  
  22552733.199   118515450.842        2856.561          41.000  
  19600045.998   102998939.476        1824.054          44.000  
  23223680.545   122041213.006        2460.828          34.000  
 23 11 05 14 53 31.9960000  0 12G05G12G13G14G17G22G30G15G23G19G24G10
  23676364.018   124419977.563       -3914.266          30.000  
  23102587.645   121404985.838        3840.502          39.000  
  19744872.726   103760050.911       -2431.616          43.000  
  21454555.660   112744468.742       -2921.716          42.000  
  21794448.848   114530617.269        1187.854          38.000  
  20536618.955   107920664.595       -2126.383          45.000  
  23992222.801   126080041.147       -3286.207          32.000  
  18787419.787    98728495.522        -543.279          45.000  
  21127961.337   111028195.001         334.135          41.000  
  22552189.522   118512594.664        2856.427          40.000  
  19599698.990   102997115.513        1824.133          45.000  
  23223212.406   122038752.935        2459.089          34.000  
 23 11 05 14 53 32.9960000  0 12G05G12G13G14G17G22G30G15G23G19G24G10
  23677108.691   124423892.166       -3915.329          30.000  
  23101857.181   121401146.181        3839.308          40.000  
  19745335.909   103762482.667       -2432.581          43.000  
  21455111.884   112747390.809       -2922.929          42.000  
  21794223.195   114529429.982        1186.347          38.000  
  20537023.669   107922791.350       -2127.717          45.000  
  23992852.643   126083328.152       -3287.411          32.000  
  18787523.386    98729039.412        -544.751          45.000  
  21127897.982   111027861.794         332.138          41.000  
  22551646.046   118509738.620        2855.420          41.000  
  19599352.156   102995291.844        1822.882          45.000  
  23222744.265   122036293.096        2459.517          33.000  
 23 11 05 14 53 33.9960000  0 12G05G12G13G14G17G22G30G15G23G19G24G10
  23677850.895   124427807.615       -3915.619          29.000  
  23101126.809   121397307.478        3838.721          40.000  
  19745798.872   103764915.668       -2433.502          43.000  
  21455668.159   112750314.038       -2923.589          42.000  
  21793997.928   114528244.023        1185.468          38.000  
  20537428.301   107924919.376       -2128.358          45.000  
  23993479.176   126086615.943       -3287.627          33.000  
  18787627.283    98729584.802        -545.848          45.000  
  21127834.596   111027530.078         331.238          41.000  
  22551102.808   118506883.699        2854.559          41.000  
  19599005.156   102993469.385        1822.144          45.000  
  23222276.232   122033834.527        2458.513          32.000  
 23 11 05 14 53 34.9960000  0 12G05G12G13G14G17G22G30G15G23G19G24G10
  23678597.731   124431723.001       -3915.117          30.000  
  23100396.059   121393468.880        3838.867          39.000  
  19746261.512   103767349.102       -2433.594          43.000  
  21456224.313   112753237.614       -2923.304          42.000  
  21793772.646   114527058.616        1185.228          38.000  
  20537833.288   107927047.872       -2128.496          45.000  
  23994100.207   126089903.810       -3288.061          33.000  
  18787731.158    98730130.840        -545.972          45.000  
  21127771.540   111027199.065         331.039          41.000  
  22550559.550   118504029.026        2854.810          41.000  
  19598658.483   102991647.322        1822.107          45.000  
  23221808.414   122031376.441        2458.550          32.000  
 23 11 05 14 53 35.9960000  0 12G05G12G13G14G17G22G30G15G23G19G24G10
  23679343.538   124435637.661       -3913.811          30.000  
  23099665.285   121389629.798        3839.469          40.000  
  19746724.968   103769782.346       -2432.965          43.000  
  21456780.726   112756160.945       -2923.106          42.000  
  21793547.405   114525873.129        1185.638          38.000  
  20538238.351   107929176.212       -2128.267          45.000  
  23994728.836   126093191.038       -3286.716          33.000  
  18787835.069    98730676.933        -545.916          45.000  
  21127708.955   111026868.146         331.029          41.000  
  22550016.407   118501174.029        2854.956          40.000  
  19598311.545   102989825.033        1822.388          45.000  
  23221340.360   122028918.140        2457.905          32.000  
 23 11 05 14 53 36.9960000  0 12G05G12G13G14G17G22G30G15G23G19G24G10
  23680084.433   124439551.448       -3913.435          29.000  
  23098934.139   121385789.856        3840.045          39.000  
  19747188.029   103772215.050       -2432.477          43.000  
  21457337.118   112759083.638       -2922.588          42.000  
  21793322.127   114524687.224        1185.995          38.000  
  20538642.980   107931304.018       -2127.481          44.000  
  23995351.019   126096477.361       -3285.806          33.000  
  18787938.551    98731222.715        -545.536          45.000  
  21127645.997   111026536.934         331.710          41.000  
  22549473.051   118498318.315        2855.878          40.000  
  19597964.665   102988002.177        1823.126          44.000  
  23220872.618   122026459.339        2458.832          31.000  
 23 11 05 14 53 37.9960000  0 12G05G12G13G14G17G22G30G15G23G19G24G10
  23680823.312   124443464.587       -3912.602          29.000  
  23098202.789   121381949.424        3840.758          40.000  
  19747651.071   103774647.596       -2432.727          43.000  
  21457893.036   112762006.091       -2922.552          42.000  
  21793096.485   114523501.240        1185.901          38.000  
  20539047.960   107933431.708       -2127.878          45.000  
  23995977.726   126099763.158       -3285.709          33.000  
  18788042.330    98731768.564        -545.997          45.000  
  21127583.154   111026205.850         330.957          41.000  
  22548929.191   118495462.281        2856.055          40.000  
  19597617.759   102986179.130        1823.029          44.000  
  23220399.967   122024000.459        2459.156          31.000  
 23 11 05 14 53 38.9960000  0 12G05G12G13G14G17G22G30G15G23G19G24G10
  23681559.777   124447377.734       -3913.593          27.000  
  23097472.131   121378109.110        3840.363          40.000  
  19748114.114   103777080.531       -2433.112          43.000  
  21458449.310   112764928.875       -2923.134          42.000  
  21792870.960   114522315.811        1185.033          38.000  
  20539452.975   107935559.822       -2128.293          45.000  
  23996602.928   126103048.922       -3285.532          34.000  
  18788146.198    98732315.048        -546.670          45.000  
  21127520.567   111025875.438         329.958          42.000  
  22548386.136   118492606.513        2855.463          41.000  
  19597270.844   102984356.455        1822.382          44.000  
  23219931.815   122021541.901        2458.846          31.000  
 23 11 05 14 53 39.9960000  0 12G05G12G13G14G17G22G30G15G23G19G24G10
  23682300.988   124451290.838       -3912.512          27.000  
  23096741.320   121374269.015        3840.303          39.000  
  19748577.023   103779514.025       -2433.551          43.000  
  21459005.319   112767852.115       -2923.283          41.000  
  21792645.392   114521131.011        1184.559          38.000  
  20539857.768   107937688.506       -2128.621          44.000  
  23997228.303   126106334.898       -3286.131          34.000  
  18788249.915    98732862.304        -547.485          44.000  
  21127457.663   111025545.841         329.134          41.000  
  22547842.939   118489751.114        2855.457          41.000  
  19596923.563   102982534.291        1821.918          44.000  
  23219467.489   122019084.054        2457.318          31.000  
 23 11 05 14 53 40.9960000  0 12G05G12G13G14G17G22G30G15G23G19G24G10
  23683041.442   124455203.795       -3912.800          27.000  
  23096010.706   121370428.937        3839.929          39.000  
  19749040.060   103781947.811       -2434.186          43.000  
  21459561.576   112770775.589       -2923.821          42.000  
  21792419.811   114519946.604        1184.273          38.000  
  20540262.713   107939817.515       -2129.128          44.000  
  23997853.548   126109620.720       -3285.772          34.000  
  18788353.783    98733410.088        -547.935          44.000  
  21127395.252   111025216.790         328.674          41.000  
  22547299.777   118486895.863        2854.950          41.000  
  19596577.004   102980712.373        1821.936          44.000  
  23218998.689   122016626.370        2457.737          30.000  
 23 11 05 14 53 41.9960000  0 12G05G12G13G14G17G22G30G15G23G19G24G10
  23683787.210   124459117.239       -3913.368          27.000  
  23095280.320   121366589.354        3839.575          40.000  
  19749503.645   103784382.440       -2434.906          43.000  
  21460118.146   112773699.820       -2924.427          42.000  
  21792194.431   114518763.175        1183.425          37.000  
  20540668.134   107941947.421       -2130.110          44.000  
  23998478.872   126112907.022       -3285.931          35.000  
  18788457.922    98733958.962        -549.073          44.000  
  21127332.637   111024888.859         327.599          41.000  
  22546756.816   118484041.282        2854.699          41.000  
  19596230.460   102978891.297        1821.033          44.000  
  23218535.433   122014169.659        2455.918          30.000  
 23 11 05 14 53 42.9960000  0 12G05G12G13G14G17G22G30G15G23G19G24G10
  23684530.661   124463030.601       -3912.878          26.000  
  23094549.486   121362749.968        3839.165          40.000  
  19749967.325   103786817.504       -2435.278          43.000  
  21460674.847   112776624.425       -2924.946          42.000  
  21791969.144   114517580.310        1182.539          37.000  
  20541073.566   107944077.808       -2130.950          44.000  
  23999104.581   126116193.408       -3286.598          35.000  
  18788562.418    98734508.511        -549.766          44.000  
  21127270.420   111024561.658         326.774          41.000  
  22546213.876   118481187.040        2853.802          41.000  
  19595884.226   102977070.622        1820.471          44.000  
  23218062.509   122011713.441        2455.272          30.000  
 23 11 05 14 53 43.9960000  0 12G05G12G13G14G17G22G30G15G23G19G24G10
  23685277.703   124466944.003       -3912.994          27.000  
  23093818.716   121358910.674        3839.346          39.000  
  19750430.740   103789253.030       -2435.876          43.000  
  21461231.479   112779549.381       -2925.160          42.000  
  21791743.888   114516397.989        1182.058          38.000  
  20541478.991   107946208.636       -2131.176          44.000  
  23999730.164   126119479.829       -3286.865          35.000  
  18788667.139    98735058.730        -550.586          44.000  
  21127208.243   111024235.172         325.990          41.000  
  22545671.007   118478333.045        2853.894          41.000  
  19595537.658   102975250.359        1819.958          44.000  
  23217597.905   122009257.612        2455.754          30.000  
 23 11 05 14 53 44.9960000  0 12G05G12G13G14G17G22G30G15G23G19G24G10
  23686021.008   124470857.570       -3914.203          26.000  
  23093088.348   121355071.699        3838.787          40.000  
  19750894.401   103791689.144       -2436.334          44.000  
  21461788.664   112782474.872       -2925.626          42.000  
  21791518.861   114515216.381        1181.000          37.000  
  20541884.179   107948340.105       -2131.590          44.000  
  24000355.792   126122766.458       -3286.660          35.000  
  18788772.067    98735609.787        -551.328          44.000  
  21127146.092   111023909.567         325.128          42.000  
  22545128.233   118475479.528        2853.345          41.000  
  19595191.531   102973430.666        1819.678          45.000  
  23217131.566   122006802.494        2454.990          30.000  
 23 11 05 14 53 45.9960000  0 12G05G12G13G14G17G22G30G15G23G19G24G10
  23686761.286   124474771.257       -3913.981          26.000  
  23092357.845   121351232.968        3838.829          40.000  
  19751358.363   103794125.818       -2436.804          44.000  
  21462345.664   112785400.834       -2926.287          42.000  
  21791293.901   114514035.443        1180.682          37.000  
  20542289.886   107950472.166       -2132.272          44.000  
  24000981.591   126126053.229       -3286.838          35.000  
  18788877.170    98736161.639        -552.406          44.000  
  21127084.333   111023584.774         324.263          42.000  
  22544585.337   118472626.404        2852.667          41.000  
  19594845.419   102971611.502        1818.829          45.000  
  23216661.609   122004347.862        2454.968          29.000  
 23 11 05 14 53 46.9960000  0 12G05G12G13G14G17G22G30G15G23G19G24G10
  23687502.968   124478684.784       -3913.319          25.000  
  23091627.229   121347394.345        3838.410          40.000  
  19751822.159   103796562.907       -2437.665          44.000  
  21462902.527   112788327.134       -2927.091          42.000  
  21791069.169   114512855.019        1180.047          37.000  
  20542696.103   107952604.676       -2133.132          44.000  
  24001607.199   126129340.049       -3287.157          35.000  
  18788982.316    98736714.125        -553.193          44.000  
  21127022.664   111023260.684         323.110          42.000  
  22544042.901   118469773.510        2852.563          41.000  
  19594499.235   102969792.699        1818.176          45.000  
  23216190.198   122001893.784        2453.934          29.000  
 23 11 05 14 53 47.9960000  0 12G05G12G13G14G17G22G30G15G23G19G24G10
  23688248.801   124482598.489       -3913.337          25.000  
  23090897.011   121343555.921        3838.984          40.000  
  19752286.228   103799000.527       -2437.805          44.000  
  21463459.285   112791253.882       -2927.103          42.000  
  21790844.733   114511675.273        1179.272          38.000  
  20543102.054   107954737.736       -2133.436          44.000  
  24002233.210   126132627.031       -3287.431          35.000  
  18789087.757    98737267.372        -553.629          44.000  
  21126961.292   111022937.385         322.586          42.000  
  22543499.855   118466921.029        2851.874          41.000  
  19594153.470   102967974.420        1818.078          44.000  
  23215718.155   121999440.241        2453.219          29.000  
 23 11 05 14 53 48.9960000  0 12G05G12G13G14G17G22G30G15G23G19G24G10
  23688993.552   124486512.093       -3913.691          26.000  
  23090166.632   121339717.612        3838.369          40.000  
  19752750.389   103801438.539       -2438.373          44.000  
  21464016.215   112794180.945       -2927.444          42.000  
  21790620.035   114510495.989        1178.828          37.000  
  20543507.911   107956871.208       -2133.782          44.000  
  24002858.711   126135913.967       -3287.272          35.000  
  18789193.298    98737821.243        -554.171          44.000  
  21126899.902   111022614.735         322.150          42.000  
  22542957.212   118464068.741        2852.002          41.000  
  19593807.545   102966156.493        1817.480          45.000  
  23215254.038   121996987.049        2453.069          29.000  
 23 11 05 14 53 49.9960000  0 12G05G12G13G14G17G22G30G15G23G19G24G10
  23689742.302   124490425.900       -3914.240          26.000  
  23089436.114   121335879.604        3838.078          40.000  
  19753214.892   103803877.139       -2438.770          44.000  
  21464573.267   112797108.513       -2927.944          42.000  
  21790395.839   114509317.413        1178.822          37.000  
  20543913.761   107959005.314       -2134.254          44.000  
  24003484.286   126139201.102       -3287.311          35.000  
  18789298.719    98738375.953        -554.942          44.000  
  21126838.510   111022292.953         321.423          42.000  
  22542414.288   118461216.905        2852.081          41.000  
  19593461.536   102964339.123        1816.949          44.000  
  23214783.768                        2453.687          28.000  
 23 11 05 14 53 50.9960000  0 12G05G12G13G14G17G22G30G15G23G19G24G10
  23690489.001   124494339.455       -3913.302          27.000  
  23088705.622   121332041.529        3838.456          40.000  
  19753679.098   103806316.039       -2439.063          44.000  
  21465130.278   112800036.295       -2927.660          42.000  
  21790171.619   114508139.275        1177.942          37.000  
  20544320.153   107961139.748       -2134.586          44.000  
  24004109.885   126142488.171       -3286.709          35.000  
  18789404.503    98738931.190        -555.260          44.000  
  21126777.248   111021971.748         321.017          42.000  
  22541871.267   118458365.232        2851.611          41.000  
  19593115.919   102962522.006        1817.181          45.000  
  23214321.125   121992080.7903       2452.756          28.000  
 23 11 05 14 53 51.9960000  0 12G05G12G13G14G17G22G30G15G23G19G24G10
  23691236.926   124498253.168       -3913.380          27.000  
  23087975.171   121328203.837        3837.210          39.000  
  19754143.437   103808755.558       -2440.161          44.000  
  21465687.741   112802964.626       -2928.875          42.000  
  21789947.586   114506961.863        1176.751          37.000  
  20544726.549   107963274.820       -2135.751          44.000  
  24004735.550   126145775.450       -3287.439          34.000  
  18789510.094    98739487.275        -556.698          44.000  
  21126716.352   111021651.443         319.287          42.000  
  22541328.583   118455513.998        2850.800          41.000  
  19592770.300   102960705.507        1815.717          45.000  
  23213856.323   121989629.2412       2451.374          28.000  
 23 11 05 14 53 52.9960000  0 12G05G12G13G14G17G22G30G15G23G19G24G10
  23691985.678   124502167.126       -3913.251          26.000  
  23087244.881   121324366.415        3836.919          40.000  
  19754607.753   103811195.698       -2440.356          44.000  
  21466245.461   112805893.493       -2928.896          42.000  
  21789723.667   114505785.181        1176.115          37.000  
  20545133.065   107965410.535       -2135.949          45.000  
  24005361.053   126149062.971       -3287.274          34.000  
  18789616.091    98740044.226        -557.398          44.000  
  21126655.461   111021332.005         318.927          41.000  
  22540785.873   118452663.273        2850.299          41.000  
  19592425.080   102958889.591        1815.356          45.000  
  23213393.258   121987178.3022       2451.279          30.000  
 23 11 05 14 53 53.9960000  0 12G05G12G13G14G17G22G30G15G23G19G24G10
  23692733.256   124506080.857       -3913.744          27.000  
  23086514.812   121320528.908        3837.274          40.000  
  19755072.088   103813636.047       -2440.497          44.000  
  21466802.613   112808822.508       -2929.040          42.000  
  21789499.679   114504608.823        1176.018          37.000  
  20545539.576   107967546.515       -2136.205          44.000  
  24005986.434   126152350.264       -3287.028          34.000  
  18789722.042    98740601.621        -557.697          44.000  
  21126594.761   111021013.056         318.760          41.000  
  22540243.873   118449812.551        2850.983          41.000  
  19592079.747   102957073.852        1815.777          45.000  
  23212927.590   121984727.6032       2451.264          29.000  
 23 11 05 14 53 54.9960000  0 12G05G12G13G14G17G22G30G15G23G19G24G10
  23693475.774   124509994.434       -3913.579          27.000  
  23085784.344   121316691.501        3837.456          40.000  
  19755536.436   103816076.804       -2441.113          44.000  
  21467360.091   112811751.826       -2929.644          42.000  
  21789275.720   114503432.988        1175.047          37.000  
  20545945.916   107969682.899       -2136.698          44.000  
  24006611.952   126155637.656       -3287.612          33.000  
  18789828.174    98741159.652        -558.522          44.000  
  21126534.300   111020694.796         317.651          41.000  
  22539701.802   118446962.104        2850.323          41.000  
  19591734.435   102955258.489        1814.886          45.000  
  23212463.534   121982277.3232       2450.218          28.000  
 23 11 05 14 53 55.9960000  0 12G05G12G13G14G17G22G30G15G23G19G24G10
  23694229.058   124513908.353       -3914.531          27.000  
  23085054.449   121312854.441        3836.395          40.000  
  19756001.118   103818518.221       -2442.303          44.000  
  21467917.556   112814681.744       -2931.048          42.000  
  21789051.989   114502257.929        1173.832          37.000  
  20546352.530   107971819.983       -2138.053          44.000  
  24007237.270   126158925.267       -3288.482          33.000  
  18789934.130    98741718.570        -560.040          44.000  
  21126474.160   111020377.472         316.061          42.000  
  22539159.536   118444112.176        2849.158          41.000  
  19591388.731   102953443.761        1813.812          45.000  
  23211995.657   121979827.7762       2448.925          28.000  
 23 11 05 14 53 56.9960000  0 12G05G12G13G14G17G22G30G15G23G19G24G10
  23694975.509   124517822.773       -3914.713          28.000  
  23084324.528   121309018.108        3836.097          40.000  
  19756465.848   103820960.647       -2442.816          44.000  
  21468475.105   112817612.582       -2930.992          42.000  
  21788828.737   114501083.954        1173.568          37.000  
  20546759.381   107973958.110       -2138.462          44.000  
  24007862.984   126162213.498       -3288.030          33.000  
  18790040.624    98742278.746        -560.684          44.000  
  21126414.319   111020061.400         315.714          42.000  
  22538617.537   118441263.094        2848.816          41.000  
  19591043.922   102951630.006        1813.403          45.000  
  23211527.369   121977379.2122       2448.228          29.000  
 23 11 05 14 53 57.9960000  0 12G05G12G13G14G17G22G30G15G23G19G24G10
  23695722.369   124521737.142       -3914.215          28.000  
  23083594.403   121305181.886        3836.863          40.000  
  19756930.937   103823403.523       -2442.657          44.000  
  21469032.841   112820543.794       -2930.978          42.000  
  21788605.610   114499910.585        1173.583          37.000  
  20547166.735   107976096.702       -2138.116          45.000  
  24008480.593   126165501.843       -3287.388          32.000  
  18790147.055    98742839.584        -560.586          44.000  
  21126354.519   111019746.071         315.552          42.000  
  22538075.481   118438414.296        2849.329          41.000  
  19590698.732   102949816.662        1813.739          45.000  
  23211063.687   121974931.2772       2447.567          29.000  
 23 11 05 14 53 58.9960000  0 12G05G12G13G14G17G22G30G15G23G19G24G10
  23696468.715   124525650.868       -3913.557          27.000  
  23082864.096   121301345.156        3836.908          40.000  
  19757395.981   103825846.157       -2442.499          44.000  
  21469590.259   112823474.675       -2930.375          41.000  
  21788382.182   114498737.077        1173.568          37.000  
  20547573.556   107978235.090       -2138.097          45.000  
  24009104.796   126168789.507       -3287.563          33.000  
  18790253.617    98743400.426        -560.751          44.000  
  21126294.800   111019430.777         315.135          42.000  
  22537533.377   118435565.129        2849.170          41.000  
  19590353.864   102948003.054        1813.812          45.000  
  23210592.733   121972482.9532       2448.325          30.000  
 23 11 05 14 53 59.9960000  0 12G05G12G13G14G17G22G30G15G23G19G24G10
  23697216.893   124529564.034       -3912.859          27.000  
  23082133.861   121297508.015        3836.810          40.000  
  19757860.753   103828288.710       -2443.121          44.000  
  21470147.687   112826405.420       -2930.966          41.000  
  21788158.760   114497563.578        1172.780          38.000  
  20547980.402   107980373.434       -2138.689          44.000  
  24009730.923   126172076.688       -3287.403          33.000  
  18790360.164    98743961.418        -561.654          44.000  
  21126235.314   111019115.641         314.615          43.000  
  22536991.065   118432715.686        2849.237          41.000  
  19590008.910   102946189.331        1813.177          45.000  
  23210133.175   121970034.5882       2449.172          31.000  
 23 11 05 14 54 00.9960000  0 12G05G12G13G14G17G22G30G15G23G19G24G10
  23697966.574   124533477.515       -3914.464          27.000  
  23081403.733   121293671.302        3836.352          40.000  
  19758325.598   103830731.984       -2443.921          44.000  
  21470705.368   112829336.802       -2931.938          41.000  
  21787935.705   114496390.971        1171.741          38.000  
  20548387.554   107982512.549       -2139.979          45.000  
  24010362.357   126175364.245       -3287.943          35.000  
  18790467.262    98744523.376        -562.607          44.000  
  21126175.589   111018801.546         313.151          42.000  
  22536449.079   118429866.860        2848.419          41.000  
  19589664.041   102944376.304        1812.353          45.000  
  23209665.023   121967586.5881       2446.797          31.000  
 23 11 05 14 54 01.9960000  0 12G05G12G13G14G17G22G30G15G23G19G24G10
  23698715.778   124537391.872       -3914.597          28.000  
  23080673.646   121289835.676        3835.355          39.000  
  19758790.727   103833176.641       -2444.855          44.000  
  21471263.397   112832269.482       -2932.867          41.000  
  21787713.018   114495219.820        1170.687          38.000  
  20548794.858   107984653.032       -2140.721          45.000  
  24010991.108   126178652.777       -3288.697          35.000  
  18790574.503    98745086.952        -564.118          44.000  
  21126116.363   111018489.087         312.086          42.000  
  22535906.726   118427019.243        2847.552          41.000  
  19589319.493   102942564.637        1811.249          45.000  
  23209200.374   121965140.472        2446.204          31.000  
 23 11 05 14 54 02.9960000  0 12G05G12G13G14G17G22G30G15G23G19G24G10
  23699461.535   124541305.904       -3913.837          28.000  
  23079943.749   121285999.925        3835.620          39.000  
  19759255.825   103835621.491       -2444.977          44.000  
  21471821.233   112835202.256       -2932.666          41.000  
  21787489.972   114494048.975        1170.824          38.000  
  20549201.832   107986793.748       -2140.790          44.000  
  24011617.397   126181941.090       -3287.968          36.000  
  18790681.887    98745650.944        -564.288          44.000  
  21126056.934   111018177.091         311.627          42.000  
  22535364.991   118424171.669        2847.546          41.000  
  19588974.790   102940753.111        1811.316          45.000  
  23208736.822   121962694.589        2445.231          32.000  
 23 11 05 14 54 03.9960000  0 12G05G12G13G14G17G22G30G15G23G19G24G10
  23700207.937   124545219.267       -3913.657          28.000  
  23079213.569   121282163.511        3836.506          39.000  
  19759720.776   103838065.998       -2444.580          45.000  
  21472379.049   112838134.628       -2932.494          41.000  
  21787267.093   114492877.896        1170.946          38.000  
  20549609.131   107988934.142       -2140.222          44.000  
  24012243.246   126185228.710       -3287.098          36.000  
  18790789.328    98746214.814        -564.037          44.000  
  21125997.612   111017865.023         311.784          42.000  
  22534822.991   118421323.606        2847.974          41.000  
  19588629.950   102938941.217        1811.853          45.000  
  23208270.978   121960248.357        2445.852          32.000  
 23 11 05 14 54 04.9960000  0 12G05G12G13G14G17G22G30G15G23G19G24G10
  23700950.128   124549132.384       -3913.282          29.000  
  23078482.880   121278327.092        3836.181          39.000  
  19760186.262   103840510.793       -2445.227          44.000  
  21472937.157   112841067.201       -2932.895          41.000  
  21787044.546   114491707.226        1170.522          38.000  
  20550016.318   107991074.873       -2140.982          44.000  
  24012868.468   126188516.202       -3287.715          36.000  
  18790896.701    98746779.233        -565.003          44.000  
  21125938.146   111017553.510         311.099          42.000  
  22534281.027   118418475.681        2847.632          41.000  
  19588285.173   102937129.583        1811.334          45.000  
  23207807.362   121957802.421        2445.730          33.000  
 23 11 05 14 54 05.9960000  0 12G05G12G13G14G17G22G30G15G23G19G24G10
  23701689.101   124553045.374       -3912.121          30.000  
  23077752.408   121274490.735        3836.417          39.000  
  19760651.871   103842955.933       -2445.221          44.000  
  21473495.330   112844000.028       -2933.059          41.000  
  21786821.917   114490537.013        1170.350          39.000  
  20550423.700   107993215.972       -2141.315          44.000  
  24013494.019   126191803.678       -3287.815          36.000  
  18791004.288    98747344.208        -565.400          44.000  
  21125879.018   111017242.620         310.632          42.000  
  22533739.287   118415627.926        2847.736          41.000  
  19587940.564   102935318.276        1811.176          45.000  
  23207340.316   121955356.934        2444.674          33.000  
 23 11 05 14 54 06.9960000  0 12G05G12G13G14G17G22G30G15G23G19G24G10
  23702428.388   124556958.383       -3912.815          29.000  
  23077022.203   121270654.448        3836.533          39.000  
  19761117.535   103845401.473       -2445.502          45.000  
  21474053.648   112846933.194       -2933.352          41.000  
  21786599.010   114489367.357        1169.516          38.000  
  20550831.209   107995357.488       -2141.512          44.000  
  24014119.769   126195091.146       -3287.441          37.000  
  18791112.054    98747909.844        -565.833          44.000  
  21125820.032   111016932.418         310.062          42.000  
  22533197.277   118412780.442        2847.595          41.000  
  19587596.059   102933507.337        1810.840          45.000  
  23206876.638   121952911.787        2444.900          33.000  
 23 11 05 14 54 07.9960000  0 12G05G12G13G14G17G22G30G15G23G19G24G10
  23703180.998   124560871.381       -3912.944          29.000  
  23076291.918   121266818.308        3836.175          39.000  
  19761583.019   103847847.471       -2446.039          44.000  
  21474611.797   112849866.703       -2933.309          41.000  
  21786376.465   114488198.212        1169.141          38.000  
  20551239.064   107997499.500       -2142.244          44.000  
  24014746.101   126198378.677       -3287.639          37.000  
  18791219.803    98748476.138        -566.343          44.000  
  21125761.388   111016622.907         309.188          42.000  
  22532655.664   118409933.271        2847.180          41.000  
  19587251.302   102931696.814        1810.382          45.000  
  23206410.141   121950467.195        2444.005          32.000  
 23 11 05 14 54 08.9960000  0 12G05G12G13G14G17G22G30G15G23G19G24G10
  23703922.886   124564784.472       -3913.209          29.000  
  23075562.170   121262982.395        3835.738          39.000  
  19762048.558   103850294.001       -2446.741          45.000  
  21475169.993   112852800.707       -2934.354          41.000  
  21786153.876   114487029.739        1167.994          37.000  
  20551646.686   107999642.059       -2142.897          44.000  
  24015372.079   126201666.360       -3287.822          37.000  
  18791328.060    98749043.217        -567.579          44.000  
  21125702.819   111016314.212         308.173          42.000  
  22532113.699   118407086.446        2846.655          41.000  
  19586906.717   102929886.793        1809.680          45.000  
  23205944.744   121948023.101        2443.309          32.000  
 23 11 05 14 54 09.9960000  0 12G05G12G13G14G17G22G30G15G23G19G24G10
  23704663.156   124568697.589       -3912.393          29.000  
  23074832.264   121259146.766        3835.649          39.000  
  19762514.132   103852741.113       -2447.290          44.000  
  21475728.795   112855735.175       -2934.602          41.000  
  21785931.646   114485861.957        1167.353          38.000  
  20552054.558   108001785.240       -2143.546          45.000  
  24015998.023   126204954.188       -3288.040          37.000  
  18791436.144    98749611.110        -568.264          44.000  
  21125644.143   111016006.373         307.367          43.000  
  22531572.361   118404240.062        2846.161          41.000  
  19586562.525   102928077.328        1809.247          45.000  
  23205479.759   121945579.633        2443.470          33.000  
 23 11 05 14 54 10.9960000  0 12G05G12G13G14G17G22G30G15G23G19G24G10
  23705405.755   124572610.903       -3913.704          29.000  
  23074102.712   121255311.383        3835.251          39.000  
  19762979.916   103855188.758       -2447.815          44.000  
  21476287.387   112858670.147       -2935.234          41.000  
  21785709.622   114484694.849        1167.061          38.000  
  20552462.660   108003929.000       -2144.353          44.000  
  24016623.681   126208242.172       -3287.843          37.000  
  18791544.174    98750179.785        -569.179          45.000  
  21125585.564   111015699.355         306.593          42.000  
  22531030.935   118401394.104        2845.837          41.000  
  19586218.402   102926268.374        1808.819          45.000  
  23205015.229   121943136.705        2443.092          33.000  
 23 11 05 14 54 11.9960000  0 12G05G12G13G14G17G22G30G15G23G19G24G10
  23706149.658   124576524.279       -3913.442          28.000  
  23073372.807   121251476.359        3835.341          39.000  
  19763445.904   103857637.086       -2448.785          44.000  
  21476846.095   112861605.653       -2935.974          41.000  
  21785487.893   114483528.495        1165.886          38.000  
  20552870.777   108006073.434       -2145.213          44.000  
  24017249.965   126211530.490       -3288.810          37.000  
  18791652.479    98750749.339        -570.305          44.000  
  21125527.254   111015393.264         305.319          42.000  
  22530489.298   118398548.633        2845.160          41.000  
  19585874.220   102924460.066        1807.794          45.000  
  23204550.661   121940694.497        2441.429          33.000  
 23 11 05 14 54 12.9960000  0 12G05G12G13G14G17G22G30G15G23G19G24G10
  23706894.579   124580437.704       -3913.478          28.000  
  23072643.045   121247641.385        3834.860          38.000  
  19763911.690   103860085.709       -2448.340          45.000  
  21477404.881   112864541.429       -2935.593          41.000  
  21785266.092   114482362.576        1165.937          38.000  
  20553278.870   108008218.199       -2144.686          44.000  
  24017876.305   126214818.750       -3288.712          37.000  
  18791761.069    98751319.457        -570.316          44.000  
  21125468.997   111015087.768         305.524          42.000  
  22529947.606   118395703.330        2845.410          41.000  
  19585530.146   102922652.034        1808.051          45.000  
  23204086.184   121938252.639        2442.122          33.000  
 23 11 05 14 54 13.9960000  0 12G05G12G13G14G17G22G30G15G23G19G24G10
  23707644.411   124584350.458       -3913.245          29.000  
  23071912.721   121243805.929        3835.817          39.000  
  19764377.517   103862534.232       -2448.883          44.000  
  21477963.511   112867476.992       -2935.771          41.000  
  21785044.627   114481196.639        1165.681          38.000  
  20553687.249   108010362.887       -2144.999          45.000  
  24018502.190   126218106.455       -3288.000          36.000  
  18791869.747    98751889.669        -570.309          44.000  
  21125410.648   111014782.434         304.927          42.000  
  22529405.964   118392857.739        2845.544          41.000  
  19585185.905   102920843.847        1808.197          45.000  
  23203621.587   121935810.748        2442.029          33.000  
 23 11 05 14 54 14.9960000  0 12G05G12G13G14G17G22G30G15G23G19G24G10
  23708390.863   124588263.087       -3912.794          29.000  
  23071182.796   121239970.514        3835.460          39.000  
  19764843.651   103864983.068       -2449.023          44.000  
  21478522.262   112870412.795       -2936.025          42.000  
  21784823.014   114480031.119        1165.588          38.000  
  20554095.846   108012507.915       -2145.242          45.000  
  24019128.215   126221394.094       -3288.173          36.000  
  18791978.807    98752460.459        -571.222          45.000  
  21125352.357   111014477.685         304.393          42.000  
  22528864.383   118390012.361        2845.233          41.000  
  19584841.783   102919035.974        1807.507          45.000  
  23203156.349   121933369.175        2441.702          32.000  
 23 11 05 14 54 15.9960000  0 12G05G12G13G14G17G22G30G15G23G19G24G10
  23709131.466   124592175.677       -3912.182          28.000  
  23070452.681   121236135.244        3835.258          39.000  
  19765309.915   103867432.333       -2449.207          45.000  
  21479081.005   112873348.946       -2935.891          42.000  
  21784601.069   114478866.194        1165.077          38.000  
  20554504.032   108014653.396       -2145.321          45.000  
  24019754.143   126224681.754       -3287.292          36.000  
  18792087.388    98753031.902        -571.515          45.000  
  21125294.652   111014173.627         304.005          42.000  
  22528322.600   118387167.221        2845.465          41.000  
  19584497.599   102917228.491        1807.532          45.000  
  23202691.020   121930928.036        2441.154          33.000  
 23 11 05 14 54 16.9960000  0 12G05G12G13G14G17G22G30G15G23G19G24G10
  23709876.863   124596088.363       -3912.465          28.000  
  23069722.775   121232300.262        3834.348          39.000  
  19765775.890   103869882.200       -2450.360          44.000  
  21479639.404   112876285.619       -2937.344          42.000  
  21784379.436   114477701.981        1163.638          38.000  
  20554912.564   108016799.534       -2146.702          45.000  
  24020379.960   126227969.631       -3287.695          35.000  
  18792196.444    98753604.184        -572.979          45.000  
  21125236.922   111013870.466         302.475          42.000  
  22527781.408   118384322.560        2844.183          41.000  
  19584153.860   102915421.578        1806.287          45.000  
  23202226.205   121928487.519        2439.802          33.000  
 23 11 05 14 54 17.9960000  0 12G05G12G13G14G17G22G30G15G23G19G24G10
  23710617.186   124600001.153       -3912.666          28.000  
  23068993.177   121228465.464        3834.343          39.000  
  19766242.323   103872332.559       -2450.653          45.000  
  21480198.107   112879222.703       -2937.472          42.000  
  21784158.062   114476538.364        1163.238          38.000  
  20555321.100   108018946.184       -2147.252          45.000  
  24021005.804   126231257.631       -3287.845          35.000  
  18792305.710    98754177.207        -573.547          45.000  
  21125178.721   111013568.069         301.958          42.000  
  22527240.021   118381478.229        2844.318          41.000  
  19583810.025   102913615.117        1806.055          45.000  
  23201761.377   121926047.573        2439.496          33.000  
 23 11 05 14 54 18.9960000  0 12G05G12G13G14G17G22G30G15G23G19G24G10
  23711363.853   124603913.798       -3911.914          28.000  
  23068263.815   121224630.690        3834.515          39.000  
  19766708.251   103874783.221       -2450.989          44.000  
  21480756.815   112882160.018       -2937.461          42.000  
  21783936.381   114475375.167        1162.835          37.000  
  20555729.611   108021093.154       -2147.314          45.000  
  24021631.564   126234545.552       -3287.871          35.000  
  18792414.826    98754750.739        -573.829          45.000  
  21125120.928   111013266.233         301.273          42.000  
  22526698.600   118378634.068        2844.110          41.000  
  19583466.348   102911808.938        1805.865          45.000  
  23201297.042   121923607.890        2439.771          33.000  
 23 11 05 14 54 19.9960000  0 12G05G12G13G14G17G22G30G15G23G19G24G10
  23712102.867   124607826.478       -3912.751          28.000  
  23067534.034   121220796.067        3834.378          39.000  
  19767174.470   103877234.374       -2451.563          44.000  
  21481315.835   112885097.737       -2938.136          42.000  
  21783715.021   114474212.572        1162.412          38.000  
  20556138.175   108023240.655       -2148.096          45.000  
  24022257.292   126237833.551       -3288.441          35.000  
  18792524.191    98755325.021        -574.959          45.000  
  21125063.521   111012965.170         300.314          42.000  
  22526157.726   118375790.249        2843.329          41.000  
  19583122.631   102910003.242        1805.048          45.000  
  23200832.495   121921168.777        2438.792          33.000  
 23 11 05 14 54 20.9960000  0 12G05G12G13G14G17G22G30G15G23G19G24G10
  23712847.902   124611739.215       -3912.514          28.000  
  23066804.639   121216961.722        3834.216          39.000  
  19767640.947   103879686.109       -2451.904          44.000  
  21481874.471   112888035.941       -2938.341          42.000  
  21783494.140   114473050.675        1161.936          38.000  
  20556547.276   108025388.744       -2148.296          45.000  
  24022883.242   126241121.720       -3288.098          35.000  
  18792633.517    98755900.090        -575.479          45.000  
  21125006.311   111012664.956         299.883          42.000  
  22525616.843   118372946.798        2843.683          41.000  
  19582779.104   102908198.048        1805.029          45.000  
  23200368.132   121918730.215        2439.288          33.000  
 23 11 05 14 54 21.9960000  0 12G05G12G13G14G17G22G30G15G23G19G24G10
  23713590.044   124615652.073       -3912.950          28.000  
  23066074.814   121213127.549        3834.224          39.000  
  19768107.588   103882138.314       -2452.454          44.000  
  21482433.548   112890974.590       -2939.018          41.000  
  21783272.963   114471889.400        1160.834          38.000  
  20556956.477   108027537.347       -2148.638          45.000  
  24023509.138   126244410.006       -3287.747          35.000  
  18792743.179    98756475.895        -576.175          45.000  
  21124949.031   111012365.503         298.990          41.000  
  22525075.911   118370103.755        2842.840          41.000  
  19582435.897   102906393.347        1804.339          45.000  
  23199903.899   121916292.276        2438.187          33.000  
 23 11 05 14 54 22.9960000  0 12G05G12G13G14G17G22G30G15G23G19G24G10
  23714332.180   124619564.885       -3912.431          28.000  
  23065345.043   121209293.629        3833.843          39.000  
  19768574.157   103884591.029       -2452.637          44.000  
  21482993.069   112893913.610       -2938.910          42.000  
  21783052.019   114470728.699        1160.780          38.000  
  20557365.220   108029686.493       -2149.380          45.000  
  24024134.876   126247698.395       -3288.984          34.000  
  18792853.028    98757052.428        -576.679          45.000  
  21124892.093   111012066.815         298.432          41.000  
  22524534.993   118367261.023        2842.908          41.000  
  19582092.370   102904589.111        1803.992          45.000  
  23199440.273   121913854.823        2437.533          34.000  
 23 11 05 14 54 23.9960000  0 12G05G12G13G14G17G22G30G15G23G19G24G10
  23715075.525   124623477.717       -3912.784          27.000  
  23064615.164   121205459.739        3833.901          38.000  
  19769040.703   103887044.118       -2453.040          44.000  
  21483552.661   112896852.938       -2939.393          42.000  
  21782831.076   114469568.502        1160.162          38.000  
  20557774.297   108031836.024       -2149.589          45.000  
  24024761.045   126250986.796       -3288.313          34.000  
  18792963.132    98757629.579        -577.341          45.000  
  21124835.366   111011768.783         297.620          41.000  
  22523994.141   118364418.524        2842.657          41.000  
  19581749.076   102902785.199        1803.937          45.000  
  23198976.100   121911417.825        2437.135          34.000  
 23 11 05 14 54 24.9960000  0 12G05G12G13G14G17G22G30G15G23G19G24G10
  23715821.430   124627390.396       -3912.145          27.000  
  23063885.533   121201625.967        3833.876          39.000  
  19769507.621   103889497.613       -2453.656          44.000  
  21484112.021   112899792.598       -2939.702          42.000  
  21782610.483   114468408.851        1159.684          38.000  
  20558183.422   108033986.013       -2150.249          45.000  
  24025386.463   126254275.194       -3288.277          34.000  
  18793073.343    98758207.363        -578.018          45.000  
  21124778.692   111011471.409         297.173          41.000  
  22523453.328   118361576.277        2842.316          41.000  
  19581406.203   102900981.692        1803.308          45.000  
  23198512.314   121908981.217        2435.492          34.000  
 23 11 05 14 54 25.9960000  0 12G05G12G13G14G17G22G30G15G23G19G24G10
  23716564.894   124631303.196       -3912.625          27.000  
  23063155.997   121197792.359        3833.336          39.000  
  19769974.611   103891951.603       -2454.077          44.000  
  21484671.477   112902732.665       -2939.985          42.000  
  21782389.832   114467249.787        1158.983          38.000  
  20558592.725   108036136.495       -2150.482          45.000  
  24026011.841   126257563.682       -3288.097          34.000  
  18793183.487    98758785.863        -578.727          45.000  
  21124721.750   111011174.803         296.626          41.000  
  22522912.657   118358734.380        2841.601          41.000  
  19581063.173   102899178.621        1803.027          45.000  
  23198048.823   121906545.089        2436.399          34.000  
 23 11 05 14 54 26.9960000  0 12G05G12G13G14G17G22G30G15G23G19G24G10
  23717304.216   124635215.964       -3912.593          27.000  
  23062426.671   121193958.984        3832.543          39.000  
  19770442.065   103894406.065       -2454.517          45.000  
  21485231.160   112905673.140       -2940.538          42.000  
  21782169.468   114466091.325        1157.937          38.000  
  20559001.778   108038287.496       -2151.057          45.000  
  24026637.037   126260852.308       -3289.428          33.000  
  18793293.567    98759365.083        -579.459          45.000  
  21124665.331   111010878.981         295.475          41.000  
  22522372.137   118355892.828        2841.437          41.000  
  19580720.124   102897376.006        1802.661          45.000  
  23197585.134   121904109.527        2434.628          33.000  
 23 11 05 14 54 27.9960000  0 12G05G12G13G14G17G22G30G15G23G19G24G10
  23718049.535   124639128.554       -3911.968          26.000  
  23061697.880   121190125.547        3833.539          39.000  
  19770909.473   103896860.855       -2455.115          44.000  
  21485790.861   112908613.826       -2940.806          42.000  
  21781948.797   114464933.278        1157.577          37.000  
  20559410.898   108040438.837       -2151.351          45.000  
  24027262.398   126264140.770       -3288.494          33.000  
  18793404.012    98759944.835        -580.040          45.000  
  21124609.140   111010583.711         295.396          41.000  
  22521831.139   118353051.409        2841.394          41.000  
  19580377.243   102895573.688        1802.173          45.000  
  23197121.438   121901674.306        2435.125          33.000  
 23 11 05 14 54 28.9960000  0 12G05G12G13G14G17G22G30G15G23G19G24G10
  23718793.878   124643041.348       -3912.385          26.000  
  23060968.339   121186292.459        3833.366          39.000  
  19771376.614   103899316.217       -2455.060          44.000  
  21486350.319   112911555.022       -2940.736          42.000  
  21781728.700   114463775.946        1157.234          37.000  
  20559820.673   108042590.787       -2151.721          45.000  
  24027883.554   126267429.515       -3288.646          33.000  
  18793514.644    98760525.437        -580.637          45.000  
  21124553.072   111010289.321         294.267          41.000  
  22521290.378   118350210.461        2840.979          41.000  
  19580034.507   102893771.933        1801.861          45.000  
  23196657.954   121899239.702        2435.208          34.000  
 23 11 05 14 54 29.9960000  0 12G05G12G13G14G17G22G30G15G23G19G24G10
  23719537.969   124646953.847       -3912.323          25.000  
  23060238.968   121182459.230        3832.899          39.000  
  19771843.660   103901771.782       -2455.646          44.000  
  21486910.070   112914496.338       -2941.296          42.000  
  21781508.567   114462618.924        1156.617          38.000  
  20560230.033   108044742.958       -2152.322          45.000  
  24028507.949   126270717.962       -3287.903          33.000  
  18793625.368    98761106.450        -581.351          45.000  
  21124497.048   111009995.392         293.561          41.000  
  22520749.498   118347369.527        2840.869          41.000  
  19579691.591   102891970.337        1801.318          45.000  
  23196194.650   121896805.311        2434.437          34.000  
 23 11 05 14 54 30.9960000  0 12G05G12G13G14G17G22G30G15G23G19G24G10
  23720286.354   124650866.199       -3912.562          26.000  
  23059509.693   121178626.093        3832.625          39.000  
  19772311.171   103904227.705       -2456.329          44.000  
  21487469.689   112917437.939       -2941.854          42.000  
  21781288.507   114461462.378        1156.262          38.000  
  20560639.826   108046895.525       -2152.821          45.000  
  24029131.063   126274006.491       -3288.267          33.000  
  18793735.928    98761688.075        -582.212          45.000  
  21124441.186   111009702.105         292.670          41.000  
  22520208.809   118344528.837        2840.436          41.000  
  19579348.877   102890169.068        1800.970          45.000  
  23195731.336   121894371.282        2434.233          34.000  
 23 11 05 14 54 31.9960000  0 12G05G12G13G14G17G22G30G15G23G19G24G10
  23721035.197   124654778.679       -3912.682          26.000  
  23058780.446   121174793.070        3833.175          39.000  
  19772778.664   103906684.102       -2456.537          44.000  
  21488029.608   112920379.930       -2942.016          42.000  
  21781068.379   114460306.445        1155.648          37.000  
  20561049.378   108049048.590       -2153.518          45.000  
  24029760.248   126277295.079       -3289.193          32.000  
  18793846.499    98762270.397        -582.691          45.000  
  21124385.360   111009409.561         292.261          41.000  
  22519668.439   118341688.437        2840.564          41.000  
  19579006.225   102888368.262        1800.446          45.000  
  23195268.068   121891937.824        2432.943          34.000  
 23 11 05 14 54 32.9960000  0 12G05G12G13G14G17G22G30G15G23G19G24G10
  23721781.168   124658691.021       -3912.531          26.000  
  23058051.016   121170960.231        3833.250          39.000  
  19773245.872   103909140.929       -2456.799          44.000  
  21488589.433   112923322.288       -2942.482          42.000  
  21780848.657   114459151.042        1155.576          37.000  
  20561459.264   108051202.103       -2153.635          45.000  
  24030388.035   126280583.667       -3288.752          32.000  
  18793957.286    98762853.394        -583.343          45.000  
  21124329.653   111009117.726         291.624          41.000  
  22519127.895   118338848.366        2840.002          41.000  
  19578663.854   102886567.852        1800.562          45.000  
  23194804.813   121889504.719        2433.539          34.000  
 23 11 05 14 54 33.9960000  0 12G05G12G13G14G17G22G30G15G23G19G24G10
  23722528.044   124662603.472       -3912.511          27.000  
  23057321.730   121167127.658        3832.365          39.000  
  19773713.150   103911598.298       -2457.642          44.000  
  21489149.358   112926265.066       -2943.131          42.000  
  21780628.937   114457996.295        1154.121          37.000  
  20561869.145   108053356.190       -2154.308          45.000  
  24031014.799   126283872.418       -3288.915          32.000  
  18794068.224    98763437.150        -584.321          45.000  
  21124274.418   111008826.700         290.160          41.000  
  22518587.311   118336008.654        2839.398          40.000  
  19578321.653   102884767.966        1799.445          46.000  
  23194341.819   121887072.296        2432.190          35.000  
 23 11 05 14 54 34.9960000  0 12G05G12G13G14G17G22G30G15G23G19G24G10
  23723274.254   124666516.080       -3912.795          27.000  
  23056592.608   121163295.317        3831.907          39.000  
  19774180.794   103914056.263       -2458.484          44.000  
  21489709.636   112929208.376       -2943.465          42.000  
  21780409.531   114456842.246        1153.956          37.000  
  20562279.343   108055510.900       -2155.125          45.000  
  24031640.110   126287161.424       -3289.513          32.000  
  18794179.746    98764021.728        -584.969          45.000  
  21124219.313   111008536.536         289.740          41.000  
  22518047.004   118333169.388        2839.172          40.000  
  19577979.338   102882968.623        1799.097          45.000  
  23193879.035   121884640.463        2431.229          35.000  
 23 11 05 14 54 35.9960000  0 12G05G12G13G14G17G22G30G15G23G19G24G10
  23724018.899   124670428.460       -3912.497          27.000  
  23055863.206   121159462.866        3832.411          39.000  
  19774648.447   103916514.394       -2458.093          44.000  
  21490270.179   112932151.780       -2943.405          42.000  
  21780190.219   114455688.549        1153.411          37.000  
  20562689.561   108057665.796       -2155.009          45.000  
  24032267.090   126290450.123       -3288.481          32.000  
  18794291.183    98764606.726        -585.236          45.000  
  21124164.091   111008246.814         289.396          41.000  
  22517506.582   118330330.161        2839.575          40.000  
  19577636.876   102881169.426        1799.194          45.000  
  23193416.028   121882208.868        2431.539          34.000  
 23 11 05 14 54 36.9960000  0 12G05G12G13G14G17G22G30G15G23G19G24G10
  23724760.995   124674340.681       -3912.154          26.000  
  23055133.854   121155630.603        3831.845          39.000  
  19775116.549   103918973.003       -2458.771          44.000  
  21490830.383   112935095.590       -2944.111          42.000  
  21779970.806   114454535.389        1153.179          38.000  
  20563099.650   108059821.208       -2155.558          45.000  
  24032893.134   126293739.009       -3289.028          33.000  
  18794402.864    98765192.438        -586.071          45.000  
  21124109.091   111007957.851         288.596          41.000  
  22516966.319   118327491.269        2838.653          40.000  
  19577294.555   102879370.700        1798.517          45.000  
  23192953.358   121879777.784        2430.939          35.000  
 23 11 05 14 54 37.9960000  0 12G05G12G13G14G17G22G30G15G23G19G24G10
  23725505.734   124678252.887       -3912.120          27.000  
  23054404.610   121151798.346        3832.477          39.000  
  19775584.361   103921431.922       -2459.027          44.000  
  21491391.423   112938039.615       -2943.959          43.000  
  21779751.309   114453382.665        1152.497          38.000  
  20563510.059   108061976.966       -2155.832          45.000  
  24033518.886   126297027.773       -3289.099          33.000  
  18794514.624    98765778.689        -586.296          45.000  
  21124054.319   111007669.472         288.246          41.000  
  22516426.370   118324652.510        2838.861          40.000  
  19576951.933   102877572.243        1798.688          45.000  
  23192490.353   121877347.054        2430.382          34.000  
 23 11 05 14 54 38.9960000  0 12G05G12G13G14G17G22G30G15G23G19G24G10
  23726250.245   124682165.107       -3912.083          26.000  
  23053675.302   121147966.275        3832.039          39.000  
  19776052.349   103923891.370       -2459.784          44.000  
  21491952.096   112940984.092       -2944.741          43.000  
  21779531.968   114452230.578        1151.899          37.000  
  20563920.133   108064133.259       -2156.515          45.000  
  24034144.816   126300316.648       -3289.061          33.000  
  18794626.312    98766365.694        -587.548          45.000  
  21123999.562   111007381.885         286.886          41.000  
  22515886.310   118321814.167        2837.982          40.000  
  19576610.050   102875774.267        1797.693          45.000  
  23192027.853   121874916.887        2429.690          35.000  
 23 11 05 14 54 39.9960000  0 12G05G12G13G14G17G22G30G15G23G19G24G10
  23726996.456   124686077.286       -3911.987          26.000  
  23052946.051   121144134.303        3832.023          39.000  
  19776520.659   103926351.157       -2459.973          44.000  
  21492512.397   112943928.813       -2944.642          43.000  
  21779312.902   114451078.965        1151.522          37.000  
  20564330.401   108066289.939       -2156.828          45.000  
  24034770.928   126303605.501       -3288.844          33.000  
  18794738.118    98766953.289        -587.742          45.000  
  21123945.237   111007094.934         286.751          41.000  
  22515345.650   118318976.014        2837.817          40.000  
  19576267.690   102873976.640        1797.546          45.000  
  23191565.206   121872487.075        2429.943          35.000  
 23 11 05 14 54 40.9960000  0 12G05G12G13G14G17G22G30G15G23G19G24G10
  23727740.171   124689989.646       -3913.161          25.000  
  23052217.203   121140302.493        3831.712          40.000  
  19776988.789   103928811.425       -2460.559          44.000  
  21493072.871   112946873.961       -2945.577          43.000  
  21779093.630   114449927.954        1150.643          37.000  
  20564740.991   108068447.132       -2157.758          45.000  
  24035397.138   126306894.442       -3289.341          33.000  
  18794850.048    98767541.603        -588.854          45.000  
  21123890.777   111006808.716         286.063          41.000  
  22514805.668   118316138.187        2837.518          40.000  
  19575925.493   102872179.449        1796.808          45.000  
  23191102.714   121870057.801        2428.433          35.000  
 23 11 05 14 54 41.9960000  0 12G05G12G13G14G17G22G30G15G23G19G24G10
  23728482.254   124693901.514       -3912.275          25.000  
  23051487.891   121136470.706        3831.778          40.000  
  19777456.985   103931272.027       -2460.767          44.000  
  21493633.610   112949819.322       -2945.388          43.000  
  21778874.758   114448777.402        1150.421          37.000  
  20565151.370   108070604.653       -2157.594          45.000  
  24036023.343   126310183.311       -3288.987          33.000  
  18794962.168    98768130.469        -589.230          45.000  
  21123836.579   111006523.102         285.540          41.000  
  22514265.632   118313300.525        2837.658          40.000  
  19575583.502   102870382.549        1796.771          45.000  
  23190640.366   121867628.825        2428.810          35.000  
 23 11 05 14 54 42.9960000  0 11G12G13G14G17G22G30G15G23G19G24G10
  23050758.934   121132639.022        3831.805          40.000  
  19777925.375   103933733.014       -2461.151          44.000  
  21494193.913   112952765.012       -2945.697          43.000  
  21778656.203   114447627.325        1150.096          38.000  
  20565562.115   108072762.590       -2157.834          45.000  
  24036649.359   126313472.163       -3288.394          33.000  
  18795074.562    98768719.964        -589.633          45.000  
  21123782.765   111006238.169         284.598          41.000  
  22513725.440   118310463.119        2837.268          40.000  
  19575241.336   102868586.016        1796.448          45.000  
  23190178.136   121865200.368        2428.427          35.000  
 23 11 05 14 54 43.9960000  0 11G12G13G14G17G22G30G15G23G19G24G10
  23050029.829   121128807.499        3831.080          40.000  
  19778393.863   103936194.448       -2461.725          44.000  
  21494754.789   112955711.074       -2946.288          43.000  
  21778437.418   114446477.846        1149.162          38.000  
  20565972.963   108074921.043       -2158.900          45.000  
  24037275.237   126316761.146       -3289.330          33.000  
  18795186.390    98769310.165        -590.877          45.000  
  21123728.785   111005953.978         283.624          41.000  
  22513185.681   118307626.047        2836.530          40.000  
  19574899.477   102866789.918        1795.892          45.000  
  23189716.412   121862772.394        2427.485          36.000  
 23 11 05 14 54 44.9960000  0 11G12G13G14G17G22G30G15G23G19G24G10
  23049300.753   121124976.093        3831.179          40.000  
  19778862.026   103938656.338       -2462.164          44.000  
  21495315.333   112958657.495       -2946.747          43.000  
  21778218.974   114445328.913        1148.610          37.000  
  20566383.412   108077079.941       -2159.182          45.000  
  24037901.401   126320050.142       -3288.650          33.000  
  18795298.815    98769901.018        -591.193          45.000  
  21123674.973   111005670.476         282.932          41.000  
  22512645.765   118304789.258        2836.548          40.000  
  19574557.684   102864994.238        1795.123          45.000  
  23189254.300   121860344.869        2426.677          35.000  
 23 11 05 14 54 45.9960000  0 11G12G13G14G17G22G30G15G23G19G24G10
  23048571.733   121121145.037        3831.282          40.000  
  19779330.508   103941118.841       -2462.122          44.000  
  21495876.081   112961604.461       -2946.671          43.000  
  21778000.500   114444180.740        1148.456          37.000  
  20566794.343   108079239.494       -2159.188          45.000  
  24038527.419   126323339.374       -3288.741          33.000  
  18795411.432    98770492.747        -591.554          45.000  
  21123621.167   111005387.872         282.670          41.000  
  22512106.119   118301952.937        2836.578          40.000  
  19574216.112   102863199.151        1795.422          45.000  
  23188792.495   121857917.980        2427.223          36.000  
 23 11 05 14 54 46.9960000  0 11G12G13G14G17G22G30G15G23G19G24G10
  23047842.922   121117313.993        3830.766          40.000  
  19779799.103   103943581.681       -2462.946          44.000  
  21496437.149   112964551.671       -2947.433          43.000  
  21777782.084   114443033.008        1147.415          37.000  
  20567205.544   108081399.415       -2160.309          45.000  
  24039153.454   126326628.536       -3288.740          33.000  
  18795524.191    98771085.033        -592.616          45.000  
  21123568.101   111005105.871         281.740          42.000  
  22511565.965   118299116.806        2835.919          40.000  
  19573874.166   102861404.362        1794.543          45.000  
  23188330.821   121855491.492        2426.265          36.000  
 23 11 05 14 54 47.9960000  0 11G12G13G14G17G22G30G15G23G19G24G10
  23047113.920   121113482.962        3830.826          40.000  
  19780267.622   103946044.833       -2463.464          44.000  
  21496997.790   112967499.112       -2947.832          43.000  
  21777563.861   114441885.708        1147.124          38.000  
  20567616.667   108083559.642       -2160.506          45.000  
  24039779.282   126329917.674       -3289.279          32.000  
  18795636.998    98771677.879        -593.378          45.000  
  21123514.607   111004824.482         280.892          42.000  
  22511026.326   118296280.831        2835.706          40.000  
  19573532.737   102859609.868        1794.128          45.000  
  23187869.138   121853065.269        2426.490          36.000  
 23 11 05 14 54 48.9960000  0 11G12G13G14G17G22G30G15G23G19G24G10
  23046385.061   121109651.887        3831.429          40.000  
  19780736.210   103948508.240       -2463.434          44.000  
  21497558.587   112970446.724       -2947.756          43.000  
  21777345.816   114440738.814        1146.914          38.000  
  20568027.681   108085720.196       -2160.743          45.000  
  24040405.601   126333206.624       -3288.813          32.000  
  18795749.772    98772271.216        -593.489          45.000  
  21123461.179   111004543.621         280.434          42.000  
  22510486.658   118293444.996        2835.986          40.000  
  19573191.345   102857815.601        1794.305          45.000  
  23187407.619   121850639.445        2425.607          36.000  
 23 11 05 14 54 49.9960000  0 11G12G13G14G17G22G30G15G23G19G24G10
  23045656.388   121105821.004        3830.256          40.000  
  19781205.207   103950972.125       -2464.453          44.000  
  21498119.498   112973394.726       -2948.464          43.000  
  21777127.592   114439592.503        1145.668          38.000  
  20568438.960   108087881.225       -2161.666          45.000  
  24041031.575   126336495.701       -3289.225          32.000  
  18795862.736    98772865.258        -594.712          45.000  
  21123408.161   111004263.476         279.429          42.000  
  22509947.137   118290609.463        2835.132          40.000  
  19572850.124   102856021.785        1793.127          45.000  
  23186945.841   121848214.086        2424.331          36.000  
 23 11 05 14 54 50.9960000  0 11G12G13G14G17G22G30G15G23G19G24G10
  23044927.527   121101990.487        3830.638          40.000  
  19781674.181   103953436.685       -2464.685          44.000  
  21498680.817   112976343.333       -2948.578          43.000  
  21776909.678   114438446.978        1145.607          38.000  
  20568850.515   108090042.974       -2161.974          45.000  
  24041657.480   126339785.051       -3288.358          32.000  
  18795976.150    98773460.216        -595.217          45.000  
  21123355.381   111003984.298         279.050          42.000  
  22509407.321   118287774.453        2835.461          40.000  
  19572509.059   102854228.618        1793.133          45.000  
  23186484.442   121845789.436        2424.985          35.000  
 23 11 05 14 54 51.9960000  0 11G12G13G14G17G22G30G15G23G19G24G10
  23044198.525   121098160.263        3830.089          40.000  
  19782143.276   103955901.803       -2465.234          44.000  
  21499242.119   112979292.416       -2949.229          43.000  
  21776692.196   114437302.146        1144.540          38.000  
  20569262.028   108092205.286       -2162.361          45.000  
  24042283.090   126343074.583       -3289.863          32.000  
  18796089.079    98774055.970        -596.027          45.000  
  21123302.720   111003705.986         278.011          43.000  
  22508867.952   118284939.915        2834.601          39.000  
  19572168.176   102852435.989        1792.511          45.000  
  23186023.305   121843365.380        2423.989          36.000  
 23 11 05 14 54 52.9960000  0 11G12G13G14G17G22G30G15G23G19G24G10
  23043469.937   121094330.056        3829.868          40.000  
  19782612.671   103958367.268       -2465.790          44.000  
  21499803.294   112982241.757       -2949.622          43.000  
  21776474.932   114436157.740        1144.055          39.000  
  20569673.310   108094367.968       -2162.876          45.000  
  24042908.737   126346364.073       -3289.630          31.000  
  18796202.440    98774652.295        -596.712          45.000  
  21123250.197   111003428.242         277.467          43.000  
  22508328.282   118282105.533        2833.978          39.000  
  19571827.057   102850643.666        1792.065          45.000  
  23185562.636   121840941.694        2423.185          37.000  
 23 11 05 14 54 53.9960000  0 11G12G13G14G17G22G30G15G23G19G24G10
  23042741.443   121090500.567        3829.644          40.000  
  19783081.882   103960833.757       -2466.479          44.000  
  21500364.811   112985192.048       -2950.476          43.000  
  21776257.217   114435014.502        1142.820          38.000  
  20570085.284   108096531.720       -2163.706          45.000  
  24043533.524   126349654.180       -3290.214          31.000  
  18796316.017    98775249.890        -597.804          44.000  
  21123197.535   111003151.812         276.421          42.000  
  22507789.241   118279272.035        2833.972          39.000  
  19571486.477   102848852.333        1791.687          45.000  
  23185101.737   121838519.117        2422.377          38.000  
 23 11 05 14 54 54.9960000  0 11G12G13G14G17G22G30G15G23G19G24G10
  23042012.370   121086670.499        3830.132          40.000  
  19783551.384   103963299.934       -2466.113          44.000  
  21500926.595   112988141.945       -2949.799          43.000  
  21776039.641   114433871.083        1142.928          38.000  
  20570497.039   108098695.177       -2163.373          45.000  
  24044159.710   126352943.567       -3289.172          31.000  
  18796429.522    98775847.404        -597.508          44.000  
  21123145.313   111002875.385         276.144          42.000  
  22507249.660   118276438.073        2833.997          39.000  
  19571145.408   102847060.690        1791.876          45.000  
  23184641.093   121836096.222        2422.782          37.000  
 23 11 05 14 54 55.9960000  0 11G12G13G14G17G22G30G15G23G19G24G10
  23041283.479   121082840.482        3829.642          40.000  
  19784020.867   103965766.465       -2466.724          44.000  
  21501488.197   112991092.103       -2950.387          43.000  
  21775821.919   114432728.119        1142.227          38.000  
  20570908.858   108100859.023       -2163.919          45.000  
  24044784.391   126356232.951       -3290.104          30.000  
  18796542.715    98776445.511        -598.602          44.000  
  21123093.058   111002599.548         275.431          42.000  
  22506710.392   118273604.310        2834.204          39.000  
  19570804.125   102845269.377        1791.058          45.000  
  23184180.169   121833673.702        2422.559          37.000  
 23 11 05 14 54 56.9960000  0 11G12G13G14G17G22G30G15G23G19G24G10
  23040554.536   121079010.676        3829.472          40.000  
  19784490.345   103968233.533       -2467.664          44.000  
  21502049.689   112994042.714       -2951.070          43.000  
  21775604.624   114431585.812        1141.730          38.000  
  20571320.569   108103023.423       -2164.928          45.000  
  24045416.931   126359522.520       -3290.177          29.000  
  18796656.916    98777044.386        -599.457          44.000  
  21123040.684   111002324.515         274.567          43.000  
  22506171.204   118270771.000        2832.849          39.000  
  19570463.359   102843478.553        1790.222          45.000  
  23183720.312   121831251.807        2421.326          38.000  
 23 11 05 14 54 57.9960000  0 11G12G13G14G17G22G30G15G23G19G24G10
  23039826.122   121075181.545        3829.467          40.000  
  19784959.772   103970701.605       -2468.414          44.000  
  21502611.422   112996994.239       -2951.855          43.000  
  21775387.526   114430444.610        1140.742          38.000  
  20571732.693   108105188.847       -2165.708          45.000  
  24046033.277   126362812.542       -3290.747          30.000  
  18796771.145    98777644.486        -600.285          44.000  
  21122988.647   111002050.752         273.453          43.000  
  22505632.328   118267938.525        2831.799          40.000  
  19570123.015   102841688.694        1789.575          45.000  
  23183260.337   121828830.977        2419.850          38.000  
 23 11 05 14 54 58.9960000  0 12G05G12G13G14G17G22G30G15G23G19G24G10
  23741176.125                       -3912.051          25.000  
  23039097.257   121071352.442        3829.104          40.000  
  19785429.638   103973169.898       -2468.188          44.000  
  21503173.389   112999945.908       -2951.520          43.000  
  21775170.408   114429303.748        1140.900          38.000  
  20572144.905   108107354.540       -2165.706          45.000  
  24046657.571   126366102.525       -3290.006          30.000  
  18796885.252    98778245.082        -600.656          44.000  
  21122936.525   111001777.526         273.044          42.000  
  22505093.400   118265106.089        2832.581          40.000  
  19569782.633   102839899.059        1789.795          45.000  
  23182800.042   121826410.329        2421.323          37.000  
 23 11 05 14 54 59.9960000  0 12G05G12G13G14G17G22G30G15G23G19G24G10
  23741923.442                       -3911.055          26.000  
  23038368.632   121067522.759        3829.809          40.000  
  19785899.514   103975638.004       -2468.390          44.000  
  21503734.799   113002897.300       -2951.217          43.000  
  21774953.480   114428162.845        1141.000          38.000  
  20572557.321   108109520.034       -2165.525          45.000  
  24047276.596   126369391.844       -3288.717          29.000  
  18796999.402    98778845.684        -600.566          44.000  
  21122884.087   111001504.357         273.145          42.000  
  22504553.944   118262273.342        2832.782          40.000  
  19569442.232   102838109.193        1789.862          45.000  
  23182339.479   121823989.612        2420.289          37.000  
 23 11 05 14 55 00.9960000  0 12G05G12G13G14G17G22G30G15G23G19G24G10
  23742663.826   124768539.9963      -3911.617          27.000  
  23037640.059   121063692.950        3829.890          41.000  
  19786369.210   103978106.241       -2468.603          44.000  
  21504296.446   113005848.758       -2951.624          43.000  
  21774736.602   114427022.184        1140.138          38.000  
  20572969.325   108111685.696       -2165.743          45.000  
  24047902.188   126372680.985       -3289.439          29.000  
  18797113.808    98779446.681        -601.362          44.000  
  21122832.138   111001231.621         272.195          42.000  
  22504015.075   118259440.598        2832.141          40.000  
  19569101.843   102836319.432        1789.551          45.000  
  23181878.998   121821568.959        2420.192          37.000  
 23 11 05 14 55 01.9960000  0 12G05G12G13G14G17G22G30G15G23G19G24G10
  23743409.707                       -3910.283          26.000  
  23036911.044   121059863.232        3830.108          41.000  
  19786839.454   103980574.856       -2468.496          44.000  
  21504857.865   113008800.515       -2951.443          43.000  
  21774519.690   114425882.018        1140.514          38.000  
  20573381.728   108113851.790       -2165.779          45.000  
  24048524.566   126375970.080       -3289.048          29.000  
  18797228.305    98780048.288        -601.604          44.000  
  21122780.335   111000959.515         272.188          42.000  
  22503476.260   118256608.091        2832.520          40.000  
  19568761.437   102834530.044        1789.447          45.000  
  23181418.801   121819148.760        2420.656          37.000  
 23 11 05 14 55 02.9960000  0 12G05G12G13G14G17G22G30G15G23G19G24G10
  23744146.700                       -3910.110          26.000  
  23036182.102   121056033.237        3830.010          40.000  
  19787309.478   103983043.499       -2468.710          44.000  
  21505419.513   113011752.199       -2951.689          43.000  
  21774302.799   114424742.015        1140.132          38.000  
  20573794.173   108116017.926       -2165.944          45.000  
  24049156.124   126379258.848       -3289.104          28.000  
  18797342.657    98780650.149        -602.020          44.000  
  21122728.872   111000687.713         271.579          42.000  
  22502937.070   118253775.444        2832.788          39.000  
  19568421.019   102832740.623        1789.697          45.000  
  23180958.237   121816728.597        2420.306          38.000  
 23 11 05 14 55 03.9960000  0 12G05G12G13G14G17G22G30G15G23G19G24G10
  23744891.126   124780244.7743      -3910.715          27.000  
  23035453.556   121052203.400        3829.628          41.000  
  19787779.127   103985512.633       -2469.282          44.000  
  21505981.463   113014704.275       -2951.932          43.000  
  21774085.973   114423602.609        1138.937          38.000  
  20574206.757   108118184.570       -2166.751          45.000  
  24049782.929   126382547.640       -3288.966          29.000  
  18797457.429    98781252.727        -602.638          44.000  
  21122677.359   111000416.667         270.674          42.000  
  22502398.218   118250943.151        2832.245          40.000  
  19568080.349   102830951.691        1788.788          45.000  
  23180497.689   121814309.032        2419.257          37.000  
 23 11 05 14 55 04.9960000  0 12G05G12G13G14G17G22G30G15G23G19G24G10
  23745638.610   124784155.1592      -3910.546          27.000  
  23034725.144   121048373.652        3829.292          41.000  
  19788248.909   103987982.099       -2469.889          44.000  
  21506542.961   113017656.633       -2952.635          43.000  
  21773869.305   114422463.658        1138.582          38.000  
  20574618.977   108120351.547       -2167.132          45.000  
  24050419.989   126385836.373       -3288.017          29.000  
  18797572.251    98781855.903        -603.780          44.000  
  21122626.236   111000146.255         269.762          43.000  
  22501859.401   118248111.045        2831.653          40.000  
  19567740.074   102829163.042        1788.464          45.000  
  23180037.531   121811889.847        2418.491          37.000  
 23 11 05 14 55 05.9960000  0 12G05G12G13G14G17G22G30G15G23G19G24G10
  23746384.601                       -3910.878          27.000  
  23033996.310   121044543.674        3829.819          40.000  
  19788718.631   103990451.681       -2469.744          44.000  
  21507104.934   113020609.003       -2952.293          43.000  
  21773652.348   114421324.912        1138.568          38.000  
  20575031.310   108122518.703       -2167.236          45.000  
  24051045.677   126389097.4333      -3288.725          29.000  
  18797687.150    98782459.393        -603.582          44.000  
  21122574.612   110999876.200         269.788          42.000  
  22501320.155   118245278.911        2831.848          39.000  
  19567399.926   102827374.498        1788.422          45.000  
  23179577.532   121809470.777        2419.009          38.000  
 23 11 05 14 55 06.9960000  0 12G05G12G13G14G17G22G30G15G23G19G24G10
  23747130.543                       -3910.779          27.000  
  23033267.617   121040714.033        3829.947          41.000  
  19789188.790   103992921.901       -2470.716          44.000  
  21507666.746   113023561.936       -2953.255          43.000  
  21773435.992   114420186.962        1137.421          38.000  
  20575443.635   108124686.506       -2168.155          45.000  
  24051677.700   126392386.2552      -3290.009          31.000  
  18797802.193    98783063.789        -604.898          44.000  
  21122523.223   110999607.088         268.497          42.000  
  22500780.978   118242447.270        2831.366          39.000  
  19567060.022   102825586.566        1787.604          45.000  
  23179117.302   121807052.404        2417.969          38.000  
 23 11 05 14 55 07.9960000  0 12G05G12G13G14G17G22G30G15G23G19G24G10
  23747875.717   124795928.6693      -3910.167          27.000  
  23032538.817   121036884.634        3829.096          41.000  
  19789658.884   103995392.618       -2471.273          44.000  
  21508228.915   113026515.297       -2953.610          43.000  
  21773219.742   114419049.622        1137.174          38.000  
  20575855.848   108126854.862       -2168.996          44.000  
  24052303.916   126395675.2152      -3290.796          31.000  
  18797917.277    98783668.904        -605.628          44.000  
  21122471.902   110999338.746         267.576          42.000  
  22500242.266   118239615.997        2830.859          39.000  
  19566719.936   102823799.117        1786.957          45.000  
  23178657.295   121804634.567        2417.728          38.000  
 23 11 05 14 55 08.9960000  0 12G05G12G13G14G17G22G30G15G23G19G24G10
  23748622.635   124799839.1132      -3911.272          26.000  
  23031810.031   121033055.595        3829.153          41.000  
  19790129.510   103997863.978       -2471.850          44.000  
  21508791.120   113029469.197       -2954.168          43.000  
  21773003.268   114417913.041        1136.126          38.000  
  20576268.771   108129023.845       -2169.373          45.000  
  24052925.812   126398964.2202      -3289.083          30.000  
  18798032.743    98784274.902        -606.437          44.000  
  21122420.786   110999071.309         267.022          42.000  
  22499703.545   118236785.221        2830.621          39.000  
  19566379.723   102822012.270        1786.438          45.000  
  23178197.209   121802217.401        2417.280          37.000  
 23 11 05 14 55 09.9960000  0 12G05G12G13G14G17G22G30G15G23G19G24G10
  23749368.522   124803749.1932      -3909.191          26.000  
  23031081.146   121029226.491        3829.150          41.000  
  19790599.817   104000335.563       -2471.829          44.000  
  21509353.074   113032423.269       -2954.361          43.000  
  21772787.114   114416776.830        1135.942          38.000  
  20576681.525   108131193.112       -2169.551          45.000  
  24053550.307   126402253.2312      -3289.108          31.000  
  18798148.082    98784881.380        -606.868          44.000  
  21122369.714   110998804.375         266.881          42.000  
  22499164.988   118233954.548        2830.346          39.000  
  19566039.705   102820225.639        1786.389          45.000  
  23177737.080   121799800.531        2416.836          37.000  
 23 11 05 14 55 10.9960000  0 12G05G12G13G14G17G22G30G15G23G19G24G10
  23750112.070   124807659.3632      -3910.996          26.000  
  23030353.055   121025397.352        3828.921          41.000  
  19791070.159   104002807.440       -2472.257          44.000  
  21509915.248   113035377.528       -2954.958          43.000  
  21772571.024   114415640.987        1135.664          38.000  
  20577094.543   108133362.691       -2170.103          45.000  
  24054177.193   126405542.1172      -3289.552          31.000  
  18798263.708    98785488.344        -607.329          44.000  
  21122319.006   110998538.025         265.881          42.000  
  22498626.594   118231123.973        2829.883          40.000  
  19565699.526   102818439.268        1785.986          45.000  
  23177277.013   121797383.984        2416.238          38.000  
 23 11 05 14 55 11.9960000  0 12G05G12G13G14G17G22G30G15G23G19G24G10
  23750853.163   124811569.2492      -3909.689          27.000  
  23029624.496   121021568.345        3828.798          41.000  
  19791540.565   104005279.742       -2472.614          44.000  
  21510477.409   113038332.121       -2954.794          43.000  
  21772355.043   114414505.712        1135.222          39.000  
  20577507.645   108135532.691       -2170.028          45.000  
  24054804.988   126408830.9832      -3288.380          31.000  
  18798379.546    98786096.006        -608.017          44.000  
  21122268.509   110998272.363         265.421          42.000  
  22498087.751   118228293.733        2830.206          40.000  
  19565359.402   102816653.311        1785.516          45.000  
  23176816.901   121794967.899        2415.757          38.000  
 23 11 05 14 55 12.9960000  0 12G05G12G13G14G17G22G30G15G23G19G24G10
  23751593.944   124815479.5172      -3909.905          27.000  
  23028896.326   121017739.737        3828.595          41.000  
  19792011.276   104007752.730       -2473.101          44.000  
  21511039.701   113041287.339       -2955.313          43.000  
  21772139.615   114413371.280        1134.021          39.000  
  20577920.778   108137703.437       -2170.997          45.000  
  24055429.477   126412119.7131      -3289.217          31.000  
  18798494.980    98786704.605        -608.867          44.000  
  21122217.995   110998007.686         264.427          42.000  
  22497549.527   118225464.002        2829.883          40.000  
  19565019.764   102814868.007        1785.138          45.000  
  23176357.607   121792552.513        2415.304          38.000  
 23 11 05 14 55 13.9960000  0 12G05G12G13G14G17G22G30G15G23G19G24G10
  23752336.783   124819389.8112      -3911.218          26.000  
  23028167.911   121013911.244        3828.505          41.000  
  19792482.135   104010226.140       -2473.376          45.000  
  21511601.818   113044242.887       -2955.537          43.000  
  21771923.774   114412237.364        1133.706          38.000  
  20578333.912   108139874.611       -2171.229          44.000  
  24056056.040   126415408.984       -3289.556          31.000  
  18798610.945    98787313.833        -609.469          44.000  
  21122167.695   110997743.692         263.780          42.000  
  22497011.504   118222634.606        2829.309          40.000  
  19564680.176   102813083.110        1784.747          45.000  
  23175898.187   121790137.620        2414.633          38.000  
 23 11 05 14 55 14.9960000  0 12G05G12G13G14G17G22G30G15G23G19G24G10
  23753077.483   124823264.5863      -3909.890          26.000  
  23027439.307   121010082.647        3828.412          41.000  
  19792952.776   104012699.732       -2473.796          44.000  
  21512164.443   113047198.539       -2955.714          43.000  
  21771708.183   114411103.760        1133.012          39.000  
  20578746.976   108142046.006       -2171.748          44.000  
  24056681.796   126418698.012       -3289.255          32.000  
  18798727.316    98787923.488        -610.081          44.000  
  21122117.445   110997480.147         263.161          42.000  
  22496473.654   118219805.205        2829.236          40.000  
  19564340.501   102811298.353        1784.558          45.000  
  23175439.167   121787722.968        2414.139          38.000  
 23 11 05 14 55 15.9960000  0 12G05G12G13G14G17G22G30G15G23G19G24G10
  23753819.717   124827174.4432      -3908.078          25.000  
  23026710.789   121006254.304        3828.137          41.000  
  19793423.598   104015173.883       -2474.122          44.000  
  21512726.735   113050154.655       -2956.052          43.000  
  21771492.692   114409970.866        1132.705          39.000  
  20579160.272   108144217.957       -2171.982          45.000  
  24057307.878   126421987.261       -3289.396          32.000  
  18798843.650    98788533.946        -610.809          44.000  
  21122067.190   110997217.437         262.746          42.000  
  22495935.517   118216976.248        2829.047          40.000  
  19564000.769   102809514.122        1784.082          45.000  
  23174979.945   121785308.851        2414.147          38.000  
 23 11 05 14 55 16.9960000  0 12G05G12G13G14G17G22G30G15G23G19G24G10
  23754558.093   124831084.3702      -3909.235          26.000  
  23025981.878   121002425.977        3827.878          41.000  
  19793894.724   104017648.350       -2474.662          45.000  
  21513289.407   113053111.006       -2956.622          43.000  
  21771277.001   114408838.339        1132.674          38.000  
  20579573.574   108146390.247       -2172.476          45.000  
  24057933.490   126425276.385       -3289.876          33.000  
  18798959.843    98789144.938        -611.423          44.000  
  21122017.363   110996955.331         261.365          41.000  
  22495397.134   118214147.450        2828.833          40.000  
  19563661.426   102807730.187        1783.472          45.000  
  23174520.533   121782895.144        2413.353          38.000  
 23 11 05 14 55 17.9960000  0 12G05G12G13G14G17G22G30G15G23G19G24G10
  23755298.377   124834994.2342      -3909.984          26.000  
  23025253.362   120998597.746        3828.371          41.000  
  19794365.552   104020123.220       -2475.095          45.000  
  21513851.849   113056067.680       -2956.727          43.000  
  21771061.122   114407706.405        1131.832          38.000  
  20579987.152   108148562.992       -2172.900          45.000  
  24058558.956   126428565.545       -3288.915          32.000  
  18799076.220    98789756.568        -612.028          44.000  
  21121967.737   110996693.864         261.262          41.000  
  22494858.730   118211318.888        2828.412          40.000  
  19563321.967   102805946.607        1783.465          45.000  
  23174061.521   121780481.828        2413.430          38.000  
 23 11 05 14 55 18.9960000  0 12G05G12G13G14G17G22G30G15G23G19G24G10
  23756043.242   124838903.9242      -3909.486          27.000  
  23024524.800   120994769.650        3828.246          41.000  
  19794836.523   104022598.500       -2475.327          44.000  
  21514414.743   113059024.671       -2956.918          43.000  
  21770845.472   114406574.919        1131.412          38.000  
  20580400.494   108150736.167       -2173.451          45.000  
  24059184.337   126431854.713       -3289.715          32.000  
  18799192.916    98790368.845        -612.377          44.000  
  21121917.758   110996433.135         260.660          41.000  
  22494320.715   118208490.630        2828.094          41.000  
  19562982.163   102804163.456        1783.069          45.000  
  23173602.216   121778068.999        2412.806          38.000  
 23 11 05 14 55 19.9960000  0 12G05G12G13G14G17G22G30G15G23G19G24G10
  23756782.692   124842813.5932      -3908.261          26.000  
  23023796.793   120990941.638        3827.925          41.000  
  19795307.511   104025074.174       -2476.190          44.000  
  21514978.018   113061981.961       -2957.384          43.000  
  21770629.735   114405443.979        1130.541          38.000  
  20580814.256   108152909.731       -2173.696          45.000  
  24059810.145   126435143.887       -3289.090          32.000  
  18799309.532    98790981.733        -613.058          44.000  
  21121867.990   110996173.035         259.746          41.000  
  22493782.747   118205662.603        2827.765          40.000  
  19562643.156   102802380.650        1782.574          45.000  
  23173143.161   121775656.498        2412.133          38.000  
 23 11 05 14 55 20.9960000  0 12G05G12G13G14G17G22G30G15G23G19G24G10
  23757526.510                       -3909.890          25.000  
  23023068.680   120987114.028        3827.054          41.000  
  19795778.653   104027550.531       -2477.317          44.000  
  21515540.766   113064939.863       -2958.715          43.000  
  21770414.554   114404313.884        1129.085          37.000  
  20581228.112   108155084.045       -2175.115          45.000  
  24060435.982   126438433.406       -3290.370          32.000  
  18799426.424    98791595.566        -614.377          44.000  
  21121818.571   110995913.922         258.386          41.000  
  22493244.731   118202835.150        2827.216          40.000  
  19562304.054   102800598.507        1781.458          45.000  
  23172684.520   121773244.786        2411.083          38.000  
 23 11 05 14 55 21.9960000  0 12G05G12G13G14G17G22G30G15G23G19G24G10
  23758266.958                       -3909.958          24.000  
  23022340.607   120983287.401        3827.197          41.000  
  19796250.309   104030028.169       -2477.688          44.000  
  21516103.802   113067898.978       -2959.401          42.000  
  21770199.404   114403185.178        1128.258          37.000  
  20581642.393   108157259.640       -2175.712          45.000  
  24061061.954   126441723.703       -3290.742          32.000  
  18799543.875    98792210.936        -615.475          45.000  
  21121769.071   110995656.360         257.248          41.000  
  22492706.839   118200008.832        2826.483          40.000  
  19561965.130   102798817.629        1780.969          45.000  
  23172225.374   121770834.378        2410.830          38.000  
 23 11 05 14 55 22.9960000  0 12G05G12G13G14G17G22G30G15G23G19G24G10
  23759007.933                       -3910.894          25.000  
  23021612.267   120979460.311        3827.420          41.000  
  19796721.727   104032505.603       -2477.196          44.000  
  21516666.624   113070857.787       -2958.492          43.000  
  21769984.426   114402056.364        1129.244          37.000  
  20582056.336   108159435.074       -2175.143          45.000  
  24061687.876   126445013.482       -3288.131          31.000  
  18799661.010    98792826.315        -615.249          44.000  
  21121720.090   110995398.877         257.465          41.000  
  22492169.019   118197182.172        2827.277          40.000  
  19561626.467   102797036.525        1781.421          45.000  
  23171766.619   121768423.833        2410.955          38.000  
 23 11 05 14 55 23.9960000  0 12G05G12G13G14G17G22G30G15G23G19G24G10
  23759750.534   124858330.9483      -3909.224          26.000  
  23020883.985   120975632.850        3827.777          41.000  
  19797192.909   104034983.003       -2477.251          44.000  
  21517229.925   113073816.488       -2958.550          43.000  
  21769769.647   114400927.666        1128.775          37.000  
  20582470.390   108161610.485       -2175.433          45.000  
  24062317.253   126448302.858       -3289.098          30.000  
  18799778.271    98793441.897        -615.639          44.000  
  21121670.985   110995141.615         257.233          41.000  
  22491631.552   118194355.360        2827.032          40.000  
  19561287.764   102795255.359        1781.189          45.000  
  23171307.684   121766013.290        2410.321          38.000  
 23 11 05 14 55 24.9960000  0 12G05G12G13G14G17G22G30G15G23G19G24G10
  23760490.238   124862240.1412      -3909.875          26.000  
  23020155.401   120971805.141        3827.348          41.000  
  19797664.132   104037460.406       -2477.305          44.000  
  21517792.989   113076775.123       -2958.481          43.000  
  21769554.939   114399799.091        1128.656          38.000  
  20582884.115   108163785.931       -2175.248          45.000  
  24062938.829   126451591.851       -3289.012          29.000  
  18799895.170    98794057.730        -615.678          44.000  
  21121622.105   110994884.668         257.014          40.000  
  22491093.649   118191528.397        2826.837          40.000  
  19560948.460   102793474.184        1781.305          45.000  
  23170849.051   121763602.760        2410.751          38.000  
 23 11 05 14 55 25.9960000  0 12G05G12G13G14G17G22G30G15G23G19G24G10
  23761231.052   124866149.0052      -3908.980          25.000  
  23019426.484   120967977.359        3827.807          41.000  
  19798135.582   104039938.073       -2477.740          44.000  
  21518355.957   113079733.914       -2958.853          43.000  
  21769340.134   114398670.914        1127.761          38.000  
  20583297.954   108165961.679       -2176.041          45.000  
  24063562.640   126454880.640       -3288.861          29.000  
  18800012.261    98794674.051        -616.374          44.000  
  21121573.170   110994628.254         255.891          41.000  
  22490556.080   118188701.552        2826.862          40.000  
  19560609.592   102791693.237        1780.884          45.000  
  23170390.137   121761192.593        2410.220          38.000  
 23 11 05 14 55 26.9960000  0 12G05G12G13G14G17G22G30G15G23G19G24G10
  23761974.062                       -3908.932          23.000  
  23018698.234   120964149.834        3827.185          42.000  
  19798607.109   104042416.274       -2478.458          44.000  
  21518919.307   113082693.180       -2959.553          43.000  
  21769125.546   114397543.369        1127.078          37.000  
  20583712.357   108168137.978       -2176.540          45.000  
  24064183.183   126458169.655       -3289.352          28.000  
  18800129.782    98795291.165        -617.427          44.000  
  21121524.148   110994372.621         255.140          41.000  
  22490018.284   118185875.111        2826.715          41.000  
  19560270.716   102789912.808        1780.145          45.000  
  23169931.567   121758782.961        2409.144          38.000  
 23 11 05 14 55 27.9960000  0 12G05G12G13G14G17G22G30G15G23G19G24G10
  23762715.503                       -3907.405          24.000  
  23017970.307   120960322.467        3827.611          42.000  
  19799078.987   104044894.959       -2478.532          44.000  
  21519482.681   113085652.824       -2959.277          43.000  
  21768910.854   114396416.424        1127.114          37.000  
  20584126.711   108170314.770       -2176.531          45.000  
  24064816.490   126461458.758       -3289.093          28.000  
  18800247.442    98795908.993        -617.642          44.000  
  21121475.525   110994117.766         254.957          41.000  
  22489480.392   118183049.026        2826.105          40.000  
  19559932.070   102788132.826        1780.225          45.000  
  23169473.025   121756373.857        2410.339          36.000  
 23 11 05 14 55 28.9960000  0 12G05G12G13G14G17G22G30G15G23G19G24G10
  23763461.179                       -3908.447          24.000  
  23017241.884   120956495.085        3827.627          42.000  
  19799550.525   104047373.898       -2479.207          44.000  
  21520045.708   113088612.631       -2959.940          43.000  
  21768696.467   114395289.858        1126.386          37.000  
  20584540.750   108172491.858       -2177.327          45.000  
  24065440.185   126464747.676       -3288.970          28.000  
  18800365.124    98796527.302        -618.694          44.000  
  21121427.020   110993863.421         253.947          41.000  
  22488942.338   118180223.001        2826.282          40.000  
  19559593.385   102786353.082        1779.376          45.000  
  23169014.143   121753965.062        2408.342          38.000  
 23 11 05 14 55 29.9960000  0 12G05G12G13G14G17G22G30G15G23G19G24G10
  23764205.758                       -3909.903          24.000  
  23016513.837   120952668.097        3827.170          42.000  
  19800022.625   104049853.491       -2479.719          44.000  
  21520609.090   113091573.031       -2960.210          43.000  
  21768482.220   114394164.107        1125.398          37.000  
  20584955.099   108174669.616       -2177.892          45.000  
  24066055.406   126468036.775       -3289.558          27.000  
  18800482.679    98797146.506        -619.129          44.000  
  21121378.633   110993610.019         253.345          41.000  
  22488404.671   118177397.538        2825.720          40.000  
  19559254.908   102784573.961        1779.120          45.000  
  23168556.165   121751556.975        2408.130          38.000  
 23 11 05 14 55 30.9960000  0 12G05G12G13G14G17G22G30G15G23G19G24G10
  23764949.748                       -3908.675          23.000  
  23015785.481   120948841.267        3825.672          42.000  
  19800494.461   104052333.553       -2480.963          44.000  
  21521172.366   113094533.812       -2961.738          43.000  
  21768268.335   114393038.892        1124.464          38.000  
  20585369.681   108176847.860       -2178.824          45.000  
  24066676.324   126471326.265       -3290.810          27.000  
  18800600.885    98797766.435        -620.929          44.000  
  21121330.697   110993357.373         251.553          41.000  
  22487866.905   118174572.405        2824.066          40.000  
  19558916.494   102782795.297        1777.625          45.000  
  23168097.769   121749149.400        2406.519          38.000  
 23 11 05 14 55 31.9960000  0 12G05G12G13G14G17G22G30G15G23G19G24G10
  23765691.676                       -3911.118          23.000  
  23015057.272   120945014.643        3826.850          42.000  
  19800966.344   104054814.143       -2480.907          44.000  
  21521735.881   113097495.031       -2961.157          43.000  
  21768054.190   114391914.358        1124.554          38.000  
  20585784.189   108179026.676       -2179.053          45.000  
  24067298.998   126474615.619       -3290.025          27.000  
  18800719.320    98798387.112        -620.931          44.000  
  21121282.749   110993105.537         251.636          41.000  
  22487329.545   118171747.651        2824.615          40.000  
  19558578.090   102781017.133        1778.223          45.000  
  23167639.509   121746742.361        2407.075          39.000  
 23 11 05 14 55 32.9960000  0 12G05G12G13G14G17G22G30G15G23G19G24G10
  23766434.194                       -3917.592          23.000  
  23014328.795   120941188.258        3826.356          41.000  
  19801438.505   104057295.228       -2481.219          44.000  
  21522299.403   113100456.670       -2961.903          43.000  
  21767840.268   114390790.466        1123.924          38.000  
  20586199.070   108181206.008       -2179.528          45.000  
  24067921.619   126477905.025       -3288.429          26.000  
  18800837.545    98799008.529        -621.589          44.000  
  21121234.865   110992854.438         250.867          41.000  
  22486792.179   118168923.249        2824.255          40.000  
  19558239.846   102779239.451        1777.423          45.000  
  23167180.991   121744335.852        2406.375          38.000  
 23 11 05 14 55 33.9960000  0 12G05G12G13G14G17G22G30G15G23G19G24G10
  23767179.785                       -3910.371          25.000  
  23013600.513   120937362.107        3826.033          41.000  
  19801910.848   104059776.869       -2481.928          44.000  
  21522863.131   113103418.765       -2962.258          43.000  
  21767626.417   114389667.223        1122.851          37.000  
  20586613.737   108183385.895       -2179.957          45.000  
  24068548.344   126481194.799       -3289.704          27.000  
  18800956.001    98799630.737        -622.696          44.000  
  21121187.163   110992604.191         249.852          41.000  
  22486255.205   118166099.273        2823.272          41.000  
  19557901.526   102777462.286        1776.959          45.000  
  23166723.183   121741929.959        2405.160          38.000  
 23 11 05 14 55 34.9960000  0 12G05G12G13G14G17G22G30G15G23G19G24G10
  23767926.050   124901294.1553      -3909.111          26.000  
  23012872.535   120933536.155        3826.340          41.000  
  19802383.293   104062258.998       -2482.098          45.000  
  21523427.078   113106381.275       -2962.475          43.000  
  21767412.585   114388544.607        1122.417          38.000  
  20587028.715   108185566.333       -2180.553          44.000  
  24069176.189   126484484.643       -3289.791          27.000  
  18801074.556    98800253.688        -623.100          44.000  
  21121139.502   110992354.725         249.240          41.000  
  22485717.797   118163275.664        2823.395          40.000  
  19557563.164   102775685.599        1776.678          45.000  
  23166265.813   121739524.563        2405.311          39.000  
 23 11 05 14 55 35.9960000  0 12G05G12G13G14G17G22G30G15G23G19G24G10
  23768671.607   124905203.2892      -3909.082          26.000  
  23012144.192   120929710.303        3826.196          41.000  
  19802856.193   104064741.504       -2482.385          44.000  
  21523990.951   113109344.078       -2962.351          43.000  
  21767199.138   114387422.515        1121.858          38.000  
  20587443.709   108187747.154       -2180.688          44.000  
  24069803.174   126487774.340       -3289.503          27.000  
  18801193.270    98800877.245        -623.639          45.000  
  21121092.247   110992105.912         248.788          41.000  
  22485180.468   118160452.276        2823.627          40.000  
  19557224.824   102773909.260        1776.520          45.000  
  23165808.473   121737119.605        2405.394          39.000  
 23 11 05 14 55 36.9960000  0 12G05G12G13G14G17G22G30G15G23G19G24G10
  23769416.997   124909112.8162      -3910.422          27.000  
  23011416.217   120925884.940        3824.975          41.000  
  19803328.385   104067224.803       -2483.894          44.000  
  21524554.576   113112307.590       -2963.881          43.000  
  21766985.715   114386301.284        1120.964          38.000  
  20587858.872   108189928.791       -2181.971          44.000  
  24070431.155   126491064.561       -3290.700          27.000  
  18801312.112    98801501.816        -625.151          45.000  
  21121044.981   110991858.165         247.002          41.000  
  22484643.115   118157629.532        2822.095          40.000  
  19556886.628   102772133.682        1775.208          45.000  
  23165351.410   121734715.496        2403.641          39.000  
 23 11 05 14 55 37.9960000  0 12G05G12G13G14G17G22G30G15G23G19G24G10
  23770161.578   124913022.5152      -3909.698          26.000  
  23010688.556   120922059.923        3825.122          42.000  
  19803800.920   104069708.743       -2483.972          44.000  
  21525118.270   113115271.657       -2964.186          43.000  
  21766772.441   114385180.854        1120.194          37.000  
  20588273.805   108192111.103       -2182.204          44.000  
  24071057.567   126494354.940       -3289.791          27.000  
  18801431.247    98802127.281        -625.693          45.000  
  21120997.867   110991611.317         246.824          41.000  
  22484105.600   118154807.316        2821.958          40.000  
  19556548.615   102770358.725        1774.841          45.000  
  23164894.389   121732312.039        2403.212          39.000  
 23 11 05 14 55 38.9960000  0 12G05G12G13G14G17G22G30G15G23G19G24G10
  23770908.133                       -3938.164          25.000  
  23009960.465   120918234.900        3825.553          41.000  
  19804273.561   104072192.971       -2483.923          44.000  
  21525682.333   113118235.923       -2963.813          43.000  
  21766559.051   114384060.837        1120.208          38.000  
  20588689.229   108194293.744       -2182.433          45.000  
  24071694.299   126497645.405       -3289.803          29.000  
  18801550.367    98802753.251        -625.723          45.000  
  21120951.402   110991365.056         246.337          41.000  
  22483568.519   118151985.233        2822.315          40.000  
  19556211.016   102768584.031        1775.030          45.000  
  23164437.145   121729908.879        2403.669          39.000  
 23 11 05 14 55 39.9960000  0 12G05G12G13G14G17G22G30G15G23G19G24G10
  23771650.961                       -3905.972          24.000  
  23009232.287   120914409.614        3825.788          41.000  
  19804746.506   104074677.222       -2483.907          44.000  
  21526246.241   113121200.146       -2964.045          43.000  
  21766345.820   114382940.928        1120.123          38.000  
  20589104.553   108196476.419       -2182.413          45.000  
  24072324.536   126500935.401       -3290.750          30.000  
  18801669.547    98803379.502        -626.071          44.000  
  21120904.722   110991119.075         246.194          42.000  
  22483031.526   118149163.019        2822.640          41.000  
  19555873.152   102766809.334        1775.208          45.000  
  23163979.740   121727505.842        2403.491          39.000  
 23 11 05 14 55 40.9960000  0 12G05G12G13G14G17G22G30G15G23G19G24G10
  23772395.941                       -3907.038          23.000  
  23008504.323   120910584.263        3825.346          41.000  
  19805219.147   104077161.721       -2484.723          44.000  
  21526810.555   113124164.511       -2964.630          43.000  
  21766132.707   114381821.419        1119.133          38.000  
  20589519.943   108198659.364       -2183.396          45.000  
  24072952.482   126504225.187       -3289.820          30.000  
  18801788.588    98804006.232        -627.257          44.000  
  21120858.305   110990873.643         244.855          42.000  
  22482494.515   118146340.949        2822.021          41.000  
  19555535.856   102765034.863        1774.164          45.000  
  23163522.728   121725103.100        2402.699          40.000  
 23 11 05 14 55 41.9960000  0 12G05G12G13G14G17G22G30G15G23G19G24G10
  23773142.195                       -3915.777          23.000  
  23007776.221   120906758.766        3825.330          41.000  
  19805691.810   104079646.357       -2485.235          44.000  
  21527374.507   113127128.921       -2964.838          42.000  
  21765919.516   114380702.142        1118.789          38.000  
  20589935.382   108200842.454       -2183.378          45.000  
  24073579.839   126507514.758       -3289.652          31.000  
  18801907.810    98804633.317        -627.639          44.000  
  21120811.970   110990628.594         244.544          42.000  
  22481957.450   118143518.851        2821.607          40.000  
  19555198.092   102763260.499        1774.036          45.000  
  23163065.406   121722700.599        2401.859          40.000  
 23 11 05 14 55 42.9960000  0 12G05G12G13G14G17G22G30G15G23G19G24G10
  23773889.477                       -3905.478          23.000  
  23007048.076   120902933.226        3825.219          41.000  
  19806164.615   104082131.218       -2485.317          44.000  
  21527938.638   113130093.498       -2965.194          43.000  
  21765706.577   114379583.255        1118.160          38.000  
  20590350.859   108203025.839       -2183.998          44.000  
  24074206.911   126510804.212       -3290.575          31.000  
  18802026.941    98805260.887        -628.128          44.000  
  21120765.419   110990384.082         243.686          42.000  
  22481420.598   118140696.862        2821.387          41.000  
  19554860.487   102761486.364        1773.700          45.000  
  23162608.221   121720298.331        2401.786          40.000  
 23 11 05 14 55 43.9960000  0 12G05G12G13G14G17G22G30G15G23G19G24G10
  23774634.649                       -3906.527          23.000  
  23006319.931   120899107.886        3825.112          41.000  
  19806637.531   104084616.600       -2485.853          44.000  
  21528502.858   113133058.491       -2965.295          42.000  
  21765493.719   114378464.988        1117.997          38.000  
  20590766.292   108205209.739       -2184.161          44.000  
  24074838.877   126514093.776       -3289.872          32.000  
  18802146.080    98805889.203        -628.852          44.000  
  21120719.377   110990140.340         243.508          42.000  
  22480883.686   118137875.251        2821.818          41.000  
  19554522.989   102759712.715        1773.328          45.000  
  23162151.367   121717896.626        2401.067          40.000  
 23 11 05 14 55 44.9960000  0 12G05G12G13G14G17G22G30G15G23G19G24G10
  23775377.093                       -3910.942          23.000  
  23005592.270   120895282.678        3825.046          41.000  
  19807110.650   104087102.399       -2486.185          44.000  
  21529067.161   113136023.828       -2965.665          43.000  
  21765281.167   114377347.272        1117.218          38.000  
  20591182.156   108207394.090       -2184.638          44.000  
  24075464.293   126517383.331       -3289.587          32.000  
  18802265.686    98806518.169        -629.542          44.000  
  21120673.367   110989897.300         242.717          42.000  
  22480346.878   118135053.923        2821.166          41.000  
  19554185.299   102757939.461        1772.998          45.000  
  23161694.403   121715495.338        2401.144          40.000  
 23 11 05 14 55 45.9960000  0 12G05G12G13G14G17G22G30G15G23G19G24G10
  23776124.156                       -3905.276          22.000  
  23004864.087   120891457.802        3824.564          41.000  
  19807583.593   104089588.831       -2486.936          44.000  
  21529631.647   113138989.705       -2966.440          43.000  
  21765068.290   114376230.308        1116.398          38.000  
  20591597.842   108209579.090       -2185.479          44.000  
  24076091.890   126520673.227       -3290.618          32.000  
  18802385.192    98807148.014        -630.335          44.000  
  21120627.515   110989655.178         241.553          42.000  
  22479809.863   118132233.094        2820.488          41.000  
  19553847.834   102756166.814        1772.058          45.000  
  23161237.692   121713094.737        2400.081          40.000  
 23 11 05 14 55 46.9960000  0 12G05G12G13G14G17G22G30G15G23G19G24G10
  23776868.593                       -3908.866          22.000  
  23004136.607   120887633.064        3825.066          41.000  
  19808057.122   104092075.705       -2486.883          44.000  
  21530196.061   113141955.941       -2966.298          43.000  
  21764855.888   114375113.916        1116.114          38.000  
  20592013.749   108211764.561       -2185.763          44.000  
  24076714.830   126523963.101       -3289.306          32.000  
  18802505.158    98807778.522        -630.684          44.000  
  21120581.457   110989413.765         241.297          42.000  
  22479273.227   118129412.568        2820.846          41.000  
  19553510.841   102754394.584        1772.296          45.000  
  23160780.862   121710694.619        2400.128          41.000  
 23 11 05 14 55 47.9960000  0 12G05G12G13G14G17G22G30G15G23G19G24G10
  23777616.361                       -3922.416          18.000  
  23003409.042   120883808.432        3824.457          41.000  
  19808530.136   104094562.928       -2487.569          44.000  
  21530760.573   113144922.434       -2966.727          43.000  
  21764643.514   114373997.987        1115.769          39.000  
  20592429.513   108213950.373       -2185.876          44.000  
  24077340.108   126527252.946       -3289.610          32.000  
  18802625.385    98808409.616        -631.363          44.000  
  21120535.692   110989173.001         240.314          42.000  
  22478736.103   118126592.255        2820.005          41.000  
  19553173.415   102752622.673        1771.692          45.000  
  23160324.369   121708294.913        2399.457          41.000  
 23 11 05 14 55 48.9960000  0 12G05G12G13G14G17G22G30G15G23G19G24G10
  23778363.499                       -3907.104          17.000  
  23002681.063   120879984.096        3824.045          41.000  
  19809003.491   104097050.761       -2488.115          44.000  
  21531325.505   113147889.472       -2967.429          43.000  
  21764431.627   114372882.798        1115.191          39.000  
  20592845.618   108216136.861       -2186.803          44.000  
  24077967.539   126530543.042       -3290.037          33.000  
  18802745.469    98809041.566        -632.239          44.000  
  21120490.046   110988933.106         239.451          42.000  
  22478199.463   118123772.398        2819.973          41.000  
  19552836.151   102750851.370        1771.216          44.000  
  23159867.810   121705895.889        2398.634          41.000  
 23 11 05 14 55 49.9960000  0 11G12G13G14G17G22G30G15G23G19G24G10
  23001953.435   120876159.804        3824.143          41.000  
  19809477.107   104099538.933       -2488.111          44.000  
  21531889.899   113150856.760       -2967.322          43.000  
  21764219.531   114371768.102        1114.825          39.000  
  20593262.107   108218323.720       -2187.006          44.000  
  24078593.904   126533833.095       -3289.903          33.000  
  18802865.856    98809674.111        -632.615          44.000  
  21120444.791   110988693.835         238.967          42.000  
  22477662.925   118120952.788        2819.498          41.000  
  19552498.892   102749080.388        1770.996          44.000  
  23159411.389   121703497.222        2398.992          41.000  
 23 11 05 14 55 50.9960000  0 11G12G13G14G17G22G30G15G23G19G24G10
  23001225.708   120872335.625        3824.116          41.000  
  19809950.669   104102027.525       -2488.982          44.000  
  21532454.486   113153824.354       -2967.722          43.000  
  21764007.646   114370653.926        1113.663          39.000  
  20593677.972   108220510.992       -2187.649          44.000  
  24079220.051   126537123.115       -3289.633          33.000  
  18802986.164    98810307.302        -633.860          44.000  
  21120399.285   110988455.257         238.141          42.000  
  22477126.549   118118133.416        2819.048          41.000  
  19552161.961   102747309.785        1770.264          44.000  
  23158954.917   121701099.061        2397.546          41.000  
 23 11 05 14 55 51.9960000  0 11G12G13G14G17G22G30G15G23G19G24G10
  23000497.801   120868511.820        3823.903          41.000  
  19810424.355   104104516.772       -2489.449          44.000  
  21533019.231   113156792.536       -2968.073          43.000  
  21763796.055   114369540.516        1113.382          39.000  
  20594094.659   108222698.955       -2188.233          44.000  
  24079846.387   126540413.424       -3290.396          33.000  
  18803106.677    98810941.369        -634.201          44.000  
  21120354.002   110988217.589         237.475          42.000  
  22476590.511   118115314.584        2818.582          41.000  
  19551825.140   102745539.807        1769.928          44.000  
  23158498.742   121698701.575        2397.311          41.000  
 23 11 05 14 55 52.9960000  0 11G12G13G14G17G22G30G15G23G19G24G10
  22999769.649   120864687.875        3823.873          41.000  
  19810897.699   104107006.147       -2489.546          44.000  
  21533583.691   113159760.765       -2968.142          42.000  
  21763584.011   114368427.394        1112.751          38.000  
  20594511.388   108224887.057       -2188.006          44.000  
  24080472.420   126543703.498       -3290.617          33.000  
  18803227.287    98811575.817        -634.475          44.000  
  21120309.053   110987980.351         237.231          42.000  
  22476053.871   118112495.747        2818.828          40.000  
  19551488.462   102743769.960        1769.824          45.000  
  23158042.526   121696304.254        2397.518          41.000  
 23 11 05 14 55 53.9960000  0 11G12G13G14G17G22G30G15G23G19G24G10
  22999042.322   120860864.054        3823.183          41.000  
  19811371.208   104109495.945       -2490.173          43.000  
  21534148.160   113162729.320       -2968.671          42.000  
  21763371.950   114367314.796        1112.059          38.000  
  20594927.859   108227075.611       -2188.714          44.000  
  24081098.309   126546993.549       -3289.542          33.000  
  18803347.929    98812210.918        -635.498          44.000  
  21120264.055   110987743.806         236.047          42.000  
  22475517.523   118109677.186        2818.427          40.000  
  19551151.801   102742000.492        1769.177          45.000  
  23157586.281   121693907.395        2396.609          42.000  
 23 11 05 14 55 54.9960000  0 11G12G13G14G17G22G30G15G23G19G24G10
  22998314.968   120857040.525        3823.334          42.000  
  19811845.217   104111986.346       -2490.717          44.000  
  21534713.078   113165698.408       -2969.249          42.000  
  21763160.510   114366202.909        1111.659          38.000  
  20595344.230   108229264.798       -2189.362          44.000  
  24081730.960                       -3291.087          26.000  
  18803469.243    98812846.870        -636.257          44.000  
  21120219.378   110987508.148         235.434          42.000  
  22474981.413   118106859.109        2817.626          41.000  
  19550815.031   102740231.592        1768.921          44.000  
  23157130.593   121691511.158        2396.501          42.000  
 23 11 05 14 55 55.9960000  0 11G12G13G14G17G22G30G15G23G19G24G10
  22997587.447   120853216.882        3823.391          41.000  
  19812319.028   104114476.894       -2490.717          44.000  
  21535278.293   113168667.559       -2969.442          42.000  
  21762948.989   114365091.353        1110.667          38.000  
  20595760.738   108231454.157       -2189.622          44.000  
  24082366.809                       -3291.456          25.000  
  18803590.142    98813483.192        -636.701          44.000  
  21120175.046   110987272.924         234.606          42.000  
  22474444.627   118104040.991        2818.327          41.000  
  19550478.094   102738462.847        1768.597          44.000  
  23156675.009   121689115.152        2395.994          42.000  
 23 11 05 14 55 56.9960000  0 11G12G13G14G17G22G30G15G23G19G24G10
  22996859.557   120849393.425        3823.729          41.000  
  19812793.285   104116967.971       -2491.568          44.000  
  21535843.571   113171637.140       -2969.808          43.000  
  21762737.983   114363980.388        1110.615          39.000  
  20596177.054   108233644.066       -2190.152          44.000  
  24083001.860                       -3290.532          25.000  
  18803711.873    98814120.277        -637.332          44.000  
  21120130.602   110987038.480         233.879          42.000  
  22473908.790   118101223.353        2818.403          31.000  
  19550141.379   102736694.598        1768.024          44.000  
  23156219.432   121686719.760        2394.932          42.000  
 23 11 05 14 55 57.9960000  0 11G12G13G14G17G22G30G15G23G19G24G10
  22996131.804   120845570.163        3822.443          35.000  
  19813267.475   104119459.406       -2492.069          44.000  
  21536408.766   113174606.993       -2970.146          43.000  
  21762526.975   114362869.938        1110.134          39.000  
  20596593.923   108235834.338       -2190.570          44.000  
  24083610.098   126560224.8703      -3290.678          30.000  
  18803833.287    98814757.969        -637.899          44.000  
  21120085.866   110986804.660         233.392          42.000  
  22473371.343   118098405.982        2817.095          29.000  
  19549804.873   102734926.666        1767.987          45.000  
  23155763.816   121684324.699        2394.407          41.000  
 23 11 05 14 55 58.9960000  0 11G12G13G14G17G22G30G15G23G19G24G10
  22995404.043   120841663.6553       3820.540          29.000  
  19813742.062   104121951.057       -2491.870          44.000  
  21536973.891   113177576.977       -2970.195          43.000  
  21762315.644   114361759.813        1109.683          38.000  
  20597011.037   108238024.872       -2190.798          44.000  
  24084230.309   126563514.8782      -3292.343          30.000  
  18803954.466    98815396.095        -638.322          44.000  
  21120041.580   110986571.394         232.226          41.000  
  22472832.478   118095531.5583       2817.345          40.000  
  19549468.551   102733158.957        1767.487          45.000  
  23155308.463   121681929.809        2395.454          44.000  
 23 11 05 14 55 59.9960000  0 10G13G14G17G22G30G15G23G19G24G10
  19814216.532   104124443.344       -2492.631          44.000  
  21537539.228   113180547.525       -2970.662          43.000  
  21762104.734   114360650.470        1108.755          38.000  
  20597427.993   108240216.067       -2191.671          44.000  
  24084853.600   126566759.1243      -3289.940          29.000  
  18804076.087    98816035.125        -639.147          44.000  
  21119997.516   110986338.998         231.486          44.000  
  22472300.048   118092714.6532       2817.037          41.000  
  19549132.386   102731391.862        1767.248          45.000  
  23154852.107   121679535.851        2393.500          42.000  
 23 11 05 14 56 00.9960000  0 11G12G13G14G17G22G30G15G23G19G24G10
  22993945.148   120833997.1522       3823.524          42.000  
  19814690.933   104126936.094       -2492.910          44.000  
  21538104.676   113183518.438       -2970.729          43.000  
  21761894.001   114359541.700        1108.805          38.000  
  20597844.619   108242407.738       -2191.532          44.000  
  24085478.887   126570049.4472      -3290.494          28.000  
  18804197.901    98816674.863        -639.990          44.000  
  21119953.389   110986107.342         231.531          41.000  
  22471763.803   118089898.1312       2816.500          40.000  
  19548796.406   102729625.207        1766.766          44.000  
  23154397.036   121677142.225        2393.435          41.000  
 23 11 05 14 56 01.9960000  0 11G12G13G14G17G22G30G15G23G19G24G10
  22993218.157   120830174.3262       3822.709          41.000  
  19815165.043   104129429.185       -2493.167          44.000  
  21538669.935   113186489.636       -2971.022          43.000  
  21761683.174   114358433.425        1108.063          38.000  
  20598261.402   108244599.781       -2191.919          44.000  
  24086104.380   126573339.8002      -3291.204          28.000  
  18804319.751    98817315.171        -640.530          44.000  
  21119909.240   110985876.348         230.687          42.000  
  22471228.729   118087081.8182       2816.175          41.000  
  19548460.262   102727858.873        1766.357          44.000  
  23153941.605   121674749.013        2393.109          43.000  
 23 11 05 14 56 02.9960000  0 11G12G13G14G17G22G30G15G23G19G24G10
  22992494.269   120826352.0472       3821.560          41.000  
  19815639.248   104131923.148       -2494.775          44.000  
  21539235.243   113189461.600       -2972.649          43.000  
  21761472.600   114357326.111        1106.469          38.000  
  20598678.565   108246792.730       -2193.997          44.000  
  24086728.356   126576630.4842      -3291.601          28.000  
  18804441.896    98817956.571        -642.294          44.000  
  21119865.688   110985646.469         228.669          42.000  
  22470691.526   118084266.2202       2814.836          40.000  
  19548124.195   102726093.394        1764.551          44.000  
  23153486.479   121672356.749        2391.194          43.000  
 23 11 05 14 56 03.9960000  0 11G12G13G14G17G22G30G15G23G19G24G10
  22991767.481   120822530.5072       3822.346          41.000  
  19816113.713   104134418.161       -2494.479          44.000  
  21539801.034   113192434.531       -2972.540          43.000  
  21761262.077   114356219.994        1106.604          39.000  
  20599096.223   108248986.729       -2193.698          44.000  
  24087347.424   126579921.8682      -3290.575          27.000  
  18804564.440    98818599.276        -642.631          44.000  
  21119822.135   110985417.880         228.989          42.000  
  22470157.011   118081451.5602       2815.060          40.000  
  19547788.248   102724328.933        1764.722          44.000  
  23153031.729   121669965.538        2391.504          43.000  
 23 11 05 14 56 04.9960000  0 11G12G13G14G17G22G30G15G23G19G24G10
  22991040.010   120818708.9052       3821.403          41.000  
  19816588.538   104136913.384       -2495.730          44.000  
  21540366.894   113195407.581       -2973.522          43.000  
  21761051.832   114355114.202        1105.229          39.000  
  20599513.649   108251180.947       -2194.735          44.000  
  24087971.023   126583213.1632      -3291.831          27.000  
  18804686.633    98819242.415        -643.852          44.000  
  21119778.860   110985189.833         227.389          42.000  
  22469619.828   118078636.9592       2813.778          40.000  
  19547452.837   102722564.651        1763.684          44.000  
  23152576.407   121667574.589        2390.414          43.000  
 23 11 05 14 56 05.9960000  0 11G12G13G14G17G22G30G15G23G19G24G10
  22990312.530   120814887.1392       3822.661          41.000  
  19817062.989   104139408.706       -2494.536          44.000  
  21540932.222   113198380.652       -2972.458          43.000  
  21760841.827   114354008.660        1106.164          39.000  
  20599930.873   108253375.310       -2193.510          44.000  
  24088596.508   126586504.0422      -3289.966          27.000  
  18804808.922    98819885.901        -642.879          44.000  
  21119735.874   110984962.150         228.287          43.000  
  22469084.549   118075822.3092       2815.542          40.000  
  19547117.056   102720800.464        1764.801          44.000  
  23152121.294   121665183.793        2391.455          43.000  
 23 11 05 14 56 06.9960000  0 11G12G13G14G17G22G30G15G23G19G24G10
  22989585.290   120811064.3572       3823.144          41.000  
  19817537.389   104141903.332       -2494.629          44.000  
  21541497.629   113201352.916       -2972.163          42.000  
  21760631.482   114352902.522        1106.233          39.000  
  20600348.492   108255568.987       -2193.614          44.000  
  24089223.770   126589793.4071      -3289.489          26.000  
  18804931.599    98820528.920        -643.041          44.000  
  21119692.478   110984734.029         228.309          43.000  
  22468548.609   118073006.818        2815.759          41.000  
  19546781.241   102719035.528        1765.198          44.000  
  23151665.966   121662792.302        2391.627          43.000  
 23 11 05 14 56 07.9960000  0 11G12G13G14G17G22G30G15G23G19G24G10
  22988858.313   120807241.3342       3822.855          41.000  
  19818012.567   104144397.997       -2494.947          44.000  
  21542063.217   113204325.160       -2972.262          43.000  
  21760421.465   114351796.546        1105.777          39.000  
  20600765.668   108257762.746       -2194.072          43.000  
  24089849.432   126593082.921       -3289.481          26.000  
  18805053.936    98821172.215        -643.637          44.000  
  21119649.358   110984506.268         227.472          43.000  
  22468013.007   118070191.257        2815.780          41.000  
  19546445.528   102717270.632        1764.838          44.000  
  23151210.722   121660400.900        2391.067          43.000  
 23 11 05 14 56 08.9960000  0 11G12G13G14G17G22G30G15G23G19G24G10
  22988130.934   120803418.3182       3823.259          41.000  
  19818487.752   104146892.965       -2494.961          44.000  
  21542628.890   113207297.607       -2972.229          43.000  
  21760211.155   114350690.997        1105.678          39.000  
  20601183.016   108259956.809       -2193.653          43.000  
  24090478.202   126596372.322       -3288.724          27.000  
  18805176.777    98821816.067        -643.756          44.000  
  21119606.326   110984279.055         227.466          43.000  
  22467477.360   118067375.875        2815.767          40.000  
  19546109.779   102715506.028        1764.447          44.000  
  23150755.723   121658009.844        2391.411          43.000  
 23 11 05 14 56 09.9960000  0 11G12G13G14G17G22G30G15G23G19G24G10
  22987403.561   120799595.3702       3823.085          41.000  
  19818962.843   104149388.286       -2495.486          44.000  
  21543194.805   113210270.328       -2972.747          42.000  
  21760000.829   114349585.944        1105.097          39.000  
  20601600.613   108262151.278       -2194.649          43.000  
  24091104.423   126599661.805       -3289.960          26.000  
  18805299.566    98822460.508        -644.480          44.000  
  21119563.169   110984052.488         226.609          42.000  
  22466941.429   118064560.697        2815.107          40.000  
  19545774.124   102713741.749        1764.026          44.000  
  23150300.523   121655619.237        2390.433          43.000  
 23 11 05 14 56 10.9960000  0 11G12G13G14G17G22G30G15G23G19G24G10
  22986676.450   120795772.8602       3822.240          42.000  
  19819437.728   104151884.337       -2496.484          44.000  
  21543761.014   113213243.679       -2973.741          43.000  
  21759790.829   114348481.745        1103.895          39.000  
  20602018.015   108264346.458       -2195.486          43.000  
  24091734.838   126602951.504       -3290.346          28.000  
  18805422.496    98823105.912        -646.041          44.000  
  21119520.154   110983826.916         225.056          42.000  
  22466405.910   118061746.130        2814.438          40.000  
  19545438.761   102711978.159        1763.245          45.000  
  23149845.596   121653229.372        2389.536          43.000  
 23 11 05 14 56 11.9960000  0 11G12G13G14G17G22G30G15G23G19G24G10
  22985949.096   120791951.0182       3821.649          41.000  
  19819912.841   104154381.365       -2497.645          44.000  
  21544326.805   113216217.922       -2974.777          43.000  
  21759581.005   114347378.690        1102.070          39.000  
  20602435.787   108266542.688       -2196.808          43.000  
  24092363.048   126606241.756       -3289.457          27.000  
  18805545.819    98823752.531        -647.108          45.000  
  21119477.646   110983602.617         223.556          43.000  
  22465870.681   118058932.394        2813.431          40.000  
  19545103.416   102710215.543        1762.109          45.000  
  23149390.826   121650840.523        2388.473          43.000  
 23 11 05 14 56 12.9960000  0 11G12G13G14G17G22G30G15G23G19G24G10
  22985222.002   120788129.4972       3821.812          42.000  
  19820387.572   104156878.955       -2497.321          44.000  
  21544893.001   113219192.668       -2974.576          43.000  
  21759371.171   114346276.271        1102.860          39.000  
  20602853.492   108268739.490       -2196.778          43.000  
  24092993.152   126609532.308       -3289.625          27.000  
  18805669.139    98824399.978        -647.245          45.000  
  21119434.906   110983379.152         223.479          42.000  
  22465335.594   118056119.096        2813.622          40.000  
  19544768.496   102708453.468        1762.329          45.000  
  23148936.385   121648452.298        2388.435          43.000  
 23 11 05 14 56 13.9960000  0 11G12G13G14G17G22G30G15G23G19G24G10
  22984494.655   120784307.5282       3821.873          42.000  
  19820862.772   104159376.432       -2497.658          44.000  
  21545459.084   113222167.173       -2974.377          43.000  
  21759161.411   114345173.856        1102.811          39.000  
  20603271.582   108270936.170       -2196.588          43.000  
  24093624.392   126612822.357       -3290.264          26.000  
  18805792.491    98825047.504        -647.408          45.000  
  21119392.179   110983155.804         223.350          42.000  
  22464800.095   118053305.567        2813.438          40.000  
  19544433.360   102706691.264        1762.366          45.000  
  23148482.106   121646064.028        2388.409          44.000  
 23 11 05 14 56 14.9960000  0 12G05G12G13G14G17G22G30G15G23G19G24G10
  23797725.312                       -3900.203          23.000  
  22983767.391   120780485.3182       3822.230          42.000  
  19821338.195   104161873.931       -2497.547          44.000  
  21546025.188   113225141.660       -2974.760          43.000  
  21758951.609   114344071.651        1102.024          39.000  
  20603689.777   108273132.926       -2196.967          43.000  
  24094252.975   126616111.941       -3289.451          27.000  
  18805915.955    98825695.335        -648.041          45.000  
  21119349.829   110982932.808         222.823          42.000  
  22464264.600   118050491.908        2813.999          40.000  
  19544098.366   102704929.063        1762.067          45.000  
  23148027.493   121643675.823        2388.181          44.000  
 23 11 05 14 56 15.9960000  0 12G05G12G13G14G17G22G30G15G23G19G24G10
  23798455.503                       -3900.203          23.000  
  22983039.767   120776663.0762       3822.657          42.000  
  19821813.794   104164371.700       -2497.502          44.000  
  21546591.269   113228116.305       -2974.539          43.000  
  21758741.947   114342969.797        1102.275          39.000  
  20604107.936   108275329.981       -2197.086          43.000  
  24094883.366   126619401.517       -3289.512          27.000  
  18806039.291    98826343.665        -648.519          44.000  
  21119307.454   110982710.347         222.440          43.000  
  22463729.234   118047678.417        2813.731          40.000  
  19543763.161   102703167.124        1761.951          45.000  
  23147572.666   121641287.949        2387.655          43.000  
 23 11 05 14 56 16.9960000  0 11G12G13G14G17G22G30G15G23G19G24G10
  22982312.436   120772841.0042       3822.296          42.000  
  19822289.434   104166869.905       -2497.889          44.000  
  21547157.295   113231091.301       -2974.785          43.000  
  21758532.341   114341868.539        1101.191          39.000  
  20604526.124   108277527.462       -2197.432          43.000  
  24095509.595   126622691.089       -3289.127          27.000  
  18806162.782    98826992.645        -648.958          44.000  
  21119265.349   110982488.592         221.781          43.000  
  22463193.608   118044865.201        2813.516          40.000  
  19543428.208   102701405.561        1761.847          45.000  
  23147118.103   121638900.497        2387.615          43.000  
 23 11 05 14 56 17.9960000  0 11G12G13G14G17G22G30G15G23G19G24G10
  22981585.143   120769018.8932       3821.927          42.000  
  19822764.713   104169368.364       -2498.476          44.000  
  21547723.108   113234066.449       -2974.994          42.000  
  21758322.814   114340767.657        1100.715          39.000  
  20604944.576   108279725.232       -2197.777          43.000  
  24096135.858   126625980.509       -3288.796          27.000  
  18806286.188    98827642.120        -649.375          44.000  
  21119223.287   110982267.379         221.102          43.000  
  22462658.277   118042052.120        2813.005          40.000  
  19543093.251   102699644.239        1761.401          45.000  
  23146663.228   121636513.349        2387.292          43.000  
 23 11 05 14 56 18.9960000  0 12G05G12G13G14G17G22G30G15G23G19G24G10
  23800683.651                       -3904.798          25.000  
  22980858.087   120765196.3061       3821.675          41.000  
  19823240.218   104171867.130       -2499.058          44.000  
  21548288.935   113237041.863       -2975.892          42.000  
  21758113.388   114339667.215        1099.885          39.000  
  20605362.681   108281923.357       -2198.642          43.000  
  24096766.480                       -3289.740          26.000  
  18806409.711    98828292.188        -650.593          44.000  
  21119180.999   110982046.794         220.025          42.000  
  22462122.896   118039239.219        2812.582          40.000  
  19542758.124   102697883.242        1760.498          45.000  
  23146208.737   121634126.612        2386.448          43.000  
 23 11 05 14 56 19.9960000  0 12G05G12G13G14G17G22G30G15G23G19G24G10
  23801423.419   125077323.2723      -3906.229          26.000  
  22980131.191   120761374.484        3821.614          41.000  
  19823716.288   104174366.472       -2499.574          44.000  
  21548855.188   113240017.738       -2976.084          42.000  
  21757903.998   114338567.464        1099.693          38.000  
  20605781.292   108284122.053       -2199.042          43.000  
  24097394.372   126632661.9363      -3289.533          27.000  
  18806533.457    98828943.030        -651.100          44.000  
  21119139.050   110981827.025         219.424          42.000  
  22461587.654   118036426.775        2812.254          40.000  
  19542423.185   102696122.769        1760.376          45.000  
  23145754.041   121631740.506        2385.935          43.000  
 23 11 05 14 56 20.9960000  0 12G05G12G13G14G17G22G30G15G23G19G24G10
  23802171.047                       -3905.719          26.000  
  22979403.823   120757552.774        3822.019          41.000  
  19824192.492   104176866.209       -2499.703          45.000  
  21549421.716   113242993.912       -2975.979          43.000  
  21757694.923   114337468.237        1098.917          38.000  
  20606199.742   108286321.176       -2199.331          44.000  
  24098020.121   126635951.5852      -3289.850          27.000  
  18806657.561    98829594.525        -651.706          44.000  
  21119097.349   110981607.944         218.758          42.000  
  22461052.318   118033614.569        2812.282          40.000  
  19542088.245   102694362.673        1760.022          45.000  
  23145299.945   121629354.832        2385.724          43.000  
 23 11 05 14 56 21.9960000  0 12G05G12G13G14G17G22G30G15G23G19G24G10
  23802915.593   125085165.5413      -3905.896          26.000  
  22978676.818   120753731.327        3821.277          41.000  
  19824668.320   104179366.476       -2500.385          45.000  
  21549988.174   113245970.530       -2976.574          42.000  
  21757485.721   114336369.671        1098.408          39.000  
  20606618.466   108288520.846       -2199.825          44.000  
  24098650.019   126639241.3132      -3290.185          28.000  
  18806781.362    98830246.763        -652.490          44.000  
  21119055.948   110981389.667         217.985          42.000  
  22460517.294   118030802.775        2811.548          39.000  
  19541753.391   102692603.088        1759.833          45.000  
  23144845.971   121626969.721        2384.915          43.000  
 23 11 05 14 56 22.9960000  0 12G05G12G13G14G17G22G30G15G23G19G24G10
  23803658.719   125089070.9652      -3906.063          26.000  
  22977949.445   120749909.821        3821.031          41.000  
  19825144.591   104181866.994       -2500.864          45.000  
  21550554.515   113248947.322       -2977.133          42.000  
  21757276.898   114335271.477        1097.890          39.000  
  20607037.093   108290720.792       -2200.191          44.000  
  24099275.664   126642530.8212      -3289.917          29.000  
  18806905.400    98830899.485        -653.093          44.000  
  21119014.561   110981171.881         217.448          43.000  
  22459981.776   118027991.061        2811.799          39.000  
  19541418.342   102690843.729        1759.131          45.000  
  23144392.617   121624584.893        2384.542          43.000  
 23 11 05 14 56 23.9960000  0 12G05G12G13G14G17G22G30G15G23G19G24G10
  23804403.861   125092976.4242      -3904.954          26.000  
  22977222.175   120746088.551        3821.498          41.000  
  19825620.454   104184368.032       -2501.010          45.000  
  21551121.099   113251924.555       -2977.219          42.000  
  21757068.080   114334173.947        1097.342          39.000  
  20607455.968   108292921.298       -2200.494          44.000  
  24099903.855   126645820.5102      -3289.724          28.000  
  18807029.670    98831552.991        -653.748          44.000  
  21118973.313   110980954.953         216.792          43.000  
  22459446.721   118025179.800        2811.182          39.000  
  19541083.545   102689084.897        1758.868          45.000  
  23143938.822   121622200.665        2384.041          44.000  
 23 11 05 14 56 24.9960000  0 12G05G12G13G14G17G22G30G15G23G19G24G10
  23805144.075   125096881.9642      -3904.861          26.000  
  22976494.830   120742267.445        3821.268          41.000  
  19826096.553   104186869.534       -2501.723          45.000  
  21551687.898   113254902.147       -2977.504          42.000  
  21756859.376   114333076.975        1096.780          39.000  
  20607874.904   108295122.264       -2200.890          44.000  
  24100529.720   126649110.2142      -3289.395          28.000  
  18807154.334    98832207.186        -654.546          44.000  
  21118932.366   110980738.738         215.892          42.000  
  22458911.866   118022368.838        2810.830          39.000  
  19540748.978   102687326.492        1758.319          45.000  
  23143485.400   121619816.922        2383.710          44.000  
 23 11 05 14 56 25.9960000  0 12G05G12G13G14G17G22G30G15G23G19G24G10
  23805885.319   125100787.3942      -3905.834          25.000  
  22975767.810   120738446.395        3820.817          41.000  
  19826572.331   104189371.359       -2502.131          45.000  
  21552254.914   113257879.999       -2978.431          43.000  
  21756650.734   114331980.493        1095.980          39.000  
  20608293.633   108297323.624       -2201.862          44.000  
  24101157.552   126652399.9202      -3289.573          28.000  
  18807278.850    98832861.951        -655.340          44.000  
  21118891.521   110980523.127         214.939          42.000  
  22458376.958   118019558.080        2810.403          39.000  
  19540414.399   102685568.399        1757.684          45.000  
  23143031.882   121617433.572        2382.828          44.000  
 23 11 05 14 56 26.9960000  0 12G05G12G13G14G17G22G30G15G23G19G24G10
  23806629.831   125104692.9542      -3905.870          25.000  
  22975040.849   120734625.703        3820.529          41.000  
  19827048.237   104191873.840       -2502.633          44.000  
  21552821.690   113260858.411       -2978.499          43.000  
  21756442.398   114330884.782        1095.204          39.000  
  20608712.469   108299525.647       -2202.502          44.000  
  24101784.951   126655689.9392      -3290.280          27.000  
  18807403.641    98833517.605        -655.871          44.000  
  21118850.539   110980308.447         214.432          42.000  
  22457842.896   118016747.844        2810.156          40.000  
  19540079.985   102683810.939        1757.306          45.000  
  23142578.470   121615050.926        2382.495          43.000  
 23 11 05 14 56 27.9960000  0 12G05G12G13G14G17G22G30G15G23G19G24G10
  23807368.834   125108598.3902      -3904.773          24.000  
  22974314.161   120730805.271        3820.439          41.000  
  19827524.443   104194376.848       -2503.203          44.000  
  21553388.467   113263837.251       -2978.789          42.000  
  21756234.008   114329789.714        1094.509          39.000  
  20609131.612   108301728.176       -2202.751          44.000  
  24102403.895   126658980.0542      -3291.215          27.000  
  18807528.397    98834174.043        -656.789          44.000  
  21118809.998   110980094.584         213.639          42.000  
  22457308.688   118013938.002        2809.558          40.000  
  19539745.820   102682053.973        1756.744          45.000  
  23142125.146   121612668.856        2381.641          44.000  
 23 11 05 14 56 28.9960000  0 12G05G12G13G14G17G22G30G15G23G19G24G10
  23808111.657                       -3905.569          23.000  
  22973587.231   120726984.850        3819.971          41.000  
  19828000.666   104196880.160       -2503.654          44.000  
  21553955.418   113266816.318       -2979.318          42.000  
  21756025.766   114328695.082        1094.124          39.000  
  20609551.106   108303931.061       -2203.298          44.000  
  24103030.201   126662269.9812      -3289.888          27.000  
  18807653.417    98834831.001        -657.569          44.000  
  21118769.494   110979881.297         212.720          42.000  
  22456774.064   118011128.345        2809.304          40.000  
  19539411.574   102680297.292        1756.360          45.000  
  23141671.973   121610287.157        2381.041          44.000  
 23 11 05 14 56 29.9960000  0 11G12G13G14G17G22G30G15G23G19G24G10
  22972860.174   120723164.809        3819.714          42.000  
  19828477.255   104199384.157       -2504.164          44.000  
  21554522.657   113269795.992       -2980.067          42.000  
  21755817.670   114327601.245        1093.867          39.000  
  20609970.309   108306134.645       -2203.753          44.000  
  24103655.250   126665560.3582      -3290.213          26.000  
  18807778.402    98835488.889        -658.171          44.000  
  21118728.774   110979668.969         212.057          42.000  
  22456239.539   118008319.241        2809.102          40.000  
  19539077.507   102678541.291        1755.810          45.000  
  23141218.614   121607906.155        2380.977          44.000  
 23 11 05 14 56 30.9960000  0 11G12G13G14G17G22G30G15G23G19G24G10
  22972133.209   120719345.153        3819.559          42.000  
  19828953.808   104201888.819       -2505.182          44.000  
  21555089.676   113272776.226       -2980.749          42.000  
  21755609.877   114326508.254        1092.395          39.000  
  20610389.572   108308338.928       -2204.787          43.000  
  24104278.742   126668850.4831      -3290.602          26.000  
  18807904.152    98836147.690        -659.562          44.000  
  21118688.510   110979457.609         210.658          42.000  
  22455705.020   118005510.701        2807.981          39.000  
  19538743.660   102676785.926        1754.962          45.000  
  23140765.809   121605525.867        2379.760          44.000  
 23 11 05 14 56 31.9960000  0 11G12G13G14G17G22G30G15G23G19G24G10
  22971406.547   120715525.967        3819.458          42.000  
  19829430.539   104204394.221       -2505.242          44.000  
  21555656.906   113275757.127       -2980.637          42.000  
  21755402.189   114325416.100        1092.442          39.000  
  20610809.289   108310543.964       -2204.659          44.000  
  24104905.591   126672141.426       -3289.737          24.000  
  18808029.763    98836807.471        -659.645          44.000  
  21118648.137   110979247.257         210.374          42.000  
  22455170.382   118002702.736        2808.258          39.000  
  19538409.844   102675031.290        1754.877          45.000  
  23140312.967   121603146.361        2379.705          44.000  
 23 11 05 14 56 32.9960000  0 11G12G13G14G17G22G30G15G23G19G24G10
  22970679.785   120711706.061        3819.667          41.000  
  19829906.991   104206899.212       -2505.410          44.000  
  21556223.997   113278737.523       -2980.669          42.000  
  21755194.021   114324323.676        1091.821          38.000  
  20611229.008   108312748.627       -2205.212          44.000  
  24105535.984                       -3297.969          22.000  
  18808155.547    98837467.069        -660.115          44.000  
  21118608.435   110979036.769         209.924          42.000  
  22454636.087   117999894.222        2808.354          39.000  
  19538076.115   102673276.211        1754.675          45.000  
  23139860.189   121600766.472        2379.459          44.000  
 23 11 05 14 56 33.9960000  0 11G12G13G14G17G22G30G15G23G19G24G10
  22969952.553   120707886.189        3820.334          41.000  
  19830383.735   104209404.516       -2505.267          44.000  
  21556790.817   113281718.154       -2980.559          42.000  
  21754985.977   114323231.686        1092.288          38.000  
  20611648.653   108314953.610       -2204.788          44.000  
  24106155.332                       -3293.779          21.000  
  18808281.055    98838127.215        -660.066          44.000  
  21118568.513   110978826.873         209.897          42.000  
  22454101.630   117997085.930        2808.391          39.000  
  19537742.229   102671521.430        1754.919          45.000  
  23139407.480   121598386.975        2379.670          44.000  
 23 11 05 14 56 34.9960000  0 11G12G13G14G17G22G30G15G23G19G24G10
  22969225.558   120704066.454        3819.679          41.000  
  19830860.608   104211910.235       -2505.914          44.000  
  21557358.038   113284699.119       -2981.403          42.000  
  21754778.335   114322140.262        1090.865          38.000  
  20612068.305   108317159.029       -2205.716          44.000  
  24106775.137                       -3294.448          19.000  
  18808406.895    98838788.029        -661.242          44.000  
  21118528.834   110978617.681         208.623          42.000  
  22453567.440   117994277.905        2807.968          39.000  
  19537408.210   102669767.040        1754.181          45.000  
  23138954.789   121596007.964        2378.826          44.000  
 23 11 05 14 56 35.9960000  0 11G12G13G14G17G22G30G15G23G19G24G10
  22968498.649   120700247.201        3819.204          41.000  
  19831337.407   104214416.725       -2506.199          44.000  
  21557925.753   113287680.750       -2981.500          42.000  
  21754570.769   114321049.720        1090.106          38.000  
  20612488.035   108319365.249       -2206.197          44.000  
  24107392.378                       -3287.488          20.000  
  18808532.685    98839449.852        -661.976          44.000  
  21118489.043   110978409.531         208.079          42.000  
  22453033.195   117991470.527        2807.581          39.000  
  19537074.364   102668013.416        1753.601          45.000  
  23138502.206   121593629.776        2378.033          44.000  
 23 11 05 14 56 36.9960000  0 11G12G13G14G17G22G30G15G23G19G24G10
  22967771.455   120696428.297        3818.613          41.000  
  19831814.819   104216923.873       -2507.715          44.000  
  21558492.979   113290662.940       -2982.410          42.000  
  21754363.113   114319959.935        1089.310          38.000  
  20612908.232   108321572.146       -2207.548          44.000  
  24108007.282                       -3290.247          20.000  
  18808658.630    98840112.548        -663.285          44.000  
  21118449.708   110978202.327         206.410          42.000  
  22452499.002   117988663.671        2806.426          39.000  
  19536740.571   102666260.415        1752.551          45.000  
  23138050.084   121591252.251        2377.137          44.000  
 23 11 05 14 56 37.9960000  0 12G05G12G13G14G17G22G30G15G23G19G24G10
  23814788.006                       -3904.178          20.000  
  22967044.699   120692609.288        3819.101          41.000  
  19832292.344   104219431.155       -2507.217          45.000  
  21559060.569   113293645.198       -2981.910          42.000  
  21754155.665   114318870.438        1089.376          38.000  
  20613328.189   108323779.198       -2207.101          44.000  
  24108628.377                       -3298.259          21.000  
  18808784.577    98840775.642        -663.047          44.000  
  21118410.244   110977995.529         206.770          42.000  
  22451964.733   117985856.829        2806.748          39.000  
  19536406.782   102664507.543        1752.734          45.000  
  23137597.744   121588874.951        2377.335          44.000  
 23 11 05 14 56 38.9960000  0 12G05G12G13G14G17G22G30G15G23G19G24G10
  23815527.913                       -3904.178          22.000  
  22966317.811   120688790.122        3819.039          41.000  
  19832769.684   104221938.609       -2507.725          45.000  
  21559628.078   113296627.515       -2982.161          42.000  
  21753948.241   114317781.257        1088.867          38.000  
  20613748.052   108325986.433       -2207.244          44.000  
  24109250.329                       -3284.609          22.000  
  18808910.945    98841439.139        -663.692          44.000  
  21118370.885   110977789.177         206.065          42.000  
  22451430.757   117983050.012        2806.860          39.000  
  19536072.874   102662754.789        1753.021          45.000  
  23137145.596   121586497.874        2376.913          44.000  
 23 11 05 14 56 39.9960000  0 12G05G12G13G14G17G22G30G15G23G19G24G10
  23816268.231                       -3904.178          21.000  
  22965591.273   120684970.643        3819.278          41.000  
  19833246.873   104224446.017       -2507.805          45.000  
  21560195.472   113299609.730       -2982.690          42.000  
  21753740.825   114316692.113        1088.719          38.000  
  20614167.991   108328193.669       -2207.671          44.000  
  24109874.069                       -3279.632          22.000  
  18809037.223    98842102.836        -664.325          44.000  
  21118331.631   110977583.080         205.526          42.000  
  22450896.645   117980243.051        2806.474          39.000  
  19535739.247   102661002.011        1752.515          45.000  
  23136693.336   121584120.762        2376.594          44.000  
 23 11 05 14 56 40.9960000  0 12G05G12G13G14G17G22G30G15G23G19G24G10
  23817005.966                       -3904.178          21.000  
  22964864.775   120681151.886        3818.429          41.000  
  19833724.370   104226954.421       -2508.900          45.000  
  21560763.058   113302592.835       -2983.701          42.000  
  21753533.833   114315604.114        1087.460          38.000  
  20614588.341   108330401.909       -2208.855          44.000  
  24110500.879                       -3281.319          22.000  
  18809163.694    98842767.750        -665.597          44.000  
  21118292.926   110977378.226         204.007          42.000  
  22450362.662   117977436.945        2805.328          39.000  
  19535406.201   102659250.195        1751.270          45.000  
  23136241.057   121581744.704        2375.618          44.000  
 23 11 05 14 56 41.9960000  0 12G05G12G13G14G17G22G30G15G23G19G24G10
  23817747.052                       -3904.178          20.000  
  22964138.457   120677333.687        3818.549          42.000  
  19834202.260   104229463.673       -2509.043          45.000  
  21561330.761   113305576.714       -2983.647          42.000  
  21753326.494   114314517.140        1087.079          38.000  
  20615009.070   108332611.029       -2209.105          44.000  
  24111128.958                       -3287.401          24.000  
  18809290.494    98843433.772        -665.948          44.000  
  21118254.100   110977174.537         203.643          42.000  
  22449828.748   117974631.559        2805.455          39.000  
  19535073.011   102657499.226        1751.123          45.000  
  23135789.439   121579369.543        2375.294          44.000  
 23 11 05 14 56 42.9960000  0 10G12G13G14G17G22G15G23G19G24G10
  22963411.843   120673514.956        3819.437          42.000  
  19834679.691   104231972.716       -2508.647          45.000  
  21561898.631   113308560.262       -2983.071          42.000  
  21753119.563   114313430.038        1087.259          38.000  
  20615429.592   108334819.937       -2208.716          44.000  
  18809417.219    98844099.807        -665.815          44.000  
  21118215.107   110976970.891         204.011          42.000  
  22449294.693   117971825.827        2805.594          39.000  
  19534739.625   102655748.010        1751.349          45.000  
  23135337.505   121576994.221        2375.430          44.000  
 23 11 05 14 56 43.9960000  0 11G12G13G14G17G22G30G15G23G19G24G10
  22962684.830   120669696.025        3819.033          42.000  
  19835157.293   104234481.786       -2509.026          45.000  
  21562466.651   113311543.781       -2983.636          42.000  
  21752912.773   114312343.143        1086.220          38.000  
  20615849.675   108337028.891       -2209.018          44.000  
  24112401.367                       -3293.852          27.000  
  18809543.923    98844766.117        -666.553          44.000  
  21118176.634   110976767.547         203.168          42.000  
  22448760.919   117969019.986        2805.838          39.000  
  19534406.448   102653996.775        1751.251          45.000  
  23134884.970   121574618.939        2374.960          44.000  
 23 11 05 14 56 44.9960000  0 11G12G13G14G17G22G30G15G23G19G24G10
  22961957.751   120665877.504        3818.210          41.000  
  19835635.138   104236991.570       -2509.995          45.000  
  21563034.280   113314527.909       -2984.408          42.000  
  21752706.226   114311257.057        1085.447          39.000  
  20616270.278   108339238.605       -2210.138          44.000  
  24113021.659                       -3288.934          27.000  
  18809670.767    98845433.376        -667.822          44.000  
  21118138.595   110976565.212         201.906          42.000  
  22448227.176   117966214.731        2805.090          39.000  
  19534073.210   102652246.276        1750.085          45.000  
  23134433.171   121572244.485        2374.056          44.000  
 23 11 05 14 56 45.9960000  0 11G12G13G14G17G22G30G15G23G19G24G10
  22961231.033   120662059.047        3818.768          41.000  
  19836112.592   104239501.730       -2510.224          45.000  
  21563602.021   113317512.318       -2984.405          42.000  
  21752499.805   114310171.464        1085.487          38.000  
  20616690.723   108341448.706       -2210.309          44.000  
  24113638.788   126718074.1973      -3289.852          26.000  
  18809797.621    98846101.244        -668.041          44.000  
  21118100.379   110976363.525         201.582          42.000  
  22447693.387   117963409.740        2805.066          39.000  
  19533739.985   102650496.131        1750.110          45.000  
  23133981.710   121569870.462        2373.958          44.000  
