     2.11           OBSERVATION DATA    G (GPS)             RINEX VERSION / TYPE
teqc  2019Feb25                         20231105 17:58:01UTCPGM / RUN BY / DATE
VITY                                                        MARKER NAME
18328M001                                                   MARKER NUMBER
Automatic           TERIA                                   OBSERVER / AGENCY
3611625             SEPT POLARX5        4.14.0              REC # / TYPE / VERS
762-12035           TPSCR.G5        TPSH                    ANT # / TYPE
  4207852.8050   174564.2590  4774137.6750                  APPROX POSITION XYZ
        0.0000        0.0000        0.0000                  ANTENNA: DELTA H/E/N
     1     1                                                WAVELENGTH FACT L1/2
     9    C1    L1    D1    P2    L2    D2    P1    S1    S2# / TYPES OF OBSERV
    30.0000                                                 INTERVAL
    18                                                      LEAP SECONDS
Linux 2.6.32-573.12.1.x86_64|x86_64|gcc|Linux 64|=+         COMMENT
teqc  2019Feb25                         20231105 17:58:01UTCCOMMENT
     2.11           OBSERVATION DATA    M (MIXED)           COMMENT
teqc  2019Feb25     IGN-RGP             20231105 13:08:33UTCCOMMENT
teqc  2019Feb25     Administrateur RGP  20231105 13:08:33UTCCOMMENT
teqc  2019Feb25     IGN-RGP             20231105 13:08:32UTCCOMMENT
teqc_2019 edited: GLONASS # 25 - 30 excluded                COMMENT
GN-RINEX 1.3        IGN-RGP             05-NOV-23 11:59     COMMENT
Forced Modulo Decimation to 30 seconds                      COMMENT
teqc_2019 edited: GLONASS # 25 - 30 excluded                COMMENT
teqc_2019 edited: all GLONASS satellites excluded           COMMENT
teqc_2019 edited: all SBAS satellites excluded              COMMENT
teqc_2019 edited: all Galileo satellites excluded           COMMENT
  2023    11     5    12     0    0.0000000     GPS         TIME OF FIRST OBS
                                                            END OF HEADER
 23 11  5 12  0  0.0000000  0 11G30G05G20G13G07G14G22G15G11G18G09
  20699795.594   108778256.333 8      -885.039    20699802.188    84762348.510 9
      -689.640                          50.000          58.000
  20731403.340   108944230.763 8       549.714    20731407.951    84891622.669 9
       428.344                          50.000          52.000
  20751355.534   109049034.762 8     -1977.938    20751360.055    84973254.805 7
     -1541.252                          49.000          44.000
  21159415.241   111193521.111 8      1887.657    21159421.155    86644341.160 7
      1470.898                          50.000          42.000
  22176380.721   116537696.534 8     -2476.668    22176386.564    90808627.134 9
     -1929.872                          48.000          52.000
  22773589.021   119676115.770 7      2565.513    22773597.509    93254204.193 6
      1999.094                          44.000          35.000
  23643823.109   124249187.644 7      3019.568    23643833.652    96817611.007 4
      2352.904                          40.000          26.000
  24356151.410   127992431.650 6      3275.500    24356163.793    99734406.417 4
      2552.336                          38.000          24.000
  24680048.519   129694320.676 6     -3801.498    24680061.099   101060458.739 3
     -2962.193                          38.000          20.000
  24889532.043   130795347.538 6      1706.735    24889545.194   101918488.922 4
      1329.934                          36.000          22.000
  25080918.624   131800859.107 5     -3582.368    25080936.368   102701922.884 4
     -2791.443                          32.000          25.000
 23 11  5 12  0 30.0000000  0 11G30G05G20G13G07G14G22G15G11G18G09
  20704892.608   108805041.629 8      -900.103    20704899.541    84783220.116 9
      -701.375                          50.000          58.000
  20728321.220   108928034.193 8       530.587    20728326.045    84879001.953 9
       413.448                          49.000          56.000
  20762699.630   109108648.856 8     -1995.684    20762704.168    85019707.259 7
     -1555.075                          49.000          44.000
  21148666.559   111137037.633 8      1878.512    21148672.616    86600328.097 7
      1463.777                          50.000          41.000
  22190546.264   116612135.587 8     -2485.388    22190551.946    90866631.457 9
     -1936.660                          48.000          51.000
  22758973.715   119599313.805 8      2555.217    22758982.382    93194358.661 6
      1991.076                          45.000          35.000
  23626600.659   124158683.251 7      3014.497    23626611.451    96747088.279 4
      2348.951                          40.000          25.000
  24337457.589   127894194.988 6      3274.133    24337469.704    99657858.412 4
      2551.283                          38.000          23.000
  24701755.218   129808390.227 6     -3802.553    24701767.941   101149343.719 3
     -2963.014                          37.000          19.000
  24879835.578   130744389.388 6      1690.942    24879848.926   101878781.337 3
      1317.608                          33.000          20.000
  25101376.082   131908365.677 5     -3583.888    25101394.380   102785693.910 4
     -2792.626                          32.000          23.000
 23 11  5 12  1  0.0000000  0 11G30G05G20G13G07G14G22G15G11G18G09
  20710076.000   108832280.095 8      -916.693    20710082.773    84804444.835 9
      -714.306                          50.000          58.000
  20725348.672   108912413.261 8       509.946    20725353.461    84866829.785 9
       397.362                          49.000          56.000
  20774145.221   109168794.232 8     -2014.876    20774149.367    85066573.699 7
     -1570.031                          49.000          44.000
  21137970.465   111080829.779 8      1867.827    21137975.933    86556529.798 7
      1455.447                          49.000          40.000
  22204761.340   116686836.280 8     -2495.557    22204766.665    90924839.656 9
     -1944.586                          48.000          51.000
  22744417.770   119522820.995 7      2543.390    22744426.043    93134754.009 6
      1981.857                          44.000          35.000
  23609408.443   124068340.132 7      3007.585    23609419.236    96676691.224 4
      2343.571                          41.000          25.000
  24318773.417   127796008.036 6      3270.791    24318785.228    99581349.126 4
      2548.676                          36.000          22.000
  24723469.030   129922494.200 6     -3805.279    24723481.627   101238255.545 3
     -2965.141                          36.000          18.000
  24870230.460   130693912.582 6      1673.169    24870242.629   101839448.571 3
      1303.749                          34.000          19.000
  25121843.261   132015917.737 5     -3586.809    25121861.398   102869500.394 4
     -2794.895                          30.000          22.000
 23 11  5 12  1 30.0000000  0 11G30G05G20G13G07G14G22G15G11G18G09
  20715347.040   108859978.430 8      -930.583    20715353.438    84826027.901 9
      -725.126                          50.000          58.000
  20722487.306   108897376.924 8       491.721    20722491.934    84855113.147 9
       383.155                          50.000          56.000
  20785692.845   109229477.185 8     -2031.418    20785697.330    85113859.034 7
     -1582.924                          49.000          44.000
  21127328.658   111024906.279 8      1859.660    21127333.501    86512953.072 7
      1449.087                          49.000          40.000
  22219027.449   116761804.482 8     -2503.119    22219033.025    90983256.318 9
     -1950.483                          49.000          52.000
  22729922.561   119446647.931 8      2534.068    22729930.960    93075398.514 6
      1974.596                          45.000          35.000
  23592249.463   123978168.647 7      3003.063    23592259.774    96606427.925 4
      2340.041                          41.000          26.000
  24300099.394   127697879.473 6      3270.189    24300112.564    99504885.352 4
      2548.191                          37.000          23.000
  24745189.792   130036637.336 6     -3805.048    24745202.765   101327197.855 3
     -2964.983                          37.000          16.000
  24860718.011   130643927.705 6      1658.278    24860730.680   101800499.300 4
      1292.157                          35.000          21.000
  25142320.268   132123522.329 5     -3587.282    25142338.119   102953347.795 4
     -2795.298                          31.000          22.000
 23 11  5 12  2  0.0000000  0 11G05G30G20G13G07G14G22G15G11G18G09
  20719739.139   108882934.367 8       471.693    20719743.624    84843859.200 9
       367.558                          49.000          56.000
  20720706.479   108888143.492 8      -946.411    20720713.180    84847974.645 9
      -737.461                          50.000          58.000
  20797343.663   109290704.434 8     -2049.776    20797348.755    85161568.487 7
     -1597.225                          49.000          44.000
  21116742.906   110969276.214 9      1849.605    21116747.659    86469604.998 7
      1441.254                          51.000          41.000
  22233345.397   116837046.548 8     -2512.400    22233351.776    91041886.360 9
     -1957.711                          48.000          51.000
  22715489.912   119370805.366 8      2522.767    22715498.543    93016300.544 6
      1965.791                          45.000          35.000
  23575125.025   123888179.739 7      2996.689    23575135.585    96536306.911 4
      2335.084                          42.000          26.000
  24281438.952   127599818.441 6      3267.792    24281452.497    99428474.222 4
      2546.325                          37.000          22.000
  24766918.917   130150824.618 6     -3806.806    24766932.301   101416174.571 3
     -2966.318                          36.000          16.000
  24851302.769   130594444.133 5      1641.185    24851313.937   101761940.547 3
      1278.850                          32.000          20.000
  25162806.763   132231186.690 5     -3589.621    25162826.044   103037241.752 4
     -2797.090                          32.000          23.000
 23 11  5 12  2 30.0000000  0 11G05G30G20G13G07G14G22G15G11G18G09
  20717098.348   108869056.850 8       453.396    20717103.012    84833045.541 9
       353.295                          49.000          56.000
  20726149.455   108916744.316 8      -960.384    20726155.977    84870260.947 9
      -748.352                          50.000          57.000
  20809092.652   109352444.624 8     -2066.274    20809097.620    85209677.639 7
     -1610.083                          49.000          44.000
  21106206.848   110913910.377 8      1841.392    21106212.458    86426462.817 7
      1434.851                          50.000          42.000
  22247709.679   116912531.017 8     -2519.908    22247716.309    91100705.283 9
     -1963.559                          48.000          51.000
  22701115.641   119295266.190 7      2513.121    22701123.593    92957438.963 6
      1958.270                          44.000          34.000
  23558030.070   123798346.448 7      2992.127    23558040.523    96466307.173 4
      2331.516                          42.000          26.000
  24262786.176   127501796.220 6      3266.955    24262798.952    99352093.282 4
      2545.672                          36.000          22.000
  24788650.168   130265023.253 6     -3806.672    24788663.713   101505160.138 3
     -2966.223                          35.000          15.000
  24841976.283   130545434.146 6      1625.861    24841987.326   101723750.869 3
      1266.924                          35.000          20.000
  25183300.782   132338880.210 5     -3589.980    25183319.490   103121158.458 4
     -2797.376                          32.000          21.000
 23 11  5 12  3  0.0000000  0 12G05G30G20G13G07G14G22G15G11G18G09G27
  20714569.273   108855766.337 8       432.736    20714574.009    84822689.290 9
       337.198                          49.000          56.000
  20731678.595   108945800.423 8      -976.587    20731685.314    84892902.015 9
      -760.977                          50.000          58.000
  20820942.906   109414716.701 8     -2085.073    20820947.606    85258201.249 7
     -1624.728                          49.000          44.000
  21095725.451   110858830.269 8      1830.786    21095731.472    86383543.305 7
      1426.586                          49.000          41.000
  22262123.691   116988276.658 8     -2529.697    22262130.106    91159727.711 9
     -1971.189                          48.000          51.000
  22686802.733   119220053.815 8      2501.112    22686811.024    92898832.032 6
      1948.913                          45.000          35.000
  23540969.227   123708692.623 7      2984.923    23540979.680    96396447.305 5
      2325.903                          43.000          27.000
  24244144.961   127403835.203 6      3263.802    24244157.559    99275760.084 4
      2543.220                          35.000          21.000
  24810388.174   130379250.857 6     -3808.421    24810401.058   101594168.275 2
     -2967.577                          34.000          13.000
  24832743.323   130496920.278 6      1608.305    24832756.206   101685947.759 4
      1253.217                          35.000          21.000
  25203804.842   132446622.865 5     -3592.601    25203822.568   103205113.479 4
     -2799.405                          32.000          21.000
  25409789.290   133529343.362 5        -6.669    25409800.208   104048884.937 4
        -5.174                          32.000          22.000
 23 11  5 12  3 30.0000000  0 12G05G30G20G13G07G14G22G15G18G11G09G27
  20712151.505   108843060.971 8       413.137    20712156.241    84812788.989 9
       321.923                          49.000          57.000
  20737293.453   108975307.593 8      -991.709    20737300.189    84915894.557 9
      -772.756                          50.000          58.000
  20832893.369   109477516.335 8     -2102.726    20832897.890    85307135.940 7
     -1638.486                          49.000          44.000
  21085298.161   110804033.785 8      1821.161    21085303.808    86340844.794 7
      1419.084                          49.000          41.000
  22276586.646   117064278.960 8     -2538.337    22276592.846    91218950.136 9
     -1977.923                          48.000          51.000
  22672552.330   119145167.868 8      2490.083    22672560.925    92840479.460 6
      1940.321                          45.000          36.000
  23523942.478   123619218.060 7      2978.806    23523953.557    96326727.157 5
      2321.125                          42.000          27.000
  24225514.235   127305933.083 6      3261.705    24225527.012    99199472.761 4
      2541.597                          37.000          22.000
  24823606.248   130448901.205 6      1591.752    24823619.364   101648530.175 4
      1240.349                          36.000          22.000
  24832129.522   130493501.361 6     -3809.372    24832142.727   101683194.267 2
     -2968.329                          34.000          12.000
  25224316.033   132554410.802 5     -3594.331    25224335.277   103289103.759 4
     -2800.780                          31.000          21.000
  25409878.867   133529811.796 5       -25.626    25409889.231   104049249.711 4
       -19.955                          32.000          23.000
 23 11  5 12  4  0.0000000  0 12G05G30G20G13G07G14G22G15G18G11G09G27
  20709845.669   108830942.561 8       392.859    20709850.243    84803346.073 9
       306.128                          49.000          56.000
  20742994.529   109005265.603 8     -1007.401    20743000.980    84939238.404 9
      -784.986                          50.000          58.000
  20844944.077   109540843.170 8     -2120.944    20844948.402    85356481.441 7
     -1652.681                          48.000          43.000
  21074924.836   110749522.744 8      1810.969    21074929.875    86298368.689 7
      1411.147                          50.000          42.000
  22291098.187   117140537.078 8     -2547.452    22291104.673    91278371.904 9
     -1985.023                          48.000          51.000
  22658364.647   119070612.014 8      2478.359    22658372.831    92782384.093 6
      1931.185                          45.000          35.000
  23506950.413   123529926.368 7      2972.014    23506961.564    96257149.522 5
      2315.849                          42.000          27.000
  24206895.732   127208091.938 6      3258.970    24206908.633    99123232.965 4
      2539.454                          38.000          23.000
  24814563.397   130401379.764 6      1574.500    24814576.227   101611500.324 4
      1226.883                          37.000          22.000
  24853874.747   130607772.656 6     -3810.716    24853888.310   101772236.448 2
     -2969.415                          34.000          11.000
  25244836.425   132662244.210 5     -3596.182    25244855.652   103373129.531 3
     -2802.202                          30.000          19.000
  25410075.694   133530848.352 6       -45.305    25410087.023   104050057.060 4
       -35.279                          35.000          24.000
 23 11  5 12  4 30.0000000  0 12G05G30G20G13G07G14G22G15G18G11G09G27
  20707653.479   108819423.906 8       374.971    20707658.357    84794370.484 9
       292.184                          49.000          57.000
  20748783.217   109035685.281 8     -1020.566    20748789.739    84962941.987 9
      -795.242                          50.000          58.000
  20857097.318   109604707.534 8     -2136.672    20857101.696    85406245.798 7
     -1664.935                          49.000          44.000
  21064608.477   110695309.986 8      1803.195    21064613.498    86256124.993 7
      1405.085                          50.000          42.000
  22305660.386   117217061.075 8     -2554.154    22305666.890    91338000.838 9
     -1990.243                          48.000          51.000
  22644242.758   118996400.923 8      2469.026    22644250.639    92724557.362 6
      1923.914                          45.000          36.000
  23489996.320   123440832.658 7      2967.492    23490007.238    96187726.179 5
      2312.321                          43.000          27.000
  24188291.792   127110325.345 6      3258.647    24188304.068    99047051.278 4
      2539.202                          36.000          23.000
  24805617.181   130354369.739 7      1559.587    24805630.351   101574868.920 4
      1215.255                          39.000          23.000
  24875626.190   130722073.821 6     -3809.277    24875639.610   101861301.858 2
     -2968.285                          33.000          10.000
  25265366.575   132770134.350 5     -3595.846    25265385.427   103457199.425 3
     -2801.968                          29.000          17.000
  25410384.006   133532465.911 5       -62.500    25410395.067   104051317.159 4
       -48.685                          32.000          23.000
 23 11  5 12  5  0.0000000  0 12G05G30G20G13G07G14G22G15G18G11G09G27
  20705574.204   108808497.494 8       354.430    20705579.082    84785856.391 9
       276.179                          49.000          57.000
  20754657.747   109066556.638 8     -1036.494    20754664.627    84986997.538 9
      -807.654                          50.000          58.000
  20869350.679   109669099.269 8     -2155.046    20869355.468    85456421.088 7
     -1679.257                          49.000          44.000
  21054347.333   110641387.336 8      1792.640    21054353.177    86214107.381 7
      1396.863                          49.000          42.000
  22320271.100   117293840.596 8     -2563.409    22320277.622    91397828.880 9
     -1997.457                          48.000          51.000
  22630185.305   118922528.619 8      2456.782    22630193.257    92666994.622 6
      1914.375                          45.000          36.000
  23473079.055   123351930.952 7      2960.281    23473088.722    96118452.461 4
      2306.700                          41.000          26.000
  24169700.289   127012625.549 6      3255.699    24169712.439    98970921.615 4
      2536.906                          38.000          24.000
  24796767.226   130307864.427 6      1541.770    24796780.628   101538630.930 4
      1201.385                          38.000          23.000
  24897380.064   130836393.112 6     -3810.839    24897394.395   101950381.413 2
     -2969.489                          33.000           9.000
  25285908.571   132878071.700 5     -3598.763    25285924.296   103541633.173 3
     -2804.245                          29.000          15.000
  25410799.872   133534656.398 6       -82.444    25410812.684   104053023.819 4
       -64.230                          33.000          24.000
 23 11  5 12  5 30.0000000  0 11G05G30G20G13G07G14G22G15G18G11G27
  20703605.538   108798152.075 8       334.683    20703610.470    84777795.015 9
       260.795                          49.000          57.000
  20760615.673   109097865.342 8     -1051.413    20760622.695    85011393.878 9
      -819.280                          50.000          58.000
  20881701.426   109734003.463 8     -2172.522    20881706.125    85506995.696 7
     -1692.871                          49.000          44.000
  21044139.082   110587742.456 8      1782.999    21044145.176    86172306.221 7
      1389.350                          49.000          42.000
  22334927.666   117370860.814 8     -2571.862    22334934.188    91457844.474 9
     -2004.038                          48.000          51.000
  22616190.340   118848984.602 8      2445.470    22616197.916    92609687.684 6
      1905.559                          45.000          36.000
  23456195.830   123263210.959 7      2953.765    23456204.890    96049320.348 4
      2301.622                          42.000          26.000
  24151119.239   126914980.490 7      3253.350    24151131.175    98894834.622 4
      2535.088                          39.000          24.000
  24788012.602   130261852.294 6      1524.850    24788025.003   101502777.247 4
      1188.207                          36.000          23.000
  24919136.028   130950714.374 5     -3811.147    24919149.680   102039462.492 1
     -2969.764                          31.000           8.000
  25411324.757   133537406.745 6      -101.495    25411336.801   104055166.743 4
       -79.081                          33.000          22.000
 23 11  5 12  6  0.0000000  0 11G05G30G20G13G07G14G22G15G18G11G27
  20701748.946   108788394.958 8       315.991    20701753.753    84770192.057 9
       246.227                          49.000          57.000
  20766658.101   109129616.858 8     -1065.183    20766664.659    85036135.257 9
      -830.010                          50.000          58.000
  20894150.899   109799425.292 8     -2188.737    20894155.831    85557973.644 7
     -1705.504                          49.000          44.000
  21033985.046   110534383.047 8      1774.477    21033990.764    86130727.496 7
      1382.708                          50.000          42.000
  22349630.995   117448126.678 8     -2578.993    22349637.660    91518051.485 9
     -2009.599                          48.000          51.000
  22602259.864   118775778.262 8      2435.188    22602267.316    92552643.871 6
      1897.546                          45.000          36.000
  23439349.451   123174682.336 7      2948.277    23439358.350    95980337.374 5
      2297.347                          42.000          27.000
  24132549.714   126817398.037 7      3252.365    24132561.901    98818796.376 4
      2534.312                          40.000          25.000
  24779352.594   130216341.930 6      1509.142    24779365.245   101467314.639 4
      1175.960                          38.000          24.000
  24940891.153   131065041.183 5     -3810.382    24940905.662   102128547.960 1
     -2969.147                          31.000           6.000
  25411956.016   133540724.259 5      -119.348    25411967.809   104057751.751 4
       -92.995                          32.000          22.000
 23 11  5 12  6 30.0000000  0 11G05G30G20G13G07G14G22G15G18G11G27
  20700005.930   108779236.122 8       295.075    20700010.862    84763055.295 9
       229.931                          49.000          56.000
  20772785.996   109161819.333 8     -1081.104    20772792.286    85061228.042 9
      -842.414                          50.000          58.000
  20906700.278   109865372.481 8     -2207.201    20906705.317    85609360.968 7
     -1719.893                          49.000          43.000
  21023887.368   110481319.592 8      1763.581    21023892.479    86089379.379 7
      1374.219                          49.000          41.000
  22364382.463   117525645.735 8     -2588.423    22364389.092    91578455.787 8
     -2016.946                          47.000          50.000
  22588395.343   118702921.674 8      2422.419    22588403.348    92495872.601 6
      1887.598                          45.000          36.000
  23422541.205   123086357.325 7      2940.476    23422550.336    95911513.063 5
      2291.277                          42.000          27.000
  24113994.342   126719888.969 7      3248.733    24114006.350    98742815.353 4
      2531.483                          40.000          26.000
  24770789.937   130171343.816 7      1491.163    24770802.678   101432250.961 4
      1161.962                          39.000          25.000
  24962650.316   131179380.132 5     -3811.506    24962664.343   102217642.826 1
     -2969.877                          29.000           7.000
  25412696.526   133544618.477 6      -139.471    25412708.927   104060785.946 4
      -108.655                          33.000          23.000
 23 11  5 12  7  0.0000000  0 11G05G30G20G13G07G14G22G15G18G11G27
  20698375.364   108770666.379 8       274.680    20698380.171    84756377.564 9
       214.042                          49.000          57.000
  20778997.483   109194461.283 8     -1096.522    20779004.041    85086663.269 9
      -854.432                          50.000          58.000
  20919347.580   109931833.236 8     -2225.067    20919351.975    85661148.482 7
     -1733.810                          48.000          43.000
  21013844.244   110428542.197 8      1753.271    21013849.158    86048254.156 7
      1366.189                          49.000          41.000
  22379179.854   117603406.109 8     -2597.174    22379186.805    91639048.124 8
     -2023.763                          47.000          50.000
  22574596.311   118630407.140 8      2410.310    22574604.442    92439367.852 6
      1878.163                          45.000          36.000
  23405770.234   122998228.400 7      2933.182    23405779.776    95842841.535 5
      2285.596                          42.000          27.000
  24095451.210   126622444.226 7      3245.915    24095463.450    98666884.442 4
      2529.284                          41.000          26.000
  24762322.754   130126850.761 7      1473.539    24762335.548   101397581.236 4
      1148.213                          39.000          24.000
  24984409.211   131293717.877 5     -3812.082    24984422.559   102306736.757 1
     -2970.482                          30.000           6.000
  25413545.573   133549079.690 6      -159.399    25413558.188   104064262.012 5
      -124.190                          35.000          27.000
 23 11  5 12  7 30.0000000  0 11G05G30G20G13G07G14G22G15G18G11G27
  20696860.053   108762703.745 8       255.616    20696864.967    84750172.905 9
       199.179                          49.000          57.000
  20785295.724   109227558.546 8     -1110.481    20785302.711    85112453.288 9
      -865.308                          50.000          58.000
  20932094.983   109998822.788 8     -2241.446    20932099.736    85713348.046 7
     -1746.583                          49.000          43.000
  21003858.909   110376068.915 8      1744.385    21003864.252    86007365.910 7
      1359.261                          49.000          42.000
  22394025.975   117681423.062 8     -2604.508    22394033.212    91699840.396 8
     -2029.488                          47.000          50.000
  22560865.915   118558254.503 8      2399.413    22560874.081    92383145.105 6
      1869.667                          46.000          37.000
  23389040.843   122910315.653 7      2927.216    23389050.296    95774338.443 5
      2280.945                          42.000          27.000
  24076923.446   126525082.092 7      3244.358    24076936.168    98591017.919 4
      2528.067                          41.000          26.000
  24753955.423   130082880.234 7      1457.370    24753967.539   101363318.511 4
      1135.603                          39.000          24.000
  25006166.926   131408068.479 5     -3811.398    25006183.276   102395840.690 1
     -2969.884                          30.000           4.000
  25414505.497   133554125.213 6      -177.620    25414518.023   104068193.428 4
      -138.398                          35.000          25.000
 23 11  5 12  8  0.0000000  0 11G05G30G20G13G07G14G22G15G18G11G27
  20695457.192   108755331.260 8       234.806    20695461.856    84744428.102 9
       182.968                          49.000          57.000
  20791677.020   109261092.040 9     -1126.159    20791683.721    85138583.222 9
      -877.522                          51.000          58.000
  20944939.934   110066321.912 8     -2259.595    20944945.044    85765944.661 7
     -1760.717                          49.000          44.000
  20993928.128   110323882.872 8      1733.616    20993933.811    85966701.488 7
      1350.873                          50.000          42.000
  22408917.536   117759677.257 8     -2613.460    22408924.112    91760817.521 8
     -2036.448                          47.000          50.000
  22547201.545   118486448.524 8      2386.534    22547209.925    92327192.483 6
      1859.635                          46.000          37.000
  23372349.675   122822603.998 7      2919.242    23372359.253    95705992.039 5
      2274.727                          43.000          28.000
  24058408.761   126427786.012 7      3240.968    24058421.234    98515202.863 4
      2525.433                          42.000          26.000
  24745684.353   130039416.596 7      1439.291    24745696.629   101329450.768 4
      1121.527                          39.000          25.000
  25027924.302   131522411.231 4     -3812.345    25027942.564   102484938.522 1
     -2970.618                          26.000           4.000
  25415572.956   133559737.049 5      -197.987    25415586.197   104072565.931 4
      -154.244                          31.000          21.000
 23 11  5 12  8 30.0000000  0 10G05G30G20G13G07G14G22G15G18G27
  20694169.246   108748563.095 8       215.641    20694173.910    84739154.199 9
       168.032                          49.000          57.000
  20798143.409   109295072.830 8     -1140.011    20798149.859    85165061.693 9
      -888.320                          50.000          58.000
  20957883.522   110134341.294 8     -2275.832    20957888.900    85818946.667 7
     -1773.373                          48.000          43.000
  20984054.278   110271997.208 8      1724.588    20984060.068    85926271.121 7
      1343.834                          50.000          42.000
  22423856.182   117838179.049 8     -2620.639    22423862.597    91821987.580 8
     -2042.048                          47.000          50.000
  22533605.702   118415004.236 8      2375.505    22533614.261    92271521.700 6
      1851.040                          46.000          37.000
  23355699.570   122735108.782 7      2912.991    23355708.915    95637814.280 5
      2269.849                          42.000          28.000
  24039908.444   126330569.467 7      3239.347    24039921.577    98439449.779 4
      2524.170                          42.000          26.000
  24737512.259   129996473.643 7      1422.826    24737524.910   101295988.665 4
      1108.713                          39.000          23.000
  25416753.527   133565928.474 5      -215.868    25416764.892   104077390.171 4
      -168.214                          29.000          21.000
 23 11  5 12  9  0.0000000  0 10G05G30G20G13G07G14G22G15G18G27
  20692996.377   108742400.431 8       195.375    20693001.381    84734352.109 9
       152.245                          49.000          57.000
  20804694.925   109329500.618 9     -1154.952    20804701.662    85191888.484 9
      -899.957                          51.000          58.000
  20970926.246   110202880.214 8     -2293.211    20970931.107    85872353.504 7
     -1786.908                          48.000          43.000
  20974238.341   110220413.722 8      1714.465    20974243.631    85886076.215 7
      1335.945                          49.000          41.000
  22438841.734   117916927.807 8     -2628.934    22438848.489    91883350.074 8
     -2048.511                          47.000          50.000
  22520080.335   118343925.181 8      2363.265    22520087.911    92216135.506 6
      1841.505                          46.000          37.000
  23339091.295   122647833.714 7      2905.510    23339101.016    95569808.059 5
      2264.031                          43.000          28.000
  24021424.583   126233434.623 7      3236.597    24021436.967    98363760.396 4
      2522.019                          41.000          25.000
  24729440.643   129954054.228 7      1405.339    24729453.669   101262934.555 4
      1095.070                          39.000          24.000
  25418041.330   133572701.143 5      -235.317    25418054.481   104082667.502 4
      -183.352                          32.000          26.000
 23 11  5 12  9 30.0000000  0 10G05G30G13G20G07G14G22G15G18G27
  20691938.513   108736841.441 8       174.548    20691943.552    84730020.421 9
       136.007                          50.000          57.000
  20811330.783   109364371.830 8     -1170.415    20811337.663    85219060.800 9
      -912.009                          50.000          58.000
  20964479.693   110169130.891 8      1703.743    20964484.857    85846115.599 7
      1327.586                          49.000          42.000
  20984066.894   110271934.599 8     -2311.079    20984071.486    85926162.022 7
     -1800.842                          48.000          43.000
  22453873.389   117995919.544 8     -2637.748    22453880.644    91944901.905 8
     -2055.388                          47.000          50.000
  22506624.049   118273211.758 8      2350.324    22506631.447    92161034.227 6
      1831.416                          46.000          37.000
  23322524.799   122560779.437 7      2897.400    23322534.752    95501973.852 5
      2257.701                          43.000          28.000
  24002955.662   126136380.746 7      3233.157    24002967.634    98288134.092 4
      2519.329                          40.000          25.000
  24721468.021   129912157.685 7      1387.213    24721480.332   101230287.854 4
      1080.943                          40.000          24.000
  25419440.581   133580052.341 6      -255.429    25419453.501   104088395.628 4
      -199.031                          33.000          26.000
 23 11  5 12 10  0.0000000  0 10G05G30G13G20G07G14G22G15G18G27
  20690995.458   108731884.280 8       154.821    20691000.104    84726157.687 9
       120.637                          49.000          57.000
  20818050.197   109399682.289 8     -1184.745    20818056.916    85246575.379 9
      -923.176                          50.000          58.000
  20954777.850   110118146.622 8      1694.085    20954783.175    85806387.632 7
      1320.066                          50.000          43.000
  20997304.838   110341499.822 8     -2327.726    20997309.752    85980368.588 7
     -1813.812                          48.000          43.000
  22468950.931   118075150.211 8     -2645.358    22468958.025    92006639.905 8
     -2061.317                          46.000          50.000
  22493237.542   118202863.678 8      2338.434    22493244.297    92106217.614 6
      1822.153                          46.000          37.000
  23306001.046   122473945.989 7      2890.352    23306010.284    95434311.708 5
      2252.219                          42.000          28.000
  23984502.286   126039406.026 7      3230.751    23984513.579    98212569.474 4
      2517.458                          41.000          25.000
  24713594.840   129870782.795 7      1369.973    24713606.794   101198047.749 4
      1067.508                          40.000          23.000
  25420949.334   133587979.463 6      -274.212    25420961.789   104094572.522 5
      -213.673                          36.000          27.000
 23 11  5 12 10 30.0000000  0 10G05G30G13G20G14G07G22G15G18G27
  20690163.851   108727514.444 8       135.094    20690168.444    84722752.601 9
       105.265                          49.000          57.000
  20824850.021   109435415.094 8     -1198.891    20824856.526    85274419.062 9
      -934.198                          50.000          58.000
  20945129.453   110067446.214 8      1684.526    20945135.457    85766880.855 7
      1312.616                          49.000          43.000
  21010636.808   110411558.827 8     -2344.242    21010642.026    86034959.900 7
     -1826.682                          48.000          43.000
  22479917.293   118132867.775 8      2326.500    22479924.655    92051675.421 6
      1812.850                          46.000          37.000
  22484070.108   118154601.608 8     -2652.818    22484077.238    92068549.897 8
     -2067.133                          47.000          50.000
  23289516.729   122387320.737 7      2883.297    23289526.253    95366811.782 5
      2246.709                          42.000          28.000
  23966060.864   125942495.976 7      3228.515    23966071.657    98137055.244 4
      2515.719                          40.000          24.000
  24705817.830   129829915.389 7      1353.000    24705830.160   101166203.033 4
      1054.272                          39.000          23.000
  25422563.979   133596467.461 6      -293.034    25422576.845   104101186.624 5
      -228.349                          37.000          29.000
 23 11  5 12 11  0.0000000  0 10G05G30G13G20G14G07G22G15G18G27
  20689449.930   108723762.076 8       115.074    20689454.505    84719828.663 9
        89.672                          49.000          57.000
  20831735.224   109471598.160 8     -1213.402    20831742.086    85302613.597 9
      -945.505                          50.000          58.000
  20935541.417   110017059.707 8      1674.582    20935546.993    85727618.685 7
      1304.868                          48.000          41.000
  21024067.649   110482138.594 8     -2361.060    21024072.670    86089957.009 7
     -1839.781                          48.000          42.000
  22466670.790   118063256.170 8      2314.208    22466678.081    91997432.685 6
      1803.276                          45.000          37.000
  22499236.495   118234301.327 8     -2660.515    22499243.303    92130653.377 8
     -2073.118                          46.000          49.000
  23273078.139   122300935.614 7      2875.749    23273087.324    95299498.948 5
      2240.830                          42.000          28.000
  23947637.473   125845681.494 7      3225.779    23947648.945    98061615.487 4
      2513.589                          41.000          25.000
  24698143.228   129789586.252 7      1335.600    24698155.379   101134777.727 4
      1040.740                          41.000          23.000
  25424291.539   133605545.699 6      -312.303    25424304.083   104108260.711 5
      -243.348                          37.000          30.000
 23 11  5 12 11 30.0000000  0 10G05G30G13G20G14G07G22G15G18G27
  20688850.049   108720609.282 8        94.829    20688854.731    84717371.924 9
        73.895                          49.000          57.000
  20838702.660   109508211.684 8     -1227.887    20838709.539    85331143.552 9
      -956.792                          50.000          58.000
  20926009.616   109966969.514 8      1664.457    20926014.584    85688587.410 7
      1296.983                          49.000          42.000
  21037593.695   110553218.864 8     -2377.948    21037598.966    86145344.117 7
     -1852.940                          48.000          43.000
  22453494.012   117994012.862 8      2301.666    22453501.588    91943476.938 6
      1793.507                          45.000          37.000
  22514446.321   118314229.367 8     -2668.323    22514452.861    92192934.770 8
     -2079.207                          46.000          49.000
  23256682.042   122214775.023 7      2867.929    23256690.833    95232361.041 5
      2234.754                          42.000          28.000
  23929229.145   125748945.063 7      3222.865    23929240.992    97986236.567 4
      2511.313                          41.000          26.000
  24690567.906   129749778.570 7      1318.034    24690580.021   101103758.731 4
      1027.037                          41.000          24.000
  25426127.724   133615195.096 6      -331.415    25426140.017   104115779.746 5
      -258.243                          35.000          28.000
 23 11  5 12 12  0.0000000  0 10G05G30G13G20G14G07G22G15G18G27
  20688363.744   108718055.296 8        74.927    20688368.783    84715381.787 9
        58.384                          49.000          57.000
  20845751.489   109545253.083 8     -1242.043    20845758.351    85360006.920 9
      -967.824                          50.000          58.000
  20916534.084   109917175.276 8      1654.647    20916538.891    85649786.736 7
      1289.334                          49.000          42.000
  21051214.822   110624796.872 8     -2394.387    21051220.326    86201119.060 7
     -1865.752                          48.000          43.000
  22440387.655   117925139.157 8      2289.402    22440395.089    91889809.187 6
      1783.947                          46.000          37.000
  22529699.176   118394382.866 8     -2675.725    22529705.681    92255391.852 8
     -2084.978                          47.000          49.000
  23240329.402   122128840.799 7      2860.439    23240338.086    95165399.515 5
      2228.900                          42.000          29.000
  23910835.702   125652286.706 7      3220.371    23910847.156    97910918.458 4
      2509.376                          41.000          25.000
  24683091.721   129710492.632 7      1300.501    24683104.086   101073146.284 4
      1013.393                          41.000          23.000
  25428072.677   133625414.756 6      -350.371    25428084.668   104123743.104 5
      -273.015                          34.000          28.000
 23 11  5 12 12 30.0000000  0 10G05G30G13G20G14G07G22G15G18G27
  20687994.177   108716112.776 8        55.431    20687999.073    84713868.114 9
        43.183                          49.000          57.000
  20852883.659   109582732.724 8     -1255.734    20852890.468    85389211.773 9
      -978.492                          50.000          57.000
  20907117.020   109867689.357 8      1645.323    20907122.541    85611226.321 7
      1282.066                          49.000          42.000
  21064932.299   110696882.463 8     -2410.438    21064937.481    86257289.541 7
     -1878.272                          49.000          43.000
  22427354.436   117856649.266 8      2277.454    22427361.781    91836440.493 6
      1774.638                          45.000          37.000
  22544997.097   118474772.347 8     -2682.659    22545003.834    92318032.817 8
     -2090.387                          46.000          49.000
  23224021.774   122043147.102 7      2853.310    23224031.281    95098625.426 5
      2223.330                          42.000          29.000
  23892459.520   125555719.479 7      3218.250    23892470.474    97835671.352 4
      2507.721                          41.000          25.000
  24675718.444   129671741.600 7      1283.565    24675730.898   101042950.680 4
      1000.172                          39.000          23.000
  25430127.204   133636216.525 6      -369.082    25430140.123   104132160.026 3
      -287.575                          33.000          16.000
 23 11  5 12 13  0.0000000  0 10G05G30G13G20G14G07G22G15G18G27
  20687737.953   108714765.418 8        34.754    20687742.634    84712818.209 9
        27.089                          49.000          57.000
  20860095.847   109620632.087 8     -1270.473    20860102.566    85418743.679 9
      -989.978                          50.000          57.000
  20897755.921   109818495.395 8      1634.714    20897761.496    85572893.423 7
      1273.804                          50.000          42.000
  21078742.838   110769456.851 8     -2427.514    21078747.609    86313840.914 7
     -1891.559                          48.000          42.000
  22414391.818   117788528.646 8      2264.253    22414399.091    91783359.545 6
      1764.351                          46.000          37.000
  22560336.009   118555378.068 8     -2690.649    22560343.318    92380842.275 8
     -2096.595                          47.000          49.000
  23207757.890   121957679.877 7      2844.838    23207767.218    95032027.771 5
      2216.756                          42.000          28.000
  23874097.402   125459227.476 7      3214.878    23874108.516    97760482.876 4
      2505.101                          41.000          25.000
  24668443.536   129633509.822 7      1265.501    24668455.955   101013159.681 4
       986.116                          41.000          22.000
  25432291.250   133647583.360 5      -388.401    25432303.079   104141017.156 1
      -302.551                          31.000           8.000
 23 11  5 12 13 30.0000000  0 10G05G30G13G20G14G07G22G15G18G27
  20687601.183   108714048.233 8        13.573    20687606.222    84712259.341 9
        10.571                          49.000          57.000
  20867393.699   109658984.163 8     -1285.760    20867400.686    85448628.340 9
     -1001.888                          50.000          57.000
  20888456.953   109769628.724 8      1623.613    20888461.956    85534815.539 7
      1265.151                          49.000          42.000
  21092652.550   110842552.194 8     -2445.017    21092657.786    86370798.203 7
     -1905.207                          48.000          43.000
  22401505.644   117720814.174 8      2250.559    22401513.649    91730595.068 6
      1753.684                          46.000          38.000
  22575722.042   118636233.074 8     -2699.096    22575729.726    92443845.986 8
     -2103.189                          47.000          49.000
  23191544.450   121872476.140 7      2835.864    23191553.224    94965635.436 5
      2209.755                          42.000          29.000
  23855756.440   125362846.380 7      3210.923    23855767.680    97685380.822 4
      2502.019                          41.000          25.000
  24661273.304   129595833.230 7      1246.749    24661285.062   100983801.302 4
       971.495                          40.000          22.000
  25434567.460   133659549.938 5      -408.985    25434580.290   104150341.723 1
      -318.734                          30.000           8.000
 23 11  5 12 14  0.0000000  0 10G05G30G13G20G14G07G22G15G18G27
  20687582.903   108713950.648 8        -7.248    20687587.638    84712183.282 9
        -5.647                          50.000          57.000
  20874775.786   109697776.665 8     -1300.623    20874782.719    85478856.197 9
     -1013.468                          50.000          57.000
  20879217.935   109721078.826 8      1612.831    20879222.796    85496984.480 7
      1256.752                          50.000          42.000
  21106658.952   110916155.884 8     -2462.104    21106664.813    86428151.600 7
     -1918.519                          49.000          43.000
  22388695.824   117653497.472 8      2237.028    22388703.972    91678140.547 6
      1743.138                          46.000          38.000
  22591153.462   118717324.555 8     -2707.197    22591160.789    92507033.977 8
     -2109.497                          47.000          49.000
  23175378.774   121787527.869 7      2827.064    23175388.048    94899442.157 5
      2202.905                          42.000          29.000
  23837435.241   125266566.473 7      3207.387    23837446.552    97610357.610 4
      2499.268                          41.000          25.000
  24654207.767   129558702.096 7      1228.404    24654219.454   100954867.922 4
       957.196                          40.000          23.000
  25436958.764   133672104.553 5      -428.574    25436969.235   104160124.293 1
      -334.047                          28.000           4.000
 23 11  5 12 14 30.0000000  0  9G05G13G30G20G14G07G22G15G18
  20687679.038   108714455.946 8       -27.128    20687683.917    84712577.000 9
       -21.140                          50.000          57.000
  20870036.206   109672829.202 8      1603.113    20870041.710    85459387.402 7
      1249.177                          50.000          43.000
  20882237.961   109736990.374 8     -1314.351    20882245.002    85509412.263 9
     -1024.170                          50.000          57.000
  21120758.165   110990247.966 8     -2478.078    21120763.365    86485885.578 7
     -1930.968                          49.000          42.000
  22375958.480   117586563.155 8      2224.490    22375966.539    91625983.978 6
      1733.371                          46.000          38.000
  22606626.231   118798633.091 8     -2714.136    22606633.325    92570391.106 8
     -2114.907                          47.000          49.000
  23159259.789   121702820.338 7      2819.296    23159268.581    94833436.458 5
      2196.846                          43.000          29.000
  23819129.821   125170371.418 7      3204.872    23819141.633    97535400.523 4
      2497.298                          41.000          25.000
  24647242.565   129522100.307 7      1211.048    24647254.895   100926347.079 4
       943.664                          39.000          23.000
 23 11  5 12 15  0.0000000  0 10G05G13G30G20G14G07G22G15G18G08
  20687894.021   108715585.224 8       -46.929    20687898.899    84713456.932 9
       -36.560                          50.000          57.000
  20860915.839   109624901.097 8      1593.369    20860921.789    85422040.867 7
      1241.591                          49.000          43.000
  20889783.853   109776644.371 8     -1327.984    20889790.911    85540311.408 9
     -1034.787                          50.000          57.000
  21134954.603   111064847.769 8     -2493.950    21134959.124    86544015.191 7
     -1943.327                          49.000          43.000
  22363298.778   117520034.315 8      2211.977    22363306.104    91574143.349 6
      1723.622                          46.000          37.000
  22622143.905   118880177.507 8     -2720.899    22622150.821    92633932.033 8
     -2120.169                          46.000          49.000
  23143189.945   121618376.617 7      2811.556    23143199.397    94767636.306 5
      2190.824                          43.000          29.000
  23800844.432   125074282.966 7      3202.302    23800856.422    97460526.493 4
      2495.300                          40.000          25.000
  24640382.129   129486049.461 7      1193.661    24640394.602   100898255.467 4
       930.150                          41.000          23.000
  25397083.592   133462570.352 5      1161.750
       905.032                          32.000
 23 11  5 12 15 30.0000000  0 10G05G13G30G20G14G07G22G15G18G08
  20688223.114   108717315.337 8       -68.432    20688227.993    84714805.044 9
       -53.315                          50.000          57.000
  20851852.134   109577271.548 8      1581.917    20851858.031    85384926.963 7
      1232.665                          50.000          43.000
  20897408.922   109816713.627 8     -1343.332    20897415.820    85571534.125 9
     -1046.747                          50.000          57.000
  21149241.888   111139928.631 8     -2511.456    21149247.284    86602519.640 7
     -1956.967                          49.000          43.000
  22350711.892   117453889.773 8      2197.604    22350719.450    91522602.184 6
      1712.422                          46.000          38.000
  22637701.213   118961932.481 8     -2729.443    22637708.485    92697637.032 8
     -2126.826                          47.000          49.000
  23127167.453   121534175.677 7      2801.911    23127176.262    94702025.333 5
      2183.312                          43.000          30.000
  23782575.036   124978278.721 7      3198.003    23782587.079    97385718.082 4
      2491.955                          40.000          25.000
  24633622.689   129450527.472 7      1174.418    24633634.768   100870575.971 4
       915.143                          39.000          22.000
  25390498.697   133427957.819 5      1145.761    25390515.315   103969908.377 4
       892.804                          31.000          22.000
 23 11  5 12 16  0.0000000  0 10G05G13G30G20G14G07G22G15G18G08
  20688672.217   108719674.666 8       -88.911    20688676.970    84716643.464 9
       -69.284                          50.000          57.000
  20842850.882   109529969.234 8      1571.532    20842856.189    85348068.038 7
      1224.570                          49.000          42.000
  20905118.048   109857224.797 8     -1357.457    20905124.927    85603101.195 9
     -1057.755                          50.000          57.000
  21163625.987   111215517.199 8     -2527.793    21163631.562    86661419.695 7
     -1969.708                          48.000          42.000
  22338203.647   117388160.074 8      2184.295    22338211.706    91471384.268 6
      1702.044                          46.000          38.000
  22653303.586   119043924.262 8     -2736.718    22653311.377    92761526.567 8
     -2132.505                          48.000          50.000
  23111196.352   121450248.648 7      2793.173    23111205.394    94636627.812 5
      2176.488                          43.000          30.000
  23764327.475   124882388.016 7      3194.775    23764339.805    97310998.139 4
      2489.439                          39.000          26.000
  24626969.051   129415563.748 7      1156.448    24626981.756   100843331.488 4
       901.131                          40.000          23.000
  25383999.429   133393816.615 6      1130.485    25384018.871   103943304.990 4
       880.892                          34.000          26.000
 23 11  5 12 16 30.0000000  0 10G05G13G30G20G14G07G22G15G18G08
  20689233.858   108722626.392 8      -108.162    20689238.718    84718943.488 9
       -84.276                          49.000          57.000
  20833904.613   109482957.422 8      1562.339    20833909.831    85311435.473 7
      1217.413                          49.000          42.000
  20912903.956   109898138.854 8     -1370.315    20912910.907    85634982.201 9
     -1067.774                          49.000          57.000
  21178099.288   111291574.117 8     -2542.925    21178104.434    86720684.712 7
     -1981.495                          49.000          43.000
  22325768.022   117322810.090 8      2172.045    22325775.402    91420462.230 6
      1692.508                          46.000          38.000
  22668943.859   119126113.418 8     -2742.776    22668951.489    92825569.888 8
     -2137.217                          47.000          49.000
  23095270.729   121366560.726 7      2785.744    23095280.003    94571416.611 5
      2170.709                          43.000          30.000
  23746094.818   124786574.551 7      3192.613    23746107.076    97236338.388 4
      2487.760                          39.000          26.000
  24620415.229   129381121.904 7      1139.365    24620427.005   100816493.579 4
       887.819                          40.000          23.000
  25377585.987   133360110.575 5      1116.466    25377604.481   103917040.671 4
       869.982                          32.000          24.000
 23 11  5 12 17  0.0000000  0 10G05G13G30G20G14G07G22G15G18G08
  20689910.004   108726178.838 8      -128.562    20689914.739    84721711.605 9
      -100.178                          49.000          57.000
  20825015.846   109436245.135 8      1551.932    20825020.921    85275036.304 7
      1209.297                          49.000          42.000
  20920767.559   109939462.426 8     -1384.336    20920774.546    85667182.307 9
     -1078.702                          49.000          57.000
  21192662.506   111368104.990 8     -2559.029    21192668.152    86780319.042 7
     -1994.042                          49.000          43.000
  22313406.625   117257850.287 8      2158.670    22313413.809    91369844.223 6
      1682.079                          46.000          38.000
  22684623.391   119208506.438 8     -2749.925    22684630.038    92889772.066 8
     -2142.792                          46.000          48.000
  23079393.030   121283122.654 7      2776.912    23079401.768    94506400.088 5
      2163.823                          43.000          30.000
  23727879.404   124690847.929 7      3189.267    23727890.715    97161746.299 4
      2485.141                          39.000          26.000
  24613962.260   129347211.506 7      1121.305    24613974.715   100790069.870 4
       873.732                          39.000          23.000
  25371257.118   133326850.155 5      1101.284    25371275.327   103891123.561 4
       858.151                          32.000          25.000
 23 11  5 12 17 30.0000000  0 10G05G13G30G20G14G07G22G15G18G08
  20690701.619   108730338.979 8      -149.264    20690706.319    84724953.250 9
      -116.310                          49.000          57.000
  20816184.885   109389839.547 8      1541.235    20816190.550    85238876.127 7
      1200.963                          49.000          42.000
  20928709.983   109981200.436 8     -1398.630    20928717.077    85699705.356 9
     -1089.839                          50.000          57.000
  21207317.070   111445114.319 8     -2575.441    21207322.842    86840326.176 7
     -2006.833                          48.000          42.000
  22301120.904   117193289.590 8      2144.834    22301128.409    91319537.211 6
      1671.299                          46.000          38.000
  22700341.931   119291108.127 8     -2757.291    22700349.060    92954136.835 8
     -2148.534                          46.000          49.000
  23063564.756   121199943.675 7      2767.804    23063573.244    94441585.438 5
      2156.722                          44.000          31.000
  23709681.055   124595215.751 7      3185.665    23709692.509    97087227.833 5
      2482.325                          40.000          27.000
  24607611.913   129313840.170 7      1102.900    24607624.600   100764066.217 4
       859.400                          39.000          22.000
  25365013.878   133294043.796 6      1085.505    25365032.069   103865560.224 4
       845.844                          33.000          25.000
 23 11  5 12 18  0.0000000  0 10G05G13G30G20G14G07G22G15G18G08
  20691608.329   108735103.810 8      -168.403    20691613.083    84728666.081 9
      -131.225                          49.000          57.000
  20807412.160   109343738.145 8      1532.062    20807417.735    85202952.981 7
      1193.809                          49.000          42.000
  20936730.440   110023348.409 8     -1411.293    20936737.731    85732547.856 9
     -1099.705                          49.000          57.000
  21222061.605   111522596.856 8     -2590.153    21222067.002    86900702.051 7
     -2018.295                          48.000          42.000
  22288911.179   117129127.303 8      2132.562    22288918.898    91269540.649 6
      1661.736                          46.000          38.000
  22716099.460   119373913.695 8     -2763.097    22716106.715    93018660.470 8
     -2153.059                          46.000          49.000
  23047785.623   121117023.627 7      2760.178    23047794.075    94376972.561 5
      2150.786                          43.000          31.000
  23691500.539   124499676.188 7      3183.503    23691511.421    97012781.539 5
      2480.646                          40.000          27.000
  24601363.849   129281006.089 7      1085.878    24601375.928   100738481.183 4
       846.135                          39.000          23.000
  25358856.820   133261690.088 6      1071.284    25358875.726   103840349.554 5
       834.765                          34.000          29.000
 23 11  5 12 18 30.0000000  0 10G05G13G30G20G14G07G22G15G18G08
  20692630.009   108740473.109 8      -188.937    20692634.869    84732849.924 9
      -147.224                          49.000          57.000
  20798697.062   109297940.874 8      1521.593    20798702.584    85167266.819 7
      1185.654                          49.000          42.000
  20944828.699   110065903.797 8     -1425.193    20944835.865    85765707.829 9
     -1110.535                          49.000          57.000
  21236895.503   111600549.883 8     -2606.112    21236900.488    86961444.553 7
     -2030.733                          48.000          41.000
  22276777.451   117065364.788 8      2118.867    22276785.385    91219855.600 6
      1651.066                          47.000          38.000
  22731894.801   119456920.185 8     -2770.091    22731902.753    93083340.659 8
     -2158.508                          47.000          49.000
  23032055.504   121034364.303 7      2751.112    23032064.492    94312562.830 5
      2143.711                          44.000          31.000
  23673337.160   124404229.473 7      3180.144    23673348.363    96938407.593 5
      2478.026                          40.000          28.000
  24595217.923   129248709.526 7      1067.681    24595230.325   100713315.062 4
       831.973                          39.000          21.000
  25352786.124   133229789.693 6      1055.942    25352804.868   103815492.108 5
       822.817                          35.000          28.000
 23 11  5 12 19  0.0000000  0 10G05G13G30G20G14G07G22G15G18G08
  20693766.675   108746445.979 8      -209.306    20693771.410    84737504.084 9
      -163.099                          49.000          57.000
  20790040.057   109252447.135 8      1511.257    20790045.382    85131817.177 7
      1177.603                          49.000          43.000
  20953003.920   110108863.773 8     -1438.871    20953010.996    85799183.063 9
     -1121.196                          50.000          57.000
  21251818.407   111678969.927 8     -2621.883    21251823.481    87022550.968 7
     -2043.025                          48.000          42.000
  22264720.185   117002003.074 8      2105.203    22264727.994    91170482.863 6
      1640.417                          46.000          38.000
  22747728.399   119540124.718 8     -2776.889    22747736.065    93148175.168 8
     -2163.808                          46.000          49.000
  23016375.812   120951966.817 7      2742.076    23016385.050    94248357.134 5
      2136.678                          43.000          31.000
  23655191.810   124308875.760 7      3176.727    23655203.246    96864106.142 5
      2475.367                          40.000          28.000
  24589174.888   129216950.255 7      1049.535    24589186.235   100688567.580 4
       817.811                          39.000          23.000
  25346802.896   133198343.622 6      1040.375    25346821.033   103790988.609 5
       810.674                          34.000          28.000
 23 11  5 12 19 30.0000000  0 10G05G13G30G20G14G07G22G15G18G08
  20695019.722   108753030.230 8      -230.086    20695024.386    84742634.643 9
      -179.292                          49.000          57.000
  20781442.233   109207265.368 8      1500.388    20781447.791    85096610.635 7
      1169.133                          49.000          43.000
  20961256.764   110152234.392 8     -1452.962    20961264.108    85832978.283 9
     -1132.178                          50.000          57.000
  21266831.477   111757862.320 8     -2638.043    21266837.338    87084025.428 7
     -2055.619                          48.000          43.000
  22252741.221   116939052.151 8      2091.084    22252748.815    91121430.226 6
      1629.416                          46.000          38.000
  22763600.595   119623533.096 8     -2784.102    22763608.475    93213168.513 8
     -2169.431                          47.000          49.000
  23000747.921   120869841.477 7      2732.573    23000756.767    94184363.500 5
      2129.273                          43.000          30.000
  23637065.545   124213623.908 7      3172.876    23637077.410    96789884.054 5
      2472.372                          40.000          28.000
  24583235.028   129185736.970 7      1030.823    24583246.768   100664245.540 4
       803.237                          39.000          22.000
  25340906.476   133167361.583 6      1024.700    25340925.667   103766846.681 5
       798.458                          35.000          28.000
 23 11  5 12 20  0.0000000  0 10G05G13G30G20G14G07G22G15G18G08
  20696389.419   108760227.422 8      -249.920    20696394.190    84748242.816 9
      -194.738                          49.000          57.000
  20772904.164   109162397.276 8      1490.586    20772909.721    85061648.513 7
      1161.496                          49.000          43.000
  20969588.214   110196015.245 8     -1465.944    20969595.433    85867093.159 9
     -1142.287                          50.000          57.000
  21281934.000   111837226.186 8     -2653.081    21281940.522    87145867.243 7
     -2067.325                          48.000          43.000
  22240840.827   116876515.475 8      2077.838    22240848.564    91072700.387 7
      1619.097                          47.000          39.000
  22779511.816   119707144.684 8     -2790.174    22779519.678    93278320.205 8
     -2174.147                          47.000          49.000
  22985172.459   120787992.248 7      2723.843    22985180.786    94120584.999 5
      2122.473                          44.000          30.000
  23618959.704   124118476.305 7      3170.047    23618971.443    96715743.211 5
      2470.165                          40.000          28.000
  24577398.862   129155071.967 7      1013.394    24577411.531   100640350.757 4
       789.657                          40.000          23.000
  25335099.400   133136846.231 6      1009.340    25335118.413   103743068.388 4
       786.513                          33.000          26.000
 23 11  5 12 20 30.0000000  0 10G05G13G30G20G14G07G22G15G18G08
  20697869.742   108768007.930 8      -270.337    20697874.906    84754305.519 9
      -210.653                          49.000          57.000
  20764420.149   109117813.808 8      1480.166    20764425.188    85026908.178 7
      1153.378                          49.000          42.000
  20977991.551   110240174.923 8     -1479.501    20977998.913    85901503.223 9
     -1152.853                          50.000          57.000
  21297120.132   111917029.279 8     -2668.621    21297125.886    87208051.326 7
     -2079.441                          48.000          41.000
  22229014.053   116814365.407 8      2063.956    22229021.648    91024271.788 6
      1608.278                          47.000          38.000
  22795455.255   119790927.875 8     -2796.861    22795462.868    93343605.619 8
     -2179.367                          46.000          48.000
  22969644.242   120706392.113 7      2714.571    22969652.766    94057000.592 5
      2115.245                          44.000          31.000
  23600868.336   124023404.252 7      3166.575    23600879.683    96641661.250 5
      2467.450                          41.000          29.000
  24571662.745   129124926.584 7       994.834    24571674.610   100616860.883 4
       775.188                          40.000          21.000
  25329376.703   133106769.437 6       994.065    25329395.215   103719631.882 5
       774.595                          33.000          27.000
 23 11  5 12 21  0.0000000  0 10G05G13G30G20G14G07G22G15G18G08
  20699468.484   108776407.830 8      -290.861    20699473.165    84760850.864 9
      -226.647                          49.000          57.000
  20755997.245   109073551.615 8      1469.498    20756002.105    84992418.178 7
      1145.062                          50.000          43.000
  20986473.583   110284747.930 8     -1493.169    20986480.766    85936235.360 9
     -1163.504                          50.000          57.000
  21312396.235   111997305.482 8     -2684.276    21312400.970    87270604.092 7
     -2091.645                          48.000          41.000
  22217268.244   116752640.311 8      2049.851    22217275.624    90976174.338 7
      1597.286                          47.000          39.000
  22811437.935   119874916.860 8     -2803.592    22811445.761    93409051.387 8
     -2184.614                          47.000          48.000
  22954170.991   120625079.430 7      2705.027    22954179.211    93993640.170 5
      2107.809                          44.000          31.000
  23582798.055   123928445.401 7      3162.872    23582809.419    96567667.514 5
      2464.568                          41.000          29.000
  24566032.305   129095337.930 7       976.393    24566044.778   100593804.882 4
       760.810                          40.000          24.000
  25323744.101   133077169.539 6       978.173    25323761.952   103696566.971 5
       762.210                          35.000          28.000
 23 11  5 12 21 30.0000000  0 10G05G13G30G20G14G07G22G15G18G08
  20701186.912   108785438.463 8      -310.994    20701191.594    84767887.691 9
      -242.332                          50.000          57.000
  20747637.777   109029622.385 8      1459.365    20747643.084    84958187.641 7
      1137.169                          50.000          43.000
  20995036.133   110329743.620 8     -1506.312    20995043.191    85971296.862 9
     -1173.745                          50.000          57.000
  21327764.184   112078063.748 8     -2699.346    21327769.491    87333532.494 7
     -2103.383                          49.000          42.000
  22205605.651   116691353.508 8      2036.179    22205613.031    90928418.413 7
      1586.634                          47.000          39.000
  22827461.749   119959121.028 8     -2809.742    22827469.736    93474664.816 8
     -2189.400                          47.000          48.000
  22938755.045   120544067.784 7      2696.017    22938762.854    93930514.308 5
      2100.793                          44.000          31.000
  23564751.199   123833611.558 7      3159.676    23564763.100    96493771.166 5
      2462.073                          42.000          29.000
  24560510.009   129066317.849 7       958.462    24560522.535   100571191.880 4
       746.870                          40.000          23.000
  25318204.311   133048058.519 6       962.591    25318222.859   103673883.024 5
       750.078                          35.000          29.000
 23 11  5 12 22  0.0000000  0 10G05G13G30G20G14G07G22G15G18G08
  20703022.168   108795083.373 8      -331.896    20703027.010    84775403.173 9
      -258.619                          49.000          57.000
  20739338.705   108986010.228 8      1448.317    20739344.370    84924204.172 7
      1128.560                          49.000          43.000
  21003675.323   110375143.540 8     -1520.183    21003682.739    86006673.338 9
     -1184.558                          50.000          57.000
  21343219.871   112159284.685 8     -2715.173    21343226.178    87396821.385 7
     -2115.713                          47.000          41.000
  22194023.558   116630490.287 8      2021.583    22194031.349    90880992.553 7
      1575.258                          47.000          39.000
  22843522.802   120043521.645 8     -2816.760    22843530.504    93540431.327 8
     -2194.872                          46.000          48.000
  22923393.564   120463343.350 7      2685.848    22923401.838    93867612.248 5
      2092.867                          43.000          31.000
  23546725.822   123738887.272 7      3155.503    23546737.919    96419960.204 5
      2458.833                          42.000          30.000
  24555093.140   129037850.386 7       939.567    24555105.022   100549009.421 4
       732.127                          40.000          25.000
  25312755.742   133019421.792 6       946.535    25312773.575   103651568.679 5
       737.559                          34.000          27.000
 23 11  5 12 22 30.0000000  0 10G05G13G30G20G14G07G22G15G18G08
  20704973.108   108805334.865 8      -352.262    20704977.754    84783391.317 9
      -274.484                          49.000          57.000
  20731098.638   108942707.923 8      1437.823    20731103.927    84890462.146 7
      1120.382                          50.000          43.000
  21012390.224   110420938.618 8     -1533.476    21012397.318    86042357.735 9
     -1194.912                          50.000          57.000
  21358762.347   112240958.786 8     -2730.392    21358767.797    87460463.404 7
     -2127.569                          48.000          41.000
  22182521.214   116570045.453 8      2007.490    22182528.719    90833892.710 7
      1564.278                          47.000          39.000
  22859619.236   120128109.354 8     -2823.114    22859627.241    93606343.619 8
     -2199.817                          46.000          48.000
  22908085.691   120382901.213 7      2676.311    22908094.089    93804930.156 5
      2085.442                          44.000          31.000
  23528720.048   123644266.667 7      3151.830    23528732.145    96346230.022 5
      2455.963                          42.000          30.000
  24549780.054   129009929.485 7       921.206    24549792.151   100527252.935 4
       717.826                          41.000          24.000
  25307394.892   132991253.593 6       930.798    25307413.011   103629619.472 5
       725.301                          35.000          30.000
 23 11  5 12 23  0.0000000  0 10G05G13G30G20G14G07G22G15G18G08
  20707041.394   108816204.412 8      -372.288    20707046.165    84791861.061 9
      -290.094                          50.000          57.000
  20722919.593   108899727.696 8      1427.641    20722924.864    84856971.088 7
      1112.447                          50.000          43.000
  21021181.533   110467138.395 8     -1546.344    21021188.806    86078357.476 9
     -1204.939                          50.000          57.000
  21374392.435   112323094.874 8     -2745.163    21374398.332    87524465.414 7
     -2139.081                          49.000          43.000
  22171101.265   116510032.358 8      1993.544    22171108.216    90787129.287 6
      1553.412                          47.000          38.000
  22875753.391   120212893.785 8     -2829.053    22875761.611    93672409.191 8
     -2204.450                          46.000          48.000
  22892834.247   120302755.158 7      2666.955    22892842.378    93742478.761 5
      2078.146                          44.000          31.000
  23510736.288   123549761.849 7      3148.516    23510748.224    96272590.050 5
      2453.380                          42.000          30.000
  24544572.609   128982566.936 7       903.140    24544585.439   100505931.559 4
       703.749                          40.000          25.000
  25302126.085   132963567.051 6       915.349    25302144.669   103608045.578 5
       713.256                          36.000          29.000
 23 11  5 12 23 30.0000000  0 10G05G13G30G20G14G22G07G15G18G08
  20709229.348   108827701.798 8      -393.756    20709234.191    84800820.029 9
      -306.822                          50.000          57.000
  20714803.965   108857080.013 8      1415.997    20714809.290    84823739.159 7
      1103.374                          49.000          43.000
  21030051.859   110513751.204 8     -1560.718    21030059.025    86114679.059 9
     -1216.142                          50.000          58.000
  21390111.993   112405700.680 8     -2761.340    21390118.372    87588833.412 7
     -2151.684                          48.000          42.000
  22159765.853   116450463.105 8      1978.121    22159772.465    90740711.711 7
      1541.392                          47.000          39.000
  22877641.950   120222917.738 7      2656.016    22877649.902    93680267.873 5
      2069.621                          44.000          32.000
  22891926.608   120297883.026 8     -2836.390    22891934.935    93738634.356 8
     -2210.165                          46.000          48.000
  23492776.829   123455384.083 7      3143.649    23492788.284    96199049.078 5
      2449.584                          42.000          30.000
  24539473.880   128955773.579 7       883.540    24539485.781   100485053.676 4
       688.465                          41.000          24.000
  25296951.234   132936373.621 6       898.222    25296970.318   103586855.967 5
       699.910                          36.000          31.000
 23 11  5 12 24  0.0000000  0 10G13G05G30G20G14G22G07G15G18G08
  20706749.575   108814753.453 8      1405.216    20706754.864    84790757.451 7
      1094.971                          50.000          43.000
  20711534.524   108839815.274 8      -414.328    20711539.384    84810259.065 9
      -322.851                          49.000          57.000
  21038997.825   110560763.269 9     -1574.063    21039005.187    86151311.743 9
     -1226.541                          51.000          58.000
  21405917.894   112488761.910 8     -2776.559    21405923.452    87653556.302 7
     -2163.546                          48.000          41.000
  22148512.729   116391327.816 8      1963.605    22148520.019    90694632.287 7
      1530.079                          46.000          39.000
  22862505.726   120143379.487 8      2645.978    22862513.982    93618290.086 5
      2061.800                          45.000          32.000
  22908136.063   120383062.798 8     -2842.751    22908144.372    93805007.967 8
     -2215.118                          46.000          48.000
  23474839.404   123361122.807 7      3139.740    23474850.679    96125598.868 5
      2446.543                          43.000          31.000
  24534481.507   128929538.272 7       864.795    24534494.731   100464610.673 4
       673.857                          41.000          25.000
  25291868.748   132909662.155 6       882.211    25291886.867   103566041.902 5
       687.434                          36.000          31.000
 23 11  5 12 24 30.0000000  0 10G13G05G30G20G14G22G07G15G18G08
  20698757.833   108772756.390 8      1394.419    20698762.943    84758032.488 7
      1086.558                          49.000          43.000
  20713958.367   108852552.758 8      -434.961    20713963.299    84820184.334 9
      -338.934                          50.000          57.000
  21048021.253   110608180.681 9     -1587.312    21048028.347    86188260.286 9
     -1236.865                          51.000          57.000
  21421811.461   112572283.533 8     -2791.743    21421815.553    87718637.997 7
     -2175.383                          47.000          39.000
  22137343.714   116332636.377 8      1948.991    22137351.558    90648898.714 7
      1518.694                          47.000          39.000
  22847429.149   120064150.858 8      2635.728    22847436.886    93556553.568 5
      2053.810                          45.000          32.000
  22924382.776   120468439.610 8     -2849.178    22924391.049    93871535.105 8
     -2220.135                          46.000          47.000
  23456926.066   123266986.931 7      3135.664    23456937.162    96052246.354 5
      2443.373                          43.000          31.000
  24529596.617   128903869.686 7       846.125    24529608.804   100444609.185 4
       659.307                          41.000          24.000
  25286879.824   132883442.703 6       865.768    25286897.586   103545611.252 5
       674.609                          34.000          28.000
 23 11  5 12 25  0.0000000  0 10G13G05G30G20G14G22G07G15G18G08
  20690829.008   108731090.339 8      1383.080    20690834.065    84725565.465 7
      1077.725                          50.000          43.000
  20716501.058   108865914.399 8      -456.020    20716506.043    84830595.968 9
      -355.336                          50.000          57.000
  21057121.589   110656002.274 9     -1601.003    21057128.718    86225523.776 9
     -1247.529                          51.000          57.000
  21437792.622   112656263.885 8     -2807.203    21437798.590    87784077.088 7
     -2187.416                          48.000          41.000
  22126260.077   116274391.449 8      1933.775    22126268.011    90603513.079 7
      1506.839                          47.000          39.000
  22832412.004   119985234.488 7      2625.136    22832419.456    93495060.365 5
      2045.557                          44.000          32.000
  22940666.923   120554012.284 8     -2855.877    22940674.929    93938214.868 8
     -2225.346                          46.000          48.000
  23439036.583   123172978.272 7      3131.248    23439047.751    95978992.973 5
      2439.938                          43.000          31.000
  24524820.406   128878769.072 7       827.001    24524832.968   100425050.356 4
       644.429                          42.000          25.000
  25281982.336   132857717.644 6       849.087    25282002.403   103525565.838 5
       661.626                          35.000          29.000
 23 11  5 12 25 30.0000000  0 10G13G05G30G20G14G22G07G15G18G08
  20682959.115   108689734.538 8      1372.492    20682964.404    84693340.188 7
      1069.476                          49.000          44.000
  20719158.485   108879879.181 8      -476.394    20719163.489    84841477.577 9
      -371.215                          49.000          57.000
  21066294.419   110704205.470 9     -1613.962    21066301.638    86263084.619 9
     -1257.628                          51.000          58.000
  21453856.963   112740679.650 8     -2821.974    21453863.646    87849855.430 7
     -2198.937                          49.000          44.000
  22115257.887   116216574.141 8      1919.228    22115265.232    90558460.645 7
      1495.503                          47.000          39.000
  22817450.593   119906612.307 7      2614.934    22817458.402    93433796.397 5
      2037.610                          44.000          32.000
  22956983.629   120639757.668 8     -2861.946    22956992.009    94005029.209 8
     -2230.080                          46.000          48.000
  23421167.435   123079076.994 7      3127.379    23421178.460    95905823.257 5
      2436.919                          43.000          30.000
  24520148.317   128854216.216 7       808.362    24520160.397   100405918.274 4
       629.889                          41.000          26.000
  25277178.321   132832466.821 5       832.790    25277197.029   103505889.964 5
       648.931                          32.000          27.000
 23 11  5 12 26  0.0000000  0 10G13G05G30G20G14G22G07G15G18G08
  20675151.567   108648706.005 8      1361.584    20675157.142    84661369.925 7
      1060.977                          49.000          44.000
  20721933.741   108894463.554 8      -497.002    20721938.816    84852841.985 9
      -387.270                          49.000          57.000
  21075542.496   110752804.786 8     -1627.143    21075549.912    86300954.129 9
     -1267.899                          50.000          57.000
  21470006.146   112825544.731 8     -2836.846    21470012.525    87915983.917 7
     -2210.526                          49.000          42.000
  22104340.665   116159202.825 8      1904.354    22104347.705    90513755.733 7
      1483.914                          47.000          39.000
  22802548.686   119828302.956 7      2604.450    22802556.798    93372776.197 5
      2029.443                          44.000          32.000
  22973336.376   120725689.979 8     -2868.069    22973344.274    94071989.220 8
     -2234.851                          45.000          47.000
  23403322.678   122985300.682 7      3123.173    23403333.310    95832750.909 5
      2433.649                          43.000          31.000
  24515583.157   128830228.283 7       789.581    24515595.308   100387226.458 4
       615.251                          40.000          23.000
  25272465.920   132807708.290 5       816.577    25272485.129   103486597.727 4
       636.291                          32.000          26.000
 23 11  5 12 26 30.0000000  0 10G13G05G30G20G14G22G07G15G18G08
  20667408.651   108608015.804 8      1351.342    20667414.065    84629663.298 7
      1052.994                          49.000          44.000
  20724829.095   108909677.592 8      -516.991    20724834.009    84864697.036 9
      -402.844                          49.000          57.000
  21084867.803   110801808.813 8     -1639.548    21084875.273    86339138.991 9
     -1277.566                          50.000          57.000
  21486242.512   112910867.135 8     -2851.022    21486248.176    87982468.758 7
     -2221.561                          47.000          40.000
  22093510.536   116102289.914 8      1890.137    22093517.987    90469408.021 7
      1472.833                          46.000          39.000
  22787709.070   119750319.499 8      2594.646    22787716.932    93312009.912 5
      2021.803                          45.000          32.000
  22989726.433   120811818.302 8     -2873.570    22989734.653    94139101.962 8
     -2239.129                          45.000          47.000
  23385503.152   122891661.115 7      3119.747    23385514.302    95759785.109 5
      2430.971                          43.000          30.000
  24511127.677   128806816.332 7       771.484    24511140.865   100368983.453 4
       601.171                          41.000          25.000
  25267850.601   132783453.612 6       800.714    25267868.988   103467698.006 4
       623.948                          34.000          26.000
 23 11  5 12 27  0.0000000  0 11G13G05G30G20G14G22G07G15G18G08G27
  20659725.543   108567640.620 8      1341.363    20659730.493    84598202.125 7
      1045.224                          50.000          43.000
  20727839.685   108925497.770 8      -536.630    20727844.528    84877024.411 9
      -418.151                          49.000          57.000
  21094265.265   110851192.243 8     -1651.588    21094272.502    86377619.497 9
     -1286.947                          50.000          57.000
  21502560.950   112996620.914 8     -2864.823    21502566.365    88049289.736 7
     -2232.327                          48.000          40.000
  22082763.248   116045813.810 8      1876.047    22082770.735    90425400.686 7
      1461.856                          47.000          39.000
  22772927.260   119672640.723 7      2584.959    22772935.355    93251481.051 5
      2014.258                          44.000          32.000
  23006148.601   120898117.478 8     -2878.686    23006157.411    94206347.858 8
     -2243.122                          45.000          47.000
  23367706.088   122798135.795 7      3116.401    23367716.827    95686908.333 5
      2428.360                          43.000          30.000
  24506778.053   128783957.431 7       753.596    24506789.525   100351171.359 4
       587.223                          42.000          24.000
  25263327.951   132759680.733 6       785.075    25263346.142   103449173.659 4
       611.757                          34.000          26.000
  25537296.205   134199403.865 5      -922.276
                                        32.000
 23 11  5 12 27 30.0000000  0 11G13G05G30G20G14G22G07G15G18G08G27
  20652104.190   108527590.300 8      1330.989    20652108.926    84566994.085 7
      1037.138                          49.000          43.000
  20730966.747   108941932.157 8      -556.652    20730971.839    84889830.386 9
      -433.753                          49.000          57.000
  21103736.223   110900962.402 8     -1664.056    21103743.567    86416401.345 9
     -1296.661                          50.000          57.000
  21518962.730   113082812.191 8     -2878.869    21518968.162    88116451.623 7
     -2243.271                          48.000          39.000
  22072101.552   115989785.647 8      1861.506    22072109.040    90381742.400 7
      1450.527                          46.000          39.000
  22758205.508   119595278.122 7      2574.858    22758213.567    93191198.555 5
      2006.382                          44.000          32.000
  23022604.435   120984593.942 8     -2884.102    23022613.798    94273731.905 8
     -2247.343                          45.000          47.000
  23349932.450   122704735.178 7      3112.742    23349943.350    95614128.752 5
      2425.512                          43.000          31.000
  24502535.358   128761661.369 7       735.235    24502547.777   100333797.925 4
       572.905                          41.000          25.000
  25258897.899   132736400.304 6       769.243    25258915.321   103431032.919 4
       599.415                          33.000          26.000
  25542621.567   134227387.012 5      -940.855    25542632.234   104592805.704 1
      -733.134                          32.000           8.000
 23 11  5 12 28  0.0000000  0 11G13G05G30G20G14G22G07G15G18G08G27
  20644546.987   108487876.414 8      1318.494    20644551.848    84536048.207 7
      1027.400                          50.000          44.000
  20734213.244   108958991.635 8      -578.766    20734218.248    84903123.430 9
      -450.989                          49.000          57.000
  21113282.552   110951128.165 8     -1678.423    21113289.968    86455491.452 9
     -1307.857                          50.000          57.000
  21535449.620   113169449.415 8     -2894.976    21535454.873    88183961.014 7
     -2255.828                          49.000          41.000
  22061527.290   115934218.031 8      1844.835    22061534.688    90338442.979 7
      1437.532                          47.000          39.000
  22743546.566   119518245.051 7      2562.568    22743554.767    93131172.840 6
      1996.800                          44.000          33.000
  23039096.435   121071256.778 8     -2891.605    23039105.334    94341261.178 8
     -2253.194                          45.000          47.000
  23332184.579   122611471.218 7      3106.852    23332195.836    95541455.650 5
      2420.917                          43.000          31.000
  24498401.699   128739939.331 7       714.890    24498412.492   100316871.701 4
       557.066                          41.000          24.000
  25254563.607   132713624.409 5       751.220    25254581.369   103413285.293 4
       585.356                          32.000          25.000
  25548055.108   134255945.301 6      -961.234    25548067.098   104615059.319 2
      -749.038                          33.000           9.000
 23 11  5 12 28 30.0000000  0 11G13G05G30G20G14G22G07G15G18G08G27
  20637050.986   108448485.596 8      1308.164    20637056.204    84505354.075 7
      1019.348                          50.000          44.000
  20737576.123   108976663.514 8      -598.814    20737581.323    84916893.675 9
      -466.605                          49.000          57.000
  21122901.197   111001674.286 8     -1690.782    21122908.755    86494877.934 9
     -1317.487                          50.000          57.000
  21552017.849   113256516.410 8     -2908.901    21552024.264    88251805.270 7
     -2266.671                          48.000          42.000
  22051038.513   115879099.473 8      1830.209    22051045.964    90295493.474 7
      1426.139                          47.000          40.000
  22728947.913   119441530.098 8      2552.287    22728956.562    93071395.018 6
      1988.795                          45.000          33.000
  23055620.796   121158091.139 7     -2896.816    23055628.730    94408924.103 8
     -2257.253                          44.000          46.000
  23314460.759   122518331.754 7      3103.051    23314471.927    95468879.566 5
      2417.956                          44.000          31.000
  24494374.539   128718778.337 7       696.497    24494387.029   100300382.614 4
       542.718                          40.000          24.000
  25250323.270   132691340.736 5       735.109    25250341.996   103395921.126 4
       572.818                          32.000          25.000
  25553596.113   134285063.390 6      -979.459    25553608.085   104637749.013 2
      -763.222                          35.000          14.000
 23 11  5 12 29  0.0000000  0 11G13G05G30G20G14G22G07G15G18G08G27
  20629618.705   108409428.161 8      1295.786    20629623.834    84474919.717 7
      1009.701                          50.000          44.000
  20741057.152   108994955.551 8      -620.637    20741062.191    84931147.160 9
      -483.612                          50.000          58.000
  21132593.873   111052608.381 8     -1704.773    21132601.217    86534566.737 9
     -1328.391                          50.000          57.000
  21568668.991   113344020.116 8     -2924.586    21568676.192    88319989.784 7
     -2278.894                          48.000          41.000
  22040637.491   115824441.275 8      1813.699    22040644.781    90252902.693 7
      1413.271                          48.000          40.000
  22714412.893   119365145.384 8      2540.074    22714420.290    93011874.517 6
      1979.278                          45.000          33.000
  23072178.751   121245104.158 8     -2903.912    23072186.685    94476726.254 8
     -2262.785                          45.000          47.000
  23296762.725   122425327.044 7      3097.252    23296773.250    95396408.494 5
      2413.439                          44.000          31.000
  24490456.774   128698188.609 7       676.167    24490469.193   100284338.700 4
       526.889                          41.000          26.000
  25246178.121   132669559.907 6       717.135    25246197.509   103378948.775 4
       558.814                          33.000          25.000
  25559244.958   134314750.057 6      -999.691    25559257.359   104660881.842 2
      -779.005                          33.000          13.000
 23 11  5 12 29 30.0000000  0 11G13G05G30G20G14G22G07G15G18G08G27
  20622251.486   108370712.873 8      1285.158    20622256.578    84444751.967 7
      1001.426                          50.000          44.000
  20744657.617   109013876.305 8      -640.816    20744662.656    84945890.543 9
      -499.333                          50.000          58.000
  21142361.367   111103936.990 8     -1717.056    21142368.783    86574562.941 9
     -1337.962                          50.000          57.000
  21585404.993   113431966.318 8     -2938.483    21585411.444    88388519.114 7
     -2289.721                          48.000          41.000
  22030325.867   115770253.748 8      1798.814    22030332.997    90210678.660 7
      1401.672                          47.000          40.000
  22699941.879   119289101.469 8      2529.521    22699949.116    92952619.559 6
      1971.050                          45.000          33.000
  23088772.033   121332302.387 8     -2909.193    23088780.914    94544672.718 8
     -2266.895                          45.000          47.000
  23279091.727   122332466.946 7      3093.309    23279102.466    95324050.115 5
      2410.371                          43.000          31.000
  24486648.885   128678178.937 7       657.756    24486661.161   100268746.782 4
       512.542                          41.000          23.000
  25242130.966   132648292.340 6       700.751    25242150.961   103362376.286 4
       546.051                          34.000          26.000
  25565003.733   134345012.739 5     -1017.868    25565016.027   104684463.551 2
      -793.183                          30.000           9.000
 23 11  5 12 30  0.0000000  0 11G13G05G30G20G14G22G07G15G18G08G27
  20614948.220   108332334.793 8      1273.376    20614953.419    84414846.980 7
       992.242                          50.000          44.000
  20748376.786   109033419.799 8      -662.130    20748381.753    84961119.178 9
      -515.940                          49.000          58.000
  21152202.749   111155652.644 8     -1730.556    21152209.932    86614860.739 9
     -1348.480                          50.000          57.000
  21602223.371   113520346.817 8     -2953.487    21602229.268    88457386.881 7
     -2301.411                          48.000          40.000
  22020103.410   115716533.132 8      1782.593    22020110.504    90168818.460 7
      1389.033                          48.000          40.000
  22685535.426   119213395.270 8      2517.620    22685542.877    92893627.759 6
      1961.780                          45.000          33.000
  23105399.034   121419678.415 8     -2915.711    23105408.469    94612757.718 8
     -2271.972                          46.000          47.000
  23261447.925   122239747.000 7      3088.002    23261458.360    95251800.958 5
      2406.239                          43.000          31.000
  24482950.283   128658744.206 7       637.935    24482963.309   100253602.895 4
       497.087                          40.000          24.000
  25238180.965   132627533.732 6       683.143    25238200.817   103346200.463 5
       532.328                          35.000          27.000
  25570870.098   134375844.402 5     -1037.452    25570882.856   104708488.575 2
      -808.422                          32.000          10.000
 23 11  5 12 30 30.0000000  0 11G13G05G30G20G14G22G07G15G18G08G27
  20607711.962   108294308.209 8      1261.300    20607717.001    84385215.885 7
       982.833                          50.000          44.000
  20752216.910   109053599.408 8      -683.633    20752221.824    84976843.489 9
      -532.696                          49.000          57.000
  21162119.735   111207767.394 8     -1744.186    21162127.079    86655469.528 9
     -1359.102                          50.000          57.000
  21619126.788   113609172.723 8     -2968.609    21619132.381    88526601.715 7
     -2313.193                          48.000          40.000
  22009972.300   115663295.171 8      1766.159    22009979.733    90127334.351 7
      1376.224                          47.000          40.000
  22671196.071   119138043.195 8      2505.449    22671204.201    92834911.900 6
      1952.297                          45.000          33.000
  23122062.684   121507244.234 8     -2922.380    23122071.904    94680990.592 8
     -2277.171                          45.000          46.000
  23243833.107   122147182.454 7      3082.426    23243843.792    95179672.882 5
      2401.891                          44.000          30.000
  24479364.167   128639898.700 7       617.992    24479375.639   100238918.115 4
       481.554                          39.000          23.000
  25234331.316   132607298.588 6       665.427    25234351.026   103330432.609 5
       518.521                          34.000          27.000
  25576847.500   134407258.330 5     -1056.799    25576860.616   104732967.436 1
      -823.421                          28.000           4.000
 23 11  5 12 31  0.0000000  0 11G13G05G30G20G14G22G07G15G18G08G27
  20600538.121   108256608.249 8      1251.217    20600542.910    84355839.305 7
       974.977                          50.000          44.000
  20756173.023   109074389.593 8      -703.106    20756177.972    84993043.579 9
      -547.870                          50.000          57.000
  21172107.697   111260254.259 8     -1755.693    21172115.327    86696368.279 9
     -1368.069                          50.000          57.000
  21636109.257   113698416.539 8     -2981.732    21636115.261    88596142.196 7
     -2323.420                          48.000          40.000
  21999929.105   115610516.537 8      1751.647    21999936.092    90086208.163 7
      1364.920                          47.000          40.000
  22656920.473   119063022.859 8      2495.131    22656928.424    92776454.523 6
      1944.252                          45.000          33.000
  23138757.122   121594973.196 8     -2927.005    23138766.379    94749350.580 8
     -2280.770                          45.000          46.000
  23226243.609   122054749.756 7      3078.986    23226254.527    95107647.554 5
      2399.207                          44.000          30.000
  24475885.568   128621617.723 7       600.058    24475898.005   100224673.253 4
       467.569                          39.000          23.000
  25230575.551   132587563.319 6       649.571    25230595.297   103315054.338 5
       506.170                          34.000          27.000
  25582932.260   134439228.344 4     -1075.014    25582944.071   104757879.824 1
      -837.662                          26.000           5.000
 23 11  5 12 31 30.0000000  0 11G13G05G30G20G14G22G07G15G18G08G27
  20593425.643   108219233.626 8      1240.345    20593430.807    84326716.227 7
       966.502                          50.000          44.000
  20760245.105   109095787.891 8      -723.516    20760249.965    85009717.513 9
      -563.777                          50.000          57.000
  21182165.795   111313109.453 8     -1767.999    21182173.604    86737554.044 9
     -1377.658                          50.000          57.000
  21653170.118   113788073.472 8     -2995.478    21653177.015    88666004.572 7
     -2334.130                          46.000          39.000
  21989973.218   115558197.129 8      1736.273    21989980.294    90045439.807 7
      1352.937                          47.000          40.000
  22642707.666   118988334.068 8      2484.069    22642715.475    92718255.546 6
      1935.635                          45.000          34.000
  23155481.938   121682860.974 8     -2932.222    23155491.284    94817834.314 8
     -2284.838                          45.000          46.000
  23208678.985   121962447.754 7      3074.424    23208690.063    95035724.070 5
      2395.651                          44.000          31.000
  24472513.952   128603899.905 7       581.190    24472526.085   100210867.216 4
       452.863                          39.000          24.000
  25226914.224   132568327.464 6       632.699    25226934.738   103300065.382 5
       493.020                          35.000          28.000
  25589118.569   134471750.959 5     -1093.592    25589133.007   104783222.67411
      -852.211                          27.000           2.000
 23 11  5 12 32  0.0000000  0 11G13G05G30G20G14G22G07G15G18G08G27
  20586376.867   108182191.286 8      1230.364    20586382.013    84297852.065 7
       958.718                          50.000          44.000
  20764433.872   109117800.013 8      -742.813    20764438.875    85026869.750 9
      -578.819                          50.000          57.000
  21192294.904   111366337.246 8     -1779.247    21192302.481    86779030.147 9
     -1386.424                          50.000          57.000
  21670310.996   113878147.032 8     -3008.155    21670317.768    88736191.563 7
     -2344.017                          47.000          40.000
  21980105.568   115506344.953 8      1721.829    21980113.359    90005035.533 7
      1341.683                          48.000          41.000
  22628559.635   118913985.460 8      2473.699    22628567.051    92660321.650 6
      1927.553                          45.000          34.000
  23172237.560   121770912.045 8     -2936.498    23172246.691    94886445.305 8
     -2288.178                          46.000          46.000
  23191140.735   121870283.948 7      3071.068    23191151.528    94963908.274 5
      2393.028                          44.000          31.000
  24469250.675   128586751.595 7       563.255    24469263.094   100197504.961 4
       438.882                          39.000          24.000
  25223351.409   132549598.432 6       616.918    25223370.940   103285471.402 5
       480.703                          33.000          28.000
  25595414.023   134504830.970 4     -1110.661
      -865.257                          26.000
 23 11  5 12 32 30.0000000  0 10G13G05G30G20G14G22G15G07G18G08
  20579392.134   108145486.295 8      1216.896    20579397.387    84269250.772 8
       948.230                          50.000          45.000
  20768740.467   109140430.197 8      -765.640    20768745.238    85044503.591 9
      -596.597                          50.000          57.000
  21202495.204   111419940.566 8     -1794.007    21202502.852    86820798.872 9
     -1397.922                          50.000          57.000
  21687531.409   113968639.388 8     -3024.402    21687538.324    88806704.902 7
     -2356.664                          48.000          41.000
  21970328.586   115454966.565 8      1703.690    21970336.216    89965000.438 7
      1327.550                          48.000          40.000
  22614477.433   118839984.064 8      2459.877    22614485.063    92602658.305 6
      1916.792                          45.000          34.000
  23173629.557   121778264.112 7      3063.963    23173640.332    94892204.655 5
      2387.493                          44.000          31.000
  23189025.043   121859129.488 8     -2944.325    23189034.138    94955185.931 8
     -2294.269                          45.000          46.000
  24466096.524   128570177.869 6       541.909    24466110.123   100184590.399 4
       422.264                          38.000          23.000
  25219884.336   132531381.949 6       597.757    25219903.670   103271276.893 5
       465.787                          34.000          28.000
 23 11  5 12 33  0.0000000  0 10G13G05G30G20G14G22G15G07G18G08
  20572467.405   108109095.983 8      1207.883    20572472.444    84240894.678 7
       941.205                          50.000          44.000
  20773159.888   109163655.018 8      -784.057    20773164.748    85062600.783 9
      -610.954                          50.000          57.000
  21212762.548   111473894.373 8     -1804.217    21212770.035    86862840.706 9
     -1405.880                          49.000          56.000
  21704826.139   114059524.658 8     -3035.915    21704832.590    88877524.430 7
     -2365.645                          48.000          39.000
  21960637.732   115404040.536 8      1690.053    21960644.880    89925317.834 7
      1316.922                          48.000          40.000
  22600457.219   118766309.009 8      2450.526    22600464.903    92545249.246 6
      1909.489                          46.000          34.000
  23156141.841   121686366.534 7      3061.290    23156152.420    94820596.280 5
      2385.418                          44.000          31.000
  23205839.114   121947488.071 8     -2947.500    23205848.120    95024036.549 8
     -2296.748                          45.000          46.000
  24463047.551   128554156.004 6       524.921    24463060.148   100172105.801 4
       409.027                          38.000          23.000
  25216512.130   132513655.932 6       582.647    25216530.356   103257464.552 5
       454.018                          34.000          28.000
 23 11  5 12 33 30.0000000  0 10G13G05G30G20G14G22G15G07G18G08
  20565606.719   108073043.183 8      1195.512    20565611.847    84212801.579 7
       931.570                          50.000          44.000
  20777696.636   109187495.892 8      -805.507    20777701.675    85081178.019 9
      -627.657                          50.000          57.000
  21223100.099   111528218.799 8     -1817.584    21223107.765    86905171.333 9
     -1416.294                          49.000          56.000
  21722199.708   114150821.881 8     -3050.690    21722205.373    88948664.961 6
     -2377.154                          48.000          38.000
  21951037.582   115353590.700 8      1673.106    21951044.658    89886006.279 7
      1303.720                          48.000          41.000
  22586503.907   118692984.740 8      2437.714    22586512.109    92488113.527 6
      1899.516                          46.000          34.000
  23138682.269   121594614.343 7      3055.420    23138692.615    94749101.181 5
      2380.849                          43.000          32.000
  23222684.171   122036008.006 8     -2953.916    23222693.087    95093012.909 8
     -2301.742                          45.000          45.000
  24460109.061   128538708.231 6       504.699    24460120.355   100160068.539 4
       393.270                          38.000          23.000
  25213235.844   132496443.135 6       564.510    25213255.536   103244052.095 5
       439.875                          36.000          29.000
 23 11  5 12 34  0.0000000  0 10G13G05G30G20G14G22G15G07G18G08
  20558814.918   108037351.419 8      1184.565    20558820.153    84184989.806 8
       923.040                          50.000          45.000
  20782355.108   109211975.826 8      -825.746    20782360.219    85100253.222 9
      -643.437                          50.000          57.000
  21233512.307   111582935.451 8     -1829.454    21233520.223    86947807.592 9
     -1425.545                          49.000          57.000
  21739655.492   114242552.049 8     -3063.974    21739661.818    89020142.835 7
     -2387.503                          47.000          39.000
  21941532.494   115303642.245 8      1657.481    21941540.285    89847085.420 7
      1291.543                          48.000          41.000
  22572622.731   118620037.225 8      2426.148    22572630.951    92431271.388 6
      1890.494                          46.000          35.000
  23121255.004   121503032.473 7      3050.804    23121265.350    94677738.785 6
      2377.250                          43.000          33.000
  23239564.054   122124710.964 8     -2958.894    23239572.810    95162131.917 8
     -2305.630                          45.000          45.000
  24457282.664   128523858.358 7       485.795    24457295.119   100148497.127 4
       378.546                          39.000          24.000
  25210062.181   132479768.640 6       547.741    25210082.266   103231059.119 5
       426.808                          35.000          28.000
 23 11  5 12 34 30.0000000  0 10G13G05G30G20G14G22G15G07G18G08
  20252290.359   106426554.803 8      1175.222    20252295.666    82929823.594 8
       915.764                          50.000          45.000
  20487334.090   107661629.224 8      -844.319    20487339.237    83892190.863 9
      -657.909                          49.000          57.000
  20944198.119   110062578.700 8     -1839.771    20944206.142    85763113.922 9
     -1433.579                          49.000          56.000
  21457392.760   112759249.922 8     -3075.583    21457399.246    87864322.786 6
     -2396.552                          46.000          38.000
  21632321.828   113678729.691 8      1643.354    21632329.655    88580919.803 7
      1280.539                          48.000          41.000
  22259011.354   116972000.469 8      2416.237    22259019.860    91147086.969 6
      1882.784                          46.000          35.000
  22804058.707   119836153.694 7      3047.793    22804068.482    93378872.298 6
      2374.902                          44.000          33.000
  22956677.657   120638132.676 8     -2962.236    22956686.949    94003759.046 8
     -2308.229                          45.000          46.000
  24154769.380   126934140.569 7       468.695    24154781.477    98909755.919 4
       365.215                          39.000          24.000
  24907190.533   130888167.184 6       532.483    24907209.867   101990850.309 5
       414.916                          35.000          29.000
 23 11  5 12 35  0.0000000  0 10G13G05G30G20G14G22G15G07G18G08
  20245619.066   106391496.590 8      1161.836    20245624.105    82902505.494 8
       905.329                          50.000          45.000
  20492218.141   107687294.635 8      -866.894    20492223.359    83912189.811 9
      -675.496                          50.000          57.000
  20954741.343   110117983.692 8     -1854.019    20954749.384    85806286.540 9
     -1444.687                          50.000          56.000
  21474994.927   112851747.422 8     -3091.108    21475001.217    87936398.566 7
     -2408.643                          48.000          40.000
  21622991.643   113629698.779 8      1625.162    21622998.987    88542713.897 7
      1266.359                          48.000          41.000
  22245257.638   116899722.246 8      2402.135    22245265.465    91090766.340 6
      1871.794                          46.000          35.000
  22786679.117   119744825.880 8      3040.646    22786689.338    93307707.855 6
      2369.329                          45.000          34.000
  22973608.485   120727106.000 8     -2969.470    22973618.206    94073088.728 8
     -2313.864                          46.000          45.000
  24152153.891   126920396.998 7       447.423    24152166.596    98899046.602 4
       348.650                          40.000          24.000
  24904205.316   130872481.545 6       513.200    24904225.204   101978627.770 5
       399.899                          35.000          28.000
 23 11  5 12 35 30.0000000  0 10G13G05G30G20G14G22G15G07G18G08
  20239013.710   106356784.348 8      1150.786    20239018.714    82875456.980 8
       896.716                          50.000          45.000
  20497220.181   107713579.909 8      -886.964    20497225.345    83932671.770 9
      -691.144                          50.000          57.000
  20965354.828   110173758.143 8     -1865.827    20965362.815    85849747.048 9
     -1453.889                          49.000          56.000
  21492674.038   112944652.546 8     -3104.108    21492681.096    88008791.979 7
     -2418.785                          48.000          41.000
  21613754.680   113581157.259 8      1609.377    21613762.025    88504889.339 7
      1254.060                          48.000          41.000
  22231573.755   116827810.580 8      2390.407    22231580.831    91034731.342 6
      1862.644                          46.000          35.000
  22769329.582   119653654.974 8      3035.866    22769340.107    93236665.675 6
      2365.605                          45.000          34.000
  22990570.476   120816239.589 8     -2974.320    22990579.983    94142543.299 8
     -2317.650                          45.000          46.000
  24149649.833   126907234.955 7       428.461    24149661.966    98888790.391 4
       333.863                          40.000          25.000
  24901319.898   130857319.887 6       496.071    24901340.358   101966813.514 5
       386.535                          34.000          27.000
 23 11  5 12 36  0.0000000  0 10G13G05G30G20G14G22G15G07G18G08
  20232467.412   106322384.467 8      1143.014    20232472.880    82848651.860 8
       890.665                          50.000          45.000
  20502333.473   107740450.202 8      -903.881    20502338.477    83953609.585 9
      -704.321                          50.000          57.000
  20976032.195   110229866.305 8     -1874.255    20976039.932    85893467.577 9
     -1460.451                          49.000          56.000
  21510423.678   113037928.658 8     -3113.825    21510431.058    88081474.449 7
     -2426.347                          47.000          39.000
  21604604.794   113533073.029 8      1596.746    21604611.852    88467421.113 7
      1244.218                          47.000          41.000
  22217952.699   116756233.564 8      2381.897    22217960.097    90978957.094 6
      1856.021                          46.000          35.000
  22752004.046   119562608.377 8      3034.413    22752014.267    93165720.334 6
      2364.477                          45.000          34.000
  23007555.966   120905498.188 8     -2975.843    23007565.847    94212095.267 8
     -2318.830                          45.000          46.000
  24147249.148   126894620.767 7       412.891    24147261.477    98878961.081 4
       321.741                          40.000          25.000
  24898528.613   130842649.872 6       482.459    24898547.823   101955382.345 5
       375.945                          35.000          28.000
 23 11  5 12 36 30.0000000  0 10G13G05G30G20G14G22G15G07G18G08
  20225987.175   106288329.935 8      1126.994    20225992.393    82822115.847 7
       878.182                          50.000          44.000
  20507564.112   107767937.673 8      -928.954    20507569.169    83975028.325 9
      -723.847                          50.000          57.000
  20986778.571   110286338.723 8     -1890.782    20986786.487    85937471.942 9
     -1473.329                          49.000          56.000
  21528250.351   113131605.366 8     -3131.605    21528256.677    88154469.082 6
     -2440.195                          47.000          38.000
  21595548.004   113485480.193 8      1575.890    21595555.098    88430335.790 7
      1227.966                          47.000          40.000
  22204402.029   116685026.048 8      2365.019    22204409.910    90923470.777 6
      1842.878                          46.000          35.000
  22734708.797   119471720.275 8      3024.556    22734718.732    93094898.498 6
      2356.802                          45.000          34.000
  23024571.099   120994912.108 8     -2985.445    23024580.445    94281768.276 8
     -2326.306                          46.000          46.000
  24144959.483   126882587.167 7       389.006    24144970.794    98869584.204 4
       303.122                          40.000          25.000
  24895837.324   130828504.240 6       460.189    24895855.729   101944359.765 5
       358.602                          35.000          28.000
 23 11  5 12 37  0.0000000  0 10G13G05G30G20G14G22G15G07G18G08
  20219573.375   106254625.333 8      1118.675    20219578.360    82795852.502 7
       871.694                          50.000          44.000
  20512913.150   107796045.604 8      -946.218    20512918.243    83996930.534 9
      -737.314                          50.000          57.000
  20997594.888   110343177.725 8     -1899.646    20997602.804    85981761.952 9
     -1480.241                          49.000          56.000
  21546152.968   113225684.293 8     -3141.564    21546159.240    88227777.154 6
     -2447.968                          47.000          38.000
  21586586.100   113438384.620 8      1562.579    21586592.890    88393637.939 7
      1217.591                          48.000          41.000
  22190923.336   116614194.449 8      2355.818    22190930.877    90868277.385 6
      1835.700                          46.000          35.000
  22717444.355   119380995.960 8      3022.420    22717454.236    93024204.290 6
      2355.124                          45.000          34.000
  23041616.110   121084483.987 8     -2987.315    23041625.080    94351564.361 8
     -2327.772                          45.000          45.000
  24142780.266   126871138.510 7       372.932    24142793.203    98860663.168 4
       290.597                          41.000          26.000
  24893247.048   130814888.314 6       446.062    24893264.578   101933749.887 5
       347.583                          36.000          30.000
 23 11  5 12 37 30.0000000  0 10G13G05G30G20G14G22G15G07G18G08
  20213224.779   106221262.996 8      1105.900    20213229.890    82769855.858 8
       861.736                          50.000          45.000
  20518378.033   107824765.124 8      -967.950    20518383.573    84019309.300 9
      -754.253                          50.000          57.000
  21008478.767   110400373.009 8     -1912.871    21008486.826    86026329.594 9
     -1490.544                          50.000          56.000
  21564130.242   113320154.253 8     -3155.981    21564137.085    88301389.897 7
     -2459.208                          47.000          39.000
  21577717.132   113391779.473 8      1544.821    21577724.548    88357322.237 7
      1203.756                          48.000          41.000
  22177514.761   116543732.623 8      2342.077    22177522.212    90813372.117 6
      1824.987                          46.000          35.000
  22700209.771   119290428.321 8      3015.797    22700220.064    92953632.175 6
      2349.966                          45.000          34.000
  23058689.301   121174203.394 8     -2993.528    23058698.682    94421475.371 8
     -2332.620                          45.000          46.000
  24140711.533   126860266.320 7       352.291    24140724.345    98852191.295 4
       274.492                          41.000          26.000
  24890754.784   130801794.944 6       427.232    24890773.868   101923547.248 5
       332.907                          36.000          30.000
 23 11  5 12 38  0.0000000  0 10G13G05G30G14G20G22G15G07G18G08
  20206941.870   106188246.396 8      1094.495    20206947.409    82744128.623 8
       852.848                          49.000          45.000
  20523960.459   107854098.510 8      -988.285    20523965.587    84042166.409 9
      -770.090                          49.000          57.000
  21019430.655   110457925.847 8     -1924.677    21019438.839    86071175.847 9
     -1499.745                          49.000          56.000
  21568942.798   113345669.607 8      1528.428    21568950.196    88321392.467 7
      1190.981                          47.000          41.000
  21582182.154   113415015.656 8     -3168.795    21582189.284    88375307.645 7
     -2469.185                          48.000          40.000
  22164177.554   116473645.891 8      2329.623    22164185.095    90758759.113 6
      1815.292                          47.000          36.000
  22683005.869   119200021.803 8      3010.586    22683016.197    92883185.615 6
      2345.909                          45.000          35.000
  23075790.724   121264071.834 8     -2998.436    23075800.284    94491502.498 8
     -2336.434                          45.000          45.000
  24138753.464   126849973.898 7       333.129    24138765.382    98844171.139 4
       259.584                          41.000          26.000
  24888363.158   130789228.394 6       409.720    24888382.207   101913755.043 5
       319.272                          37.000          31.000
 23 11  5 12 38 30.0000000  0 10G13G05G30G14G20G22G15G07G18G08
  20200725.433   106155578.828 8      1083.864    20200730.955    82718673.373 8
       844.570                          49.000          45.000
  20529659.355   107884047.476 8     -1007.788    20529664.483    84065503.197 9
      -785.289                          50.000          57.000
  21030451.089   110515837.075 8     -1935.493    21030458.951    86116301.378 9
     -1508.176                          49.000          56.000
  21560263.367   113300059.326 8      1512.783    21560270.872    88285851.993 7
      1178.793                          48.000          41.000
  21600307.848   113510268.222 8     -3180.768    21600314.817    88449530.218 7
     -2478.516                          47.000          39.000
  22150912.753   116403939.465 8      2318.016    22150920.651    90704442.461 6
      1806.245                          46.000          36.000
  22665833.649   119109780.559 8      3006.028    22665843.834    92812867.859 6
      2342.349                          45.000          35.000
  23092921.006   121354090.021 8     -3002.253    23092930.208    94561646.318 8
     -2339.413                          45.000          45.000
  24136905.735   126840264.119 7       314.545    24136917.743    98836604.988 4
       245.095                          40.000          26.000
  24886072.922   130777191.609 6       393.071    24886092.345   101904375.595 5
       306.287                          36.000          31.000
 23 11  5 12 39  0.0000000  0 10G13G05G30G14G20G22G15G07G18G08
  20194575.666   106123261.333 8      1072.358    20194580.812    82693490.901 7
       835.612                          50.000          44.000
  20535475.561   107914612.421 8     -1028.150    20535481.029    84089319.962 9
      -801.150                          50.000          57.000
  21041539.157   110574105.581 8     -1947.313    21041547.234    86161705.306 9
     -1517.382                          49.000          56.000
  21551679.696   113254951.002 8      1496.208    21551686.736    88250702.639 7
      1165.880                          47.000          40.000
  21618508.198   113605910.138 8     -3193.570    21618514.774    88524056.174 6
     -2488.484                          46.000          37.000
  22137721.447   116334616.167 8      2305.289    22137729.238    90650424.355 6
      1796.329                          46.000          36.000
  22648692.985   119019706.659 8      3000.616    22648703.349    92742680.512 6
      2338.145                          45.000          35.000
  23110079.020   121444257.023 8     -3007.060    23110089.116    94631906.086 8
     -2343.151                          45.000          45.000
  24135169.813   126831137.752 7       295.470    24135181.071    98829493.415 4
       230.239                          40.000          25.000
  24883884.341   130765687.016 6       375.628    24883902.479   101895410.797 5
       292.708                          36.000          30.000
 23 11  5 12 39 30.0000000  0 10G13G05G30G14G20G22G15G07G18G08
  20188488.244   106091272.864 8      1060.199    20188493.462    82668564.812 8
       826.136                          50.000          45.000
  20541405.021   107945770.277 8     -1049.116    20541410.453    84113598.737 9
      -817.480                          49.000          57.000
  21052690.839   110632707.478 8     -1959.576    21052698.809    86207369.029 9
     -1526.941                          50.000          56.000
  21543187.371   113210324.254 8      1478.928    21543194.626    88215928.540 7
      1152.413                          48.000          41.000
  21636777.898   113701916.394 8     -3206.874    21636784.795    88598866.024 7
     -2498.850                          48.000          39.000
  22124598.222   116265656.265 8      2291.964    22124606.246    90596689.414 6
      1785.949                          47.000          36.000
  22631580.250   118929779.442 8      2994.473    22631590.865    92672607.484 6
      2333.361                          45.000          35.000
  23127261.390   121534549.361 8     -3012.461    23127271.558    94702263.529 8
     -2347.353                          45.000          45.000
  24133539.604   126822573.004 7       275.513    24133551.523    98822819.521 4
       214.695                          41.000          26.000
  24881791.790   130754692.783 6       357.316    24881811.338   101886843.681 5
       278.436                          37.000          31.000
 23 11  5 12 40  0.0000000  0 10G13G05G30G14G20G22G15G07G18G08
  20182473.102   106059661.665 8      1048.723    20182478.195    82643932.711 8
       817.187                          49.000          45.000
  20547455.973   107977567.734 8     -1069.191    20547461.262    84138375.903 9
      -833.133                          49.000          57.000
  21063914.480   110691688.724 8     -1970.989    21063922.753    86253328.354 9
     -1535.833                          50.000          56.000
  21534796.239   113166228.471 8      1462.368    21534803.476    88181568.180 7
      1139.509                          48.000          41.000
  21655125.203   113798332.180 8     -3219.313    21655132.530    88673994.982 6
     -2508.543                          47.000          38.000
  22111554.211   116197109.725 8      2279.334    22111562.252    90543276.553 6
      1776.101                          47.000          36.000
  22614504.952   118840048.188 8      2989.107    22614515.619    92602687.141 6
      2329.166                          45.000          34.000
  23144476.353   121625012.898 7     -3016.890    23144486.557    94772754.363 8
     -2350.817                          44.000          45.000
  24132025.383   126814617.580 7       256.399    24132038.356    98816620.413 4
       199.798                          41.000          26.000
  24879806.023   130744257.954 6       339.903    24879825.643   101878712.426 5
       264.869                          36.000          32.000
 23 11  5 12 40 30.0000000  0 10G13G05G30G14G20G22G15G07G18G08
  20176520.591   106028381.481 8      1038.073    20176525.916    82619558.560 8
       808.895                          50.000          45.000
  20553619.517   108009957.557 8     -1088.599    20553624.842    84163614.648 9
      -848.255                          50.000          57.000
  21075201.484   110751000.728 8     -1981.667    21075209.757    86299545.413 9
     -1544.148                          50.000          56.000
  21526497.079   113122618.527 8      1446.482    21526504.923    88147586.394 7
      1127.137                          48.000          41.000
  21673541.394   113895107.918 8     -3230.934    21673548.023    88749404.426 6
     -2517.604                          47.000          37.000
  22098580.585   116128932.326 8      2267.295    22098588.680    90490151.341 6
      1766.722                          47.000          37.000
  22597458.279   118750467.465 8      2984.395    22597468.697    92532884.104 6
      2325.498                          45.000          35.000
  23161714.796   121715599.362 8     -3020.661    23161724.303    94843340.980 8
     -2353.751                          45.000          45.000
  24130618.234   126807224.868 7       238.025    24130631.207    98810859.783 4
       185.484                          40.000          26.000
  24877918.500   130734336.757 6       323.092    24877937.745   101870981.434 5
       251.765                          37.000          31.000
 23 11  5 12 41  0.0000000  0 10G13G05G30G14G20G22G15G07G18G08
  20170632.891   105997439.953 8      1026.177    20170637.858    82595448.294 8
       799.615                          49.000          45.000
  20559896.887   108042946.194 8     -1109.105    20559902.248    84189320.005 9
      -864.232                          50.000          58.000
  21086552.280   110810648.851 8     -1993.403    21086560.411    86346024.378 9
     -1553.296                          49.000          56.000
  21518292.731   113079503.210 8      1429.390    21518300.719    88113990.032 7
      1113.811                          48.000          41.000
  21692026.666   113992247.783 8     -3243.521    21692033.331    88825097.614 7
     -2527.410                          47.000          39.000
  22085679.044   116061133.277 8      2254.080    22085687.049    90437320.948 6
      1756.422                          46.000          37.000
  22580441.680   118661046.124 8      2978.519    22580452.169    92463205.274 6
      2320.920                          45.000          36.000
  23178977.881   121806314.249 7     -3025.484    23178987.405    94914027.686 8
     -2357.509                          44.000          45.000
  24129320.228   126800401.985 7       218.372    24129332.915    98805543.160 4
       170.160                          39.000          25.000
  24876130.311   130724937.505 6       305.081    24876148.770   101863657.167 6
       237.731                          36.000          33.000
 23 11  5 12 41 30.0000000  0 10G13G05G30G14G20G22G15G07G18G08
  20164810.573   105966843.979 8      1014.243    20164815.648    82571607.296 8
       790.319                          49.000          45.000
  20566289.619   108076538.947 8     -1129.680    20566294.980    84215496.105 9
      -880.268                          49.000          58.000
  21097967.745   110870637.172 8     -2005.180    21097975.572    86392768.438 9
     -1562.474                          49.000          56.000
  21510184.072   113036890.063 8      1412.194    21510191.738    88080784.971 7
      1100.411                          47.000          41.000
  21710581.448   114089755.273 8     -3256.185    21710589.239    88901077.252 7
     -2537.283                          47.000          39.000
  22072851.051   115993720.833 8      2240.743    22072858.645    90384791.812 6
      1746.027                          47.000          37.000
  22563457.191   118571791.498 8      2972.420    22563467.448    92393656.370 6
      2316.160                          45.000          36.000
  23196265.714   121897161.580 7     -3030.229    23196275.452    94984817.610 8
     -2361.216                          44.000          45.000
  24128131.974   126794154.911 7       198.700    24128143.839    98800675.191 4
       154.828                          39.000          24.000
  24874442.225   130716066.571 6       287.053    24874461.148   101856744.668 5
       223.679                          36.000          32.000
 23 11  5 12 42  0.0000000  0 10G13G05G30G14G20G22G15G07G18G08
  20159060.250   105936626.810 8      1000.596    20159065.557    82548061.480 8
       779.684                          50.000          45.000
  20572802.842   108110767.175 8     -1151.790    20572808.757    84242167.374 9
      -897.493                          50.000          58.000
  21109453.756   110930996.757 8     -2018.472    21109461.637    86439801.785 9
     -1572.831                          50.000          56.000
  21502177.213   112994813.544 8      1393.287    21502184.790    88047998.059 7
      1085.679                          47.000          41.000
  21729212.335   114187660.245 8     -3270.408    21729220.304    88977366.585 6
     -2548.353                          46.000          38.000
  22060102.736   115926730.064 8      2225.669    22060110.277    90332591.242 6
      1734.288                          47.000          37.000
  22546510.603   118482737.808 8      2964.735    22546520.681    92324264.042 6
      2310.178                          45.000          36.000
  23213584.871   121988172.878 7     -3036.539    23213593.716    95055735.317 8
     -2366.122                          44.000          45.000
  24127058.689   126788516.500 7       177.500    24127071.376    98796281.487 4
       138.328                          40.000          25.000
  24872860.334   130707758.281 6       267.241    24872879.882   101850270.638 5
       208.243                          37.000          32.000
 23 11  5 12 42 30.0000000  0 10G13G05G30G14G20G22G15G07G18G08
  20153378.991   105906772.178 8       988.523    20153384.334    82524798.158 8
       770.271                          50.000          45.000
  20579434.215   108145613.495 8     -1172.362    20579439.844    84269320.272 9
      -913.531                          49.000          58.000
  21121007.116   110991708.922 8     -2030.244    21121015.014    86487109.865 9
     -1582.006                          50.000          56.000
  21494269.885   112953258.315 8      1375.935    21494276.550    88015617.341 7
      1072.154                          47.000          41.000
  21747915.484   114285943.412 8     -3282.971    21747922.667    89053950.635 6
     -2558.154                          47.000          38.000
  22047432.240   115860146.461 8      2212.074    22047439.924    90280707.954 6
      1723.690                          47.000          37.000
  22529599.092   118393869.672 8      2958.677    22529609.313    92255016.304 6
      2305.456                          45.000          36.000
  23230931.064   122079329.409 7     -3041.550    23230939.999    95126766.181 7
     -2370.041                          44.000          44.000
  24126098.747   126783469.930 7       157.797    24126111.541    98792348.985 4
       122.969                          39.000          25.000
  24871383.477   130699996.410 6       249.033    24871402.829   101844222.424 5
       194.046                          35.000          30.000
 23 11  5 12 43  0.0000000  0 10G13G05G30G14G20G22G15G07G18G08
  20147767.457   105877283.143 8       975.958    20147772.621    82501819.723 8
       760.489                          49.000          45.000
  20586183.256   108181079.573 8     -1193.451    20586188.670    84296956.097 9
      -929.957                          49.000          58.000
  21132627.520   111052774.231 8     -2042.297    21132635.561    86534693.112 9
     -1591.394                          49.000          56.000
  21486461.872   112912228.367 8      1357.960    21486469.055    87983645.937 7
      1058.155                          47.000          41.000
  21766690.198   114384604.013 8     -3295.818    21766697.363    89130828.811 6
     -2568.160                          47.000          38.000
  22034840.208   115793974.537 8      2197.973    22034847.624    90229145.451 6
      1712.708                          47.000          37.000
  22512724.426   118305191.084 8      2951.828    22512734.254    92185916.268 6
      2300.126                          45.000          36.000
  23248304.812   122170631.740 7     -3046.690    23248314.711    95197910.637 8
     -2374.033                          44.000          45.000
  24125251.433   126779017.532 7       137.615    24125264.353    98788879.472 4
       107.244                          39.000          26.000
  24870011.726   130692784.281 6       230.169    24870030.863   101838602.622 5
       179.349                          35.000          31.000
 23 11  5 12 43 30.0000000  0 10G13G05G30G14G20G22G15G07G18G08
  20142219.929   105848129.330 8       966.246    20142224.629    82479102.501 8
       752.917                          49.000          45.000
  20593043.871   108217133.354 8     -1211.503    20593049.643    84325049.870 9
      -944.031                          50.000          57.000
  21144308.840   111114159.942 8     -2051.419    21144316.935    86582526.024 9
     -1598.504                          49.000          56.000
  21478748.351   112871694.212 8      1342.933    21478755.570    87952060.862 7
      1046.441                          47.000          41.000
  21785529.938   114483608.444 8     -3305.800    21785538.015    89207974.886 6
     -2575.945                          46.000          37.000
  22022321.135   115728185.375 8      2186.604    22022328.265    90177881.216 6
      1703.842                          47.000          37.000
  22495879.781   118216672.596 8      2948.036    22495889.770    92116940.987 6
      2297.159                          45.000          35.000
  23265701.163   122262047.643 8     -3049.168    23265711.384    95269143.573 7
     -2375.974                          45.000          44.000
  24124511.102   126775128.270 7       120.413    24124524.629    98785848.764 4
        93.824                          40.000          26.000
  24868738.004   130686091.485 6       214.467    24868757.838   101833387.541 5
       167.111                          35.000          31.000
 23 11  5 12 44  0.0000000  0 10G13G05G30G14G20G22G15G07G18G08
  20136741.590   105819342.371 8       953.040    20136746.629    82456671.129 8
       742.627                          50.000          45.000
  20600022.511   108253805.279 8     -1233.107    20600028.157    84353625.314 9
      -960.862                          49.000          58.000
  21156056.704   111175895.784 8     -2064.028    21156065.031    86630631.761 9
     -1608.327                          50.000          56.000
  21471135.575   112831688.959 8      1324.286    21471142.884    87920887.922 7
      1031.912                          47.000          41.000
  21804441.368   114582985.621 8     -3319.163    21804448.962    89285411.404 6
     -2586.356                          46.000          37.000
  22009881.132   115662813.150 8      2171.701    22009888.351    90126941.861 6
      1692.225                          47.000          37.000
  22479071.928   118128347.101 8      2940.508    22479081.684    92048116.082 6
      2291.293                          45.000          35.000
  23283124.461   122353607.020 8     -3054.832    23283135.040    95340488.309 8
     -2380.387                          45.000          45.000
  24123884.274   126771833.553 7        99.465    24123897.390    98783281.338 4
        77.507                          40.000          26.000
  24867569.816   130679949.899 6       195.121    24867589.008   101828601.983 5
       152.024                          35.000          31.000
 23 11  5 12 44 30.0000000  0 10G13G05G30G14G20G22G15G07G18G08
  20131333.406   105790921.469 8       941.318    20131338.552    82434524.999 8
       733.497                          49.000          45.000
  20607118.049   108291092.259 8     -1253.084    20607123.696    84382680.021 9
      -976.425                          50.000          58.000
  21167870.827   111237977.782 8     -2075.072    21167878.778    86679007.233 9
     -1616.936                          50.000          56.000
  21463623.063   112792211.991 8      1307.109    21463630.550    87890126.635 7
      1018.530                          48.000          41.000
  21823422.130   114682730.366 8     -3330.865    21823429.582    89363134.365 6
     -2595.472                          47.000          37.000
  21997520.468   115597857.943 8      2158.272    21997528.044    90076327.474 6
      1681.767                          47.000          37.000
  22462300.402   118040214.054 8      2934.666    22462310.337    91979441.131 6
      2286.748                          45.000          35.000
  23300574.581   122445305.913 7     -3058.885    23300584.802    95411941.756 7
     -2383.534                          44.000          44.000
  24123370.129   126769131.211 7        80.308    24123382.334    98781175.518 4
        62.584                          40.000          26.000
  24866505.108   130674358.786 6       177.283    24866524.729   101824245.445 5
       138.140                          35.000          29.000
 23 11  5 12 45  0.0000000  0 10G13G05G30G14G20G22G15G07G18G08
  20125998.144   105762884.252 8       927.994    20126003.398    82412677.838 8
       723.108                          49.000          45.000
  20614333.632   108329010.506 8     -1274.617    20614339.350    84412226.627 9
      -993.208                          50.000          57.000
  21179753.352   111300421.477 8     -2087.593    21179761.661    86727664.553 9
     -1626.694                          50.000          56.000
  21456215.084   112753282.131 8      1288.370    21456222.625    87859791.665 7
      1003.927                          47.000          41.000
  21842475.530   114782857.197 8     -3344.065    21842483.499    89441155.035 6
     -2605.760                          45.000          37.000
  21985242.680   115533338.986 8      2143.238    21985250.542    90026053.005 6
      1670.049                          48.000          38.000
  22445569.225   117952292.222 8      2927.076    22445579.428    91910930.774 6
      2280.830                          46.000          36.000
  23318053.791   122537160.217 7     -3064.607    23318064.495    95483516.283 7
     -2388.002                          43.000          44.000
  24122972.543   126767038.354 7        59.352    24122984.712    98779544.608 4
        46.241                          40.000          26.000
  24865550.063   130669336.143 6       157.565    24865569.290   101820331.805 5
       122.778                          34.000          29.000
 23 11  5 12 45 30.0000000  0 10G13G05G30G14G20G22G15G07G18G08
  20120735.449   105735229.517 8       915.452    20120740.702    82391128.712 8
       713.346                          49.000          45.000
  20621668.813   108367557.634 8     -1295.373    20621674.656    84442263.271 9
     -1009.369                          50.000          58.000
  21191704.244   111363223.259 8     -2099.329    21191712.499    86776600.918 9
     -1635.836                          50.000          56.000
  21448911.050   112714898.962 8      1270.347    21448919.126    87829882.705 7
       989.887                          47.000          41.000
  21861601.371   114883361.645 8     -3356.380    21861609.555    89519469.921 6
     -2615.347                          46.000          37.000
  21973047.929   115469256.542 8      2128.799    21973055.863    89976118.688 6
      1658.815                          47.000          37.000
  22428878.343   117864581.599 8      2920.195    22428888.510    91842585.016 6
      2275.481                          45.000          36.000
  23335562.485   122629166.344 7     -3069.320    23335573.010    95555209.096 7
     -2391.654                          43.000          44.000
  24122690.159   126765553.041 7        39.480    24122702.560    98778387.121 4
        30.775                          40.000          26.000
  24864701.534   130664880.573 6       139.165    24864721.012   101816860.015 5
       108.444                          36.000          29.000
 23 11  5 12 46  0.0000000  0 10G13G05G30G14G20G22G15G07G18G08
  20115542.103   105707938.249 8       902.553    20115547.196    82369862.793 8
       703.290                          49.000          45.000
  20629119.999   108406712.396 8     -1316.361    20629125.699    84472773.402 9
     -1025.735                          50.000          57.000
  21203719.071   111426361.638 8     -2111.252    21203727.577    86825799.565 9
     -1645.129                          50.000          56.000
  21441707.635   112677044.354 8      1251.959    21441715.301    87800385.603 7
       975.553                          48.000          41.000
  21880794.613   114984221.137 8     -3368.925    21880802.761    89598061.470 6
     -2625.131                          47.000          38.000
  21960933.572   115405593.296 8      2114.058    21960940.791    89926511.012 6
      1647.312                          47.000          37.000
  22412224.020   117777063.762 8      2912.982    22412234.330    91774389.483 6
      2269.844                          45.000          36.000
  23353095.374   122721303.050 7     -3074.385    23353106.220    95627003.654 7
     -2395.620                          44.000          44.000
  24122518.795   126764655.432 7        19.144    24122531.965    98777687.587 4
        14.931                          39.000          26.000
  24863958.201   130660972.991 6       120.168    24863977.160   101813815.219 5
        93.631                          36.000          30.000
 23 11  5 12 46 30.0000000  0 10G13G05G30G14G20G22G15G07G18G08
  20110419.287   105681017.150 8       892.414    20110424.290    82348885.318 8
       695.385                          50.000          45.000
  20636687.566   108446480.443 8     -1334.593    20636693.391    84503761.412 9
     -1039.945                          50.000          58.000
  21215799.031   111489840.997 8     -2120.397    21215807.661    86875263.921 9
     -1652.256                          50.000          56.000
  21434606.182   112639725.867 8      1236.272    21434613.079    87771306.256 7
       963.327                          48.000          41.000
  21900055.383   115085438.893 8     -3378.577    21900063.424    89676932.207 6
     -2632.649                          46.000          36.000
  21948900.125   115342357.729 8      2101.938    21948907.290    89877236.592 6
      1637.868                          47.000          37.000
  22395608.044   117689746.432 8      2908.466    22395618.087    91706350.186 6
      2266.325                          46.000          36.000
  23370654.905   122813575.044 7     -3076.641    23370665.252    95698903.641 7
     -2397.377                          44.000          44.000
  24122460.810   126764351.537 7         1.489    24122473.872    98777450.708 4
         1.156                          39.000          25.000
  24863319.544   130657620.431 6       103.735    24863339.379   101811202.834 5
        80.830                          37.000          29.000
 23 11  5 12 47  0.0000000  0 10G13G05G30G14G20G22G15G07G18G08
  20105360.799   105654434.563 8       880.431    20105365.963    82328171.618 8
       686.047                          49.000          46.000
  20644365.742   108486828.657 8     -1354.607    20644371.442    84535201.506 9
     -1055.539                          49.000          58.000
  21227937.333   111553627.416 8     -2131.315    21227945.910    86924967.560 9
     -1660.766                          49.000          57.000
  21427601.185   112602912.825 8      1218.647    21427608.083    87742620.779 7
       949.591                          48.000          42.000
  21919378.623   115186980.143 8     -3390.118    21919386.074    89756055.021 6
     -2641.646                          45.000          36.000
  21936942.121   115279519.943 8      2087.914    21936949.394    89828272.132 6
      1626.937                          47.000          37.000
  22379024.144   117602599.238 8      2902.047    22379034.186    91638443.469 6
      2261.328                          45.000          36.000
  23388233.074   122905948.534 7     -3080.850    23388243.921    95770882.721 7
     -2400.657                          43.000          44.000
  24122510.164   126764609.044 7       -17.931    24122522.744    98777651.324 4
       -13.967                          40.000          26.000
  24862781.508   130654791.490 6        85.370    24862800.574   101808998.481 5
        66.523                          37.000          30.000
 23 11  5 12 47 30.0000000  0 10G13G05G30G14G22G20G15G07G18G08
  20100375.037   105628234.360 8       866.163    20100380.219    82307755.879 8
       674.940                          49.000          46.000
  20652162.157   108527798.387 8     -1376.788    20652167.786    84567125.893 9
     -1072.811                          50.000          57.000
  21240141.697   111617761.996 8     -2144.431    21240150.167    86974942.498 9
     -1670.981                          49.000          56.000
  21420700.276   112566649.574 8      1198.784    21420707.531    87714363.713 7
       934.122                          48.000          41.000
  21925068.977   115217124.737 8      2071.609    21925076.357    89779652.550 6
      1614.246                          47.000          38.000
  21938770.998   115288884.968 8     -3403.702    21938778.771    89835461.110 6
     -2652.221                          46.000          37.000
  22362481.610   117515666.691 8      2893.352    22362491.098    91570703.991 6
      2254.562                          45.000          36.000
  23405838.297   122998464.838 7     -3087.090    23405849.769    95842973.059 7
     -2405.505                          43.000          43.000
  24122674.041   126765470.448 7       -39.569    24122686.871    98778322.480 4
       -30.823                          39.000          26.000
  24862350.739   130652529.641 6        65.154    24862369.502   101807236.038 5
        50.772                          36.000          29.000
 23 11  5 12 48  0.0000000  0 10G13G05G30G14G22G20G15G07G18G08
  20095461.181   105602412.458 8       855.226    20095466.256    82287634.918 8
       666.406                          50.000          46.000
  20660075.687   108569383.841 8     -1395.599    20660081.262    84599530.074 9
     -1087.484                          50.000          57.000
  21252411.122   111682238.280 8     -2153.968    21252419.252    87025183.699 9
     -1678.415                          50.000          56.000
  21413903.579   112530932.862 8      1182.261    21413910.708    87686532.524 7
       921.243                          48.000          42.000
  21913279.318   115155169.422 8      2058.586    21913286.840    89731375.741 6
      1604.084                          47.000          38.000
  21958230.864   115391145.997 8     -3413.783    21958239.048    89915144.780 6
     -2660.086                          46.000          37.000
  22345979.085   117428945.615 8      2888.074    22345988.573    91503129.319 6
      2250.431                          45.000          36.000
  23423469.447   123091117.813 7     -3089.914    23423480.937    95915169.906 7
     -2407.724                          44.000          44.000
  24122951.780   126766930.921 7       -57.754    24122965.003    98779460.453 4
       -45.014                          40.000          25.000
  24862028.186   130650830.942 6        47.872    24862046.626   101805912.397 5
        37.306                          38.000          30.000
 23 11  5 12 48 30.0000000  0 10G13G05G30G14G22G20G15G07G18G08
  20090620.767   105576975.500 8       842.914    20090625.895    82267813.917 8
       656.815                          50.000          46.000
  20668107.276   108611590.359 8     -1415.766    20668112.941    84632418.192 9
     -1103.200                          50.000          57.000
  21264746.573   111747060.751 8     -2165.063    21264754.829    87075694.658 9
     -1687.063                          50.000          56.000
  21407212.559   112495770.309 8      1164.273    21407219.617    87659133.143 7
       907.225                          48.000          41.000
  21901575.143   115093662.882 8      2044.116    21901582.523    89683448.630 6
      1592.808                          47.000          37.000
  21977758.811   115493766.690 8     -3425.257    21977766.745    89995108.716 6
     -2669.028                          46.000          35.000
  22329518.069   117342443.832 8      2881.227    22329527.933    91435725.518 6
      2245.102                          45.000          36.000
  23441128.009   123183912.582 7     -3094.112    23441138.838    95987477.241 7
     -2410.990                          44.000          43.000
  24123345.077   126768996.499 6       -77.401    24123358.496    98781069.960 4
       -60.323                          38.000          25.000
  24861813.096   130649702.194 6        29.673    24861832.037   101805032.855 5
        23.120                          37.000          31.000
 23 11  5 12 49  0.0000000  0 10G13G05G30G14G22G20G15G07G18G08
  20085845.681   105551883.240 8       829.716    20085851.238    82248261.525 8
       646.530                          50.000          46.000
  20676249.118   108654376.052 8     -1436.680    20676254.961    84665757.625 9
     -1119.493                          50.000          57.000
  21277139.634   111812186.769 8     -2176.768    21277148.426    87126442.134 9
     -1696.182                          49.000          56.000
  21400619.211   112461122.493 8      1145.461    21400626.501    87632134.868 7
       892.565                          48.000          42.000
  21889948.342   115032566.272 8      2028.772    21889956.204    89635840.942 6
      1580.858                          48.000          38.000
  21997347.263   115596703.675 8     -3437.393    21997355.126    90075319.113 6
     -2678.485                          47.000          36.000
  22313091.344   117256122.264 8      2873.513    22313101.333    91368462.123 6
      2239.096                          46.000          37.000
  23458805.726   123276806.094 7     -3099.028    23458816.090    96059861.529 7
     -2414.818                          44.000          43.000
  24123845.642   126771625.935 7       -97.769    24123858.561    98783118.812 4
       -76.183                          39.000          25.000
  24861699.932   130649102.907 6        10.213    24861717.818   101804565.921 5
         7.957                          37.000          31.000
 23 11  5 12 49 30.0000000  0 10G13G05G30G14G22G20G15G07G18G08
  20081136.247   105527134.405 8       819.809    20081141.518    82228976.738 8
       638.804                          50.000          45.000
  20684500.711   108697738.047 8     -1454.397    20684506.608    84699546.121 9
     -1133.298                          50.000          57.000
  21289589.840   111877612.559 8     -2185.207    21289598.578    87177423.184 9
     -1702.756                          49.000          55.000
  21394123.624   112426988.721 8      1129.773    21394130.504    87605537.140 7
       880.336                          48.000          41.000
  21878399.985   114971879.710 8      2016.614    21878407.991    89588552.780 6
      1571.379                          48.000          38.000
  22016995.004   115699951.174 8     -3446.107    22017003.028    90155771.470 6
     -2685.275                          47.000          37.000
  22296699.125   117169980.268 8      2869.010    22296708.792    91301338.648 6
      2235.581                          46.000          36.000
  23476500.884   123369795.158 7     -3100.616    23476511.980    96132320.261 7
     -2416.060                          43.000          43.000
  24124452.349   126774817.031 7      -115.126    24124465.607    98785605.318 4
       -89.699                          39.000          25.000
  24861685.922   130649032.163 6        -5.801    24861704.327   101804510.934 5
        -4.524                          37.000          31.000
 23 11  5 12 50  0.0000000  0 10G13G05G30G14G22G20G15G07G18G08
  20076490.050   105502719.295 8       807.781    20076495.143    82209952.002 8
       629.441                          49.000          45.000
  20692859.643   108741664.028 8     -1474.144    20692865.469    84733774.086 9
     -1148.676                          49.000          57.000
  21302094.797   111943325.987 8     -2195.752    21302103.124    87228628.368 9
     -1710.968                          49.000          55.000
  21387724.281   112393360.004 8      1111.999    21387731.482    87579332.972 7
       866.495                          48.000          42.000
  21866928.609   114911594.927 8      2002.224    21866935.846    89541577.689 6
      1560.182                          47.000          38.000
  22036698.854   115803496.453 8     -3456.927    22036707.306    90236455.852 6
     -2693.696                          46.000          37.000
  22280339.105   117084009.475 8      2862.338    22280348.879    91234348.556 6
      2230.397                          45.000          36.000
  23494212.141   123462867.819 7     -3104.388    23494223.398    96204844.126 7
     -2418.989                          43.000          42.000
  24125164.572   126778558.981 7      -134.475    24125177.742    98788521.052 4
      -104.773                          39.000          26.000
  24861770.193   130649480.065 6       -24.145    24861789.652   101804860.097 5
       -18.820                          38.000          31.000
 23 11  5 12 50 30.0000000  0 10G13G05G30G14G22G20G15G07G18G08
  20071916.134   105478682.512 8       795.853    20071921.013    82191222.069 8
       620.148                          49.000          45.000
  20701334.028   108786197.258 8     -1493.630    20701339.781    84768475.229 9
     -1163.859                          49.000          57.000
  21314662.349   112009369.355 8     -2206.123    21314670.711    87280090.637 9
     -1719.051                          49.000          55.000
  21381429.578   112360281.701 8      1094.334    21381436.958    87553557.690 7
       852.730                          48.000          42.000
  21855542.146   114851758.143 8      1987.978    21855549.097    89494951.683 6
      1549.080                          47.000          38.000
  22056467.623   115907380.584 8     -3467.441    22056475.896    90317404.262 6
     -2701.886                          46.000          36.000
  22264020.756   116998255.458 8      2855.762    22264030.137    91167527.358 6
      2225.270                          45.000          36.000
  23511947.468   123556066.716 7     -3107.765    23511959.279    96277466.328 7
     -2421.618                          43.000          43.000
  24125990.210   126782895.485 7      -153.617    24126003.255    98791900.096 5
      -119.692                          40.000          27.000
  24861961.963   130650491.382 6       -41.900    24861981.619   101805648.310 5
       -32.646                          36.000          30.000
 23 11  5 12 51  0.0000000  0 10G13G05G30G14G22G20G15G07G18G08
  20067402.062   105454961.355 8       784.641    20067407.083    82172738.083 8
       611.404                          50.000          45.000
  20709911.730   108831273.083 8     -1512.365    20709917.395    84803599.172 9
     -1178.474                          50.000          57.000
  21327280.541   112075677.484 8     -2215.437    21327288.761    87331759.219 9
     -1726.314                          49.000          55.000
  21375228.330   112327691.703 8      1077.380    21375235.263    87528162.913 7
       839.514                          48.000          42.000
  21844228.660   114792307.820 8      1974.388    21844235.843    89448626.820 6
      1538.474                          48.000          38.000
  22076288.533   116011537.545 8     -3477.217    22076296.484    90398565.295 6
     -2709.521                          47.000          36.000
  22247731.873   116912656.221 8      2849.921    22247740.932    91100826.760 6
      2220.706                          46.000          36.000
  23529694.678   123649326.903 7     -3110.444    23529706.007    96350136.283 7
     -2423.721                          43.000          42.000
  24126916.397   126787762.790 7      -171.846    24126929.424    98795692.749 5
      -133.908                          40.000          27.000
  24862249.994   130652002.062 6       -59.294    24862269.042   101806825.633 5
       -46.206                          36.000          31.000
 23 11  5 12 51 30.0000000  0 10G13G05G30G14G22G20G15G07G18G08
  20062955.963   105431596.493 8       772.395    20062960.984    82154531.731 8
       601.865                          49.000          45.000
  20718600.060   108876929.911 8     -1532.121    20718605.761    84839175.836 9
     -1193.858                          50.000          57.000
  21339956.272   112142288.506 8     -2226.052    21339964.707    87383663.814 9
     -1734.581                          49.000          55.000
  21369127.131   112295631.257 8      1059.297    21369134.439    87503180.780 7
       825.425                          48.000          42.000
  21832997.335   114733286.094 8      1959.651    21833004.287    89402635.929 6
      1526.999                          48.000          38.000
  22096167.767   116116004.470 8     -3487.949    22096176.362    90479967.858 6
     -2717.874                          46.000          36.000
  22231480.121   116827253.270 8      2842.954    22231489.270    91034279.088 6
      2215.283                          46.000          37.000
  23547461.061   123742686.793 7     -3114.121    23547471.729    96422883.934 7
     -2426.582                          42.000          42.000
  24127951.032   126793200.296 7      -191.304    24127964.326    98799929.680 5
      -149.071                          40.000          27.000
  24862640.664   130654053.609 6       -77.781    24862659.105   101808424.439 5
       -60.611                          36.000          30.000
 23 11  5 12 52  0.0000000  0 10G13G05G30G14G22G20G15G07G18G08
  20058580.626   105408603.640 8       762.942    20058585.647    82136615.254 8
       594.508                          49.000          46.000
  20727401.948   108923182.784 8     -1549.027    20727407.559    84875216.961 9
     -1207.028                          50.000          57.000
  21352692.311   112209216.082 8     -2233.547    21352700.745    87435815.083 9
     -1740.419                          49.000          55.000
  21363130.054   112264116.977 8      1044.036    21363137.130    87478624.235 7
       813.538                          48.000          42.000
  21821850.639   114674710.263 8      1947.690    21821857.644    89356992.484 7
      1517.682                          48.000          39.000
  22116108.792   116220793.623 8     -3495.657    22116117.405    90561621.476 6
     -2723.881                          46.000          36.000
  22215268.826   116742063.788 8      2838.753    22215278.278    90967897.762 6
      2212.018                          46.000          37.000
  23565248.905   123836160.253 7     -3115.065    23565259.519    96495720.069 7
     -2427.307                          42.000          42.000
  24129097.812   126799223.090 7      -207.942    24129110.535    98804622.675 5
      -162.021                          40.000          27.000
  24863137.030   130656661.782 6       -93.447    24863155.238   101810456.914 5
       -72.824                          37.000          32.000
 23 11  5 12 52 30.0000000  0 10G13G05G14G30G22G20G15G07G18G08
  20054274.263   105385974.835 8       748.906    20054279.623    82118982.440 8
       583.563                          49.000          45.000
  20736314.695   108970020.463 8     -1570.329    20736320.556    84911713.778 9
     -1223.629                          50.000          56.000
  21357235.957   112233141.409 8      1024.159    21357242.890    87454487.458 7
       798.048                          48.000          42.000
  21365486.156   112276449.645 8     -2245.523    21365495.019    87488204.771 9
     -1749.753                          49.000          55.000
  21810787.462   114616573.840 8      1931.215    21810794.896    89311691.432 7
      1504.847                          48.000          39.000
  22136108.893   116325893.572 8     -3507.812    22136117.488    90643517.270 6
     -2733.350                          47.000          36.000
  22199097.217   116657080.809 8      2829.967    22199106.509    90901677.337 6
      2205.170                          46.000          36.000
  23583056.333   123929737.057 7     -3120.275    23583066.269    96568636.739 7
     -2431.374                          42.000          41.000
  24130353.468   126805821.811 7      -228.845    24130365.905    98809764.425 4
      -178.312                          41.000          26.000
  24863737.000   130659817.687 6      -113.825    24863755.941   101812916.237 5
       -88.696                          36.000          31.000
 23 11  5 12 53  0.0000000  0 10G13G05G14G30G22G20G15G07G18G08
  20050041.198   105363729.782 8       733.974    20050046.434    82101648.653 8
       571.920                          50.000          46.000
  20745342.376   109017460.948 8     -1592.534    20745348.254    84948680.317 9
     -1240.941                          50.000          57.000
  21351447.805   112202724.818 8      1003.408    21351454.953    87430786.251 7
       781.873                          48.000          42.000
  21378341.971   112344006.602 8     -2258.429    21378350.817    87540846.466 9
     -1759.815                          50.000          55.000
  21799811.969   114558897.857 8      1913.744    21799819.510    89266749.167 7
      1491.217                          48.000          39.000
  22156171.178   116431320.979 8     -3520.781    22156179.826    90725668.248 6
     -2743.467                          47.000          36.000
  22182968.351   116572325.026 8      2820.258    22182978.018    90835633.955 6
      2197.587                          46.000          37.000
  23600886.581   124023434.984 7     -3126.449    23600896.623    96641647.818 7
     -2436.190                          42.000          42.000
  24131721.914   126813015.142 7      -250.742    24131735.226    98815369.495 5
      -195.383                          41.000          27.000
  24864445.150   130663541.449 6      -134.601    24864464.198   101815818.035 5
      -104.890                          37.000          32.000
 23 11  5 12 53 30.0000000  0 10G13G05G14G30G22G15G20G07G18G08
  20045879.360   105341858.957 8       723.096    20045884.274    82084606.465 8
       563.457                          49.000          45.000
  20754482.649   109065493.552 8     -1610.641    20754488.689    84986108.240 9
     -1255.038                          50.000          57.000
  21345764.187   112172858.396 8       986.640    21345771.639    87407513.748 7
       768.810                          48.000          42.000
  21391256.897   112411875.121 8     -2267.186    21391265.885    87593730.944 9
     -1766.637                          49.000          55.000
  21788922.693   114501674.438 8      1900.159    21788930.073    89222159.544 7
      1480.645                          48.000          39.000
  22166881.459   116487788.183 8      2814.533    22166890.840    90769761.181 6
      2193.140                          46.000          36.000
  22176293.109   116537062.470 8     -3529.654    22176301.865    90808063.949 6
     -2750.365                          46.000          35.000
  23618737.431   124117242.619 7     -3128.434    23618748.527    96714744.368 7
     -2437.727                          43.000          41.000
  24133202.863   126820792.660 7      -268.686    24133215.264    98821429.827 4
      -209.343                          41.000          26.000
  24865260.388   130667822.639 6      -151.674    24865278.686   101819154.137 5
      -118.201                          37.000          32.000
 23 11  5 12 54  0.0000000  0 10G13G05G14G30G22G15G20G07G18G08
  20041788.211   105320360.037 8       711.396    20041793.232    82067854.069 8
       554.339                          49.000          45.000
  20763734.854   109114113.456 8     -1629.415    20763740.911    85023993.797 9
     -1269.663                          50.000          57.000
  21340185.014   112143540.272 8       969.118    21340192.411    87384668.488 7
       755.160                          49.000          42.000
  21404230.290   112480050.301 8     -2276.604    21404239.332    87646854.384 9
     -1773.971                          49.000          55.000
  21778119.243   114444902.289 8      1885.823    21778126.748    89177921.561 7
      1469.477                          48.000          39.000
  22150836.095   116403468.959 8      2808.057    22150845.369    90704057.999 6
      2188.103                          46.000          36.000
  22196473.812   116643111.863 8     -3539.099    22196482.782    90890699.561 6
     -2757.722                          46.000          35.000
  23636608.044   124211155.083 7     -3131.211    23636620.159    96787922.630 7
     -2439.886                          43.000          41.000
  24134793.009   126829150.714 7      -287.232    24134805.589    98827942.554 5
      -223.810                          41.000          27.000
  24866180.160   130672659.244 6      -169.415    24866198.422   101822923.069 5
      -132.007                          36.000          30.000
 23 11  5 12 54 30.0000000  0 10G13G05G14G30G22G15G20G07G18G08
  20037769.182   105299239.356 8       698.688    20037774.275    82051396.412 8
       544.436                          49.000          45.000
  20773099.401   109163324.796 8     -1649.206    20773105.566    85062340.209 9
     -1285.093                          49.000          56.000
  21334711.643   112114777.225 8       950.525    21334718.719    87362255.754 7
       740.672                          48.000          42.000
  21417263.026   112548536.043 8     -2286.995    21417271.586    87700219.812 9
     -1782.067                          49.000          55.000
  21767403.101   114388589.223 8      1870.478    21767410.731    89134041.301 7
      1457.511                          48.000          39.000
  22134833.349   116319374.519 8      2800.391    22134842.658    90638529.974 6
      2182.122                          46.000          37.000
  22216713.965   116749472.293 8     -3549.445    22216722.846    90973577.539 6
     -2765.793                          46.000          35.000
  23654500.225   124305177.026 7     -3134.869    23654512.573    96861186.196 7
     -2442.742                          43.000          41.000
  24136494.944   126838094.244 7      -306.911    24136507.739    98834911.497 4
      -239.144                          41.000          26.000
  24867207.718   130678056.830 6      -188.339    24867225.659   101827129.053 5
      -146.759                          37.000          31.000
 23 11  5 12 55  0.0000000  0 10G13G05G14G30G22G15G20G07G18G08
  20033823.255   105278503.485 8       684.201    20033828.384    82035238.594 8
       533.145                          49.000          46.000
  20782577.756   109213132.736 8     -1670.699    20782583.760    85101151.506 9
     -1301.845                          49.000          56.000
  21329345.093   112086576.653 8       930.088    21329352.472    87340281.310 7
       724.740                          48.000          42.000
  21430355.088   112617336.842 8     -2299.091    21430363.861    87753830.744 9
     -1791.501                          49.000          55.000
  21756776.071   114332743.143 8      1853.155    21756783.379    89090524.934 7
      1444.008                          48.000          39.000
  22118874.721   116235512.658 8      2790.992    22118884.334    90573183.197 6
      2174.789                          46.000          37.000
  22237013.568   116856147.014 8     -3561.504    22237022.378    91056700.431 6
     -2775.195                          46.000          35.000
  23672414.135   124399312.890 7     -3140.254    23672426.465    96934538.554 7
     -2446.950                          43.000          42.000
  24138309.419   126847628.992 7      -328.219    24138321.998    98842341.122 4
      -255.764                          40.000          26.000
  24868342.830   130684021.904 6      -208.864    24868360.932   101831777.208 5
      -162.765                          36.000          31.000
 23 11  5 12 55 30.0000000  0 10G13G05G14G30G22G15G20G07G18G08
  20029950.466   105258151.667 8       670.537    20029955.469    82019380.038 8
       522.492                          49.000          46.000
  20792168.776   109263534.109 8     -1691.414    20792174.726    85140425.216 9
     -1317.985                          50.000          56.000
  21324085.792   112058938.248 8       910.443    21324092.958    87318744.905 7
       709.436                          48.000          42.000
  21443507.046   112686449.446 8     -2310.397    21443515.677    87807684.612 9
     -1800.305                          49.000          55.000
  21746237.654   114277365.033 8      1836.616    21746245.034    89047373.208 7
      1431.125                          48.000          39.000
  22102960.640   116151883.639 8      2782.194    22102970.057    90508017.861 6
      2167.932                          46.000          37.000
  22257372.371   116963131.736 8     -3572.717    22257381.020    91140064.884 6
     -2783.936                          45.000          34.000
  23690348.827   124493559.703 7     -3144.919    23690361.067    97007977.353 7
     -2450.582                          42.000          41.000
  24140235.556   126857752.847 7      -348.851    24140248.565    98850229.784 4
      -271.826                          40.000          26.000
  24869585.371   130690554.083 6      -228.734    24869604.026   101836867.270 5
      -178.233                          37.000          32.000
 23 11  5 12 56  0.0000000  0 10G13G05G14G30G22G15G20G07G18G08
  20026148.635   105238173.109 8       659.653    20026153.495    82003812.337 8
       514.015                          49.000          45.000
  20801870.386   109314516.500 8     -1709.138    20801876.319    85180151.670 9
     -1331.794                          50.000          56.000
  21318931.115   112031851.626 8       893.598    21318938.692    87297638.464 7
       696.311                          49.000          42.000
  21456715.470   112755860.649 8     -2318.750    21456724.226    87861771.158 9
     -1806.811                          49.000          54.000
  21735786.831   114222445.135 8      1822.942    21735794.068    89004578.537 7
      1420.469                          48.000          39.000
  22087088.945   116068477.990 8      2776.374    22087098.344    90443026.604 6
      2163.403                          46.000          37.000
  22277787.355   117070412.089 8     -3580.960    22277796.307    91223659.692 6
     -2790.347                          46.000          34.000
  23708302.460   124587904.673 7     -3146.476    23708314.039    97081492.667 7
     -2451.794                          43.000          41.000
  24142271.928   126868453.663 7      -366.376    24142285.240    98858568.015 4
      -285.492                          40.000          26.000
  24870933.678   130697641.354 6      -245.518    24870953.316   101842389.947 5
      -191.309                          37.000          31.000
 23 11  5 12 56 30.0000000  0 11G13G05G14G30G22G15G20G07G18G08G23
  20022420.764   105218582.438 8       646.130    20022425.481    81988546.902 8
       503.476                          49.000          46.000
  20811684.912   109366091.731 8     -1729.494    20811690.916    85220340.070 9
     -1347.648                          50.000          56.000
  21313884.885   112005332.032 8       874.109    21313891.944    87276973.873 7
       681.126                          48.000          42.000
  21469983.256   112825582.832 8     -2329.687    21469992.297    87916100.018 9
     -1815.334                          49.000          54.000
  21725426.639   114167999.581 8      1806.470    21725433.590    88962153.488 7
      1407.640                          48.000          39.000
  22071262.941   115985311.194 8      2767.752    22071272.019    90378221.466 6
      2156.686                          46.000          37.000
  22298260.574   117177999.250 8     -3591.744    22298270.098    91307493.558 6
     -2798.745                          46.000          35.000
  23726276.820   124682360.603 7     -3150.755    23726288.614    97155094.455 7
     -2455.123                          43.000          41.000
  24144420.660   126879745.010 7      -386.558    24144433.490    98867366.389 4
      -301.210                          39.000          25.000
  24872391.057   130705298.489 6      -265.364    24872409.605   101848356.592 5
      -206.774                          36.000          31.000
  25531521.508   134169048.886 6      3362.824    25531534.088   104547364.338 3
      2620.380                          36.000          15.000
 23 11  5 12 57  0.0000000  0 11G13G05G14G30G22G15G20G07G18G08G23
  20018764.976   105199372.121 8       634.565    20018770.104    81973577.854 8
       494.464                          49.000          46.000
  20821610.689   109418250.522 8     -1747.768    20821616.443    85260983.197 9
     -1361.898                          49.000          56.000
  21308944.887   111979372.200 8       856.523    21308951.856    87256745.459 7
       667.419                          48.000          42.000
  21483308.633   112895605.902 8     -2338.543    21483317.692    87970663.330 9
     -1822.239                          48.000          54.000
  21715154.578   114114021.999 8      1791.993    21715161.850    88920093.095 7
      1396.351                          48.000          39.000
  22055481.002   115902377.062 8      2761.151    22055489.937    90313597.629 6
      2151.539                          46.000          37.000
  22318790.365   117285881.981 8     -3600.322    22318799.818    91391557.733 6
     -2805.439                          45.000          34.000
  23744270.623   124776917.698 7     -3152.973    23744282.559    97228775.061 7
     -2456.861                          43.000          41.000
  24146680.234   126891617.858 7      -404.844    24146693.028    98876617.850 4
      -315.458                          40.000          25.000
  24873954.704   130713517.336 6      -282.540    24873974.253   101854760.966 5
      -220.169                          34.000          31.000
  25512331.822   134068206.545 6      3360.046    25512344.526   104468785.945 3
      2618.185                          35.000          16.000
 23 11  5 12 57 30.0000000  0 11G13G05G14G30G22G15G20G07G18G08G23
  20015182.415   105180545.786 8       620.472    20015187.633    81958908.023 8
       483.484                          49.000          46.000
  20831647.451   109470994.562 8     -1768.488    20831653.545    85302082.367 9
     -1378.041                          50.000          56.000
  21304111.941   111953976.095 8       836.484    21304119.393    87236956.323 7
       651.806                          49.000          42.000
  21496691.334   112965931.009 8     -2349.827    21496700.179    88025461.994 9
     -1831.032                          48.000          54.000
  21704972.862   114060516.983 8      1774.973    21704979.867    88878400.928 7
      1383.090                          48.000          39.000
  22039744.004   115819679.816 8      2751.997    22039753.081    90249158.390 6
      2144.407                          46.000          37.000
  22339376.213   117394060.551 8     -3611.441    22339385.201    91475852.430 6
     -2814.110                          45.000          33.000
  23762283.777   124871577.511 7     -3157.706    23762295.678    97302535.707 7
     -2460.543                          43.000          40.000
  24149050.184   126904074.442 7      -425.507    24149063.676    98886324.206 4
      -331.567                          41.000          26.000
  24875626.852   130722301.229 6      -302.672    24875645.775   101861605.688 5
      -235.865                          36.000          32.000
  25493165.954   133967487.299 6      3354.656    25493178.212   104390303.496 3
      2614.014                          36.000          20.000
 23 11  5 12 58  0.0000000  0 11G13G05G14G30G22G15G20G07G18G08G23
  20011676.334   105162121.755 8       606.684    20011681.516    81944551.678 8
       472.740                          49.000          46.000
  20841798.843   109524339.416 8     -1788.819    20841804.794    85343649.701 9
     -1393.879                          50.000          56.000
  21299390.052   111929162.830 8       816.682    21299397.575    87217621.346 7
       636.375                          48.000          42.000
  21510134.343   113036574.492 8     -2360.777    21510143.152    88080508.728 9
     -1839.559                          49.000          54.000
  21694884.905   114007504.805 8      1758.112    21694892.071    88837092.797 7
      1369.955                          48.000          39.000
  22024055.860   115737239.375 8      2743.022    22024065.098    90184919.257 6
      2137.414                          46.000          37.000
  22360021.313   117502549.929 8     -3622.098    22360030.248    91560389.329 6
     -2822.398                          45.000          33.000
  23780319.661   124966356.656 7     -3161.878    23780331.973    97376389.312 7
     -2463.790                          43.000          40.000
  24151535.140   126917132.051 7      -445.975    24151549.096    98896498.882 5
      -347.504                          41.000          27.000
  24877409.858   130731668.152 6      -322.567    24877427.442   101868904.711 5
      -251.360                          35.000          30.000
  25474026.748   133866911.676 6      3349.441    25474039.006   104311933.016 4
      2609.947                          38.000          21.000
 23 11  5 12 58 30.0000000  0 11G13G05G14G30G22G15G20G07G18G08G23
  20008243.731   105144082.720 8       595.388    20008248.573    81930495.325 8
       463.946                          49.000          45.000
  20852060.594   109578266.059 8     -1806.765    20852066.884    85385670.370 9
     -1407.858                          50.000          56.000
  21294776.163   111904915.263 8       799.280    21294783.239    87198727.177 7
       622.818                          48.000          42.000
  21523634.032   113107516.470 8     -2369.227    21523642.949    88135788.055 9
     -1846.147                          49.000          54.000
  21684887.705   113954968.949 8      1743.725    21684894.853    88796155.826 7
      1358.750                          49.000          39.000
  22008413.621   115655039.429 8      2736.517    22008422.752    90120867.521 6
      2132.355                          46.000          38.000
  22380721.415   117611328.814 8     -3630.301    22380731.225    91645151.806 6
     -2828.790                          45.000          34.000
  23798375.147   125061235.461 7     -3163.858    23798387.173    97450320.556 7
     -2465.326                          42.000          40.000
  24154131.098   126930771.813 7      -463.795    24154144.303    98907127.179 4
      -361.387                          40.000          26.000
  24879298.846   130741600.057 6      -339.857    24879317.430   101876643.981 5
      -264.821                          35.000          31.000
  25454911.628   133766463.603 7      3346.503    25454924.601   104233661.888 4
      2607.667                          39.000          22.000
 23 11  5 12 59  0.0000000  0 11G13G05G14G30G22G15G20G07G18G08G23
  20004877.546   105126393.654 8       582.567    20004882.496    81916711.678 8
       453.951                          49.000          45.000
  20862426.504   109632737.212 8     -1825.993    20862432.651    85428115.333 9
     -1422.843                          50.000          56.000
  21290262.752   111881198.822 8       780.409    21290270.167    87180246.874 7
       608.111                          48.000          42.000
  21537183.844   113178719.640 8     -2379.006    21537192.636    88191270.905 9
     -1853.764                          49.000          54.000
  21674974.596   113902875.902 8      1727.745    21674981.994    88755563.905 7
      1346.299                          49.000          40.000
  21992810.783   115573045.967 8      2728.414    21992819.807    90056976.678 6
      2126.038                          46.000          38.000
  22401469.674   117720358.853 7     -3639.737    22401479.234    91730109.978 6
     -2836.144                          44.000          34.000
  23816442.231   125156177.042 7     -3167.035    23816454.060    97524300.727 7
     -2467.804                          43.000          40.000
  24156830.679   126944957.497 7      -483.233    24156844.045    98918180.890 4
      -376.526                          41.000          26.000
  24881289.420   130752061.304 6      -358.872    24881307.789   101884795.730 5
      -279.644                          36.000          31.000
  25435814.539   133666109.906 6      3342.329    25435827.547   104155464.390 4
      2604.419                          38.000          24.000
 23 11  5 12 59 30.0000000  0 11G13G05G14G30G22G15G20G07G18G08G23
  20001586.734   105109101.131 8       570.049    20001591.933    81903237.019 8
       444.191                          49.000          46.000
  20872904.184   109687797.231 8     -1844.939    20872910.170    85471019.150 9
     -1437.617                          49.000          56.000
  21285859.574   111858060.459 8       761.895    21285866.883    87162217.020 7
       593.680                          48.000          42.000
  21550791.266   113250228.248 8     -2388.509    21550800.379    88246991.754 9
     -1861.171                          49.000          54.000
  21665155.139   113851273.450 8      1712.149    21665162.448    88715354.266 7
      1334.130                          49.000          40.000
  21977256.156   115491307.111 8      2720.644    21977265.376    89993284.219 6
      2119.970                          46.000          38.000
  22422273.451   117829683.299 7     -3648.686    22422282.833    91815297.549 6
     -2843.124                          44.000          33.000
  23834529.970   125251225.845 7     -3169.878    23834541.246    97598364.421 7
     -2470.031                          42.000          40.000
  24159642.906   126959734.188 7      -502.147    24159655.771    98929695.149 5
      -391.281                          40.000          27.000
  24883389.745   130763098.023 6      -377.152    24883407.364   101893395.828 5
      -293.891                          36.000          31.000
  25416745.539   133565898.728 7      3338.171    25416758.012   104077377.844 4
      2601.160                          40.000          24.000
                            4  1
RINEX FILE SPLICE; other post-header comments skipped       COMMENT
 23 11  5 13  0  0.0000000  0 11G13G05G14G30G22G15G20G07G18G08G23
  19998367.736   105092185.624 8       558.394    19998372.954    81890056.129 8
       435.112                          49.000          46.000
  20883489.758   109743425.311 8     -1862.865    20883495.940    85514365.608 9
     -1451.577                          50.000          57.000
  21281563.039   111835481.093 8       744.178    21281570.205    87144622.741 7
       579.880                          48.000          43.000
  21564453.278   113322020.497 8     -2396.899    21564462.319    88302933.622 9
     -1867.706                          48.000          54.000
  21655425.224   113800143.357 8      1697.317    21655432.711    88675512.699 7
      1322.584                          49.000          40.000
  21961746.487   115409804.426 8      2713.629    21961755.833    89929775.782 7
      2114.515                          47.000          39.000
  22443129.138   117939279.178 8     -3656.886    22443138.055    91900696.648 5
     -2849.508                          45.000          32.000
  23852633.507   125346360.769 7     -3171.695    23852645.354    97672495.224 7
     -2471.441                          43.000          42.000
  24162563.258   126975081.022 7      -520.153    24162576.427    98941653.633 5
      -405.319                          41.000          27.000
  24885595.801   130774690.652 6      -395.074    24885613.580   101902429.091 5
      -307.852                          36.000          32.000
  25397699.913   133465812.407 7      3335.032    25397712.117   103999388.519 4
      2598.724                          40.000          26.000
 23 11  5 13  0 30.0000000  0 12G13G05G14G30G22G15G20G07G18G24G08G23
  19995220.519   105075645.957 8       544.133    19995225.522    81877168.098 8
       423.996                          49.000          46.000
  20894182.778   109799616.911 8     -1883.350    20894188.942    85558151.177 9
     -1467.545                          49.000          56.000
  21277372.217   111813459.771 8       723.832    21277379.865    87127463.310 7
       564.024                          48.000          43.000
  21578168.253   113394092.795 8     -2407.952    21578177.492    88359093.720 9
     -1876.319                          49.000          54.000
  21645785.244   113749485.466 8      1679.846    21645792.767    88636039.093 7
      1308.966                          49.000          40.000
  21946281.938   115328537.571 8      2704.015    21946291.212    89866451.108 7
      2107.015                          47.000          39.000
  22464035.431   118049141.734 8     -3667.376    22464044.598    91986303.551 6
     -2857.692                          45.000          33.000
  23870753.178   125441578.629 7     -3176.142    23870765.204    97746690.659 7
     -2474.915                          43.000          41.000
  24165591.199   126990995.272 7      -540.756    24165605.191    98954054.286 5
      -421.371                          40.000          27.000
  24638044.396   129473794.975 6      3397.319
      2647.215                          33.000
  24887906.712   130786836.983 6      -415.057    24887924.778   101911893.769 5
      -323.412                          37.000          31.000
  25378677.444   133365851.636 6      3329.039    25378690.257   103921497.078 4
      2594.054                          38.000          24.000
 23 11  5 13  1  0.0000000  0 12G13G05G14G30G22G15G20G07G18G24G08G23
  19992150.353   105059511.970 8       531.539    19992155.267    81864596.182 8
       414.187                          49.000          46.000
  20904988.247   109856400.035 8     -1902.130    20904994.341    85602397.673 9
     -1482.175                          50.000          56.000
  21273293.791   111792026.830 8       705.134    21273300.921    87110762.361 7
       549.458                          48.000          43.000
  21591941.678   113466472.864 8     -2417.242    21591950.952    88415493.636 9
     -1883.555                          49.000          54.000
  21636241.363   113699331.083 8      1663.967    21636248.403    88596957.831 7
      1296.592                          49.000          40.000
  21930868.083   115247537.985 8      2695.945    21930877.500    89803334.690 7
      2100.732                          47.000          39.000
  22484997.546   118159297.404 7     -3676.199    22485007.410    92072138.838 6
     -2864.558                          44.000          33.000
  23888893.900   125536907.147 7     -3178.970    23888906.122    97820972.322 7
     -2477.110                          42.000          40.000
  24168732.931   127007505.524 7      -559.654    24168746.887    98966919.362 4
      -436.085                          41.000          26.000
  24618658.365   129371922.843 6      3394.446    24618676.448   100809363.638 2
      2645.091                          34.000          13.000
  24890329.787   130799566.993 6      -433.559    24890346.960   101921813.252 5
      -337.837                          36.000          30.000
  25359685.461   133266047.879 6      3324.714    25359697.951   103843727.900 4
      2590.681                          38.000          24.000
 23 11  5 13  1 30.0000000  0 12G13G05G14G30G22G15G20G07G18G24G08G23
  19989152.217   105043756.033 8       518.717    19989156.862    81852318.836 8
       404.190                          49.000          46.000
  20915900.538   109913744.785 8     -1921.013    20915906.828    85647081.800 9
     -1496.891                          50.000          56.000
  21269322.151   111771154.647 8       686.257    21269329.066    87094498.349 7
       534.743                          48.000          43.000
  21605767.924   113539130.461 8     -2426.732    21605777.091    88472109.811 9
     -1890.954                          49.000          54.000
  21626787.881   113649653.585 8      1647.829    21626795.011    88558248.173 7
      1284.023                          49.000          41.000
  21915499.901   115166779.010 8      2687.801    21915509.175    89740405.737 7
      2094.389                          47.000          39.000
  22506009.516   118269714.697 7     -3685.014    22506019.612    92158177.967 6
     -2871.427                          44.000          34.000
  23907050.096   125632316.796 7     -3181.802    23907061.979    97895317.233 7
     -2479.318                          41.000          39.000
  24171983.360   127024582.452 7      -578.967    24171996.690    98980226.005 5
      -451.144                          40.000          27.000
  24599290.202   129270143.395 6      3390.928    24599308.607   100730055.035 3
      2642.263                          34.000          15.000
  24892857.486   130812852.019 6      -452.121    24892874.872   101932165.280 5
      -352.296                          36.000          30.000
  25340718.315   133166375.204 6      3319.892    25340730.948   103766060.837 4
      2586.923                          37.000          23.000
 23 11  5 13  2  0.0000000  0 12G13G05G14G22G30G15G20G07G18G24G08G23
  19986226.504   105028382.237 8       506.510    19986231.346    81840339.262 8
       394.683                          49.000          46.000
  20926920.347   109971652.762 8     -1939.218    20926926.333    85692204.807 9
     -1511.072                          50.000          56.000
  21265457.474   111750847.601 8       667.903    21265464.962    87078674.709 7
       520.442                          49.000          43.000
  21617426.515   113600458.236 8      1632.204    21617433.251    88519914.212 7
      1271.845                          48.000          40.000
  21619647.545   113612067.339 8     -2435.475    21619656.408    88528943.622 9
     -1897.767                          49.000          54.000
  21900178.822   115086265.466 8      2680.143    21900187.739    89677668.018 7
      2088.421                          47.000          39.000
  22527071.465   118380394.256 8     -3693.144    22527081.436    92244421.453 6
     -2877.769                          45.000          33.000
  23925222.267   125727809.435 7     -3184.016    23925234.400    97969726.805 7
     -2481.039                          41.000          40.000
  24175340.967   127042228.570 7      -597.249    24175354.119    98993976.170 4
      -465.386                          40.000          26.000
  24579940.284   129168461.333 6      3388.281    24579959.350   100650822.359 2
      2640.190                          34.000          14.000
  24895490.844   130826695.569 6      -470.451    24895509.767   101942952.524 5
      -366.588                          37.000          31.000
  25321777.937   133066839.312 6      3316.080    25321790.141   103688500.302 4
      2583.956                          36.000          21.000
 23 11  5 13  2 30.0000000  0 12G13G05G14G22G30G15G20G07G18G24G08G23
  19983376.930   105013408.645 8       492.270    19983382.059    81828671.521 8
       383.588                          49.000          46.000
  20938050.282   110030140.571 8     -1959.422    20938056.143    85737779.634 9
     -1526.824                          50.000          56.000
  21261704.569   111731124.348 8       647.520    21261711.752    87063305.955 7
       504.564                          49.000          43.000
  21608160.157   113551764.600 8      1614.560    21608166.858    88481971.192 7
      1258.092                          49.000          40.000
  21633583.453   113685299.654 8     -2446.152    21633592.280    88586007.645 9
     -1906.085                          49.000          54.000
  21884908.223   115006017.257 8      2670.327    21884916.961    89615137.056 7
      2080.769                          47.000          39.000
  22548186.038   118491351.098 8     -3703.335    22548195.831    92330881.023 5
     -2885.708                          45.000          32.000
  23943412.878   125823401.912 7     -3188.242    23943426.352    98044214.168 7
     -2484.337                          42.000          40.000
  24178810.506   127060460.794 7      -617.763    24178823.997    99008183.049 4
      -481.376                          40.000          26.000
  24560613.453   129066895.486 6      3383.589    24560631.804   100571680.208 2
      2636.524                          34.000          13.000
  24898235.901   130841115.270 6      -490.605    24898253.448   101954188.753 5
      -382.294                          36.000          31.000
  25302866.756   132967461.038 6      3309.765    25302879.461   103611062.761 4
      2579.031                          36.000          21.000
 23 11  5 13  3  0.0000000  0 12G13G05G14G22G30G15G20G07G18G24G08G23
  19980601.889   104998825.141 8       480.786    19980606.964    81817307.746 8
       374.634                          49.000          46.000
  20949287.771   110089194.614 8     -1976.745    20949294.025    85783795.680 9
     -1540.325                          50.000          56.000
  21258060.485   111711974.704 8       629.910    21258067.597    87048384.168 7
       490.837                          48.000          43.000
  21598987.720   113503563.397 8      1599.694    21598994.635    88444411.891 7
      1246.505                          49.000          41.000
  21647572.896   113758814.621 8     -2454.083    21647582.045    88643291.918 9
     -1912.268                          49.000          54.000
  21869685.924   114926025.050 8      2663.311    21869694.823    89552805.576 7
      2075.298                          47.000          39.000
  22569350.377   118602571.329 8     -3710.487    22569360.491    92417545.829 5
     -2891.281                          45.000          32.000
  23961619.858   125919081.692 7     -3189.640    23961633.474    98118769.574 7
     -2485.435                          42.000          39.000
  24182389.779   127079267.169 7      -635.298    24182402.555    99022837.327 4
      -495.034                          39.000          26.000
  24541306.670   128965436.011 6      3381.322    24541324.468   100492620.915 2
      2634.823                          33.000          13.000
  24901086.903   130856100.732 6      -507.838    24901104.969   101965865.960 5
      -395.722                          37.000          30.000
  25283983.327   132868231.013 6      3306.309    25283996.389   103533740.622 3
      2576.347                          36.000          19.000
 23 11  5 13  3 30.0000000  0 12G13G05G14G22G30G15G20G07G18G24G08G23
  19977899.682   104984624.793 8       466.123    19977904.542    81806242.541 8
       363.216                          49.000          46.000
  20960631.884   110148806.326 8     -1997.183    20960637.888    85830246.275 9
     -1556.238                          50.000          56.000
  21254524.241   111693392.010 8       609.144    21254531.550    87033904.156 7
       474.656                          49.000          43.000
  21589907.790   113455848.503 8      1581.514    21589914.724    88407231.539 7
      1232.349                          49.000          41.000
  21661614.357   113832603.058 8     -2464.949    21661623.577    88700789.296 9
     -1920.735                          49.000          54.000
  21854511.585   114846283.287 8      2653.049    21854520.306    89490669.256 7
      2067.314                          47.000          39.000
  22590563.588   118714044.302 8     -3720.798    22590573.559    92504407.570 6
     -2899.307                          45.000          33.000
  23979842.366   126014839.881 7     -3194.031    23979855.268    98193386.083 7
     -2488.839                          42.000          40.000
  24186076.069   127098639.227 7      -656.019    24186089.435    99037932.404 4
      -511.170                          39.000          26.000
  24522019.097   128864076.494 6      3376.164    24522036.198   100413639.554 2
      2630.744                          33.000          14.000
  24904045.138   130871643.669 6      -528.244    24904062.668   101977977.550 5
      -411.618                          35.000          30.000
  25265127.630   132769144.529 6      3299.780    25265140.943   103456530.320 3
      2571.260                          36.000          20.000
 23 11  5 13  4  0.0000000  0 12G13G05G14G22G30G15G20G07G18G24G08G23
  19975272.292   104970816.717 8       453.852    19975276.902    81795482.998 8
       353.651                          48.000          46.000
  20972082.819   110208982.385 8     -2015.122    20972089.234    85877136.626 9
     -1570.224                          50.000          57.000
  21251097.606   111675385.630 8       590.696    21251104.861    87019873.213 7
       460.281                          48.000          43.000
  21580922.495   113408630.871 8      1565.760    21580929.357    88370438.666 7
      1220.069                          49.000          41.000
  21675709.442   113906671.814 8     -2473.519    21675718.359    88758505.105 9
     -1927.416                          49.000          54.000
  21839386.530   114766802.307 8      2645.162    21839395.286    89428736.139 7
      2061.157                          47.000          39.000
  22611825.920   118825776.052 8     -3728.533    22611835.874    92591470.947 6
     -2905.340                          45.000          33.000
  23998081.510   126110683.996 7     -3196.085    23998093.768    98268069.569 7
     -2490.453                          41.000          39.000
  24189871.324   127118584.544 7      -674.211    24189884.208    99053474.171 4
      -525.353                          40.000          26.000
  24502750.840   128762826.714 6      3373.203    24502768.959   100334743.713 3
      2628.458                          34.000          16.000
  24907110.194   130887752.591 6      -546.651    24907128.277   101990530.142 5
      -425.972                          36.000          31.000
  25246302.686   132670212.496 6      3295.223    25246314.408   103379440.336 3
      2567.734                          36.000          19.000
 23 11  5 13  4 30.0000000  0 12G13G05G14G22G30G15G20G07G18G24G08G23
  19972717.772   104957393.426 8       440.812    19972722.651    81785023.298 8
       343.492                          49.000          46.000
  20983639.627   110269712.764 8     -2033.817    20983646.150    85924458.906 9
     -1584.789                          49.000          57.000
  21247779.507   111657948.243 8       571.536    21247786.422    87006285.642 7
       445.352                          48.000          43.000
  21572030.244   113361903.736 8      1549.198    21572037.284    88334027.998 7
      1207.167                          49.000          41.000
  21689855.633   113981011.046 8     -2482.681    21689864.978    88816431.674 9
     -1934.553                          49.000          54.000
  21824310.417   114687575.927 8      2636.476    21824318.923    89367001.400 7
      2054.394                          47.000          39.000
  22633134.945   118937755.161 8     -3736.935    22633145.273    92678727.076 6
     -2911.887                          45.000          33.000
  24016334.967   126206604.359 7     -3198.847    24016347.154    98342812.435 7
     -2492.599                          41.000          39.000
  24193773.919   127139093.967 7      -693.210    24193787.303    99069455.487 4
      -540.172                          40.000          26.000
  24483503.186   128661679.643 6      3369.527    24483521.448   100255927.923 3
      2625.615                          34.000          17.000
  24910281.302   130904419.771 6      -564.884    24910300.225   102003517.797 5
      -440.181                          36.000          32.000
  25227503.920   132571429.578 6      3290.118    25227516.535   103302466.647 3
      2563.730                          36.000          19.000
 23 11  5 13  5  0.0000000  0 12G13G05G14G22G30G15G20G07G18G24G08G23
  19970238.392   104944363.905 8       426.820    19970243.234    81774870.423 8
       332.582                          49.000          46.000
  20995303.025   110331004.127 8     -2053.328    20995309.672    85972218.314 9
     -1599.996                          50.000          57.000
  21244571.195   111641088.965 8       551.365    21244578.272    86993148.543 7
       429.630                          48.000          43.000
  21563233.931   113315677.399 8      1531.590    21563240.579    88298007.558 7
      1193.437                          48.000          41.000
  21704054.680   114055627.482 8     -2492.786    21704064.347    88874574.244 9
     -1942.429                          49.000          54.000
  21809284.481   114608614.345 8      2626.666    21809292.665    89305473.011 7
      2046.744                          47.000          39.000
  22654492.073   119049987.003 8     -3746.246    22654502.562    92766180.125 5
     -2919.148                          45.000          32.000
  24034603.917   126302608.138 7     -3202.405    24034616.175    98417620.302 7
     -2495.382                          41.000          39.000
  24197785.514   127160174.739 7      -713.126    24197799.131    99085882.010 4
      -555.685                          40.000          25.000
  24464276.314   128560644.729 6      3364.993    24464295.041   100177199.512 3
      2622.052                          35.000          18.000
  24913560.536   130921653.358 6      -584.767    24913579.602   102016946.919 5
      -455.687                          36.000          32.000
  25208736.371   132472806.291 6      3283.783    25208749.826   103225617.334 3
      2558.795                          35.000          20.000
 23 11  5 13  5 30.0000000  0 12G13G05G14G22G30G15G20G07G18G24G08G23
  19967835.044   104931733.881 8       413.748    19967839.726    81765028.854 8
       322.400                          49.000          46.000
  21007073.564   110392860.002 8     -2071.832    21007080.390    86020417.610 9
     -1614.409                          49.000          56.000
  21241474.333   111624813.731 8       532.178    21241481.498    86980466.551 7
       414.682                          48.000          43.000
  21554533.933   113269958.593 8      1514.881    21554540.741    88262382.592 7
      1180.427                          49.000          41.000
  21718307.299   114130524.606 8     -2501.806    21718316.752    88932935.530 9
     -1949.458                          49.000          54.000
  21794310.061   114529924.434 8      2617.849    21794318.727    89244156.303 7
      2039.879                          47.000          39.000
  22675897.822   119162474.089 7     -3754.379    22675907.971    92853832.077 5
     -2925.480                          44.000          32.000
  24052889.556   126398699.251 7     -3205.035    24052901.671    98492496.234 7
     -2497.416                          42.000          39.000
  24201906.361   127181831.089 7      -732.064    24201920.317    99102757.029 4
      -570.429                          40.000          25.000
  24445072.672   128459728.279 6      3361.328    24445091.756   100098563.459 3
      2619.208                          34.000          20.000
  24916948.610   130939457.616 6      -603.381    24916967.122   102030820.657 5
      -470.171                          36.000          31.000
  25190001.862   132374350.221 6      3278.432    25190013.816   103148898.270 4
      2554.614                          36.000          21.000
 23 11  5 13  6  0.0000000  0 12G13G05G14G22G30G15G20G07G18G24G08G23
  19965505.477   104919492.553 8       401.870    19965510.213    81755490.174 8
       313.141                          49.000          46.000
  21018949.514   110455266.714 8     -2089.123    21018955.768    86069046.130 9
     -1627.891                          49.000          56.000
  21238486.078   111609111.943 8       514.163    21238493.530    86968231.394 7
       400.645                          48.000          43.000
  21545928.497   113224737.455 8      1499.386    21545935.305    88227145.415 7
      1168.341                          48.000          41.000
  21732610.826   114205689.428 8     -2509.653    21732620.011    88991505.409 9
     -1955.571                          48.000          54.000
  21779385.710   114451496.808 8      2610.165    21779394.502    89183043.977 7
      2033.882                          47.000          39.000
  22697349.602   119275202.239 8     -3761.308    22697359.966    92941671.863 6
     -2930.886                          45.000          33.000
  24071189.473   126494864.920 7     -3206.396    24071202.070    98567430.227 7
     -2498.485                          40.000          39.000
  24206135.208   127204050.706 7      -749.647    24206148.342    99120070.963 4
      -584.144                          39.000          25.000
  24425889.257   128358920.169 6      3358.654    24425908.663   100020011.813 4
      2617.131                          35.000          21.000
  24920442.629   130957821.500 6      -621.231    24920460.820   102045130.495 5
      -484.089                          37.000          31.000
  25171295.907   132276052.912 6      3274.124    25171308.845   103072303.121 3
      2551.262                          35.000          20.000
 23 11  5 13  6 30.0000000  0 12G13G05G14G22G30G15G20G07G18G24G08G23
  19963248.834   104907634.474 8       389.110    19963253.784    81746250.139 8
       303.203                          49.000          46.000
  21030928.639   110518217.241 8     -2107.180    21030934.839    86118098.411 9
     -1641.960                          50.000          56.000
  21235606.271   111593978.400 8       495.235    21235613.722    86956439.039 7
       385.901                          48.000          43.000
  21537417.160   113180009.832 8      1482.872    21537423.915    88192292.804 7
      1155.477                          49.000          41.000
  21746963.887   114281114.290 8     -2518.225    21746973.018    89050277.914 9
     -1962.244                          48.000          53.000
  21764510.517   114373327.456 8      2601.481    21764519.237    89122132.920 7
      2027.117                          47.000          40.000
  22718845.572   119388162.435 8     -3768.949    22718856.275    93029692.467 6
     -2936.834                          45.000          33.000
  24089502.845   126591098.398 6     -3208.717    24089515.121    98642417.062 6
     -2500.287                          38.000          38.000
  24210468.786   127226826.445 7      -768.479    24210482.527    99137818.237 4
      -598.815                          39.000          25.000
  24406725.874   128258215.501 6      3355.074    24406745.154    99941540.796 4
      2614.342                          37.000          22.000
  24924041.933   130976739.258 6      -639.597    24924060.177   102059871.929 5
      -498.397                          38.000          31.000
  25152620.688   132177910.502 6      3269.056    25152632.660   102995828.609 3
      2547.305                          37.000          20.000
 23 11  5 13  7  0.0000000  0 12G13G05G14G22G15G30G20G07G18G24G08G23
  19961066.955   104896167.853 8       374.968    19961071.851    81737315.141 8
       292.176                          49.000          46.000
  21043012.405   110581716.906 8     -2126.473    21043018.569    86167578.587 9
     -1657.000                          49.000          56.000
  21232836.233   111579421.244 8       474.992    21232843.666    86945095.826 7
       370.119                          49.000          43.000
  21529001.154   113135784.959 8      1464.989    21529008.087    88157831.937 7
      1141.536                          49.000          41.000
  21749686.125   114295425.671 8      2591.494    21749694.863    89061430.360 7
      2019.328                          48.000          40.000
  21761367.338   114356805.059 8     -2528.225    21761376.558    89109257.618 9
     -1970.046                          49.000          54.000
  22740386.625   119501359.378 7     -3777.906    22740397.115    93117897.535 5
     -2943.821                          44.000          32.000
  24107828.725   126687405.531 7     -3212.182    24107842.037    98717461.291 6
     -2502.999                          40.000          38.000
  24214910.185   127250164.747 7      -788.054    24214924.034    99156003.861 4
      -614.066                          39.000          25.000
  24387583.683   128157622.976 6      3350.442    24387602.677    99863157.155 4
      2610.724                          37.000          22.000
  24927748.772   130996217.959 6      -659.237    24927765.891   102075050.584 5
      -513.724                          37.000          30.000
  25133975.935   132079932.940 6      3262.351    25133987.478   102919482.377 3
      2542.052                          38.000          19.000
 23 11  5 13  7 30.0000000  0 12G13G05G14G22G15G30G20G07G18G24G08G23
  19958961.484   104885104.389 8       361.356    19958966.451    81728694.288 8
       281.574                          49.000          46.000
  21055202.134   110645774.284 8     -2145.143    21055208.352    86217493.347 9
     -1671.537                          49.000          56.000
  21230177.715   111565451.881 8       455.188    21230185.292    86934210.631 7
       354.690                          49.000          43.000
  21520683.499   113092075.053 8      1447.738    21520690.397    88123772.341 7
      1128.106                          49.000          41.000
  21734915.037   114217804.014 8      2582.062    21734923.971    89000946.076 7
      2011.995                          47.000          40.000
  21775823.145   114432770.816 8     -2537.354    21775832.794    89168451.597 9
     -1977.155                          49.000          53.000
  22761973.978   119614800.896 7     -3786.085    22761984.645    93206293.175 5
     -2950.178                          44.000          32.000
  24126171.027   126783795.777 7     -3215.112    24126185.018    98792570.303 6
     -2505.271                          41.000          38.000
  24219460.496   127274075.188 7      -807.216    24219474.398    99174635.337 4
      -628.992                          39.000          26.000
  24368465.168   128057154.411 6      3346.278    24368483.466    99784870.114 4
      2607.486                          36.000          21.000
  24931563.237   131016268.100 6      -678.554    24931580.534   102090674.398 5
      -528.756                          37.000          30.000
  25115365.401   131982133.734 6      3256.339    25115377.373   102843275.181 3
      2537.396                          37.000          18.000
 23 11  5 13  8  0.0000000  0 12G13G05G14G22G15G30G20G07G18G24G08G23
  19956932.653   104874443.019 8       347.470    19956937.692    81720386.759 8
       270.752                          49.000          46.000
  21067497.273   110710386.651 8     -2164.211    21067504.063    86267840.559 9
     -1686.401                          49.000          56.000
  21227631.415   111552069.664 8       435.095    21227638.527    86923782.966 7
       339.031                          49.000          43.000
  21512463.498   113048880.374 8      1430.019    21512470.825    88090114.223 7
      1114.293                          49.000          41.000
  21720197.681   114140463.207 8      2572.164    21720206.383    88940680.640 7
      2004.271                          48.000          40.000
  21790330.933   114509008.601 8     -2546.985    21790340.440    89227857.561 9
     -1984.660                          49.000          53.000
  22783606.699   119728482.584 7     -3794.583    22783618.135    93294875.966 5
     -2956.813                          44.000          32.000
  24144528.929   126880267.042 7     -3218.172    24144543.563    98867742.466 6
     -2507.663                          41.000          38.000
  24224117.986   127298555.334 7      -826.633    24224132.406    99193710.743 4
      -644.141                          40.000          25.000
  24349370.277   127956809.662 6      3341.386    24349388.235    99706679.554 4
      2603.673                          35.000          21.000
  24935487.096   131036887.701 6      -697.858    24935504.554   102106741.930 5
      -543.793                          37.000          31.000
  25096788.514   131884514.199 6      3249.842    25096800.576   102767207.985 3
      2532.326                          37.000          17.000
 23 11  5 13  8 30.0000000  0 12G13G05G14G22G15G30G20G07G18G24G08G23
  19954982.588   104864194.980 8       334.592    19954987.449    81712401.304 8
       260.723                          49.000          46.000
  21079899.875   110775562.464 8     -2182.073    21079906.773    86318626.813 9
     -1700.315                          49.000          55.000
  21225198.530   111539285.698 8       415.947    21225205.856    86913821.471 7
       324.116                          49.000          43.000
  21504344.368   113006213.063 8      1413.336    21504351.301    88056867.031 7
      1101.297                          49.000          41.000
  21705535.826   114063415.223 8      2563.211    21705544.296    88880643.375 7
      1997.303                          48.000          40.000
  21804891.882   114585527.237 8     -2555.461    21804901.352    89287482.385 9
     -1991.265                          48.000          53.000
  22805287.042   119842412.113 7     -3801.866    22805298.335    93383651.874 5
     -2962.481                          44.000          31.000
  24162904.109   126976828.281 7     -3220.372    24162918.905    98942984.747 6
     -2509.372                          42.000          38.000
  24228887.031   127323614.443 7      -845.104    24228900.576    99213237.288 4
      -658.527                          40.000          25.000
  24330301.027   127856600.317 6      3337.930    24330318.807    99628594.522 4
      2600.992                          36.000          22.000
  24939521.188   131058087.931 6      -716.362    24939538.754   102123261.864 5
      -558.217                          37.000          31.000
  25078248.742   131787087.069 6      3244.213    25078260.750   102691290.771 3
      2527.963                          38.000          18.000
 23 11  5 13  9  0.0000000  0 12G13G05G14G22G15G30G20G07G18G24G08G23
  19953105.984   104854333.018 8       321.593    19953110.647    81704716.681 8
       250.587                          49.000          46.000
  21092403.974   110841272.170 8     -2199.902    21092410.854    86369829.092 9
     -1714.213                          49.000          55.000
  21222875.039   111527072.888 8       396.893    21222881.936    86904305.032 7
       309.265                          48.000          43.000
  21496320.480   112964047.061 8      1396.448    21496327.360    88024010.471 7
      1088.128                          49.000          41.000
  21690924.969   113986634.755 8      2554.187    21690933.206    88820814.551 7
      1990.266                          48.000          40.000
  21819500.719   114662297.438 8     -2563.868    21819510.208    89347303.254 9
     -1997.819                          48.000          53.000
  22827008.912   119956558.805 7     -3809.128    22827019.884    93472597.006 5
     -2968.146                          44.000          31.000
  24181290.762   127073450.608 7     -3222.399    24181305.183    99018274.630 6
     -2510.957                          41.000          37.000
  24233760.236   127349223.586 7      -863.467    24233773.834    99233192.406 4
      -672.839                          40.000          25.000
  24311251.934   127756499.925 6      3334.269    24311270.339    99550594.402 4
      2598.115                          37.000          22.000
  24943659.869   131079839.750 6      -734.906    24943678.452   102140211.711 5
      -572.666                          37.000          30.000
  25059740.616   131689827.370 6      3238.482    25059753.052   102615504.029 3
      2523.521                          37.000          18.000
 23 11  5 13  9 30.0000000  0 12G13G05G14G22G15G30G20G07G18G24G08G23
  19951305.376   104844870.795 8       309.434    19951309.968    81697343.536 8
       241.115                          49.000          46.000
  21105011.964   110907527.177 8     -2216.870    21105018.611    86421456.288 9
     -1727.436                          49.000          55.000
  21220661.960   111515445.171 8       378.481    21220669.072    86895244.498 7
       294.920                          49.000          44.000
  21488394.693   112922397.475 8      1380.418    21488401.412    87991556.309 7
      1075.637                          49.000          41.000
  21676367.648   113910136.796 8      2545.935    21676376.028    88761205.861 7
      1983.836                          48.000          40.000
  21834160.001   114739330.893 8     -2571.454    21834169.454    89407329.273 9
     -2003.726                          48.000          53.000
  22848773.936   120070933.314 7     -3815.554    22848784.747    93561719.664 5
     -2973.154                          44.000          31.000
  24199692.068   127170146.001 7     -3223.772    24199706.166    99093621.438 6
     -2512.028                          41.000          38.000
  24238741.476   127375395.039 7      -880.969    24238754.967    99253585.715 4
      -686.466                          40.000          25.000
  24292226.946   127656522.924 6      3331.144    24292244.708    99472690.446 4
      2595.697                          37.000          22.000
  24947907.246   131102156.964 6      -752.737    24947924.347   102157602.095 5
      -586.565                          36.000          30.000
  25041267.745   131592750.922 6      3233.482    25041280.825   102539860.039 3
      2519.595                          38.000          20.000
 23 11  5 13 10  0.0000000  0 12G13G05G14G22G15G30G20G07G18G24G08G23
  19949580.658   104835808.505 8       295.315    19949585.447    81690282.028 8
       230.117                          49.000          46.000
  21117723.326   110974324.308 8     -2235.719    21117729.830    86473505.923 9
     -1742.113                          49.000          55.000
  21218560.581   111504402.340 8       358.237    21218567.800    86886639.720 7
       279.150                          49.000          44.000
  21480567.364   112881264.886 8      1362.366    21480573.993    87959505.008 7
      1061.583                          49.000          41.000
  21661864.470   113833922.380 8      2535.641    21661872.779    88701818.128 7
      1975.822                          48.000          41.000
  21848868.530   114816625.204 8     -2580.916    21848878.447    89467558.558 9
     -2011.103                          48.000          53.000
  22870581.149   120185531.937 7     -3823.842    22870592.710    93651016.938 5
     -2979.601                          43.000          31.000
  24218106.346   127266912.836 7     -3226.918    24218120.891    99169023.878 6
     -2514.471                          41.000          38.000
  24243827.643   127402126.705 7      -900.602    24243841.563    99274415.525 4
      -701.750                          40.000          26.000
  24273225.206   127556669.698 6      3326.244    24273243.003    99394882.944 4
      2591.881                          38.000          23.000
  24952260.622   131125038.335 6      -772.310    24952278.813   102175432.137 5
      -601.806                          37.000          31.000
  25022829.593   131495859.523 6      3226.601    25022843.442   102464360.298 4
      2514.222                          38.000          21.000
 23 11  5 13 10 30.0000000  0 12G13G05G14G22G15G30G20G07G18G24G08G23
  19947931.865   104827143.440 8       282.446    19947936.636    81683530.038 8
       220.091                          49.000          46.000
  21130536.648   111041658.895 8     -2253.204    21130543.349    86525974.354 9
     -1755.737                          49.000          55.000
  21216569.883   111493941.797 8       339.205    21216577.084    86878488.661 7
       264.316                          49.000          44.000
  21472837.921   112840647.463 8      1345.601    21472844.908    87927855.134 7
      1048.522                          49.000          41.000
  21647415.042   113757990.375 8      2526.612    21647423.226    88642650.468 7
      1968.791                          48.000          40.000
  21863626.002   114894175.554 8     -2589.012    21863635.419    89527987.366 9
     -2017.411                          48.000          53.000
  22892430.514   120300348.614 7     -3830.561    22892442.290    93740484.113 5
     -2984.834                          43.000          30.000
  24236533.025   127363746.558 7     -3228.677    24236547.553    99244478.455 6
     -2515.838                          39.000          36.000
  24249020.703   127429414.176 7      -918.577    24249034.122    99295678.439 4
      -715.776                          40.000          25.000
  24254246.427   127456938.234 6      3322.418    24254264.975    99317170.311 4
      2588.901                          38.000          23.000
  24956721.249   131148480.281 6      -790.581    24956739.207   102193698.966 5
      -616.040                          36.000          30.000
  25004426.858   131399152.380 6      3220.615    25004440.367   102389004.049 3
      2509.569                          38.000          20.000
 23 11  5 13 11  0.0000000  0 12G13G05G14G22G15G30G20G24G18G07G08G23
  19946359.409   104818879.258 8       268.388    19946364.126    81677090.421 8
       209.130                          49.000          46.000
  21143452.682   111109532.168 8     -2271.840    21143459.543    86578862.541 9
     -1770.265                          49.000          55.000
  21214690.830   111484066.997 8       318.999    21214697.834    86870794.019 7
       248.569                          49.000          44.000
  21465207.920   112800549.681 8      1327.477    21465214.407    87896610.180 7
      1034.393                          49.000          41.000
  21633020.346   113682345.609 8      2516.265    21633028.316    88583706.620 7
      1960.721                          48.000          40.000
  21878432.346   114971983.255 8     -2598.222    21878442.013    89588616.693 9
     -2024.587                          48.000          53.000
  22914321.247   120415383.462 7     -3838.532    22914332.987    93830121.306 5
     -2991.043                          43.000          29.000
  24235292.397   127357332.652 6      3317.846    24235310.927    99239555.780 4
      2585.319                          37.000          23.000
  24254319.333   127457259.175 7      -937.850    24254333.110    99317375.820 4
      -730.790                          40.000          25.000
  24254973.071   127460648.800 7     -3231.586    24254988.063    99319986.419 6
     -2518.110                          39.000          36.000
  24961289.947   131172485.205 6      -810.007    24961306.583   102212404.406 5
      -631.177                          36.000          30.000
  24986060.255   131302635.367 7      3213.540    24986073.781   102313796.016 4
      2504.050                          39.000          22.000
 23 11  5 13 11 30.0000000  0 12G13G05G14G22G15G30G20G24G18G07G08G23
  19944861.252   104811006.330 8       255.378    19944865.952    81670955.673 8
       198.997                          49.000          46.000
  21156468.675   111177931.569 8     -2289.233    21156475.536    86632160.687 9
     -1783.818                          49.000          55.000
  21212921.368   111474768.217 8       299.820    21212928.533    86863548.216 7
       233.627                          50.000          44.000
  21457674.715   112760963.106 8      1310.497    21457681.309    87865763.564 7
      1021.165                          49.000          41.000
  21618678.561   113606979.763 8      2506.972    21618686.602    88524980.114 7
      1953.480                          48.000          41.000
  21893285.382   115050036.390 8     -2606.331    21893295.192    89649437.247 9
     -2030.902                          49.000          53.000
  22936251.113   120530623.183 7     -3845.254    22936262.531    93919918.135 5
     -2996.283                          43.000          30.000
  24216359.863   127257843.800 6      3313.813    24216378.572    99162032.227 4
      2582.188                          38.000          24.000
  24259722.639   127485650.081 7      -955.965    24259736.005    99339498.565 4
      -744.896                          41.000          25.000
  24273424.034   127557608.575 7     -3233.479    24273439.634    99395539.225 6
     -2519.590                          39.000          36.000
  24965962.607   131197042.439 6      -828.271    24965978.796   102231540.222 5
      -645.419                          36.000          29.000
  24967728.513   131206300.668 7      3207.499    24967741.308   102238730.058 4
      2499.350                          40.000          22.000
 23 11  5 13 12  0.0000000  0 12G13G05G14G22G15G30G20G24G18G07G23G08
  19943440.826   104803542.549 8       241.347    19943445.668    81665139.751 8
       188.066                          49.000          46.000
  21169587.539   111246872.456 8     -2307.631    21169594.508    86685880.769 9
     -1798.148                          49.000          55.000
  21211264.945   111466063.275 8       279.677    21211272.182    86856765.147 7
       217.932                          49.000          44.000
  21450242.560   112721906.686 8      1292.352    21450248.975    87835330.066 7
      1007.028                          49.000          41.000
  21604393.439   113531912.258 8      2496.650    21604401.837    88466486.092 7
      1945.438                          48.000          41.000
  21908188.308   115128350.685 8     -2615.473    21908197.493    89710461.297 9
     -2038.029                          48.000          53.000
  22958222.220   120646082.598 7     -3852.856    22958233.853    94009886.161 5
     -3002.211                          43.000          30.000
  24197453.776   127158490.231 6      3308.802    24197472.038    99084614.079 4
      2578.271                          38.000          24.000
  24265231.391   127514602.901 7      -975.100    24265244.936    99362059.168 4
      -759.816                          42.000          26.000
  24291890.312   127654641.749 7     -3236.288    24291905.089    99471149.196 6
     -2521.772                          41.000          38.000
  24949435.762   131110168.055 7      3200.487    24949447.502   102163821.545 4
      2493.858                          39.000          21.000
  24970743.536   131222169.516 6      -847.711    24970760.047   102251120.078 5
      -660.562                          36.000          30.000
 23 11  5 13 12 30.0000000  0 12G13G05G14G22G15G30G20G24G18G07G23G08
  19942097.129   104796480.933 8       229.550    19942101.900    81659637.201 8
       178.875                          49.000          46.000
  21182808.079   111316345.246 8     -2323.706    21182814.655    86740015.319 9
     -1810.675                          49.000          55.000
  21209720.204   111457945.250 8       261.722    21209727.458    86850439.418 7
       203.942                          49.000          44.000
  21442909.827   112683374.362 8      1276.589    21442916.260    87805304.949 7
       994.743                          49.000          41.000
  21590164.372   113457137.509 8      2488.531    21590172.716    88408220.196 7
      1939.109                          48.000          41.000
  21923138.855   115206917.232 8     -2622.196    21923148.522    89771681.880 9
     -2043.264                          49.000          53.000
  22980234.033   120761750.949 7     -3858.224    22980245.237    94100016.966 5
     -3006.396                          42.000          30.000
  24178571.919   127059265.670 6      3306.268    24178589.931    99007296.463 4
      2576.299                          38.000          25.000
  24270845.892   127544108.950 7      -991.857    24270859.758    99385050.833 4
      -772.879                          41.000          26.000
  24310367.399   127751739.963 7     -3236.739    24310382.427    99546809.869 7
     -2522.121                          42.000          40.000
  24931179.857   131014232.858 7      3195.353    24931191.347   102089066.818 4
      2489.894                          39.000          21.000
  24975632.107   131247857.842 6      -864.839    24975647.939   102271137.223 5
      -673.913                          37.000          31.000
 23 11  5 13 13  0.0000000  0 12G13G05G14G22G15G30G20G24G18G07G23G08
  19940829.125   104789818.538 8       215.436    19940833.950    81654445.736 8
       167.875                          49.000          46.000
  21196128.238   111386344.148 8     -2342.022    21196134.939    86794559.834 9
     -1824.947                          49.000          55.000
  21208286.250   111450410.936 8       241.449    21208293.862    86844568.537 7
       188.139                          49.000          44.000
  21435676.697   112645363.656 8      1258.329    21435683.309    87775686.295 7
       980.517                          49.000          41.000
  21575990.466   113382653.837 8      2477.946    21575998.704    88350181.112 7
      1930.867                          49.000          41.000
  21938136.755   115285730.662 8     -2631.075    21938146.690    89833094.819 9
     -2050.185                          48.000          53.000
  23002283.621   120877621.636 7     -3865.629    23002295.397    94190305.431 5
     -3012.160                          42.000          30.000
  24159713.738   126960167.600 6      3301.123    24159731.732    98930077.413 4
      2572.283                          38.000          25.000
  24276565.569   127574163.222 7     -1010.762    24276579.061    99408469.684 4
      -787.608                          41.000          26.000
  24328855.745   127848898.259 7     -3239.511    24328870.594    99622517.371 6
     -2524.284                          41.000          38.000
  24912961.530   130918493.996 7      3188.077    24912973.056   102014465.057 4
      2484.197                          39.000          22.000
  24980626.124   131274103.564 6      -884.107    24980641.581   102291588.672 5
      -688.929                          36.000          30.000
 23 11  5 13 13 30.0000000  0 12G13G14G05G22G15G30G20G24G18G07G23G08
  19939638.083   104783560.046 8       203.158    19939642.783    81649569.012 8
       158.305                          49.000          46.000
  21206964.496   111443464.868 8       223.022    21206971.805    86839156.044 7
       173.786                          49.000          44.000
  21209549.483   111456871.547 8     -2358.415    21209556.005    86849516.173 9
     -1837.724                          49.000          55.000
  21428543.562   112607880.233 8      1241.884    21428550.316    87746478.508 7
       967.699                          49.000          41.000
  21561873.223   113308467.351 8      2469.186    21561881.175    88292373.609 7
      1924.036                          48.000          41.000
  21953182.186   115364793.562 8     -2638.313    21953191.710    89894702.150 9
     -2055.822                          48.000          52.000
  23024372.378   120993696.000 7     -3871.259    23024383.868    94280752.614 5
     -3016.545                          43.000          30.000
  24140880.628   126861201.335 6      3297.882    24140898.497    98852961.064 4
      2569.771                          38.000          24.000
  24282389.549   127604768.492 7     -1028.126    24282403.415    99432317.905 4
      -801.134                          40.000          25.000
  24347356.581   127946119.663 7     -3240.478    24347370.769    99698274.113 6
     -2525.046                          39.000          35.000
  24894781.604   130822958.144 6      3182.335    24894793.594   101940021.472 4
      2479.735                          38.000          22.000
  24985727.283   131300910.745 6      -901.676    24985743.205   102312477.618 5
      -702.613                          37.000          29.000
 23 11  5 13 14  0.0000000  0 12G13G14G05G22G15G30G20G24G18G07G23G08
  19938524.307   104777706.406 8       188.036    19938528.863    81645007.758 8
       146.522                          49.000          46.000
  21205754.674   111437107.817 8       201.745    21205761.947    86834202.528 7
       157.205                          49.000          44.000
  21223070.615   111527925.700 8     -2377.524    21223077.477    86904882.963 9
     -1852.612                          49.000          55.000
  21421511.244   112570925.729 8      1222.622    21421518.320    87717682.869 7
       952.694                          49.000          42.000
  21547812.697   113234580.179 8      2457.542    21547820.595    88234799.338 7
      1914.964                          48.000          41.000
  21968274.684   115444104.619 8     -2648.177    21968284.227    89956502.843 9
     -2063.510                          48.000          53.000
  23046498.588   121109971.388 7     -3879.551    23046510.793    94371356.449 5
     -3023.007                          42.000          29.000
  24122073.874   126762368.273 6      3291.866    24122090.886    98775948.508 4
      2565.081                          38.000          24.000
  24288318.347   127635923.510 7     -1047.923    24288331.892    99456594.492 4
      -816.556                          41.000          26.000
  24365869.443   128043403.427 6     -3244.147    24365883.613    99774079.452 6
     -2527.900                          37.000          34.000
  24876640.436   130727628.154 7      3173.769    24876652.962   101865738.264 4
      2473.064                          39.000          22.000
  24990934.388   131328278.338 6      -921.938    24990950.810   102333803.237 5
      -718.394                          37.000          30.000
 23 11  5 13 14 30.0000000  0 12G13G14G05G22G15G30G20G24G18G07G23G08
  19937487.117   104772255.685 8       173.908    19937491.585    81640760.469 8
       135.513                          48.000          46.000
  21204656.712   111431337.512 8       181.527    21204663.574    86829706.241 7
       141.449                          49.000          44.000
  21236691.189   111599502.156 8     -2395.634    21236698.283    86960656.726 9
     -1866.717                          49.000          55.000
  21414579.439   112534498.953 8      1204.360    21414586.336    87689298.444 7
       938.467                          49.000          42.000
  21533809.244   113160991.631 8      2446.906    21533817.070    88177457.759 7
      1906.682                          48.000          41.000
  21983413.464   115523659.719 8     -2656.983    21983422.881    90018493.707 9
     -2070.371                          48.000          52.000
  23068663.325   121226442.695 7     -3886.761    23068674.403    94462112.955 5
     -3028.626                          42.000          27.000
  24103291.047   126663667.103 6      3286.758    24103308.506    98699038.729 4
      2561.089                          38.000          22.000
  24294350.662   127667624.383 7     -1066.742    24294364.742    99481296.398 4
      -831.215                          41.000          25.000
  24384393.151   128140745.930 6     -3246.856    24384407.750    99849930.538 6
     -2530.015                          37.000          33.000
  24858539.044   130632504.267 7      3166.323    24858551.606   101791615.681 4
      2467.291                          40.000          22.000
  24996248.796   131356204.263 6      -941.216    24996265.003   102355563.940 5
      -733.415                          37.000          30.000
 23 11  5 13 15  0.0000000  0 12G13G14G05G22G15G30G20G24G18G07G23G08
  19936528.819   104767219.274 8       162.093    19936533.322    81636836.025 8
       126.306                          48.000          46.000
  21203672.218   111426165.408 8       163.617    21203679.455    86825676.083 7
       127.489                          49.000          44.000
  21250412.704   111671609.418 8     -2411.258    21250420.066    87016844.096 9
     -1878.898                          49.000          56.000
  21407750.291   112498612.413 8      1188.365    21407757.260    87661334.981 7
       925.997                          49.000          42.000
  21519864.919   113087714.662 8      2438.506    21519872.835    88120358.960 7
      1900.129                          49.000          41.000
  21998600.579   115603468.365 8     -2663.328    21998609.942    90080682.150 9
     -2075.318                          48.000          52.000
  23090865.854   121343117.943 7     -3891.366    23090877.111    94553028.367 5
     -3032.227                          42.000          28.000
  24084536.078   126565110.014 6      3283.935    24084553.608    98622241.208 4
      2558.897                          38.000          23.000
  24300488.814   127699880.732 7     -1083.333    24300502.573    99506431.160 4
      -844.158                          40.000          24.000
  24402929.528   128238156.859 7     -3247.039    24402944.985    99925834.940 6
     -2530.148                          40.000          36.000
  24840478.555   130537600.184 7      3160.930    24840491.724   101717664.378 4
      2463.065                          40.000          22.000
  25001670.722   131384698.221 6      -958.040    25001686.483   102377767.216 5
      -746.527                          37.000          30.000
 23 11  5 13 15 30.0000000  0 12G13G14G05G22G15G30G20G24G18G07G23G08
  19935647.001   104762585.545 8       147.802    19935651.719    81633225.359 8
       115.170                          48.000          46.000
  21202799.835   111421579.150 8       143.104    21202806.964    86822102.430 7
       111.506                          48.000          43.000
  21264232.875   111744232.899 8     -2429.315    21264240.094    87073433.716 9
     -1892.963                          50.000          56.000
  21401022.068   112463254.968 8      1169.812    21401029.090    87633783.801 7
       911.541                          49.000          42.000
  21505977.990   113014738.930 8      2427.543    21505985.978    88063494.896 7
      1891.588                          48.000          41.000
  22013833.438   115683516.326 8     -2672.195    22013843.248    90143057.075 9
     -2082.227                          48.000          52.000
  23113104.174   121459981.940 7     -3898.490    23113116.486    94644090.856 5
     -3037.771                          43.000          29.000
  24065806.072   126466685.491 6      3278.671    24065824.138    98545546.994 4
      2554.826                          37.000          23.000
  24306730.464   127732678.458 7     -1102.205    24306743.669    99531987.777 4
      -858.867                          40.000          24.000
  24421476.949   128335622.518 7     -3249.723    24421492.584   100001781.992 6
     -2532.239                          39.000          38.000
  24822459.039   130442905.801 7      3152.965    24822472.584   101643876.544 4
      2456.862                          40.000          24.000
  25007198.004   131413747.083 6      -977.697    25007215.212   102400402.846 5
      -761.845                          36.000          30.000
 23 11  5 13 16  0.0000000  0 12G13G14G05G22G15G30G20G24G18G07G23G08
  19934844.271   104758369.130 8       133.591    19934849.435    81629939.873 8
       104.089                          49.000          46.000
  21202041.134   111417594.207 8       122.811    21202048.728    86818997.332 7
        95.691                          49.000          43.000
  21278153.362   111817385.444 8     -2447.173    21278160.491    87130435.594 9
     -1906.888                          50.000          56.000
  21394397.574   112428442.729 8      1151.316    21394404.383    87606657.465 7
       897.120                          49.000          41.000
  21492151.637   112942081.274 8      2416.623    21492159.535    88006878.676 7
      1883.073                          49.000          41.000
  22029114.026   115763817.082 8     -2680.861    22029123.872    90205629.001 9
     -2088.986                          48.000          52.000
  23135381.378   121577046.017 7     -3905.407    23135393.797    94735309.256 5
     -3043.164                          43.000          29.000
  24047105.103   126368409.737 6      3273.326    24047122.704    98468968.720 4
      2550.641                          38.000          23.000
  24313076.736   127766031.099 7     -1120.876    24313090.585    99557976.807 4
      -873.411                          40.000          24.000
  24440037.253   128433156.670 7     -3252.240    24440052.906   100077782.406 6
     -2534.211                          40.000          38.000
  24804482.695   130348438.858 7      3145.262    24804496.007   101570265.891 4
      2450.839                          40.000          24.000
  25012834.055   131443365.838 6      -996.702    25012851.174   102423482.524 5
      -776.658                          36.000          30.000
 23 11  5 13 16 30.0000000  0 12G13G14G05G22G15G30G20G24G18G07G23G08
  19934118.503   104754554.435 8       119.450    19934123.363    81626967.408 8
        93.077                          49.000          46.000
  21201393.989   111414193.730 8       102.554    21201401.476    86816347.660 7
        79.909                          50.000          44.000
  21292170.842   111891047.999 8     -2464.963    21292177.721    87187834.889 9
     -1920.746                          50.000          55.000
  21387873.862   112394160.140 8      1132.862    21387880.063    87579943.840 7
       882.745                          49.000          42.000
  21478382.983   112869726.740 8      2405.705    21478390.702    87950498.634 7
      1874.569                          49.000          41.000
  22044439.268   115844352.039 8     -2689.450    22044449.168    90268383.429 9
     -2095.669                          48.000          52.000
  23157692.801   121694290.774 7     -3912.186    23157705.184    94826668.441 5
     -3048.453                          42.000          29.000
  24028429.115   126270267.036 6      3268.183    24028446.412    98392494.119 4
      2546.626                          38.000          23.000
  24319525.899   127799920.146 7     -1139.632    24319539.480    99584383.793 4
      -888.017                          40.000          24.000
  24458607.921   128530741.705 7     -3254.628    24458622.484   100153822.462 6
     -2536.068                          40.000          37.000
  24786547.181   130254184.955 7      3137.128    24786559.779   101496821.235 4
      2444.519                          39.000          25.000
  25018575.283   131473536.322 6     -1015.855    25018592.044   102446992.148 5
      -791.584                          35.000          29.000
 23 11  5 13 17  0.0000000  0 12G13G14G05G22G15G30G20G24G18G07G23G08
  19933471.805   104751155.566 8       107.575    19933476.272    81624318.969 8
        83.827                          49.000          46.000
  21200860.903   111411391.573 8        84.667    21200867.764    86814164.200 7
        65.977                          49.000          43.000
  21306287.674   111965232.489 8     -2480.271    21306294.107    87245640.899 9
     -1932.672                          49.000          54.000
  21381453.451   112360422.065 8      1116.719    21381459.741    87553654.520 7
       870.174                          50.000          42.000
  21464674.798   112797690.665 8      2397.085    21464682.750    87894366.751 7
      1867.860                          48.000          41.000
  22059811.828   115925133.114 8     -2695.611    22059821.495    90331329.622 9
     -2100.472                          48.000          52.000
  23180039.801   121811726.684 7     -3916.405    23180052.703    94918176.565 5
     -3051.736                          42.000          29.000
  24009780.967   126172272.035 6      3265.349    24009798.247    98316134.595 4
      2544.417                          38.000          24.000
  24326079.274   127834357.603 7     -1155.798    24326093.283    99611218.143 4
      -900.599                          40.000          24.000
  24477190.114   128628389.899 6     -3254.897    24477204.123   100229911.749 6
     -2536.267                          38.000          35.000
  24768655.590   130160160.154 6      3131.654    24768667.008   101423555.108 4
      2440.264                          38.000          24.000
  25024423.617   131504271.926 6     -1032.622    25024440.718   102470942.133 5
      -804.647                          36.000          29.000
 23 11  5 13 17 30.0000000  0 12G13G14G05G22G15G30G20G24G18G07G23G08
  19932901.658   104748160.002 8        92.798    19932906.125    81621984.790 8
        72.303                          49.000          46.000
  21200439.373   111409175.225 8        63.753    21200446.163    86812437.201 7
        49.672                          49.000          44.000
  21320500.998   112039922.820 8     -2498.393    21320507.342    87303841.070 9
     -1946.798                          49.000          54.000
  21375134.911   112327217.032 8      1097.606    21375141.004    87527780.555 7
       855.271                          49.000          42.000
  21451025.259   112725962.246 8      2385.462    21451033.210    87838474.591 7
      1858.796                          48.000          42.000
  22075227.809   116006146.013 8     -2704.557    22075237.655    90394456.458 9
     -2107.445                          48.000          52.000
  23202420.824   121929338.361 7     -3923.519    23202433.529    95009821.653 5
     -3057.276                          42.000          28.000
  23991159.623   126074413.086 6      3259.390    23991176.098    98239881.077 4
      2539.778                          38.000          24.000
  24332733.537   127869329.183 7     -1174.834    24332747.904    99638468.669 4
      -915.463                          39.000          24.000
  24495782.010   128726087.226 6     -3257.623    24495795.573   100306039.283 6
     -2538.399                          37.000          33.000
  24750804.543   130066354.442 7      3123.054    24750817.158   101350459.695 4
      2433.540                          39.000          25.000
  25030377.308   131535558.854 6     -1052.416    25030393.944   102495321.693 5
      -820.068                          36.000          31.000
 23 11  5 13 18  0.0000000  0 12G13G14G05G22G15G30G20G24G18G07G23G08
  19932409.313   104745572.775 8        78.750    19932413.726    81619968.794 8
        61.359                          48.000          46.000
  21200129.649   111407549.558 8        43.678    21200136.993    86811170.468 7
        34.033                          49.000          44.000
  21334810.977   112115121.782 8     -2515.726    21334817.928    87362437.565 9
     -1960.303                          49.000          55.000
  21368918.474   112294550.834 8      1079.286    21368925.139    87502326.469 7
       841.002                          49.000          42.000
  21437435.670   112654548.136 8      2374.570    21437443.300    87782827.352 7
      1850.312                          49.000          42.000
  22090688.982   116087393.906 8     -2712.770    22090699.042    90457766.409 9
     -2113.843                          47.000          52.000
  23224836.209   122047127.558 7     -3929.881    23224848.163    95101605.079 5
     -3062.238                          42.000          28.000
  23972563.527   125976695.986 6      3254.162    23972580.949    98163738.099 4
      2535.711                          38.000          24.000
  24339491.119   127904837.957 7     -1193.164    24339505.021    99666137.785 4
      -929.704                          40.000          24.000
  24514382.752   128823837.242 6     -3259.955    24514397.548   100382207.904 5
     -2540.218                          36.000          32.000
  24732996.828   129972775.146 6      3114.792    24733009.980   101277540.672 4
      2427.124                          35.000          22.000
  25036437.283   131567401.255 6     -1071.345    25036453.812   102520134.120 5
      -834.820                          37.000          31.000
 23 11  5 13 18 30.0000000  0 12G13G14G05G22G15G30G20G24G18G07G23G08
  19931996.931   104743405.679 8        65.132    19932001.417    81618280.178 8
        50.751                          49.000          46.000
  21199934.876   111406525.717 8        23.974    21199942.024    86810372.693 7
        18.681                          49.000          44.000
  21349219.645   112190838.462 8     -2532.595    21349226.900    87421437.471 9
     -1973.446                          50.000          56.000
  21362806.804   112262435.764 8      1061.243    21362813.755    87477301.830 7
       826.942                          49.000          42.000
  21423908.051   112583461.340 8      2364.051    21423915.610    87727435.162 7
      1842.113                          48.000          42.000
  22106196.399   116168886.059 8     -2720.544    22106206.370    90521266.683 9
     -2119.904                          47.000          51.000
  23247286.152   122165101.980 7     -3935.575    23247298.375    95193532.830 5
     -3066.664                          43.000          28.000
  23953997.934   125879132.833 6      3249.488    23954015.285    98087715.071 4
      2532.061                          38.000          24.000
  24346352.324   127940893.205 7     -1211.008    24346365.994    99694232.698 4
      -943.634                          39.000          24.000
  24532995.484   128921649.964 6     -3261.595    24533011.048   100458425.324 6
     -2541.491                          37.000          34.000
  24715235.842   129879435.685 6      3107.166    24715247.993   101204808.522 4
      2421.195                          37.000          22.000
  25042603.901   131599809.054 6     -1089.828    25042619.769   102545387.110 5
      -849.224                          36.000          30.000
 23 11  5 13 19  0.0000000  0 12G13G14G22G05G15G30G20G24G18G07G23G08
  19931665.604   104741664.031 8        51.494    19931670.214    81616923.077 8
        40.125                          49.000          46.000
  21199855.860   111406108.747 8         4.326    21199862.721    86810047.806 7
         3.372                          49.000          44.000
  21356801.579   112230877.826 8      1043.221    21356808.441    87452711.320 7
       812.900                          49.000          42.000
  21363727.255   112267075.826 8     -2549.337    21363734.510    87480843.103 9
     -1986.490                          50.000          56.000
  21410444.261   112512708.670 8      2353.386    21410451.730    87672303.323 7
      1833.806                          48.000          41.000
  22121750.954   116250625.801 8     -2728.255    22121761.104    90584959.869 9
     -2125.909                          47.000          51.000
  23269771.762   122283263.975 7     -3941.343    23269784.521    95285606.766 5
     -3071.166                          43.000          29.000
  23935462.092   125781729.657 6      3244.694    23935479.872    98011816.705 4
      2528.336                          38.000          24.000
  24353317.705   127977498.236 7     -1228.780    24353332.286    99722756.029 4
      -957.476                          39.000          24.000
  24551621.671   129019528.999 6     -3263.245    24551636.591   100534694.462 6
     -2542.777                          38.000          35.000
  24697520.099   129786343.699 6      3099.335    24697533.412   101132269.185 4
      2415.079                          36.000          22.000
  25048878.447   131632786.948 6     -1108.068    25048894.708   102571084.354 5
      -863.435                          35.000          30.000
 23 11  5 13 19 30.0000000  0 12G13G14G22G05G15G30G20G24G18G07G23G08
  19931410.845   104740326.428 8        36.559    19931415.795    81615880.825 8
        28.482                          49.000          46.000
  21199887.470   111406276.950 8       -16.686    21199894.671    86810178.900 7
       -13.004                          49.000          44.000
  21350898.404   112199856.392 8      1023.750    21350904.926    87428538.869 7
       797.722                          49.000          42.000
  21378328.820   112343808.776 8     -2567.310    21378336.307    87540634.909 9
     -2000.502                          49.000          55.000
  21397040.171   112442270.231 8      2341.409    21397047.676    87617416.342 7
      1824.465                          48.000          42.000
  22137348.574   116332589.722 8     -2737.165    22137358.420    90648827.723 9
     -2132.849                          47.000          51.000
  23292288.197   122401588.451 7     -3948.069    23292301.545    95377807.279 5
     -3076.403                          43.000          29.000
  23916953.769   125684465.780 6      3238.562    23916970.620    97936026.865 4
      2523.536                          38.000          24.000
  24360384.224   128014629.593 7     -1247.771    24360398.144    99751689.499 4
      -972.300                          39.000          24.000
  24570256.078   129117451.537 7     -3266.176    24570270.427   100610997.509 6
     -2545.069                          40.000          37.000
  24679848.761   129693480.006 6      3090.462    24679862.002   101059907.695 4
      2408.147                          37.000          22.000
  25055258.064   131666311.866 6     -1127.865    25055274.182   102597207.849 5
      -878.856                          36.000          30.000
 23 11  5 13 20  0.0000000  0 12G13G14G22G15G05G30G20G24G18G07G23G08
  19931237.534   104739415.499 8        23.781    19931242.358    81615171.054 8
        18.528                          49.000          46.000
  21200035.032   111407052.334 8       -35.435    21200041.894    86810783.132 7
       -27.614                          49.000          44.000
  21345101.979   112169394.587 8      1006.583    21345107.912    87404802.489 7
       784.343                          49.000          42.000
  21383700.373   112372169.974 8      2331.530    21383708.182    87562792.893 7
      1816.769                          49.000          42.000
  21393028.825   112421057.770 8     -2583.038    21393036.187    87600828.825 9
     -2012.757                          48.000          54.000
  22152992.475   116414798.207 8     -2743.836    22153002.089    90712886.145 9
     -2138.050                          47.000          51.000
  23314839.743   122520094.674 7     -3952.755    23314853.038    95470149.391 5
     -3080.056                          42.000          29.000
  23898476.020   125587364.292 6      3234.547    23898491.995    97860363.562 4
      2520.418                          38.000          23.000
  24367553.973   128052307.436 7     -1264.476    24367567.714    99781048.779 4
      -985.306                          40.000          24.000
  24588902.099   129215438.556 7     -3266.738    24588916.949   100687350.814 6
     -2545.501                          40.000          37.000
  24662226.384   129600869.272 6      3083.375    24662238.893   100987743.397 4
      2402.637                          38.000          24.000
  25061746.288   131700405.267 6     -1145.295    25061762.353   102623774.367 5
      -892.447                          36.000          30.000
 23 11  5 13 20 30.0000000  0 12G13G14G22G15G05G30G20G24G18G07G23G08
  19931138.986   104738897.598 8        10.742    19931143.614    81614767.538 8
         8.367                          49.000          46.000
  21200291.560   111408401.106 8       -54.472    21200298.422    86811834.160 7
       -42.448                          49.000          44.000
  21339405.067   112139459.408 8       989.066    21339411.339    87381476.464 7
       770.698                          49.000          43.000
  21370418.882   112302376.096 8      2321.405    21370426.673    87508408.193 7
      1808.885                          49.000          42.000
  21407820.320   112498786.590 8     -2598.843    21407826.949    87661396.650 9
     -2025.068                          49.000          53.000
  22168676.081   116497215.785 8     -2750.656    22168685.748    90777107.502 9
     -2143.363                          47.000          51.000
  23337418.898   122638745.965 7     -3957.279    23337432.067    95562604.542 5
     -3083.583                          41.000          28.000
  23880022.555   125490392.436 7      3230.209    23880038.905    97784801.306 4
      2517.038                          39.000          24.000
  24374820.554   128090496.168 7     -1281.362    24374835.403    99810806.137 4
      -998.470                          39.000          24.000
  24607553.964   129313455.144 7     -3267.657    24607568.921   100763727.153 6
     -2546.216                          40.000          36.000
  24644645.088   129508480.238 6      3075.843    24644658.204   100915751.883 4
      2396.768                          38.000          25.000
  25068335.151   131735032.413 6     -1162.988    25068351.698   102650756.851 5
      -906.240                          36.000          30.000
 23 11  5 13 21  0.0000000  0 12G13G14G22G15G05G30G20G24G18G07G23G08
  19931120.277   104738800.808 8        -3.442    19931124.941    81614692.161 8
        -2.684                          48.000          46.000
  21200662.735   111410350.859 8       -74.648    21200669.651    86813353.490 7
       -58.172                          49.000          44.000
  21333814.278   112110079.654 8       970.446    21333820.693    87358583.236 7
       756.189                          50.000          43.000
  21357201.345   112232917.810 8      2310.008    21357208.939    87454284.990 7
      1800.002                          48.000          42.000
  21422707.932   112577020.264 8     -2615.782    21422714.258    87722357.873 9
     -2038.271                          50.000          54.000
  22184404.502   116579868.443 8     -2758.643    22184414.348    90841512.049 9
     -2149.590                          47.000          51.000
  23360030.109   122757566.491 7     -3963.086    23360042.868    95655191.567 5
     -3088.108                          42.000          28.000
  23861599.342   125393578.905 6      3224.900    23861616.121    97709362.447 4
      2512.906                          38.000          25.000
  24382189.811   128129221.615 7     -1299.425    24382203.874    99840981.736 4
     -1012.545                          40.000          24.000
  24626216.497   129411527.720 7     -3269.687    24626231.864   100840147.139 6
     -2547.803                          39.000          34.000
  24627112.325   129416342.953 6      3067.386    24627124.601   100843956.493 4
      2390.168                          38.000          25.000
  25075031.139   131770219.698 6     -1181.893    25075047.989   102678175.803 5
      -920.966                          37.000          31.000
 23 11  5 13 21 30.0000000  0 12G13G14G22G15G05G30G20G24G18G23G07G08
  19931182.890   104739128.046 8       -18.008    19931187.018    81614947.186 8
       -14.033                          48.000          46.000
  21201148.040   111412904.008 8       -95.190    21201155.724    86815343.000 7
       -74.173                          49.000          44.000
  21328329.542   112081258.426 8       951.368    21328336.225    87336125.226 7
       741.323                          49.000          42.000
  21344048.582   112163799.322 8      2298.225    21344055.855    87400426.554 7
      1790.825                          49.000          42.000
  21437691.662   112655758.913 8     -2633.034    21437698.381    87783712.577 9
     -2051.711                          50.000          55.000
  22200177.453   116662757.044 8     -2766.911    22200187.495    90906100.476 8
     -2156.027                          47.000          50.000
  23382673.128   122876556.030 7     -3969.097    23382686.083    95747910.288 5
     -3092.781                          42.000          27.000
  23843206.668   125296927.180 7      3218.923    23843223.697    97634049.687 4
      2508.260                          39.000          25.000
  24389661.493   128168484.379 7     -1317.679    24389675.824    99871576.036 4
     -1026.763                          40.000          23.000
  24609627.468   129324462.503 6      3058.267    24609640.762   100772361.289 4
      2383.084                          37.000          22.000
  24644890.019   129509657.635 6     -3271.915    24644905.690   100916611.782 5
     -2549.534                          37.000          32.000
  25081834.751   131805968.998 6     -1200.935    25081850.672   102706032.610 5
      -935.797                          36.000          31.000
 23 11  5 13 22  0.0000000  0 12G13G14G22G15G05G30G20G24G18G23G07G08
  19931323.359   104739866.931 8       -30.415    19931327.576    81615522.966 8
       -23.702                          48.000          46.000
  21201746.635   111416047.859 8      -113.556    21201753.800    86817792.783 7
       -88.484                          48.000          44.000
  21322949.537   112052984.628 8       934.424    21322955.505    87314093.782 7
       728.112                          49.000          42.000
  21330958.022   112095010.246 8      2288.570    21330965.688    87346824.814 7
      1783.289                          48.000          42.000
  21452768.239   112734986.972 8     -2647.976    21452775.440    87845448.633 9
     -2063.360                          49.000          55.000
  22215993.039   116745867.381 8     -2772.918    22216003.207    90970861.686 8
     -2160.711                          47.000          50.000
  23405345.505   122995699.017 7     -3972.837    23405358.817    95840748.602 5
     -3095.711                          42.000          28.000
  23824842.494   125200425.710 6      3215.352    23824859.899    97558854.018 4
      2505.461                          38.000          26.000
  24397233.384   128208270.147 7     -1333.740    24397247.018    99902577.840 4
     -1039.274                          40.000          24.000
  24592190.286   129232829.184 6      3051.313    24592203.544   100700958.801 4
      2377.623                          38.000          24.000
  24663572.458   129607830.831 7     -3272.128    24663587.807   100993110.156 6
     -2549.715                          39.000          33.000
  25088740.914   131842266.513 6     -1217.862    25088757.407   102734316.654 5
      -948.999                          37.000          31.000
 23 11  5 13 22 30.0000000  0 12G13G14G22G15G05G30G20G24G18G23G07G08
  19931543.040   104741021.103 8       -44.141    19931547.240    81616422.341 8
       -34.394                          49.000          46.000
  21202457.947   111419785.196 8      -133.257    21202464.969    86820705.015 7
      -103.837                          49.000          44.000
  21317674.190   112025262.090 8       916.109    21317679.891    87292491.893 7
       713.850                          49.000          42.000
  21317931.361   112026555.272 8      2277.471    21317939.277    87293483.410 7
      1774.651                          49.000          42.000
  21467938.146   112814705.595 8     -2664.222    21467945.597    87907566.928 9
     -2076.013                          49.000          55.000
  22231850.868   116829200.649 8     -2780.288    22231861.053    91035796.622 8
     -2166.456                          47.000          50.000
  23428047.580   123114995.426 7     -3977.799    23428060.339    95933706.463 5
     -3099.573                          42.000          27.000
  23806508.555   125104078.475 6      3210.279    23806525.227    97483778.547 4
      2501.495                          37.000          25.000
  24404903.608   128248579.873 7     -1351.210    24404917.368    99933987.954 4
     -1052.878                          41.000          23.000
  24574801.350   129141448.095 6      3043.124    24574813.590   100629752.858 4
      2371.270                          37.000          23.000
  24682263.152   129706049.364 7     -3273.531    24682277.965   101069643.941 6
     -2550.800                          40.000          34.000
  25095752.486   131879114.068 6     -1236.210    25095768.783   102763029.321 5
      -963.292                          37.000          32.000
 23 11  5 13 23  0.0000000  0 12G13G14G15G22G05G30G20G24G18G23G07G08
  19931840.435   104742583.946 8       -58.994    19931844.759    81617640.147 8
       -45.963                          49.000          46.000
  21203280.422   111424109.041 8      -154.071    21203287.355    86824074.256 7
      -120.055                          49.000          44.000
  21304967.421   111958429.235 8      2265.237    21304975.069    87240398.317 7
      1765.117                          49.000          43.000
  21312502.037   111998084.675 8       896.683    21312508.327    87271314.783 7
       698.712                          50.000          43.000
  21483199.471   112894905.232 8     -2681.444    21483207.190    87970060.038 9
     -2089.432                          48.000          54.000
  22247749.938   116912748.348 8     -2788.549    22247759.588    91100898.657 8
     -2172.890                          47.000          50.000
  23450776.245   123234435.103 7     -3983.815    23450789.093    96026775.964 5
     -3104.267                          42.000          27.000
  23788202.366   125007879.550 6      3204.033    23788219.163    97408818.671 4
      2496.636                          37.000          26.000
  24412672.827   128289404.767 7     -1369.403    24412686.622    99965799.500 4
     -1067.075                          40.000          23.000
  24557459.534   129050314.899 6      3033.578    24557471.274   100558740.001 4
      2363.825                          38.000          24.000
  24700960.672   129804305.173 7     -3275.953    24700975.450   101146206.731 6
     -2552.683                          40.000          36.000
  25102866.752   131916503.801 6     -1255.471    25102882.977   102792164.467 5
      -978.302                          37.000          31.000
 23 11  5 13 23 30.0000000  0 12G13G14G15G22G05G30G20G24G18G23G07G08
  19932213.790   104744546.029 8       -72.805    19932218.204    81619169.055 8
       -56.733                          49.000          46.000
  21204213.239   111429009.626 8      -173.651    21204220.029    86827892.898 7
      -135.311                          49.000          44.000
  21292064.521   111890624.499 8      2254.113    21292072.008    87187563.588 7
      1756.446                          49.000          43.000
  21307432.328   111971443.672 8       878.438    21307438.385    87250555.656 7
       684.491                          50.000          43.000
  21498550.177   112975573.478 8     -2697.408    21498557.253    88032918.310 9
     -2101.876                          49.000          53.000
  22263686.748   116996499.211 8     -2795.727    22263697.041    91166159.012 8
     -2178.486                          47.000          50.000
  23473529.605   123354005.684 7     -3988.521    23473542.988    96119947.445 4
     -3107.936                          42.000          26.000
  23769922.141   124911820.422 6      3199.020    23769939.635    97333967.715 4
      2492.729                          38.000          26.000
  24420536.645   128330733.193 7     -1386.708    24420550.904    99998003.379 4
     -1080.545                          41.000          23.000
  24540162.945   128959422.648 7      3025.021    24540175.668   100487914.980 4
      2357.154                          39.000          25.000
  24719663.249   129902587.257 7     -3277.194    24719678.188   101222789.976 6
     -2553.653                          40.000          36.000
  25110082.603   131954425.032 6     -1273.440    25110098.828   102821713.776 5
      -992.295                          37.000          31.000
 23 11  5 13 24  0.0000000  0 12G13G14G15G22G05G30G20G24G18G23G07G08
  19932664.197   104746912.416 8       -85.829    19932668.592    81621012.997 8
       -66.878                          49.000          47.000
  21205256.647   111434491.298 8      -192.622    21205262.812    86832164.327 7
      -150.095                          49.000          44.000
  21279223.895   111823147.565 8      2243.539    21279231.382    87134984.283 7
      1748.209                          49.000          43.000
  21302466.061   111945344.433 8       860.739    21302471.833    87230218.680 7
       670.705                          49.000          42.000
  21513990.907   113056712.552 8     -2712.651    21513996.732    88096143.486 9
     -2113.752                          50.000          53.000
  22279663.477   117080456.142 8     -2802.147    22279673.734    91231579.934 8
     -2183.489                          47.000          50.000
  23496308.392   123473708.634 7     -3992.471    23496322.276    96213222.071 4
     -3111.003                          42.000          26.000
  23751668.917   124815906.637 6      3194.360    23751687.286    97259230.012 4
      2489.113                          38.000          26.000
  24428497.777   128372567.840 7     -1403.066    24428512.358   100030601.689 4
     -1093.306                          42.000          24.000
  24522913.638   128868778.428 7      3016.998    24522926.986   100417283.210 4
      2350.915                          40.000          25.000
  24738371.277   130000899.223 7     -3277.890    24738387.001   101299396.495 6
     -2554.190                          39.000          35.000
  25117400.147   131992882.044 6     -1291.182    25117415.907   102851680.615 5
     -1006.128                          38.000          30.000
 23 11  5 13 24 30.0000000  0 12G13G14G15G22G05G30G20G24G18G23G07G08
  19933190.618   104749679.501 8       -98.175    19933195.264    81623169.172 8
       -76.502                          49.000          46.000
  21206409.234   111440549.934 8      -210.786    21206415.810    86836885.328 7
      -164.249                          49.000          43.000
  21266445.417   111755996.269 8      2233.685    21266452.940    87082658.721 7
      1740.533                          49.000          42.000
  21297601.845   111919783.999 8       843.818    21297607.760    87210301.557 7
       657.516                          49.000          41.000
  21529519.552   113138315.989 8     -2727.072    21529525.574    88159730.508 9
     -2124.988                          50.000          52.000
  22295677.982   117164613.614 8     -2807.854    22295688.346    91297157.109 8
     -2187.937                          47.000          49.000
  23519111.659   123593537.108 7     -3995.577    23519125.472    96306594.496 4
     -3113.427                          42.000          26.000
  23733444.997   124720135.326 6      3190.841    23733461.990    97184603.346 4
      2486.357                          37.000          25.000
  24436554.276   128414902.816 7     -1418.662    24436568.089   100063589.863 4
     -1105.462                          41.000          22.000
  24505711.827   128778380.966 7      3009.823    24505724.657   100346843.739 4
      2345.316                          40.000          23.000
  24757084.486   130099236.072 6     -3277.458    24757100.246   101376022.403 6
     -2553.855                          37.000          33.000
  25124820.223   132031868.729 6     -1307.662    25124834.661   102882060.171 5
     -1018.962                          36.000          28.000
 23 11  5 13 25  0.0000000  0 12G13G14G15G22G05G30G20G24G18G23G07G08
  19933796.860   104752865.622 8      -112.464    19933801.613    81625651.864 8
       -87.628                          49.000          45.000
  21207675.094   111447203.373 8      -230.995    21207682.349    86842069.810 7
      -179.990                          49.000          43.000
  21253732.590   111689190.458 8      2221.759    21253740.113    87030602.364 7
      1731.243                          48.000          41.000
  21292844.039   111894781.140 8       824.829    21292849.936    87190818.910 7
       642.729                          49.000          41.000
  21545139.616   113220399.853 8     -2743.402    21545146.424    88223691.872 9
     -2137.703                          49.000          52.000
  22311733.978   117248987.959 8     -2815.353    22311744.520    91362903.260 8
     -2193.776                          47.000          49.000
  23541941.338   123713505.943 7     -4000.535    23541955.418    96400076.310 4
     -3117.288                          42.000          26.000
  23715251.258   124624525.544 6      3184.779    23715268.019    97110102.530 4
      2481.638                          37.000          25.000
  24444709.305   128457754.173 7     -1436.189    24444722.528   100096980.423 4
     -1119.092                          41.000          23.000
  24488560.048   128688250.721 7      3000.592    24488572.610   100276612.478 4
      2338.131                          40.000          22.000
  24775805.289   130197614.544 6     -3279.410    24775821.854   101452680.749 5
     -2555.366                          37.000          32.000
  25132343.439   132071402.599 6     -1326.305    25132357.841   102912866.153 5
     -1033.493                          34.000          27.000
 23 11  5 13 25 30.0000000  0 12G13G14G15G22G05G30G20G24G18G23G07G08
  19934477.849   104756443.915 8      -126.778    19934482.530    81628440.146 8
       -98.792                          49.000          45.000
  21209049.615   111454424.235 8      -251.072    21209056.673    86847696.444 7
      -195.645                          49.000          43.000
  21241080.893   111622705.148 8      2209.959    21241088.094    86978795.745 7
      1722.040                          49.000          41.000
  21288187.140   111870309.612 8       805.981    21288193.036    87171750.286 7
       628.035                          50.000          41.000
  21560844.986   113302933.562 8     -2759.580    21560852.902    88288003.741 9
     -2150.320                          49.000          53.000
  22327825.676   117333550.335 8     -2822.775    22327835.987    91428795.913 8
     -2199.566                          47.000          49.000
  23564792.012   123833585.039 7     -4005.412    23564805.789    96493644.043 4
     -3121.084                          43.000          26.000
  23697082.589   124529051.002 6      3179.171    23697099.565    97035707.099 4
      2477.258                          38.000          25.000
  24452955.645   128501092.649 7     -1453.626    24452970.262   100130750.531 4
     -1132.691                          41.000          22.000
  24471455.498   128598363.023 7      2991.266    24471467.649   100206570.221 4
      2330.847                          39.000          23.000
  24794528.237   130296006.741 6     -3280.842    24794545.660   101529349.794 5
     -2556.503                          38.000          31.000
  25139963.916   132111454.862 6     -1344.732    25139979.784   102944076.102 5
     -1047.856                          36.000          28.000
 23 11  5 13 26  0.0000000  0 12G13G14G15G22G05G30G20G24G23G18G07G08
  19935236.317   104760428.776 8      -140.884    19935240.695    81631545.241 8
      -109.780                          48.000          45.000
  21210534.120   111462226.003 8      -271.041    21210541.482    86853775.737 7
      -211.200                          49.000          42.000
  21228492.738   111556555.670 8      2198.045    21228500.189    86927250.807 7
      1712.763                          49.000          41.000
  21283634.130   111846384.083 8       787.101    21283640.063    87153107.101 7
       613.324                          49.000          41.000
  21576638.593   113385928.761 8     -2775.454    21576646.563    88352675.201 9
     -2162.684                          49.000          53.000
  22343955.596   117418313.025 8     -2830.013    22343965.800    91494844.644 8
     -2205.198                          47.000          48.000
  23587665.594   123953785.367 7     -4009.951    23587679.246    96587306.250 4
     -3124.618                          42.000          25.000
  23678942.958   124433726.678 6      3173.673    23678959.612    96961428.722 4
      2472.979                          38.000          25.000
  24454399.247   128508734.357 7      2981.992    24454412.095   100136729.828 4
      2323.626                          40.000          23.000
  24461297.691   128544930.121 7     -1470.834    24461311.718   100164909.477 4
     -1146.091                          41.000          22.000
  24813256.617   130394425.089 7     -3282.374    24813273.575   101606039.268 5
     -2557.682                          39.000          32.000
  25147686.139   132152038.530 6     -1362.952    25147702.311   102975700.090 5
     -1062.053                          37.000          29.000
 23 11  5 13 26 30.0000000  0 12G13G14G15G22G05G30G20G24G23G18G07G08
  19936079.163   104764858.328 8      -154.795    19936083.327    81634996.853 8
      -120.621                          49.000          45.000
  21212136.560   111470646.417 8      -290.686    21212143.994    86860337.108 7
      -226.509                          49.000          42.000
  21215976.363   111490781.910 8      2186.436    21215983.761    86875998.627 7
      1703.715                          50.000          41.000
  21279192.320   111823043.275 8       768.529    21279198.414    87134919.543 7
       598.851                          50.000          41.000
  21592527.139   113469420.949 8     -2791.047    21592534.519    88417733.934 9
     -2174.835                          50.000          53.000
  22360130.600   117503312.308 8     -2836.974    22360140.678    91561077.712 8
     -2210.624                          48.000          48.000
  23610568.786   124074141.622 7     -4014.172    23610582.688    96681089.972 4
     -3127.902                          42.000          24.000
  23660839.225   124338591.523 7      3168.140    23660855.361    96887297.730 4
      2468.678                          39.000          26.000
  24437400.249   128419405.249 7      2972.831    24437412.740   100067122.858 4
      2316.495                          40.000          22.000
  24469741.912   128589302.526 7     -1487.683    24469755.653   100199485.243 4
     -1159.222                          41.000          23.000
  24831997.452   130492906.393 7     -3283.591    24832013.784   101682777.795 5
     -2558.629                          40.000          32.000
  25155517.381   132193190.366 6     -1380.836    25155533.053   103007766.732 5
     -1075.987                          36.000          29.000
 23 11  5 13 27  0.0000000  0 12G13G15G14G22G05G30G20G24G23G18G07G08
  19936994.433   104769668.459 8      -167.965    19936998.757    81638745.024 8
      -130.884                          49.000          45.000
  21203519.867   111425321.822 8      2175.490    21203527.265    86824990.865 7
      1695.180                          49.000          41.000
  21213844.231   111479620.894 8      -309.614    21213851.629    86867330.229 7
      -241.257                          49.000          42.000
  21274849.755   111800223.493 8       750.693    21274855.759    87117137.965 7
       584.949                          49.000          41.000
  21608497.042   113553343.363 8     -2805.807    21608504.100    88483127.929 9
     -2186.345                          50.000          53.000
  22376338.072   117588482.390 8     -2843.141    22376347.972    91627443.870 8
     -2215.430                          47.000          48.000
  23633489.328   124194586.803 7     -4017.596    23633503.677    96774942.971 4
     -3130.581                          41.000          24.000
  23642759.026   124243582.317 7      3163.590    23642775.537    96813264.877 5
      2465.118                          40.000          27.000
  24420446.478   128330313.919 7      2964.335    24420459.647    99997701.148 4
      2309.862                          40.000          23.000
  24478274.907   128634143.492 7     -1503.695    24478288.988   100234426.122 4
     -1171.697                          41.000          23.000
  24850737.947   130591385.411 7     -3284.004    24850753.761   101759514.555 6
     -2558.967                          39.000          33.000
  25163443.330   132234844.383 6     -1398.048    25163458.983   103040224.648 5
     -1089.397                          37.000          30.000
 23 11  5 13 27 30.0000000  0 12G13G15G14G22G05G30G24G20G23G18G07G08
  19937988.218   104774891.125 8      -180.775    19937992.632    81642814.658 8
      -140.865                          49.000          45.000
  21191129.075   111360208.695 8      2164.864    21191136.455    86774253.473 7
      1686.906                          49.000          42.000
  21215663.530   111489180.822 8      -328.197    21215670.749    86874779.563 7
      -255.740                          48.000          42.000
  21270612.580   111777957.018 8       733.218    21270618.781    87099787.534 7
       571.340                          49.000          41.000
  21624554.289   113637724.774 8     -2820.106    21624560.776    88548879.591 9
     -2197.479                          49.000          52.000
  22392583.784   117673853.462 8     -2848.816    22392593.808    91693966.637 8
     -2219.853                          47.000          48.000
  23624709.991   124148731.862 7      3159.411    23624726.127    96739355.727 5
      2461.866                          40.000          27.000
  23656431.849   124315149.676 7     -4020.522    23656446.752    96868887.669 4
     -3132.867                          40.000          23.000
  24403544.848   128241494.876 7      2956.312    24403557.088    99928491.607 4
      2303.609                          40.000          22.000
  24486902.875   128679482.754 7     -1519.437    24486916.599   100269755.275 4
     -1183.959                          40.000          23.000
  24869483.571   130689892.746 7     -3283.718    24869499.939   101836273.397 6
     -2558.735                          39.000          33.000
  25171470.827   132277031.897 6     -1414.882    25171486.087   103073098.319 5
     -1102.511                          37.000          30.000
 23 11  5 13 28  0.0000000  0 12G13G15G14G22G05G30G24G20G23G18G07G08
  19939064.827   104780549.490 8      -194.535    19939069.437    81647223.800 8
      -151.594                          49.000          45.000
  21178808.920   111295466.408 8      2153.202    21178816.050    86723805.038 7
      1677.809                          50.000          42.000
  21217598.120   111499347.979 8      -347.692    21217605.178    86882702.066 7
      -270.932                          49.000          42.000
  21266485.140   111756266.887 8       714.678    21266491.251    87082886.200 7
       556.885                          50.000          41.000
  21640702.400   113722584.650 8     -2835.291    21640709.244    88615004.081 9
     -2209.319                          49.000          51.000
  22408871.756   117759445.979 8     -2855.399    22408881.762    91760661.967 8
     -2224.981                          47.000          48.000
  23606694.424   124054063.225 7      3153.840    23606711.203    96665588.237 5
      2457.526                          40.000          28.000
  23679400.334   124435849.311 7     -4024.240    23679415.933    96962938.915 4
     -3135.762                          40.000          23.000
  24386699.059   128152972.527 7      2947.125    24386711.782    99859513.244 4
      2296.463                          40.000          22.000
  24495629.266   128725340.186 7     -1535.906    24495644.080   100305488.216 4
     -1196.814                          41.000          23.000
  24888237.664   130788449.357 7     -3284.927    24888254.872   101913070.632 5
     -2559.687                          40.000          32.000
  25179604.807   132319773.512 6     -1432.575    25179619.191   103106403.734 5
     -1116.301                          37.000          30.000
 23 11  5 13 28 30.0000000  0 12G13G15G14G22G05G30G24G20G23G18G07G08
  19940221.364   104786627.766 8      -208.674    19940226.153    81651960.147 8
      -162.605                          49.000          45.000
  21166556.774   111231081.499 8      2141.128    21166563.994    86673635.092 7
      1668.404                          49.000          42.000
  21219645.177   111510106.259 8      -367.542    21219652.039    86891085.187 7
      -286.397                          49.000          42.000
  21262464.431   111735138.278 8       695.812    21262470.381    87066422.412 7
       542.187                          49.000          41.000
  21656938.480   113807905.058 8     -2850.736    21656945.985    88681487.406 9
     -2221.349                          49.000          52.000
  22425198.378   117845242.721 8     -2862.364    22425208.510    91827516.455 8
     -2230.410                          47.000          48.000
  23588711.254   123959561.873 7      3148.034    23588727.800    96591951.096 5
      2453.000                          41.000          28.000
  23702391.566   124556667.138 7     -4028.360    23702406.683    97057082.268 4
     -3138.974                          40.000          23.000
  24369908.253   128064734.068 7      2937.393    24369920.815    99790756.077 4
      2288.875                          40.000          22.000
  24504450.702   128771698.200 7     -1552.613    24504465.605   100341611.216 4
     -1209.825                          40.000          23.000
  24906998.834   130887038.898 7     -3285.860    24907015.917   101989893.530 5
     -2560.411                          39.000          32.000
  25187839.924   132363052.227 6     -1450.667    25187854.416   103140127.713 5
     -1130.396                          36.000          30.000
 23 11  5 13 29  0.0000000  0 12G13G15G14G22G05G30G24G20G23G18G07G08
  19941459.580   104793133.068 8      -223.164    19941464.047    81657029.243 8
      -173.891                          49.000          45.000
  21154374.479   111167063.094 8      2128.644    21154381.769    86623750.727 7
      1658.689                          49.000          42.000
  21221806.489   111521462.390 8      -387.691    21221813.244    86899934.162 7
      -302.095                          49.000          42.000
  21258551.990   111714578.936 8       676.621    21258557.923    87050402.212 7
       527.245                          50.000          41.000
  21673263.030   113893690.556 8     -2866.422    21673270.839    88748333.130 9
     -2233.562                          49.000          53.000
  22441565.009   117931249.160 8     -2869.616    22441575.570    91894534.359 8
     -2236.058                          47.000          48.000
  23570761.391   123865235.856 7      3142.067    23570777.670    96518450.581 5
      2448.358                          41.000          28.000
  23725406.099   124677607.119 7     -4032.586    23725420.841    97151320.810 4
     -3142.242                          41.000          24.000
  24353173.073   127976789.109 7      2927.341    24353185.885    99722227.650 4
      2281.071                          41.000          23.000
  24513368.614   128818561.641 7     -1569.785    24513383.373   100378128.073 4
     -1223.181                          41.000          24.000
  24925767.562   130985667.024 6     -3287.631    24925783.787   102066746.533 5
     -2561.775                          37.000          31.000
  25196178.718   132406874.050 6     -1468.954    25196193.603   103174274.869 5
     -1144.639                          35.000          29.000
 23 11  5 13 29 30.0000000  0 12G13G15G14G22G05G30G24G20G23G18G07G08
  19942773.471   104800038.087 8      -237.928    19942778.153    81662409.807 8
      -185.389                          48.000          45.000
  21142256.779   111103384.736 8      2115.783    21142264.177    86574131.337 7
      1648.665                          49.000          42.000
  21224075.444   111533388.085 8      -408.094    21224082.556    86909226.936 7
      -317.991                          49.000          42.000
  21254742.601   111694561.573 8       657.101    21254748.676    87034804.331 7
       512.031                          49.000          41.000
  21689670.617   113979910.429 8     -2882.314    21689678.033    88815517.327 9
     -2245.948                          49.000          53.000
  22457965.645   118017435.900 8     -2876.943    22457976.188    91961692.770 8
     -2241.766                          46.000          47.000
  23552839.583   123771058.390 7      3135.805    23552856.076    96445065.810 5
      2443.479                          41.000          27.000
  23748437.965   124798638.371 7     -4036.966    23748452.153    97245630.481 4
     -3145.667                          41.000          23.000
  24336488.534   127889112.286 7      2916.928    24336500.756    99653908.104 4
      2272.945                          40.000          22.000
  24522376.996   128865900.468 7     -1586.971    24522391.434   100415015.356 4
     -1236.600                          41.000          24.000
  24944538.185   131084304.963 6     -3289.268    24944553.892   102143607.198 5
     -2563.052                          36.000          29.000
  25204614.881   132451208.956 6     -1487.475    25204630.463   103208821.873 5
     -1159.077                          36.000          30.000
 23 11  5 13 30  0.0000000  0 12G13G15G14G22G05G30G24G20G23G18G07G08
  19944167.595   104807364.160 8      -251.894    19944172.133    81668118.465 8
      -196.280                          49.000          45.000
  21130208.180   111040069.219 8      2103.780    21130215.345    86524794.685 7
      1639.304                          50.000          42.000
  21226457.188   111545903.628 8      -427.684    21226464.175    86918979.330 7
      -333.261                          49.000          42.000
  21251040.908   111675107.492 8       638.444    21251046.697    87019645.380 7
       497.485                          49.000          41.000
  21706163.707   114066582.781 8     -2897.175    21706171.355    88883054.109 9
     -2257.535                          50.000          53.000
  22474404.628   118103822.100 8     -2883.526    22474415.082    92029006.601 8
     -2246.899                          47.000          48.000
  23534950.886   123677051.258 7      3130.098    23534966.790    96371813.771 4
      2439.036                          40.000          26.000
  23771490.523   124919779.051 7     -4040.488    23771504.997    97340025.423 4
     -3148.417                          41.000          24.000
  24319859.514   127801727.118 7      2907.274    24319870.968    99585815.857 4
      2265.406                          40.000          21.000
  24531479.494   128913733.274 7     -1603.322    24531493.646   100452287.554 4
     -1249.336                          40.000          23.000
  24963314.954   131182972.381 6     -3290.186    24963330.000   102220490.820 5
     -2563.785                          38.000          31.000
  25213152.986   132496077.567 6     -1505.023    25213167.978   103243784.764 5
     -1172.755                          36.000          28.000
 23 11  5 13 30 30.0000000  0 12G13G15G14G22G05G30G24G20G23G18G07G08
  19945644.362   104815124.682 8      -266.646    19945648.651    81674165.641 8
      -207.772                          49.000          45.000
  21118231.306   110977131.704 8      2090.912    21118238.508    86475752.580 7
      1629.289                          49.000          42.000
  21228953.187   111559021.842 8      -448.000    21228960.370    86929201.331 7
      -349.088                          49.000          42.000
  21247448.662   111656230.663 8       618.853    21247454.630    87004936.234 7
       482.231                          50.000          41.000
  21722744.856   114153718.038 8     -2912.916    21722752.540    88950951.592 9
     -2269.788                          49.000          52.000
  22490883.441   118190419.486 8     -2890.813    22490893.948    92096484.997 8
     -2252.575                          47.000          48.000
  23517096.802   123583228.708 7      3123.507    23517112.420    96298705.553 4
      2433.905                          40.000          26.000
  23794565.704   125041039.114 7     -4044.638    23794580.732    97434513.395 4
     -3151.648                          41.000          23.000
  24303288.836   127714649.198 7      2896.687    24303301.630    99517963.003 4
      2257.171                          40.000          24.000
  24540677.627   128962071.258 7     -1620.533    24540692.440   100489953.382 4
     -1262.726                          40.000          23.000
  24982098.049   131281681.269 7     -3291.648    24982113.774   102297406.794 6
     -2564.907                          40.000          33.000
  25221793.516   132541491.220 6     -1523.440    25221809.866   103279172.385 5
     -1187.104                          36.000          29.000
